~VERSION INFORMATION
 VERS.                 2.0:   CWLS LOG ASCII STANDARD -VERSION 2.0
 WRAP.                  NO:   ONE LINE PER DEPTH STEP
~WELL INFORMATION BLOCK
#MNEM.UNIT           DATA                    DESCRIPTION OF MNEMONIC
#---------    -------------------            -------------------------------
# Generated from Intellog Unique Number	CS_73_76/WELL/1034
WELL.         ALLIED ROXANNA MINERALS LT     : Well_name    - WELL
LOC .         00/06-08-075-16W4/0            : Location     - LOCATION
UWI .         00/06-08-075-16W4/0            : Uwi          - UNIQUE WELL ID
ENTR.         SP                             : Entered      - ENTERED BY
SRVC.         SCHLUMBERGER                   : Scn          - SERVICE COMPANY
STRT.M        323.088                        : top_depth    - START DEPTH
STOP.M        542.338                        : bot_depth    - STOP DEPTH
STEP.M        0.25                           : increment    - STEP LENGTH
 NULL. -999.2500:NULL Value
~CURVE INFORMATION BLOCK
#MNEM UNIT       ERCB CURVE CODE    CURVE DESCRIPTION
#-----------   ------------------   ----------------------------------
DEPT.M        00 001 00 00         : DEPTH        - DEPTH
GR  .API      00 310 00 00         : GR           - GAMMA RAY
DPHI.V/V      00 890 00 00         : PHID         - DENSITY POROSITY (SANDSTONE)
NPHI.V/V      00 330 00 00         : PHIN         - NEUTRON POROSITY (SANDSTONE)
ILD .OHMM     00 120 00 00         : RESD         - DEEP RESISTIVITY (DIL)
~PARAMETER INFORMATION
#MNEM.UNIT           DATA             DESCRIPTION OF MNEMONIC
#---------         -----------     ------------------------------
GL  .M        675.437              : gl           - GROUND LEVEL ELEVATION
EREF.M        678.485              : kb           - ELEVATION OF DEPTH REFERENCE
DATM.M        675.437              : datum        - DATUM ELEVATION
TDD .M        554.736              : tdd          - TOTAL DEPTH DRILLER
RUN .         ONE                  : Run          - RUN NUMBER
ENG .         BILL                 : Engineer     - RECORDING ENGINEER
WIT .         JIM                  : Witness      - WITNESSED BY
MUD .         GEL                  : Mud_type     - MUD TYPE
MATR.         SANDSTONE            : Logunit      - NEUTRON MATRIX
TMAX.C        22.7778              : BHT          - MAXIMUM RECORDED TEMPERATURE
BHTD.M        554.736              : BHTDEP       - MAXIMUM RECORDED TEMPERATURE
MATR.         1                    : LOGUNIT      - NEUTRON MATRIX
RMT .C        25                   : MDTP         - TEMPERATURE OF MUD
NEUT.         1                    : NEUTRON      - NEUTRON TYPE
RESI.         0                    : RESIST       - RESISTIVITY TYPE
RMC .OHMM     0.25                 : RMC          - RESISTIVITY OF MUD CAKE
RMF .OHMM     0.25                 : RMF          - RESISTIVITY OF MUD FILTRATE
SUFT.C        15                   : SUFT         - SURFACE TEMPERATURE
~A  DEPTH       GR     PHID     PHIN     RESD
# ...
  497.088   80.474    0.144    0.447    4.332
  497.338   76.045    0.128    0.374    4.451
  497.588   81.110    0.106    0.414    4.499
  497.838   86.410    0.151    0.440    4.355
  498.088   87.679    0.185    0.477    4.451
  498.338   86.137    0.180    0.473    4.785
  498.588   83.908    0.177    0.471    5.412
  498.838   80.869    0.165    0.441    6.209
  499.088   77.648    0.150    0.340    6.709
  499.338   70.904    0.100    0.313    7.278
  499.588   72.536    0.096    0.335    7.517
  499.838   77.134    0.146    0.371    7.553
  500.088   78.643    0.181    0.386    7.114
  500.338   77.491    0.187    0.404    6.783
  500.588   80.367    0.154    0.393    6.604
  500.838   81.888    0.127    0.378    6.296
  501.088   84.505    0.108    0.396    5.854
  501.338   87.213    0.159    0.438    5.054
  501.588   92.094    0.164    0.476    4.774
  501.838   93.920    0.179    0.498    4.649
  502.088   93.283    0.189    0.512    4.556
  502.338   91.017    0.173    0.503    4.463
  502.588   87.851    0.164    0.460    4.328
  502.838   89.723    0.173    0.434    4.111
  503.088   93.652    0.151    0.443    3.753
  503.338   96.747    0.163    0.469    3.571
  503.588   98.495    0.180    0.480    3.325
  503.838   99.412    0.172    0.493    3.200
  504.088   98.681    0.174    0.516    3.122
  504.338   97.579    0.176    0.526    3.034
  504.588  100.403    0.179    0.512    2.963
  504.838  103.410    0.205    0.508    2.965
  505.088  105.323    0.213    0.525    2.865
  505.338  104.918    0.206    0.549    2.947
  505.588  102.193    0.195    0.557    3.021
  505.838  101.711    0.192    0.543    3.209
  506.088  101.774    0.180    0.542    3.864
  506.338   99.927    0.162    0.554    4.506
  506.588   99.295    0.161    0.551    4.935
  506.838   99.915    0.142    0.506    5.177
  507.088   98.725    0.126    0.470    5.402
  507.338   96.343    0.119    0.421    5.874
  507.588   92.151    0.114    0.397    6.010
  507.838   94.430    0.137    0.403    6.033
  508.088  100.472    0.187    0.396    6.099
  508.338  106.127    0.184    0.388    6.322
  508.588  110.090    0.186    0.381    6.449
  508.838  114.096    0.183    0.401    6.384
  509.088  117.276    0.177    0.394    6.227
  509.338  116.837    0.153    0.405    6.275
  509.588  112.185    0.152    0.414    6.432
  509.838  112.416    0.159    0.429    7.371
  510.088  115.229    0.142    0.453    9.431
  510.338  114.235    0.172    0.484   11.342
  510.588  104.833    0.217    0.479   13.562
  510.838   94.411    0.224    0.426   14.817
  511.088   84.811    0.251    0.397   14.713
  511.338   86.771    0.251    0.373   13.618
  511.588   91.881    0.236    0.368   12.223
  511.838   94.333    0.215    0.379   10.503
  512.088   97.330    0.198    0.386    8.992
  512.338   97.830    0.193    0.394    8.666
  512.588   96.736    0.194    0.393    8.521
  512.838   94.723    0.197    0.392    8.476
  513.088   92.804    0.210    0.390    8.599
  513.338   91.341    0.215    0.388    8.828
  513.588   92.963    0.201    0.388    8.866
  513.838   89.575    0.192    0.376    8.773
  514.088   89.394    0.189    0.368    8.597
  514.338   94.982    0.187    0.358    8.326
  514.588   98.683    0.174    0.359    8.054
  514.838  100.782    0.170    0.369    8.126
  515.088  101.288    0.164    0.378    8.578
  515.338   98.717    0.142    0.391    9.291
  515.588   88.999    0.129    0.402    9.827
  515.838   70.459    0.120    0.373   10.148
  516.088   71.605    0.168    0.326   10.318
  516.338   74.883    0.182    0.316   10.282
  516.588   78.846    0.164    0.334    9.969
  516.838   84.524    0.158    0.365    9.702
  517.088   87.374    0.185    0.382    9.495
  517.338   83.674    0.197    0.379    9.364
  517.588   84.166    0.184    0.351    9.240
  517.838   88.186    0.164    0.338    9.241
  518.088   91.977    0.153    0.342    9.389
  518.338   87.215    0.151    0.362    9.749
  518.588   79.175    0.164    0.378   10.132
  518.838   74.293    0.169    0.389   10.209
  519.088   71.747    0.195    0.375    8.706
  519.338   74.179    0.217    0.372    6.725
  519.588   77.332    0.227    0.376    5.575
  519.838   82.949    0.214    0.405    4.876
  520.088   88.224    0.177    0.438    4.569
  520.338   94.428    0.130    0.479    4.599
  520.588   99.536    0.085    0.525    4.913
  520.838  103.695    0.064    0.565    5.592
  521.088  103.235    0.074    0.496    6.020
  521.338  103.767    0.126    0.466    5.342
  521.588  104.660    0.155    0.411    6.732
  521.838  102.508    0.137    0.378    8.071
  522.088   98.697    0.138    0.376   11.317
  522.338   88.734    0.155    0.370   15.688
  522.588   68.436    0.172    0.358   22.358
  522.838   51.977    0.185    0.338   27.266
  523.088   45.836    0.309    0.314   29.158
  523.338   44.607    0.322    0.313   25.745
  523.588   44.583    0.306    0.331   20.870
  523.838   47.643    0.275    0.357   16.389
  524.088   56.324    0.245    0.364   13.693
  524.338   69.852    0.206    0.356   11.289
  524.588   77.362    0.171    0.366    9.651
  524.838   82.071    0.157    0.379    9.735
  525.088   78.739    0.157    0.383    9.954
  525.338   76.853    0.181    0.381   10.256
  525.588   79.241    0.209    0.370   10.602
  525.838   81.274    0.212    0.357   10.791
  526.088   80.381    0.212    0.356   11.029
  526.338   76.507    0.224    0.374   11.295
  526.588   71.827    0.234    0.393   11.442
  526.838   68.971    0.255    0.411   11.525
  527.088   73.466    0.270    0.433   10.792
  527.338   80.757    0.262    0.425   10.263
  527.588   85.590    0.249    0.394    9.872
  527.838   90.367    0.234    0.375    9.634
  528.088   93.509    0.224    0.368    9.510
  528.338   93.611    0.209    0.366    9.181
  528.588   90.252    0.208    0.376    8.904
  528.838   85.519    0.221    0.388    8.476
  529.088   84.243    0.236    0.400    8.335
  529.338   91.339    0.250    0.414    8.288
  529.588  102.571    0.247    0.437    7.932
  529.838  111.686    0.249    0.514    7.799
  530.088  113.456    0.155    0.524    7.845
  530.338  110.290    0.135    0.341    7.992
  530.588  108.411    0.131    0.349    7.832
  530.838  107.253    0.131    0.352    7.669
  531.088  102.832    0.131    0.354    7.743
  531.338   96.838    0.151    0.357    7.817
  531.588   91.724    0.194    0.367    7.911
  531.838   85.874    0.207    0.382    8.002
  532.088   85.897    0.213    0.386    7.899
  532.338   89.543    0.203    0.411    7.435
  532.588   92.653    0.186    0.420    6.802
  532.838   95.967    0.173    0.403    6.316
  533.088   93.629    0.157    0.400    5.926
  533.338   82.844    0.181    0.412    5.757
  533.588   67.692    0.260    0.414    5.486
  533.838   40.447    0.297    0.407    5.296
  534.088   37.925    0.316    0.400    4.817
  534.338   40.020    0.314    0.394    4.311
  534.588   42.087    0.316    0.412    4.250
  534.838   43.301    0.318    0.411    4.148
  535.088   44.110    0.306    0.404    4.244
  535.338   50.898    0.307    0.390    4.231
  535.588   68.354    0.297    0.381    4.325
  535.838   80.764    0.293    0.412    4.322
  536.088   87.557    0.297    0.453    4.064
  536.338   87.214    0.316    0.484    3.672
  536.588   76.856    0.334    0.535    2.419
  536.838   65.746    0.306    0.506    3.625
  537.088   56.697    0.294    0.404    6.014
  537.338   62.198    0.289    0.413    9.191
  537.588   63.375    0.249    0.459   15.645
  537.838   40.565    0.228    0.481   24.446
  538.088   22.485    0.178    0.490   32.530
  538.338   21.561    0.098    0.404   37.515
  538.588   23.519    0.000    0.328   38.362
  538.838   24.544    0.006    0.258   37.468
  539.088   24.632    0.010    0.300   38.545
  539.338   22.392   -0.000    0.287   37.725
  539.588   21.023    0.000    0.269   36.072
  539.838   19.737    0.002    0.264   33.435
  540.088   19.286    0.024    0.274   31.398
  540.338   18.584    0.030    0.291   32.207
