~VERSION INFORMATION
 VERS.                 2.0:   CWLS LOG ASCII STANDARD -VERSION 2.0
 WRAP.                  NO:   ONE LINE PER DEPTH STEP
~WELL INFORMATION BLOCK
#MNEM.UNIT           DATA                    DESCRIPTION OF MNEMONIC
#---------    -------------------            -------------------------------
# Generated from Intellog Unique Number	CX_WELLS/WELL/2993
WELL.         TRITON ATCOR THORNBURY         : Well_name    - WELL
LOC .         00/08-11-082-12W4/0            : Location     - LOCATION
UWI .         00/08-11-082-12W400            : Uwi          - UNIQUE WELL ID
ENTR.         T                              : Entered      - ENTERED BY
SRVC.         SCHLUMBERGER                   : Scn          - SERVICE COMPANY
STRT.M        300                            : top_depth    - START DEPTH
STOP.M        534                            : bot_depth    - STOP DEPTH
STEP.M        0.25                           : increment    - STEP LENGTH
 NULL. -999.2500:NULL Value
~CURVE INFORMATION BLOCK
#MNEM UNIT       ERCB CURVE CODE    CURVE DESCRIPTION
#-----------   ------------------   ----------------------------------
DEPT.M        00 001 00 00         : DEPTH        - DEPTH
GR  .API      00 310 00 00         : GR           - GAMMA RAY
NPHI.V/V      00 330 00 00         : PHIN         - NEUTRON POROSITY (SANDSTONE)
DPHI.V/V      00 890 00 00         : PHID         - DENSITY POROSITY (SANDSTONE)
ILD .OHMM     00 120 00 00         : RESD         - DEEP RESISTIVITY (OTHER)
~PARAMETER INFORMATION
#MNEM.UNIT           DATA             DESCRIPTION OF MNEMONIC
#---------         -----------     ------------------------------
GL  .M        762                  : gl           - GROUND LEVEL ELEVATION
EREF.M        766                  : kb           - ELEVATION OF DEPTH REFERENCE
DATM.M        766                  : datum        - DATUM ELEVATION
TDD .M        546                  : tdd          - TOTAL DEPTH DRILLER
RUN .         ONE                  : Run          - RUN NUMBER
ENG .         BILL                 : Engineer     - RECORDING ENGINEER
WIT .         JIM                  : Witness      - WITNESSED BY
MUD .         GEL                  : Mud_type     - MUD TYPE
MATR.         SANDSTONE            : Logunit      - NEUTRON MATRIX
TMAX.C        22                   : BHT          - MAXIMUM RECORDED TEMPERATURE
BHTD.M        546                  : BHTDEP       - MAXIMUM RECORDED TEMPERATURE
MATR.         1                    : LOGUNIT      - NEUTRON MATRIX
RMT .C        12.5                 : MDTP         - TEMPERATURE OF MUD
NEUT.         1                    : NEUTRON      - NEUTRON TYPE
RESI.         4.2                  : RESIST       - RESISTIVITY TYPE
RMC .OHMM     2                    : RMC          - RESISTIVITY OF MUD CAKE
RMF .OHMM     3.9                  : RMF          - RESISTIVITY OF MUD FILTRATE
SUFT.C        4                    : SUFT         - SURFACE TEMPERATURE
~A  DEPTH       GR     PHIN     PHID     RESD
# ...
  343.500  116.863    0.501    0.251    8.498
  343.750  113.897    0.489    0.256   10.635
  344.000  112.117    0.478    0.255   13.063
  344.250  106.836    0.468    0.261   15.448
  344.500  100.961    0.460    0.271   17.600
  344.750   95.679    0.445    0.284   18.259
  345.000   91.561    0.428    0.290   18.586
  345.250   91.515    0.412    0.287   18.913
  345.500   87.956    0.412    0.295   18.893
  345.750   85.583    0.411    0.309   18.173
  346.000   83.221    0.410    0.306   16.530
  346.250   80.255    0.410    0.279   13.685
  346.500   80.209    0.413    0.260    9.746
  346.750   84.247    0.447    0.237    8.376
  347.000  100.489    0.476    0.213    9.908
  347.250  112.077    0.476    0.223   11.081
  347.500  114.929    0.454    0.236   12.386
  347.750  111.404    0.429    0.249   13.342
  348.000  107.286    0.418    0.267   15.197
  348.250   99.654    0.408    0.262   16.061
  348.500  100.190    0.414    0.261   16.048
  348.750  100.144    0.421    0.272   16.335
  349.000   96.037    0.429    0.301   16.314
  349.250   90.755    0.436    0.307   16.292
  349.500   83.717    0.433    0.279   15.976
  349.750   78.436    0.424    0.270   15.363
  350.000   83.614    0.422    0.284   15.069
  350.250   85.324    0.420    0.297   14.494
  350.500   80.031    0.418    0.298   14.753
  350.750   76.495    0.413    0.285   15.302
  351.000   77.030    0.407    0.277   15.001
  351.250   79.288    0.402    0.276   14.707
  351.500   80.417    0.409    0.269   13.882
  351.750   82.710    0.417    0.261   13.613
  352.000   84.979    0.407    0.252   13.346
  352.250   82.606    0.398    0.238   13.328
  352.500   80.815    0.398    0.227   13.311
  352.750   81.932    0.406    0.254   13.046
  353.000   84.213    0.417    0.270   12.558
  353.250   87.087    0.417    0.264   11.634
  353.500   90.531    0.427    0.251   10.988
  353.750   96.291    0.441    0.240   10.181
  354.000  103.237    0.448    0.231    9.435
  354.250  107.252    0.449    0.225    8.257
  354.500  104.297    0.453    0.233    8.095
  354.750   98.434    0.457    0.263    8.719
  355.000   92.570    0.460    0.289    9.570
  355.250   88.452    0.464    0.291   10.904
  355.500   87.231    0.470    0.267   12.191
  355.750   86.010    0.475    0.262   13.624
  356.000   84.219    0.476    0.266   13.875
  356.250   82.428    0.471    0.272   14.116
  356.500   83.545    0.465    0.278   14.108
  356.750   84.663    0.476    0.284   14.094
  357.000   85.210    0.487    0.285   13.553
  357.250   85.164    0.478    0.284   13.286
  357.500   85.118    0.462    0.282   13.029
  357.750   83.897    0.462    0.281   13.513
  358.000   81.524    0.467    0.280   14.278
  358.250   79.139    0.471    0.279   14.533
  358.500   81.420    0.477    0.276   13.467
  358.750   84.294    0.484    0.275   12.019
  359.000   89.484    0.485    0.277   10.524
  359.250   90.601    0.472    0.280   10.317
  359.500   90.555    0.465    0.287   11.539
  359.750   89.916    0.456    0.297   12.899
  360.000   88.706    0.450    0.308   13.894
  360.250   88.079    0.447    0.311   15.242
  360.500   85.694    0.452    0.316   17.042
  360.750   82.740    0.455    0.314   18.352
  361.000   79.215    0.447    0.314   19.040
  361.250   72.176    0.439    0.321   19.743
  361.500   65.150    0.450    0.328   20.090
  361.750   59.856    0.459    0.334   20.455
  362.000   59.822    0.444    0.338   20.815
  362.250   59.183    0.433    0.343   21.188
  362.500   57.380    0.430    0.345   21.567
  362.750   55.589    0.438    0.349   21.958
  363.000   53.797    0.442    0.351   21.935
  363.250   52.006    0.447    0.356   22.732
  363.500   50.215    0.447    0.358   23.151
  363.750   49.587    0.438    0.357   23.565
  364.000   49.530    0.433    0.355   23.540
  364.250   48.902    0.428    0.352   23.961
  364.500   48.274    0.426    0.347   24.839
  364.750   47.647    0.424    0.346   25.297
  365.000   47.019    0.419    0.348   25.749
  365.250   46.402    0.418    0.356   26.203
  365.500   46.938    0.423    0.366   26.671
  365.750   48.044    0.418    0.369   27.155
  366.000   50.325    0.412    0.372   27.112
  366.250   52.594    0.411    0.370   27.091
  366.500   53.712    0.414    0.367   27.062
  366.750   53.084    0.419    0.364   26.517
  367.000   51.293    0.422    0.362   26.503
  367.250   50.676    0.426    0.360   26.468
  367.500   50.619    0.418    0.358   25.941
  367.750   49.991    0.405    0.357   25.920
  368.000   48.782    0.408    0.357   25.879
  368.250   47.572    0.417    0.358   25.384
  368.500   46.944    0.425    0.362   25.351
  368.750   47.457    0.430    0.359   25.324
  369.000   48.004    0.422    0.358   24.833
  369.250   49.121    0.420    0.355   24.800
  369.500   49.087    0.421    0.356   24.774
  369.750   50.204    0.435    0.362   24.294
  370.000   50.147    0.443    0.367   24.255
  370.250   49.508    0.447    0.369   23.772
  370.500   49.473    0.433    0.374   23.754
  370.750   49.986    0.420    0.373   23.735
  371.000   49.963    0.417    0.371   23.710
  371.250   49.905    0.427    0.363   23.685
  371.500   48.684    0.438    0.361   23.660
  371.750   48.661    0.436    0.367   23.635
  372.000   48.022    0.432    0.371   23.164
  372.250   46.812    0.444    0.371   23.140
  372.500   46.184    0.450    0.372   23.103
  372.750   47.290    0.440    0.352   23.091
  373.000   46.092    0.423    0.317   23.949
  373.250   40.811    0.373    0.262   26.266
  373.500   37.845    0.337    0.237   26.750
  373.750   41.289    0.376    0.293   26.715
  374.000   44.733    0.470    0.325   26.686
  374.250   47.014    0.478    0.358   26.162
  374.500   48.108    0.473    0.373   25.164
  374.750   48.086    0.469    0.378   24.211
  375.000   48.598    0.468    0.378   23.287
  375.250   48.564    0.469    0.376   22.842
  375.500   48.506    0.471    0.374   21.971
  375.750   47.890    0.473    0.372   21.953
  376.000   47.855    0.467    0.375   21.511
  376.250   47.216    0.462    0.376   21.094
  376.500   47.170    0.466    0.374   21.071
  376.750   47.124    0.470    0.373   21.044
  377.000   47.660    0.468    0.372   21.027
  377.250   48.195    0.469    0.371   20.994
  377.500   48.149    0.471    0.371   20.982
  377.750   46.358    0.475    0.370   20.960
  378.000   43.403    0.475    0.370   21.324
  378.250   41.007    0.475    0.369   21.301
  378.500   42.718    0.467    0.369   21.284
  378.750   44.406    0.458    0.368   20.861
  379.000   45.535    0.463    0.365   20.844
  379.250   46.070    0.467    0.364   20.811
  379.500   46.606    0.467    0.363   20.795
  379.750   47.130    0.465    0.361   20.778
  380.000   48.829    0.464    0.359   20.751
  380.250   49.365    0.464    0.346   20.723
  380.500   49.912    0.469    0.335   20.701
  380.750   50.448    0.471    0.338   20.295
  381.000   50.972    0.473    0.353   19.896
  381.250   51.508    0.475    0.366   19.880
  381.500   51.462    0.472    0.370   19.490
  381.750   51.415    0.468    0.369   19.092
  382.000   51.346    0.468    0.367   19.082
  382.250   51.905    0.473    0.362   19.061
  382.500   53.023    0.482    0.355   19.041
  382.750   53.558    0.474    0.359   19.021
  383.000   54.094    0.465    0.361   19.001
  383.250   54.630    0.470    0.365   18.976
  383.500   55.154    0.480    0.365   18.961
  383.750   55.689    0.474    0.365   18.936
  384.000   56.214    0.464    0.364   18.911
  384.250   55.597    0.462    0.363   18.886
  384.500   54.947    0.466    0.360   18.525
  384.750   54.912    0.469    0.358   18.856
  385.000   54.866    0.468    0.358   18.831
  385.250   55.413    0.463    0.358   19.168
  385.500   56.508    0.457    0.358   19.153
  385.750   57.636    0.459    0.357   19.490
  386.000   58.731    0.462    0.356   19.833
  386.250   59.289    0.462    0.356   19.812
  386.500   59.825    0.463    0.356   19.797
  386.750   60.349    0.464    0.354   19.776
