~VERSION INFORMATION
 VERS.                 2.0:   CWLS LOG ASCII STANDARD -VERSION 2.0
 WRAP.                  NO:   ONE LINE PER DEPTH STEP
~WELL INFORMATION BLOCK
#MNEM.UNIT           DATA                    DESCRIPTION OF MNEMONIC
#---------    -------------------            -------------------------------
# Generated from Intellog Unique Number	CW_73_75/WELL/693
WELL.         CDN SUP ET AL FRANCIS 07-05    : Well_name    - WELL
LOC .         00/07-05-074-20W4/0            : Location     - LOCATION
UWI .         00/07-05-074-20W4/0            : Uwi          - UNIQUE WELL ID
ENTR.         JAYE                           : Entered      - ENTERED BY
SRVC.         SCHLUMBERGER                   : Scn          - SERVICE COMPANY
DATE.         15 MAR 76                      : Date         - LOG DATE
STRT.M        393.192                        : top_depth    - START DEPTH
STOP.M        609.692                        : bot_depth    - STOP DEPTH
STEP.M        0.25                           : increment    - STEP LENGTH
 NULL. -999.2500:NULL Value
~CURVE INFORMATION BLOCK
#MNEM UNIT       ERCB CURVE CODE    CURVE DESCRIPTION
#-----------   ------------------   ----------------------------------
DEPT.M        00 001 00 00         : DEPTH        - DEPTH
DPHI.V/V      00 890 00 00         : PHID         - DENSITY POROSITY (SANDSTONE)
NPHI.V/V      00 330 00 00         : PHIN         - NEUTRON POROSITY (SANDSTONE)
GR  .API      00 310 00 00         : GR           - GAMMA RAY
CALI.IN       00 280 01 00         : CAL          - CALIPER
ILD .OHMM     00 120 00 00         : RESD         - DEEP RESISTIVITY (DIL)
~PARAMETER INFORMATION
#MNEM.UNIT           DATA             DESCRIPTION OF MNEMONIC
#---------         -----------     ------------------------------
GL  .M        705.612              : gl           - GROUND LEVEL ELEVATION
EREF.M        708.965              : kb           - ELEVATION OF DEPTH REFERENCE
DATM.M        705.612              : datum        - DATUM ELEVATION
TDD .M        682.752              : tdd          - TOTAL DEPTH DRILLER
RUN .         ONE                  : Run          - RUN NUMBER
BASE.         EDMONTON             : Branch       - HOME BASE OF LOGGING UNIT
MATR.         SANDSTONE            : Logunit      - NEUTRON MATRIX
TMAX.C        28.8889              : BHT          - MAXIMUM RECORDED TEMPERATURE
BHTD.M        682.752              : BHTDEP       - MAXIMUM RECORDED TEMPERATURE
RMT .C        -16.45               : MDTP         - TEMPERATURE OF MUD
MUDD.KG/M     0                    : MWT          - MUD DENSITY
NEUT.         1                    : NEUTRON      - NEUTRON TYPE
RESI.         0                    : RESIST       - RESISTIVITY TYPE
RM  .OHMM     5.48                 : RM           - RESISTIVITY OF MUD
RMC .OHMM     4                    : RMC          - RESISTIVITY OF MUD CAKE
RMF .OHMM     2.86                 : RMF          - RESISTIVITY OF MUD FILTRATE
SUFT.C        -17.7778             : SUFT         - SURFACE TEMPERATURE
~A  DEPTH     PHID     PHIN       GR      CAL     RESD
# ...
  429.692    0.292    0.469   83.850    8.789    9.271
  429.942    0.302    0.463   85.274    8.789    9.105
  430.192    0.296    0.468   87.379    8.789    8.991
  430.442    0.272    0.480   88.183    8.785    8.750
  430.692    0.265    0.477   85.083    8.776    8.547
  430.942    0.286    0.466   79.691    8.764    8.168
  431.192    0.280    0.461   80.929    8.751    7.805
  431.442    0.287    0.473   78.139    8.735    7.217
  431.692    0.309    0.470   75.473    8.743    6.735
  431.942    0.330    0.452   77.269    8.788    6.296
  432.192    0.318    0.441   82.534    9.230    6.309
  432.442    0.302    0.460   87.365    9.883    6.545
  432.692    0.290    0.486   92.444   10.031    6.890
  432.942    0.342    0.493   96.222    9.271    7.306
  433.192    0.318    0.482   95.105    8.994    7.496
  433.442    0.264    0.483   92.439    9.023    7.594
  433.692    0.256    0.491   92.933    9.101    7.459
  433.942    0.281    0.506   89.152    8.895    7.050
  434.192    0.265    0.506   87.044    8.791    6.749
  434.442    0.270    0.475   91.194    8.833    6.544
  434.692    0.246    0.476   93.732    8.894    6.392
  434.942    0.229    0.495   93.979    8.993    6.312
  435.192    0.228    0.492   93.543    9.068    6.313
  435.442    0.217    0.477   93.542    9.043    6.514
  435.692    0.211    0.464   93.912    9.022    6.996
  435.942    0.226    0.451   91.556    9.113    7.624
  436.192    0.220    0.466   85.793    9.261    8.401
  436.442    0.203    0.489   70.549    9.348    8.892
  436.692    0.240    0.512   55.678    9.241    8.959
  436.942    0.322    0.483   45.515    8.757    9.109
  437.192    0.309    0.446   43.035    8.724    9.347
  437.442    0.317    0.412   44.645    8.745    9.714
  437.692    0.333    0.419   47.927    8.790   10.114
  437.942    0.336    0.424   50.094    8.864   10.902
  438.192    0.324    0.419   48.420    8.955   11.904
  438.442    0.333    0.410   45.816    9.042   13.653
  438.692    0.333    0.413   47.859    9.165   15.890
  438.942    0.322    0.430   52.008    9.277   17.572
  439.192    0.318    0.444   54.237    9.376   20.191
  439.442    0.325    0.442   52.811    9.512   20.530
  439.692    0.338    0.433   54.172    9.665   20.090
  439.942    0.327    0.434   58.198    9.784   19.587
  440.192    0.330    0.432   66.747    9.846   19.378
  440.442    0.335    0.421   74.180    9.875   19.311
  440.692    0.327    0.415   86.012    9.912   19.960
  440.942    0.317    0.449   89.728    9.958   20.481
  441.192    0.311    0.469   79.442    9.995   20.787
  441.442    0.319    0.465   55.463    9.982   20.944
  441.692    0.308    0.442   47.221    9.949   20.796
  441.942    0.331    0.424   46.785    9.891   20.991
  442.192    0.319    0.440   51.059    9.804   21.265
  442.442    0.329    0.458   51.491    9.717   21.192
  442.692    0.319    0.462   47.896    9.639   20.814
  442.942    0.309    0.447   45.354    9.556   20.145
  443.192    0.331    0.430   42.441    9.415   18.091
  443.442    0.310    0.415   42.687    9.143   15.048
  443.692    0.288    0.402   44.606    8.915   13.198
  443.942    0.270    0.387   46.525    8.663   11.961
  444.192    0.260    0.380   47.453    8.329   10.900
  444.442    0.267    0.388   46.708    8.126   10.397
  444.692    0.281    0.401   42.617    8.072   10.045
  444.942    0.303    0.385   41.191    8.076    9.776
  445.192    0.289    0.359   40.322    8.101    9.636
  445.442    0.267    0.326   40.754    8.126    9.585
  445.692    0.258    0.353   41.310    8.122    9.622
  445.942    0.304    0.372   41.556    8.101    9.784
  446.192    0.332    0.394   42.422    8.101    9.930
  446.442    0.342    0.418   42.483    8.179   10.264
  446.692    0.332    0.411   42.357    8.257   10.455
  446.942    0.311    0.370   43.471    8.282   10.064
  447.192    0.264    0.352   44.213    8.278    9.617
  447.442    0.278    0.336   41.175    8.253    9.637
  447.692    0.275    0.316   37.580    8.203    9.834
  447.942    0.230    0.304   38.632    8.158   10.258
  448.192    0.239    0.352   41.666    8.133   10.545
  448.442    0.268    0.377   44.886    8.125   10.490
  448.692    0.311    0.390   42.344    8.149   10.416
  448.942    0.268    0.363   38.749    8.182   10.155
  449.192    0.247    0.342   36.022    8.265    9.581
  449.442    0.229    0.316   34.347    8.277    9.023
  449.692    0.199    0.284   36.762    8.211    8.622
  449.942    0.210    0.307   43.266    8.103    8.299
  450.192    0.271    0.354   51.009    8.004    8.062
  450.442    0.318    0.391   53.052    7.934    7.875
  450.692    0.325    0.421   52.927    7.913    7.791
  450.942    0.324    0.400   51.934    7.917    7.707
  451.192    0.315    0.378   51.003    7.958    7.625
  451.442    0.293    0.373   51.931    7.995    7.543
  451.692    0.326    0.417   50.071    7.958    7.436
  451.942    0.330    0.435   49.202    7.875    7.343
  452.192    0.335    0.443   52.670    7.817    7.264
  452.442    0.341    0.449   58.926    7.797    7.200
  452.692    0.343    0.417   57.128    7.821    7.162
  452.942    0.332    0.403   56.816    7.838    7.203
  453.192    0.324    0.420   62.329    7.825    7.270
  453.442    0.317    0.475   65.116    7.792    7.366
  453.692    0.329    0.496   61.211    7.767    7.448
  453.942    0.342    0.483   52.721    7.742    7.643
  454.192    0.331    0.438   52.657    7.713    7.813
  454.442    0.340    0.443   53.833    7.701    8.003
  454.692    0.347    0.456   51.849    7.705    8.182
  454.942    0.346    0.472   51.042    7.717    8.334
  455.192    0.327    0.475   50.483    7.738    8.459
  455.442    0.332    0.464   49.738    7.746    8.522
  455.692    0.319    0.453   48.807    7.750    8.540
  455.942    0.324    0.459   46.946    7.766    8.495
  456.192    0.324    0.467   46.201    7.774    8.374
  456.442    0.315    0.462   45.394    7.774    8.194
  456.692    0.326    0.468   43.968    7.766    7.974
  456.942    0.325    0.481   43.966    7.774    7.760
  457.192    0.321    0.460   42.788    7.778    7.566
  457.442    0.330    0.437   41.051    7.774    7.390
  457.692    0.340    0.440   39.191    7.770    7.205
  457.942    0.354    0.446   36.525    7.761    7.090
  458.192    0.350    0.453   35.656    7.757    6.900
  458.442    0.349    0.461   35.407    7.753    6.801
  458.692    0.341    0.463   35.157    7.744    6.691
  458.942    0.337    0.440   35.590    7.740    6.620
  459.192    0.341    0.432   35.836    7.715    6.561
  459.442    0.344    0.429   36.330    7.703    6.527
  459.692    0.347    0.435   37.568    7.645    6.540
  459.942    0.351    0.436   38.805    7.670    6.601
  460.192    0.358    0.430   39.857    7.723    6.724
  460.442    0.354    0.431   40.599    7.736    6.788
  460.692    0.348    0.438   40.969    7.740    6.826
  460.942    0.339    0.443   42.021    7.706    6.840
  461.192    0.325    0.445   44.498    7.648    6.879
  461.442    0.335    0.447   43.815    7.582    6.893
  461.692    0.337    0.457   41.830    7.541    6.907
  461.942    0.349    0.486   40.280    7.553    6.934
  462.192    0.345    0.490   39.039    7.578    6.973
  462.442    0.328    0.486   37.860    7.607    7.000
  462.692    0.337    0.473   36.558    7.635    7.040
  462.942    0.334    0.459   36.060    7.656    7.029
  463.192    0.330    0.451   36.368    7.677    7.005
  463.442    0.328    0.470   36.491    7.685    7.019
  463.692    0.339    0.478   36.366    7.676    7.033
  463.942    0.340    0.473   36.674    7.668    6.997
  464.192    0.339    0.475   37.416    7.676    6.947
  464.442    0.342    0.486   38.096    7.684    6.936
  464.692    0.343    0.474   39.147    7.684    6.912
  464.942    0.335    0.452   40.509    7.668    6.939
  465.192    0.338    0.438   41.189    7.663    6.941
  465.442    0.336    0.419   41.559    7.684    6.954
  465.692    0.322    0.441   41.991    7.713    6.981
  465.942    0.322    0.452   42.486    7.725    7.008
