~VERSION INFORMATION
 VERS.                 2.0:   CWLS LOG ASCII STANDARD -VERSION 2.0
 WRAP.                  NO:   ONE LINE PER DEPTH STEP
~WELL INFORMATION BLOCK
#MNEM.UNIT           DATA                    DESCRIPTION OF MNEMONIC
#---------    -------------------            -------------------------------
# Generated from Intellog Unique Number	CW_76_78/WELL/528
WELL.         ASHLAND ET AL PELICAN 06-17    : Well_name    - WELL
LOC .         00/06-17-076-19W4/0            : Location     - LOCATION
UWI .         00/06-17-076-19W4/0            : Uwi          - UNIQUE WELL ID
ENTR.         JAYE                           : Entered      - ENTERED BY
SRVC.         SCHLUMBERGER                   : Scn          - SERVICE COMPANY
DATE.         18 FEB 73                      : Date         - LOG DATE
STRT.M        243.84                         : top_depth    - START DEPTH
STOP.M        417.59                         : bot_depth    - STOP DEPTH
STEP.M        0.25                           : increment    - STEP LENGTH
 NULL. -999.2500:NULL Value
~CURVE INFORMATION BLOCK
#MNEM UNIT       ERCB CURVE CODE    CURVE DESCRIPTION
#-----------   ------------------   ----------------------------------
DEPT.M        00 001 00 00         : DEPTH        - DEPTH
ILD .OHMM     00 120 00 00         : RESD         - DEEP RESISTIVITY (DIL)
NPHI.V/V      00 330 00 00         : PHIN         - NEUTRON POROSITY (SANDSTONE)
DPHI.V/V      00 890 00 00         : PHID         - DENSITY POROSITY (SANDSTONE)
GR  .API      00 310 00 00         : GR           - GAMMA RAY
CALI.MM       00 280 01 00         : CAL          - CALIPER
~PARAMETER INFORMATION
#MNEM.UNIT           DATA             DESCRIPTION OF MNEMONIC
#---------         -----------     ------------------------------
GL  .M        577.596              : gl           - GROUND LEVEL ELEVATION
EREF.M        581.558              : kb           - ELEVATION OF DEPTH REFERENCE
DATM.M        577.596              : datum        - DATUM ELEVATION
TDD .M        507.492              : tdd          - TOTAL DEPTH DRILLER
RUN .         ONE                  : Run          - RUN NUMBER
ENG .         KEITH                : Engineer     - RECORDING ENGINEER
BASE.         EDM                  : Branch       - HOME BASE OF LOGGING UNIT
MUD .         GEL CHEM             : Mud_type     - MUD TYPE
MATR.         SANDSTONE            : Logunit      - NEUTRON MATRIX
TMAX.C        21.1111              : BHT          - MAXIMUM RECORDED TEMPERATURE
BHTD.M        507.797              : BHTDEP       - MAXIMUM RECORDED TEMPERATURE
RMT .C        13.8889              : MDTP         - TEMPERATURE OF MUD
MUDD.KG/M     0                    : MWT          - MUD DENSITY
NEUT.         1                    : NEUTRON      - NEUTRON TYPE
RESI.         0                    : RESIST       - RESISTIVITY TYPE
RM  .OHMM     2.32                 : RM           - RESISTIVITY OF MUD
RMC .OHMM     0                    : RMC          - RESISTIVITY OF MUD CAKE
RMF .OHMM     2.38                 : RMF          - RESISTIVITY OF MUD FILTRATE
SUFT.C        -17.7778             : SUFT         - SURFACE TEMPERATURE
~A  DEPTH     RESD     PHIN     PHID       GR      CAL
  243.840    0.237    0.603    0.228   92.680  207.986
  244.090    0.239    0.603    0.203   90.526  210.196
  244.340    0.241    0.604    0.207   90.923  212.006
  244.590    0.242    0.610    0.224   91.501  214.018
  244.840    0.243    0.611    0.206   91.596  215.107
  245.090    0.245    0.593    0.228   93.392  215.371
  245.340    0.246    0.596    0.220   94.884  216.241
  245.590    0.246    0.608    0.203   95.645  216.503
  245.840    0.244    0.604    0.217   96.531  216.665
  246.090    0.244    0.593    0.196   97.171  216.003
  246.340    0.245    0.593    0.212   96.050  212.770
  246.590    0.247    0.608    0.242   94.198  207.674
  246.840    0.247    0.619    0.202   92.772  206.187
  247.090    0.247    0.582    0.223   91.834  207.790
  247.340    0.248    0.601    0.195   91.077  211.448
  247.590    0.249    0.616    0.222   88.070  215.000
  247.840    0.253    0.593    0.219   85.551  217.834
  248.090    0.258    0.557    0.238   85.159  219.642
  248.340    0.264    0.576    0.221   85.372  217.227
  248.590    0.266    0.593    0.233   86.987  213.273
  248.840    0.265    0.605    0.273   83.917  203.243
  249.090    0.265    0.440    0.286   75.505  185.905
  249.340    0.266    0.409    0.150   68.125  171.655
  249.590    0.266    0.604    0.098   66.274  176.442
  249.840    0.266    0.617    0.213   75.238  188.029
  250.090    0.266    0.557    0.258   83.842  204.650
  250.340    0.267    0.524    0.254   85.942  216.132
  250.590    0.267    0.550    0.262   83.361  211.349
  250.840    0.267    0.579    0.234   89.776  206.365
  251.090    0.265    0.621    0.252   92.423  211.255
  251.340    0.264    0.588    0.282   87.837  220.882
  251.590    0.261    0.614    0.261   85.194  232.670
  251.840    0.258    0.599    0.244   88.936  215.335
  252.090    0.257    0.587    0.237   89.272  213.331
  252.340    0.258    0.607    0.251   85.112  221.416
  252.590    0.259    0.611    0.262   89.398  223.733
  252.840    0.262    0.594    0.266   92.652  214.632
  253.090    0.266    0.583    0.261   94.753  216.027
  253.340    0.271    0.595    0.259   95.209  210.319
  253.590    0.274    0.604    0.204   90.807  200.287
  253.840    0.278    0.583    0.239   92.360  200.854
  254.090    0.283    0.595    0.240   91.845  205.544
  254.340    0.286    0.570    0.258   89.570  207.967
  254.590    0.287    0.545    0.278   85.955  198.352
  254.840    0.287    0.563    0.205   87.570  191.616
  255.090    0.287    0.591    0.249   91.917  199.288
  255.340    0.288    0.579    0.280   93.773  201.813
  255.590    0.287    0.562    0.227   87.059  172.641
  255.840    0.285    0.608    0.250   82.596  180.929
  256.090    0.284    0.593    0.276   87.976  191.380
  256.340    0.282    0.576    0.208   89.345  173.834
  256.590    0.282    0.615    0.186   86.158  182.228
  256.840    0.281    0.599    0.235   88.623  198.546
  257.090    0.281    0.580    0.263   91.694  205.599
  257.340    0.280    0.588    0.192   93.487  202.154
  257.590    0.279    0.606    0.205   94.373  200.256
  257.840    0.278    0.589    0.239   94.039  207.104
  258.090    0.279    0.576    0.226   92.981  207.052
  258.340    0.280    0.571    0.239   92.526  206.393
  258.590    0.282    0.586    0.224   91.041  206.859
  258.840    0.281    0.606    0.246   89.250  208.870
  259.090    0.281    0.618    0.262   90.498  210.362
  259.340    0.281    0.622    0.287   85.305  209.908
  259.590    0.282    0.578    0.305   80.599  221.901
  259.840    0.282    0.547    0.303   82.879  212.904
  260.090    0.284    0.559    0.272   85.769  202.152
  260.340    0.285    0.572    0.243   86.895  204.984
  260.590    0.288    0.564    0.260   87.171  220.790
  260.840    0.291    0.500    0.291   86.598  227.021
  261.090    0.294    0.524    0.320   83.287  208.855
  261.340    0.299    0.513    0.321   77.974  191.934
  261.590    0.307    0.473    0.339   72.596  180.049
  261.840    0.313    0.454    0.385   69.227  178.047
  262.090    0.318    0.515    0.430   68.652  186.441
  262.340    0.324    0.568    0.552   70.140  228.590
  262.590    0.326    0.546    0.502   71.634  263.944
  262.840    0.326    0.524    0.452   73.126  234.567
  263.090    0.325    0.568    0.477   74.375  196.237
  263.340    0.325    0.606    0.506   73.132  332.754
  263.590    0.325    0.619    0.599   67.268  354.732
  263.840    0.322    0.614    0.599   61.710  285.116
  264.090    0.322    0.598    0.574   62.534  283.217
  264.340    0.320    0.607    0.585   66.271  281.111
  264.590    0.319    0.612    0.463   70.561  232.488
  264.840    0.317    0.596    0.371   75.698  222.151
  265.090    0.315    0.578    0.397   78.467  204.402
  265.340    0.314    0.548    0.435   80.688  233.368
  265.590    0.316    0.554    0.406   82.363  236.003
  265.840    0.316    0.544    0.336   82.578  210.125
  266.090    0.318    0.558    0.231   83.581  201.226
  266.340    0.319    0.555    0.265   87.261  207.563
  266.590    0.321    0.543    0.284   88.876  221.615
  266.840    0.323    0.517    0.253   88.963  209.423
  267.090    0.323    0.516    0.291   88.212  211.331
  267.340    0.324    0.531    0.340   86.118  227.443
  267.590    0.327    0.543    0.288   84.934  198.885
  267.840    0.330    0.533    0.304   81.505  208.001
  268.090    0.329    0.545    0.413   77.282  235.329
  268.340    0.327    0.503    0.386   68.503  180.529
  268.590    0.324    0.453    0.324   65.377  174.413
  268.840    0.322    0.454    0.249   62.916  176.520
  269.090    0.320    0.575    0.302   66.355  190.064
  269.340    0.320    0.539    0.330   75.868  227.787
  269.590    0.321    0.506    0.307   79.366  223.210
  269.840    0.322    0.475    0.222   79.396  232.735
  270.090    0.324    0.496    0.193   75.479  200.580
  270.340    0.325    0.506    0.225   69.436  183.552
  270.590    0.328    0.494    0.268   63.570  168.891
  270.840    0.330    0.451    0.276   60.083  161.122
  271.090    0.331    0.476    0.276   57.805  161.489
  271.340    0.331    0.519    0.288   56.684  162.469
  271.590    0.333    0.504    0.318   53.798  162.423
  271.840    0.333    0.518    0.321   54.075  162.271
  272.090    0.332    0.458    0.315   58.421  162.743
  272.340    0.328    0.442    0.304   59.912  164.954
  272.590    0.324    0.450    0.287   59.219  167.897
  272.840    0.318    0.495    0.289   63.141  174.025
  273.090    0.311    0.595    0.240   71.316  190.957
  273.340    0.303    0.616    0.278   78.887  203.981
  273.590    0.297    0.629    0.254   84.935  204.859
  273.840    0.293    0.634    0.274   87.461  217.883
  274.090    0.290    0.609    0.338   91.136  198.694
  274.340    0.291    0.596    0.304   94.213  184.032
  274.590    0.296    0.568    0.268  100.931  206.625
  274.840    0.301    0.538    0.445  102.119  221.709
  275.090    0.306    0.498    0.429   97.714  228.660
  275.340    0.311    0.498    0.330   94.645  184.147
  275.590    0.316    0.575    0.407   91.704  202.116
  275.840    0.318    0.594    0.406   90.034  251.982
  276.090    0.320    0.597    0.372   90.126  264.284
  276.340    0.325    0.585    0.352   89.251  248.492
  276.590    0.330    0.572    0.373   86.729  250.088
  276.840    0.337    0.554    0.382   81.535  240.267
  277.090    0.346    0.527    0.318   76.160  176.412
  277.340    0.365    0.482    0.258   73.095  163.500
  277.590    0.395    0.546    0.257   68.873  162.320
  277.840    0.424    0.529    0.271   66.900  161.345
  278.090    0.453    0.508    0.279   67.663  161.302
  278.340    0.469    0.491    0.280   68.970  160.938
  278.590    0.463    0.505    0.276   70.037  159.974
  278.840    0.447    0.549    0.264   72.746  158.379
  279.090    0.426    0.520    0.244   69.982  159.667
  279.340    0.410    0.477    0.266   71.535  162.095
  279.590    0.395    0.460    0.256   75.943  165.650
  279.840    0.383    0.451    0.293   75.672  168.383
  280.090    0.369    0.551    0.295   76.800  171.319
