~VERSION INFORMATION
 VERS.                 2.0:   CWLS LOG ASCII STANDARD -VERSION 2.0
 WRAP.                  NO:   ONE LINE PER DEPTH STEP
~WELL INFORMATION BLOCK
#MNEM.UNIT           DATA                    DESCRIPTION OF MNEMONIC
#---------    -------------------            -------------------------------
# Generated from Intellog Unique Number	CS_73_76/WELL/4141
WELL.         BVI ET AL DUNCAN               : Well_name    - WELL
LOC .         00/03-30-074-10W4/0            : Location     - LOCATION
UWI .         00/03-30-074-10W4/0            : Uwi          - UNIQUE WELL ID
ENTR.         SP                             : Entered      - ENTERED BY
SRVC.         SCHLUMBERGER                   : Scn          - SERVICE COMPANY
STRT.M        304.8                          : top_depth    - START DEPTH
STOP.M        521.3                          : bot_depth    - STOP DEPTH
STEP.M        0.25                           : increment    - STEP LENGTH
 NULL. -999.2500:NULL Value
~CURVE INFORMATION BLOCK
#MNEM UNIT       ERCB CURVE CODE    CURVE DESCRIPTION
#-----------   ------------------   ----------------------------------
DEPT.M        00 001 00 00         : DEPTH        - DEPTH
GR  .API      00 310 00 00         : GR           - GAMMA RAY
DELT.US/F     00 520 00 00         : DELT         - SONIC TRAVEL TIME
ILD .OHMM     00 120 00 00         : RESD         - DEEP RESISTIVITY (DIL)
~PARAMETER INFORMATION
#MNEM.UNIT           DATA             DESCRIPTION OF MNEMONIC
#---------         -----------     ------------------------------
GL  .M        678.028              : gl           - GROUND LEVEL ELEVATION
EREF.M        681.533              : kb           - ELEVATION OF DEPTH REFERENCE
DATM.M        681.533              : datum        - DATUM ELEVATION
TDD .M        787.908              : tdd          - TOTAL DEPTH DRILLER
RUN .         ONE                  : Run          - RUN NUMBER
ENG .         BILL                 : Engineer     - RECORDING ENGINEER
WIT .         JIM                  : Witness      - WITNESSED BY
MUD .         GEL                  : Mud_type     - MUD TYPE
MATR.         SANDSTONE            : Logunit      - NEUTRON MATRIX
TMAX.C        26.6667              : BHT          - MAXIMUM RECORDED TEMPERATURE
BHTD.M        787.908              : BHTDEP       - MAXIMUM RECORDED TEMPERATURE
MATR.         1                    : LOGUNIT      - NEUTRON MATRIX
RMT .C        25                   : MDTP         - TEMPERATURE OF MUD
NEUT.         1                    : NEUTRON      - NEUTRON TYPE
RESI.         0                    : RESIST       - RESISTIVITY TYPE
RMC .OHMM     1.13                 : RMC          - RESISTIVITY OF MUD CAKE
RMF .OHMM     0.82                 : RMF          - RESISTIVITY OF MUD FILTRATE
SUFT.C        15                   : SUFT         - SURFACE TEMPERATURE
~A  DEPTH       GR     DELT     RESD
# ...
  359.050   75.331  425.619    9.871
  359.300   74.726  424.295   10.051
  359.550   74.723  422.970    9.487
  359.800   74.720  426.958    8.955
  360.050   74.114  436.925    8.617
  360.300   73.508  452.205    8.132
  360.550   73.504  457.523    7.976
  360.800   73.503  457.527    7.819
  361.050   75.308  454.875    7.964
  361.300   78.923  453.550    8.419
  361.550   80.728  448.240    8.741
  361.800   77.709  445.587   10.157
  362.050   77.106  444.263   10.547
  362.300   75.294  428.327   12.029
  362.550   72.276  424.345   12.967
  362.800   68.655  419.035   14.515
  363.050   64.432  414.390   16.871
  363.300   59.605  417.715   18.530
  363.550   54.779  422.368   19.976
  363.800   52.365  425.692   21.936
  364.050   50.553  429.683   21.504
  364.300   50.550  428.357   21.088
  364.550   51.753  427.033   20.293
  364.800   52.954  425.709   19.158
  365.050   54.159  425.047   18.087
  365.300   55.965  424.388   16.431
  365.550   56.565  423.728   15.518
  365.800   57.767  422.403   15.219
  366.050   59.572  420.415   14.095
  366.300   60.173  419.089   13.823
  366.550   60.773  415.108   13.294
  366.800   62.579  409.135   13.037
  367.050   63.782  407.811   12.785
  367.300   62.573  407.149   12.298
  367.550   61.365  407.153   12.058
  367.800   58.346  407.157   11.601
  368.050   57.741  409.818   11.375
  368.300   58.944  412.480   10.734
  368.550   62.559  413.810   10.529
  368.800   65.570  416.472    9.940
  369.050   66.170  419.131    9.563
  369.300   66.770  420.464    9.027
  369.550   66.768  419.140    8.851
  369.800   66.765  417.816    8.840
  370.050   66.761  417.154    8.837
  370.300   65.552  417.158    8.664
  370.550   65.549  418.490    8.659
  370.800   67.355  421.151    8.651
  371.050   69.764  427.132    8.646
  371.300   70.966  430.458    8.475
  371.550   71.567  429.797    8.469
  371.800   71.565  428.473    8.464
  372.050   72.164  428.477    8.457
  372.300   72.765  431.801    8.450
  372.550   73.364  437.119    8.442
  372.800   73.964  430.480    8.437
  373.050   74.565  428.492    8.430
  373.300   74.561  429.160    8.420
  373.550   73.955  429.164    8.576
  373.800   72.745  425.848    8.569
  374.050   72.140  423.858    8.728
  374.300   71.534  422.533    8.719
  374.550   71.532  422.537    8.877
  374.800   70.926  423.206    8.872
  375.050   73.937  423.209    8.865
  375.300   75.140  422.550    8.858
  375.550   76.343  421.889    8.849
  375.800   76.943  421.229    9.015
  376.050   76.337  421.232    9.006
  376.300   76.335  421.901    9.169
  376.550   75.729  421.903    9.164
  376.800   75.726  422.573    9.508
  377.050   75.723  422.576    9.504
  377.300   75.720  421.253    9.674
  377.550   75.716  420.592    9.669
  377.800   75.715  419.931    9.659
  378.050   75.711  419.272    9.655
  378.300   75.708  419.274    9.648
  378.550   75.103  420.606    9.282
  378.800   74.497  423.266    8.930
  379.050   73.890  426.591    8.592
  379.300   73.285  417.297    8.423
  379.550   71.473  410.659    8.578
  379.800   69.661  406.677    8.736
  380.050   67.247  403.361    9.411
  380.300   64.833  404.029    9.585
  380.550   65.433  404.033    9.398
  380.800   68.444  404.037    9.042
  381.050   70.853  402.713    8.701
  381.300   75.069  404.045    7.906
  381.550   75.671  410.026    7.466
  381.800   76.271  418.000    7.184
  382.050   75.061  425.310    6.782
  382.300   71.441  426.642    7.038
  382.550   67.820  420.004    8.029
  382.800   64.804  420.672    8.650
  383.050   62.991  422.670    8.485
  383.300   65.400  424.002    8.007
  383.550   66.604  427.990    7.854
  383.800   69.012  432.644    7.413
  384.050   69.612  434.639    6.997
  384.300   69.609  433.315    6.735
  384.550   69.004  427.341    6.239
  384.800   67.795  425.352    5.670
  385.050   67.791  424.692    5.251
  385.300   70.199  424.696    4.960
  385.550   72.005  424.700    4.682
  385.800   73.208  435.995    4.255
  386.050   76.220  460.573    3.867
  386.300   79.232  469.212    3.583
  386.550   82.845  471.873    3.196
  386.800   81.637  469.219    3.075
  387.050   79.224  467.231    3.015
  387.300   76.206  469.227    3.013
  387.550   73.188  468.567    3.068
  387.800   71.980  465.915    3.244
  388.050   72.580  466.583    3.367
  388.300   71.369  465.922    3.840
  388.550   69.558  461.940    4.299
  388.800   65.939  451.981    4.905
  389.050   61.112  428.075    6.036
  389.300   52.066  416.123    7.151
  389.550   48.445  415.463    8.157
  389.800   47.236  414.802    8.465
  390.050   46.629  414.806    8.785
  390.300   47.230  414.810    8.944
  390.550   47.228  414.815    9.108
  390.800   47.828  414.818    9.100
  391.050   49.633  414.824    9.092
  391.300   50.835  414.826    9.086
  391.550   51.436  415.494    9.075
  391.800   52.035  417.490    9.072
  392.050   52.033  420.151    9.065
  392.300   52.031  423.476    9.056
  392.550   52.028  424.144    9.052
  392.800   52.628  422.820    8.874
  393.050   53.830  420.831    8.869
  393.300   56.842  420.835    8.862
  393.550   58.044  422.166    8.855
  393.800   58.042  424.163    8.846
  394.050   56.833  425.495    8.839
  394.300   55.020  425.499    8.834
  394.550   54.416  424.838    8.658
  394.800   55.015  422.850    8.653
  395.050   56.218  422.854    8.648
  395.300   57.422  423.523    8.641
  395.550   58.021  422.861    8.473
  395.800   57.415  420.872    8.307
  396.050   58.015  418.221    8.143
  396.300   59.218  416.895    7.986
  396.550   60.420  414.243    7.683
  396.800   62.226  412.253    7.533
  397.050   62.827  409.601    7.385
  397.300   62.221  412.926    7.379
  397.550   61.011  417.579    7.372
  397.800   61.010  416.918    7.369
  398.050   60.404  402.974    7.363
  398.300   59.798  397.665    7.356
  398.550   61.604  402.319    7.492
  398.800   64.013  406.971    7.486
  399.050   65.216  408.967    7.620
  399.300   64.007  404.987    7.761
  399.550   62.195  406.321    7.757
  399.800   61.588  408.981    7.749
  400.050   61.586  408.320    7.743
  400.300   61.583  404.339    7.738
  400.550   61.580  401.021    7.731
  400.800   63.989  401.690    7.726
  401.050   69.412  407.006    7.866
  401.300   72.424  414.316    7.713
  401.550   73.024  426.940    6.749
  401.800   73.624  448.197    6.136
  402.050   73.018  458.164    5.269
  402.300   72.411  456.839    4.881
  402.550   71.806  446.216    5.064
  402.800   71.201  430.944    5.256
  403.050   70.595  427.628    5.456
  403.300   71.797  429.623    5.878
  403.550   73.001  432.284    6.101
  403.800   74.203  434.280    6.451
  404.050   74.804  430.300    6.571
  404.300   74.197  431.633    6.688
  404.550   73.592  433.629    6.686
  404.800   73.588  436.953    6.682
  405.050   73.586  438.287    6.674
  405.300   73.582  438.954    6.671
  405.550   73.581  436.965    6.792
  405.800   72.975  432.983    6.917
  406.050   70.559  430.994    7.315
  406.300   69.351  427.013    7.736
  406.550   65.126  419.711    8.183
  406.800   63.316  413.737    9.160
  407.050   61.505  406.435   10.063
  407.300   57.883  392.491   11.922
  407.550   54.865  227.778   16.433
  407.800   53.053  229.774   23.084
  408.050   52.448  237.747   21.384
  408.300   52.445  267.639   18.365
  408.550   52.442  289.561   15.773
  408.800   55.453  367.939   13.805
  409.050   56.657  385.876   10.990
  409.300   60.875  403.148    9.262
  409.550   63.283  421.085    7.805
  409.800   63.281  446.328    6.576
  410.050   63.276  424.415    5.866
  410.300   63.877  425.083    5.434
  410.550   64.478  426.414    5.430
  410.800   66.885  429.077    5.634
  411.050   68.691  429.743    5.630
  411.300   69.894  429.747    5.732
  411.550   71.700  429.751    5.840
  411.800   72.300  429.090    5.946
  412.050   72.298  429.094    5.939
  412.300   71.088  429.098    6.049
  412.550   71.086  427.110    6.046
  412.800   71.084  425.121    6.156
  413.050   71.081  422.469    6.269
