~VERSION INFORMATION
 VERS.                 2.0:   CWLS LOG ASCII STANDARD -VERSION 2.0
 WRAP.                  NO:   ONE LINE PER DEPTH STEP
~WELL INFORMATION BLOCK
#MNEM.UNIT           DATA                    DESCRIPTION OF MNEMONIC
#---------    -------------------            -------------------------------
# Generated from Intellog Unique Number	CW_73_75/WELL/3524
WELL.         ULSTER MARTIN HILLS            : Well_name    - WELL
LOC .         00/09-09-074-02W5/0            : Location     - LOCATION
UWI .         00/09-09-074-02W5/0            : Uwi          - UNIQUE WELL ID
ENTR.         T                              : Entered      - ENTERED BY
SRVC.         SCHLUMBERGER                   : Scn          - SERVICE COMPANY
STRT.M        355                            : top_depth    - START DEPTH
STOP.M        615                            : bot_depth    - STOP DEPTH
STEP.M        0.25                           : increment    - STEP LENGTH
 NULL. -999.2500:NULL Value
~CURVE INFORMATION BLOCK
#MNEM UNIT       ERCB CURVE CODE    CURVE DESCRIPTION
#-----------   ------------------   ----------------------------------
DEPT.M        00 001 00 00         : DEPTH        - DEPTH
GR  .API      00 310 00 00         : GR           - GAMMA RAY
NPHI.V/V      00 330 00 00         : PHIN         - NEUTRON POROSITY (SANDSTONE)
DPHI.V/V      00 890 00 00         : PHID         - DENSITY POROSITY (SANDSTONE)
ILD .OHMM     00 120 00 00         : RESD         - DEEP RESISTIVITY (DIL)
~PARAMETER INFORMATION
#MNEM.UNIT           DATA             DESCRIPTION OF MNEMONIC
#---------         -----------     ------------------------------
GL  .M        636                  : gl           - GROUND LEVEL ELEVATION
EREF.M        639                  : kb           - ELEVATION OF DEPTH REFERENCE
DATM.M        639                  : datum        - DATUM ELEVATION
TDD .M        620                  : tdd          - TOTAL DEPTH DRILLER
RUN .         ONE                  : Run          - RUN NUMBER
ENG .         BILL                 : Engineer     - RECORDING ENGINEER
WIT .         JIM                  : Witness      - WITNESSED BY
MUD .         GEL                  : Mud_type     - MUD TYPE
MATR.         SANDSTONE            : Logunit      - NEUTRON MATRIX
TMAX.C        21                   : BHT          - MAXIMUM RECORDED TEMPERATURE
BHTD.M        620                  : BHTDEP       - MAXIMUM RECORDED TEMPERATURE
RMT .C        22                   : MDTP         - TEMPERATURE OF MUD
MUDD.KG/M     1130                 : MWT          - MUD DENSITY
NEUT.         1                    : NEUTRON      - NEUTRON TYPE
RESI.         0                    : RESIST       - RESISTIVITY TYPE
RM  .OHMM     3.2                  : RM           - RESISTIVITY OF MUD
RMC .OHMM     3.5                  : RMC          - RESISTIVITY OF MUD CAKE
RMF .OHMM     2.4                  : RMF          - RESISTIVITY OF MUD FILTRATE
SUFT.C        4                    : SUFT         - SURFACE TEMPERATURE
~A  DEPTH       GR     PHIN     PHID     RESD
# ...
  572.500   93.142    0.319    0.130    9.757
  572.750   90.852    0.316    0.128    9.584
  573.000   95.486    0.321    0.126    9.253
  573.250  101.273    0.328    0.128    9.092
  573.500  101.296    0.334    0.131    8.619
  573.750   99.579    0.339    0.136    8.471
  574.000  100.760    0.341    0.136    8.476
  574.250  100.779    0.339    0.132    8.331
  574.500   98.485    0.336    0.126    8.492
  574.750   95.041    0.321    0.116    9.312
  575.000   81.790    0.302    0.087   10.210
  575.250   73.155    0.274    0.039   12.269
  575.500   61.635    0.235    0.006   14.736
  575.750   61.076    0.267    0.039   15.580
  576.000   75.517    0.276    0.037   15.597
  576.250   76.694    0.259    0.027   15.608
  576.500   69.212    0.235    0.006   16.206
  576.750   67.500    0.226   -0.001   16.824
  577.000   71.561    0.227    0.006   16.839
  577.250   76.767    0.254    0.031   15.959
  577.500   86.593    0.280    0.056   15.119
  577.750   91.235    0.288    0.077   13.816
  578.000   94.138    0.302    0.084   13.088
  578.250   96.464    0.320    0.098   11.957
  578.500   98.785    0.331    0.092   10.929
  578.750   93.611    0.335    0.078   10.351
  579.000   94.207    0.345    0.105    9.288
  579.250   99.999    0.345    0.114    8.641
  579.500   97.709    0.317    0.118    8.190
  579.750   94.270    0.316    0.113    8.045
  580.000   94.861    0.316    0.119    7.764
  580.250   97.191    0.320    0.129    7.630
  580.500   97.787    0.321    0.135    7.233
  580.750   98.382    0.324    0.139    6.982
  581.000   98.400    0.327    0.137    6.859
  581.250   97.264    0.328    0.134    6.620
  581.500   99.013    0.329    0.131    6.389
  581.750  101.921    0.329    0.160    6.054
  582.000  105.405    0.329    0.206    5.529
  582.250  104.846    0.338    0.219    4.960
  582.500  104.855    0.363    0.231    4.450
  582.750  104.874    0.407    0.228    3.710
  583.000  106.050    0.454    0.202    3.268
  583.250  105.492    0.470    0.199    2.676
  583.500  106.668    0.471    0.192    2.536
  583.750  107.259    0.444    0.182    3.725
  584.000  107.854    0.426    0.177    4.011
  584.250  106.718    0.403    0.174    4.240
  584.500  105.010    0.391    0.162    4.485
  584.750  102.721    0.372    0.145    4.569
  585.000   98.124    0.341    0.113    4.743
  585.250   95.258    0.331    0.075    5.016
  585.500   97.588    0.332    0.063    5.207
  585.750   99.332    0.329    0.051    5.212
  586.000  102.235    0.327    0.067    5.218
  586.250  102.254    0.336    0.040    5.319
  586.500  102.272    0.343    0.066    5.420
  586.750  106.914    0.340    0.107    5.427
  587.000  107.505    0.334    0.083    5.430
  587.250  101.182    0.331    0.074    5.536
  587.500   98.888    0.336    0.073    5.540
  587.750   94.295    0.334    0.073    5.648
  588.000   93.155    0.330    0.074    5.655
  588.250   98.942    0.326    0.078    5.764
  588.500  100.119    0.330    0.086    5.874
  588.750  100.137    0.335    0.098    5.990
  589.000   97.853    0.335    0.109    6.105
  589.250   95.558    0.331    0.116    6.112
  589.500   82.308    0.327    0.119    6.116
  589.750   66.749    0.323    0.148    6.121
  590.000   55.234    0.314    0.168    6.016
  590.250   55.824    0.306    0.171    5.912
  590.500   57.001    0.315    0.158    5.918
  590.750   55.284    0.308    0.147    5.924
  591.000   54.725    0.294    0.127    5.930
  591.250   60.517    0.269    0.116    5.934
  591.500   61.689    0.281    0.106    5.942
  591.750   53.635    0.260    0.096    5.944
  592.000   54.230    0.251    0.177    5.634
  592.250   55.975    0.278    0.167    4.964
  592.500   58.300    0.317    0.163    4.702
  592.750   62.362    0.330    0.157    4.972
  593.000   65.264    0.328    0.151    5.451
  593.250   54.317    0.323    0.146    5.870
  593.500   39.912    0.317    0.139    6.436
  593.750   28.392    0.311    0.125    7.455
  594.000   24.376    0.287    0.080    8.796
  594.250   24.395    0.187    0.096    8.335
  594.500   27.297    0.230    0.130    5.584
  594.750   10.008    0.250    0.165    5.009
  595.000   10.031    0.266    0.223    4.332
  595.250   11.198    0.282    0.256    3.679
  595.500   13.529    0.289    0.257    3.241
  595.750   15.855    0.295    0.257    3.015
  596.000   17.022    0.303    0.258    2.964
  596.250   19.934    0.307    0.264    3.133
  596.500   21.688    0.308    0.261    3.312
  596.750   22.274    0.307    0.218    3.632
  597.000   21.143    0.306    0.193    4.960
  597.250   18.849    0.301    0.170    5.340
  597.500   16.559    0.257    0.196    5.542
  597.750   14.847    0.241    0.172    5.650
  598.000   13.139    0.242    0.163    5.554
  598.250   14.893    0.225    0.197    5.457
  598.500   16.637    0.217    0.210    5.364
  598.750   21.847    0.223    0.190    5.777
  599.000   27.058    0.198    0.188    6.108
  599.250   32.845    0.270    0.229    6.576
  599.500   51.906    0.299    0.318    7.081
  599.750   60.001    0.576    0.461    7.622
  600.000   64.635    0.644    0.550    8.207
  600.250   79.658    0.475    0.535    8.366
  600.500   95.829    0.426    0.387    8.684
  600.750  106.232    0.351    0.160    9.017
  601.000  102.217    0.342    0.131    9.028
  601.250   97.038    0.342    0.173    9.542
  601.500   77.441    0.351    0.286   10.088
  601.750   51.503    0.369    0.484   10.865
  602.000   65.362    0.406    0.541   11.279
  602.250   86.154    0.496    0.527   11.499
  602.500   93.672    0.527    0.272   11.722
  602.750   82.729    0.500    0.169   11.946
  603.000   75.824    0.488    0.111   12.632
  603.250   73.544    0.256    0.084   13.111
  603.500   73.558    0.234    0.076   13.864
  603.750   74.148    0.235    0.076   14.390
  604.000   77.060    0.251    0.075   14.938
  604.250   77.651    0.265    0.075   14.422
  604.500   85.169    0.285    0.085   13.669
  604.750   91.533    0.297    0.113   13.428
  605.000   76.552    0.317    0.159   13.440
  605.250   74.839    0.336    0.191   14.744
  605.500   66.781    0.339    0.187   15.581
  605.750   43.150    0.327    0.091   17.089
  606.000   48.933    0.203    0.041   17.736
  606.250   60.494    0.179    0.030   17.752
  606.500   62.820    0.162    0.093   16.829
  606.750   58.800    0.238    0.128   15.943
  607.000   56.510    0.251    0.027   14.568
  607.250   59.990    0.219    0.011   13.309
  607.500   73.282    0.269    0.054   12.159
  607.750   86.569    0.295    0.059   10.710
  608.000   97.549    0.324    0.083    9.963
  608.250  101.028    0.365    0.113    8.619
  608.500   95.854    0.370    0.154    8.470
  608.750   85.493    0.364    0.168    8.478
  609.000   82.622    0.350    0.157    8.332
  609.250   79.760    0.299    0.121    8.187
  609.500   87.278    0.279    0.090    8.046
  609.750   95.373    0.270    0.090    7.626
  610.000   90.776    0.284    0.119    7.361
  610.250   85.607    0.365    0.141    7.236
  610.500   90.236    0.430    0.216    7.109
  610.750  104.104    0.465    0.373    6.987
  611.000  109.892    0.427    0.186    6.868
  611.250  117.410    0.404    0.234    6.749
  611.500  120.313    0.423    0.230    6.396
  611.750  109.370    0.416    0.214    6.170
  612.000  107.662    0.384    0.127    5.638
  612.250  106.526    0.355    0.086    5.342
  612.500  105.967    0.361    0.012    4.881
  612.750  103.678    0.372    0.009    4.975
  613.000  101.975    0.376    0.034    5.071
  613.250  102.561    0.351    0.056    5.169
  613.500  104.314    0.351    0.062    5.466
  613.750  107.789    0.360    0.061    5.675
  614.000  114.158    0.356    0.061    5.890
  614.250  113.600    0.327    0.072    6.114
  614.500  113.618    0.280    0.060    6.121
  614.750  113.636    0.249    0.031    6.016
  615.000  113.654    0.224    0.042    6.021
