~VERSION INFORMATION
 VERS.                 2.0:   CWLS LOG ASCII STANDARD -VERSION 2.0
 WRAP.                  NO:   ONE LINE PER DEPTH STEP
~WELL INFORMATION BLOCK
#MNEM.UNIT           DATA                    DESCRIPTION OF MNEMONIC
#---------    -------------------            -------------------------------
# Generated from Intellog Unique Number	CW_70_72/WELL/3008
NULL.         -999.25                        : NULL_VALUE
WELL.         CHIEFCO ET AL RANCH 06-18      : Well_name    - WELL              
LOC .         06-18-070-26W4                 : Location     - LOCATION          
UWI .         00/06-18-070-26W4/0            : Uwi          - UNIQUE WELL ID    
ENTR.         J                              : Entered      - ENTERED BY        
SRVC.         SCHLUMBERGER                   : Scn          - SERVICE COMPANY   
DATE.         9 AUG 76                       : Date         - LOG DATE          
STRT.M        454.152                        : top_depth    - START DEPTH       
STOP.M        710.152                        : bot_depth    - STOP DEPTH        
STEP.M        0.25                           : increment    - STEP LENGTH       
~CURVE INFORMATION BLOCK
#MNEM UNIT       ERCB CURVE CODE    CURVE DESCRIPTION
#-----------   ------------------   ----------------------------------
DEPT.M        00 001 00 00         : DEPTH        - DEPTH                       
ILD .OHMM     00 120 00 00         : RESD         - DEEP RESISTIVITY (DIL)      
CALI.MM       00 280 01 00         : CAL          - CALIPER                     
GR  .API      00 310 00 00         : GR           - GAMMA RAY                   
NPHI.V/V      00 330 00 00         : PHIN         - NEUTRON POROSITY (SANDSTONE)
DPHI.V/V      00 890 00 00         : PHID         - DENSITY POROSITY (SANDSTONE)
~PARAMETER INFORMATION       
#MNEM.UNIT           DATA             DESCRIPTION OF MNEMONIC
#---------         -----------     ------------------------------
GL  .M        623.316              : gl           - GROUND LEVEL ELEVATION      
EREF.M        626.059              : kb           - ELEVATION OF DEPTH REFERENCE
DATM.M        623.316              : datum        - DATUM ELEVATION             
TDD .M        723.9                : tdd          - TOTAL DEPTH DRILLER         
RUN .         ONE                  : Run          - RUN NUMBER                  
ENG .         MUNRO/SEDGWICK       : Engineer     - RECORDING ENGINEER          
BASE.         EDM                  : Branch       - HOME BASE OF LOGGING UNIT   
MUD .         GEL                  : Mud_type     - MUD TYPE                    
MATR.         SANDSTONE            : Logunit      - NEUTRON MATRIX              
TMAX.C        28.3333              : BHT          - MAXIMUM RECORDED TEMPERATURE
BHTD.M        722.681              : BHTDEP       - MAXIMUM RECORDED TEMPERATURE
RMT .C        22.2222              : MDTP         - TEMPERATURE OF MUD          
MUDD.KG/M     1116                 : MWT          - MUD DENSITY                 
NEUT.         1                    : NEUTRON      - NEUTRON TYPE                
RESI.         0                    : RESIST       - RESISTIVITY TYPE            
RM  .OHMM     3.29                 : RM           - RESISTIVITY OF MUD          
RMC .OHMM     2.5                  : RMC          - RESISTIVITY OF MUD CAKE     
RMF .OHMM     3.04                 : RMF          - RESISTIVITY OF MUD FILTRATE 
SUFT.C        -17.7778             : SUFT         - SURFACE TEMPERATURE         
~A  DEPTH     RESD      CAL       GR     PHIN     PHID
  454.152    1.968  222.119  102.334    0.566    0.233
  454.402    1.990  213.762  102.981    0.564    0.229
  454.652    1.987  209.615  101.445    0.537    0.235
  454.902    1.980  213.500   99.301    0.536    0.228
  455.152    1.951  210.373   97.524    0.555    0.215
  455.402    1.934  210.754   96.227    0.537    0.216
  455.652    1.945  213.491   94.086    0.528    0.246
  455.902    1.996  216.840   91.999    0.539    0.248
  456.152    2.117  218.862   88.645    0.546    0.285
  456.402    2.304  218.210   84.071    0.562    0.279
  456.652    2.545  230.926   78.650    0.575    0.289
  456.902    2.734  228.720   71.778    0.542    0.308
  457.152    2.921  203.106   65.204    0.417    0.326
  457.402    2.998  166.098   58.637    0.397    0.273
  457.652    3.037  157.229   56.614    0.389    0.210
  457.902    2.994  151.138   57.017    0.383    0.226
  458.152    2.924  148.641   58.450    0.388    0.232
  458.402    2.856  147.985   60.916    0.401    0.260
  458.652    2.867  148.165   63.511    0.421    0.275
  458.902    3.007  147.911   65.485    0.423    0.281
  459.152    3.120  148.510   67.832    0.430    0.279
  459.402    3.173  148.767   66.719    0.440    0.265
  459.652    2.906  148.744   68.521    0.434    0.242
  459.902    2.726  148.302   68.141    0.425    0.219
  460.152    2.590  148.158   68.239    0.435    0.196
  460.402    2.520  148.220   73.131    0.444    0.180
  460.652    2.516  148.492   78.141    0.423    0.275
  460.902    2.545  149.484   84.434    0.444    0.296
  461.152    2.650  157.883   91.328    0.462    0.263
  461.402    2.796  176.122   99.129    0.501    0.259
  461.652    2.927  174.036   98.563    0.478    0.268
  461.902    3.048  168.865   90.715    0.466    0.234
  462.152    3.111  165.033   84.633    0.487    0.244
  462.402    3.129  164.591   81.888    0.474    0.230
  462.652    3.113  163.724   80.961    0.424    0.255
  462.902    3.091  157.632   80.746    0.389    0.242
  463.152    3.069  151.240   82.432    0.403    0.252
  463.402    3.036  149.034   87.559    0.405    0.254
  463.652    3.025  148.484   93.186    0.390    0.246
  463.902    3.015  153.281   97.595    0.386    0.231
  464.152    2.977  155.711   99.329    0.435    0.210
  464.402    2.956  156.503   90.999    0.465    0.207
  464.652    2.946  154.819   82.909    0.467    0.251
  464.902    2.941  149.649   77.128    0.448    0.263
  465.152    2.958  143.673   76.561    0.430    0.247
  465.402    3.047  141.892   79.272    0.421    0.237
  465.652    2.863  142.974   82.528    0.438    0.231
  465.902    3.026  147.057   88.152    0.449    0.239
  466.152    3.245  150.911   88.915    0.454    0.227
  466.402    3.392  153.140   83.381    0.451    0.220
  466.652    3.392  150.960   81.835    0.446    0.206
  466.902    3.307  147.528   79.207    0.450    0.196
  467.152    3.218  146.561   76.699    0.458    0.205
  467.402    3.195  146.529   80.443    0.462    0.232
  467.652    3.208  147.519   85.154    0.463    0.255
  467.902    3.316  150.676   91.504    0.463    0.235
  468.152    3.491  153.931   96.274    0.459    0.213
  468.402    3.703  158.003   92.978    0.451    0.215
  468.652    3.808  160.424   85.799    0.463    0.248
  468.902    3.843  165.321   76.435    0.481    0.284
  469.152    3.665  169.806   68.529    0.412    0.341
  469.402    3.426  152.722   79.851    0.379    0.284
  469.652    3.213  146.936   88.746    0.412    0.247
  469.902    3.110  148.349   92.731    0.430    0.203
  470.152    2.896  150.159   89.678    0.442    0.195
  470.402    2.633  150.633   84.319    0.422    0.212
  470.652    2.312  149.070   77.017    0.412    0.233
  470.902    2.102  149.650   68.506    0.414    0.240
  471.152    1.929  150.730   58.489    0.404    0.253
  471.402    1.773  150.082   53.061    0.368    0.274
  471.652    1.706  146.970   50.975    0.358    0.287
  471.902    1.694  145.196   58.843    0.357    0.288
  472.152    1.707  143.504   62.949    0.364    0.277
  472.402    1.708  142.244   62.205    0.371    0.262
  472.652    1.714  142.514   59.209    0.369    0.264
  472.902    1.702  143.096   59.554    0.361    0.286
  473.152    1.734  143.782   63.172    0.365    0.278
  473.402    1.793  145.598   69.823    0.379    0.257
  473.652    1.857  148.021   72.106    0.397    0.258
  473.902    1.902  149.941   71.838    0.414    0.263
  474.152    1.973  148.878   67.095    0.402    0.251
  474.402    2.070  148.126   67.858    0.395    0.270
  474.652    2.192  144.503   74.871    0.401    0.289
  474.902    2.291  142.418   83.889    0.397    0.270
  475.152    2.421  141.766   85.081    0.391    0.241
  475.402    2.587  141.319   87.133    0.386    0.231
  475.652    2.759  142.111   89.478    0.383    0.229
  475.902    2.970  142.678   92.543    0.380    0.232
  476.152    3.115  145.219   97.190    0.378    0.232
  476.402    3.292  148.977  102.815    0.377    0.227
  476.652    3.485  160.238  106.553    0.388    0.221
  476.902    3.583  178.918  109.808    0.444    0.205
  477.152    3.380  190.164  107.545    0.465    0.271
  477.402    3.153  185.917  108.621    0.428    0.296
  477.652    2.764  168.214  115.332    0.402    0.223
  477.902    2.383  158.219  112.214    0.387    0.194
  478.152    2.013  157.155  109.532    0.382    0.241
  478.402    1.824  161.436  111.873    0.473    0.271
  478.652    1.851  182.767  115.248    0.575    0.265
  478.902    1.989  236.552  114.439    0.573    0.309
  479.152    2.229  226.347  111.322    0.569    0.271
  479.402    2.507  215.742  114.939    0.584    0.259
  479.652    2.804  210.469  112.199    0.571    0.271
  479.902    2.883  196.970  109.691    0.521    0.286
  480.152    2.959  180.820  105.597    0.496    0.301
  480.402    3.020  164.135   91.995    0.540    0.289
  480.652    3.054  177.454   83.601    0.496    0.280
  480.902    3.021  168.691   75.207    0.475    0.306
  481.152    3.044  156.642   79.675    0.452    0.239
  481.402    3.073  154.658   84.326    0.443    0.235
  481.652    3.124  154.211   86.370    0.433    0.232
  481.902    3.125  153.760   88.537    0.433    0.223
  482.152    3.097  153.111   91.120    0.430    0.244
  482.402    3.126  152.770   95.591    0.425    0.236
  482.652    3.232  153.247   95.689    0.431    0.209
  482.902    3.473  152.512   87.245    0.447    0.206
  483.152    3.835  151.027   81.941    0.462    0.216
  483.402    4.196  148.233   76.465    0.450    0.239
  483.652    4.575  146.839   74.989    0.438    0.267
  483.902    4.292  145.271   73.386    0.453    0.200
  484.152    3.924  144.113   61.843    0.357    0.127
  484.402    3.600  143.673   59.089    0.288    0.100
  484.652    3.133  143.124   65.382    0.407    0.112
  484.902    2.880  142.780   68.935    0.438    0.244
  485.152    2.633  142.656   65.947    0.439    0.269
  485.402    2.438  142.590   61.919    0.430    0.280
  485.652    2.283  142.149   60.017    0.419    0.271
  485.902    2.189  142.325   65.523    0.424    0.274
  486.152    2.138  142.400   64.648    0.440    0.288
  486.402    2.103  143.086   64.022    0.452    0.297
  486.652    2.174  144.269   68.432    0.446    0.289
  486.902    2.269  147.320   75.328    0.414    0.285
  487.152    2.307  149.542   81.009    0.408    0.275
  487.402    2.249  152.285   85.171    0.428    0.248
  487.652    2.188  154.619   86.180    0.454    0.235
  487.902    2.157  156.110   83.309    0.460    0.311
  488.152    2.107  151.464   83.714    0.448    0.284
  488.402    2.190  149.265   86.182    0.456    0.270
  488.652    2.293  147.482   88.831    0.468    0.268
  488.902    2.392  145.311   90.874    0.471    0.261
  489.152    2.514  144.751   87.574    0.437    0.263
  489.402    2.604  144.424   85.379    0.417    0.275
  489.652    2.742  145.395   89.476    0.409    0.283
  489.902    2.898  147.010   97.762    0.408    0.268
  490.152    3.085  150.887  107.448    0.417    0.232
  490.402    3.284  153.407  111.920    0.441    0.223
