~VERSION INFORMATION
 VERS.                 2.0:   CWLS LOG ASCII STANDARD -VERSION 2.0
 WRAP.                  NO:   ONE LINE PER DEPTH STEP
~WELL INFORMATION BLOCK
#MNEM.UNIT           DATA                    DESCRIPTION OF MNEMONIC
#---------    -------------------            -------------------------------
# Generated from Intellog Unique Number	CS_73_76/WELL/774
WELL.         BOW VALLEY INDUSTRIES LTD.     : Well_name    - WELL
LOC .         00/07-33-073-16W4/0            : Location     - LOCATION
UWI .         00/07-33-073-16W4/0            : Uwi          - UNIQUE WELL ID
ENTR.         SP                             : Entered      - ENTERED BY
SRVC.         SCHLUMBERGER                   : Scn          - SERVICE COMPANY
STRT.M        245                            : top_depth    - START DEPTH
STOP.M        461                            : bot_depth    - STOP DEPTH
STEP.M        0.25                           : increment    - STEP LENGTH
 NULL. -999.2500:NULL Value
~CURVE INFORMATION BLOCK
#MNEM UNIT       ERCB CURVE CODE    CURVE DESCRIPTION
#-----------   ------------------   ----------------------------------
DEPT.M        00 001 00 00         : DEPTH        - DEPTH
ILD .OHMM     00 120 00 00         : RESD         - DEEP RESISTIVITY (DIL)
DPHI.V/V      00 890 00 00         : PHID         - DENSITY POROSITY (LIMESTONE)
NPHI.V/V      00 330 00 00         : PHIN         - NEUTRON POROSITY (LIMESTONE)
GR  .API      00 310 00 00         : GR           - GAMMA RAY
~PARAMETER INFORMATION
#MNEM.UNIT           DATA             DESCRIPTION OF MNEMONIC
#---------         -----------     ------------------------------
GL  .M        586.26               : gl           - GROUND LEVEL ELEVATION
EREF.M        589.81               : kb           - ELEVATION OF DEPTH REFERENCE
DATM.M        586.26               : datum        - DATUM ELEVATION
TDD .M        463                  : tdd          - TOTAL DEPTH DRILLER
RUN .         ONE                  : Run          - RUN NUMBER
ENG .         BILL                 : Engineer     - RECORDING ENGINEER
WIT .         JIM                  : Witness      - WITNESSED BY
MUD .         GEL                  : Mud_type     - MUD TYPE
MATR.         LIMESTONE            : Logunit      - NEUTRON MATRIX
TMAX.C        23                   : BHT          - MAXIMUM RECORDED TEMPERATURE
BHTD.M        463                  : BHTDEP       - MAXIMUM RECORDED TEMPERATURE
MATR.         1                    : LOGUNIT      - NEUTRON MATRIX
RMT .C        25                   : MDTP         - TEMPERATURE OF MUD
NEUT.         1                    : NEUTRON      - NEUTRON TYPE
RESI.         0                    : RESIST       - RESISTIVITY TYPE
RMC .OHMM     0.25                 : RMC          - RESISTIVITY OF MUD CAKE
RMF .OHMM     0.25                 : RMF          - RESISTIVITY OF MUD FILTRATE
SUFT.C        15                   : SUFT         - SURFACE TEMPERATURE
~A  DEPTH     RESD     PHID     PHIN       GR
# ...
  419.000    4.631    0.179    0.422  107.586
  419.250    4.217    0.192    0.454  108.199
  419.500    3.987    0.192    0.483  105.157
  419.750    3.988    0.200    0.489  101.503
  420.000    4.065    0.193    0.500   96.631
  420.250    4.637    0.154    0.495   84.441
  420.500    5.596    0.040    0.412   68.592
  420.750    6.264    0.015    0.297   59.451
  421.000    7.281    0.041    0.258   74.093
  421.250    8.306    0.080    0.358   83.854
  421.500    7.855    0.152    0.388   96.665
  421.750    7.567    0.182    0.399   96.671
  422.000    7.568    0.174    0.406   96.066
  422.250    7.713    0.171    0.403   99.731
  422.500    7.862    0.166    0.398  100.345
  422.750    7.864    0.152    0.394   95.473
  423.000    7.866    0.113    0.390   93.040
  423.250    8.017    0.129    0.384   97.923
  423.500    8.020    0.149    0.400  102.198
  423.750    8.021    0.179    0.406   97.326
  424.000    8.175    0.185    0.414   92.454
  424.250    8.177    0.117    0.423   86.970
  424.500    8.335    0.091    0.409   86.365
  424.750    8.337    0.112    0.405   92.471
  425.000    8.496    0.138    0.420   93.694
  425.250    8.499    0.160    0.412   93.701
  425.500    8.501    0.160    0.406   96.145
  425.750    8.504    0.178    0.402   94.931
  426.000    8.506    0.158    0.398   96.157
  426.250    8.507    0.124    0.398   99.822
  426.500    8.196    0.126    0.422  101.656
  426.750    7.750    0.152    0.430   96.786
  427.000    7.327    0.161    0.433   94.959
  427.250    7.192    0.136    0.398   96.184
  427.500    7.612    0.150    0.420  101.678
  427.750    8.054    0.223    0.437   90.098
  428.000    8.850    0.251    0.413   75.469
  428.250    9.191    0.275    0.333   73.036
  428.500    9.726    0.281    0.347   72.432
  428.750    9.912    0.254    0.358   73.047
  429.000   11.306    0.177    0.364   71.833
  429.250   16.462    0.128    0.358   69.399
  429.500   21.017    0.079    0.337   68.185
  429.750   25.844    0.112    0.317   69.411
  430.000   26.840    0.143    0.342   70.636
  430.250   23.544    0.190    0.349   71.251
  430.500   21.845    0.228    0.356   74.308
  430.750   20.270    0.216    0.363   76.751
  431.000   18.459    0.206    0.370   80.414
  431.250   16.810    0.201    0.365   90.179
  431.500   14.471    0.197    0.363   95.673
  431.750   13.427    0.189    0.358   98.725
  432.000   12.694    0.179    0.354  106.048
  432.250   11.345    0.168    0.367  111.541
  432.500   10.139    0.162    0.361  116.425
  432.750    9.233    0.158    0.364  120.089
  433.000    8.729    0.171    0.377  120.704
  433.250   10.735    0.186    0.387  112.784
  433.500   14.775    0.201    0.377   93.885
  433.750   19.956    0.220    0.361   75.598
  434.000   25.477    0.227    0.342   62.799
  434.250   31.921    0.220    0.313   53.049
  434.500   39.255    0.234    0.294   50.615
  434.750   45.626    0.260    0.288   48.183
  435.000   50.127    0.295    0.317   45.749
  435.250   53.044    0.284    0.349   44.534
  435.500   33.816    0.272    0.355   49.417
  435.750   25.048    0.245    0.333   62.838
  436.000   16.578    0.217    0.313   84.186
  436.250   13.489    0.190    0.318   93.338
  436.500   12.517    0.191    0.342   98.222
  436.750   11.834    0.197    0.329   97.009
  437.000   11.618    0.169    0.323   97.013
  437.250   11.621    0.165    0.316   99.459
  437.500   11.844    0.174    0.339   96.417
  437.750   12.300    0.181    0.338   93.372
  438.000   13.017    0.170    0.337   86.672
  438.250   13.267    0.137    0.359   82.409
  438.500   13.521    0.127    0.355   79.366
  438.750   14.309    0.153    0.340   77.540
  439.000   14.583    0.168    0.333   79.377
  439.250   15.146    0.182    0.319   86.701
  439.500   15.149    0.197    0.307   89.143
  439.750   15.153    0.220    0.340   89.758
  440.000   14.327    0.209    0.345   95.864
  440.250   13.546    0.185    0.329  103.796
  440.500   13.049    0.170    0.349  110.507
  440.750   12.338    0.158    0.358  109.293
  441.000   12.112    0.155    0.343   95.275
  441.250   12.115    0.197    0.332   86.743
  441.500   12.349    0.209    0.324   93.457
  441.750   12.825    0.186    0.335  100.171
  442.000   13.072    0.171    0.339  102.004
  442.250   13.576    0.154    0.344   99.571
  442.500   13.837    0.164    0.351   94.089
  442.750   14.102    0.176    0.353   92.877
  443.000   14.373    0.177    0.350   92.272
  443.250   14.648    0.184    0.357   91.666
  443.500   14.652    0.186    0.362   87.405
  443.750   14.655    0.191    0.364   86.190
  444.000   14.660    0.161    0.361   87.417
  444.250   14.662    0.146    0.358   88.641
  444.500   14.946    0.165    0.346   88.645
  444.750   14.949    0.189    0.341   84.383
  445.000   15.237    0.194    0.361   84.999
  445.250   15.239    0.200    0.371   86.224
  445.500   15.533    0.192    0.364   81.961
  445.750   15.830    0.182    0.351   82.577
  446.000   16.135    0.175    0.342   81.972
  446.250   16.139    0.162    0.351   78.928
  446.500   15.259    0.154    0.330   85.032
  446.750   14.158    0.156    0.332  101.502
  447.000   12.654    0.159    0.342  113.703
  447.250   11.964    0.157    0.356  114.319
  447.500   11.312    0.162    0.346  107.007
  447.750   11.316    0.163    0.332  102.744
  448.000   11.318    0.162    0.324  102.141
  448.250   11.536    0.159    0.329  105.805
  448.500   12.208    0.166    0.354   96.665
  448.750   12.677    0.184    0.373   87.523
  449.000   13.930    0.128    0.354   77.161
  449.250   14.196    0.105    0.318   84.485
  449.500   14.200    0.130    0.310   93.029
  449.750   13.940    0.166    0.313   96.083
  450.000   13.429    0.102    0.310   96.698
  450.250   12.002    0.112    0.310   96.093
  450.500   10.930    0.166    0.320   99.148
  450.750   10.729    0.188    0.324  102.811
  451.000   11.143    0.185    0.326  101.597
  451.250   11.356    0.177    0.318   98.554
  451.500   11.793    0.176    0.310  102.219
  451.750   12.718    0.167    0.313   99.785
  452.000   12.961    0.172    0.349   84.547
  452.250   13.210    0.185    0.373  101.625
  452.500   12.969    0.196    0.373  129.682
  452.750   12.493    0.189    0.351  133.955
  453.000   11.812    0.141    0.369  135.790
  453.250   10.961    0.122    0.412  130.308
  453.500   10.759    0.147    0.387  110.800
  453.750   11.386    0.158    0.344   74.829
  454.000   12.277    0.204    0.327   74.225
  454.250   12.991    0.141    0.305   83.987
  454.500   12.995    0.122    0.303   96.189
  454.750   12.519    0.140    0.309  113.878
  455.000   11.400    0.146    0.319  126.688
  455.250   10.000    0.157    0.321  138.281
  455.500    9.454    0.158    0.322  143.163
  455.750    9.457    0.145    0.384  146.829
  456.000    9.639    0.140    0.361  145.614
  456.250    9.641    0.141    0.332  144.400
  456.500   10.013    0.146    0.314  145.016
  456.750   10.015    0.148    0.322  146.241
  457.000   10.207    0.148    0.337  147.467
  457.250   10.403    0.153    0.349  146.252
  457.500   10.603    0.159    0.352  143.211
  457.750   10.808    0.154    0.363  142.604
  458.000   11.015    0.136    0.339  146.270
  458.250   11.019    0.131    0.320  148.714
  458.500   11.021    0.150    0.310  147.499
  458.750   10.618    0.167    0.311  146.287
  459.000   10.229    0.157    0.312  145.072
  459.250    9.672    0.140    0.306  142.030
  459.500    9.145    0.129    0.300  140.814
  459.750    8.809    0.131    0.299  137.163
  460.000    8.329    0.126    0.300  134.121
  460.250    8.489    0.032    0.293  131.686
  460.500   10.245    0.011    0.289  129.861
  460.750   11.686    0.021    0.260  126.821
  461.000   15.784    0.016    0.160  125.605
