~VERSION INFORMATION
 VERS.                 2.0:   CWLS LOG ASCII STANDARD -VERSION 2.0
 WRAP.                  NO:   ONE LINE PER DEPTH STEP
~WELL INFORMATION BLOCK
#MNEM.UNIT           DATA                    DESCRIPTION OF MNEMONIC
#---------    -------------------            -------------------------------
# Generated from Intellog Unique Number	CS_77_79/WELL/916
WELL.         PCI PCEJ CHARD                 : Well_name    - WELL
LOC .         00/08-04-079-06W4/0            : Location     - LOCATION
UWI .         00/08-04-079-06W4/0            : Uwi          - UNIQUE WELL ID
ENTR.         JHS                            : Entered      - ENTERED BY
SRVC.         SCHLUMBERGER                   : Scn          - SERVICE COMPANY
STRT.M        80                             : top_depth    - START DEPTH
STOP.M        325                            : bot_depth    - STOP DEPTH
STEP.M        0.25                           : increment    - STEP LENGTH
 NULL. -999.2500:NULL Value
~CURVE INFORMATION BLOCK
#MNEM UNIT       ERCB CURVE CODE    CURVE DESCRIPTION
#-----------   ------------------   ----------------------------------
DEPT.M        00 001 00 00         : DEPTH        - DEPTH
DPHI.V/V      00 890 00 00         : PHID         - DENSITY POROSITY (LIMESTONE)
NPHI.V/V      00 330 00 00         : PHIN         - NEUTRON POROSITY (LIMESTONE)
GR  .API      00 310 00 00         : GR           - GAMMA RAY
ILD .OHMM     00 120 00 00         : RESD         - DEEP RESISTIVITY (DIL)
RHOB.KG/M3    00 350 00 00         : DENS         - BULK DENSITY
~PARAMETER INFORMATION
#MNEM.UNIT           DATA             DESCRIPTION OF MNEMONIC
#---------         -----------     ------------------------------
GL  .M        509.4                : gl           - GROUND LEVEL ELEVATION
EREF.M        512.4                : kb           - ELEVATION OF DEPTH REFERENCE
DATM.M        512.4                : datum        - DATUM ELEVATION
TDD .M        331                  : tdd          - TOTAL DEPTH DRILLER
RUN .         ONE                  : Run          - RUN NUMBER
ENG .         BILL                 : Engineer     - RECORDING ENGINEER
WIT .         JIM                  : Witness      - WITNESSED BY
MUD .         GEL                  : Mud_type     - MUD TYPE
MATR.         LIMESTONE            : Logunit      - NEUTRON MATRIX
TMAX.C        22                   : BHT          - MAXIMUM RECORDED TEMPERATURE
BHTD.M        331                  : BHTDEP       - MAXIMUM RECORDED TEMPERATURE
MATR.         1                    : LOGUNIT      - NEUTRON MATRIX
RMT .C        25                   : MDTP         - TEMPERATURE OF MUD
NEUT.         1                    : NEUTRON      - NEUTRON TYPE
RESI.         0                    : RESIST       - RESISTIVITY TYPE
RMC .OHMM     0.25                 : RMC          - RESISTIVITY OF MUD CAKE
RMF .OHMM     0.25                 : RMF          - RESISTIVITY OF MUD FILTRATE
SUFT.C        15                   : SUFT         - SURFACE TEMPERATURE
~A  DEPTH     PHID     PHIN       GR     RESD     DENS
# ...
  116.500    0.352    0.449   64.896   20.707    0.000
  116.750    0.355    0.447   73.434   17.494    0.000
  117.000    0.352    0.434   88.070   13.206    0.000
  117.250    0.336    0.423  102.097    9.424    0.000
  117.500    0.307    0.423  113.075    7.962    0.000
  117.750    0.271    0.463  114.296    6.985    0.000
  118.000    0.247    0.520  113.688    6.362    0.000
  118.250    0.242    0.516  112.470    5.687    0.000
  118.500    0.253    0.504  109.423    4.989    0.000
  118.750    0.263    0.506  107.596    4.718    0.000
  119.000    0.261    0.541  112.475    4.379    0.000
  119.250    0.251    0.543  119.794    4.299    0.000
  119.500    0.250    0.531  121.016    4.142    0.000
  119.750    0.268    0.541  115.529    4.815    0.000
  120.000    0.306    0.553  102.116    6.384    0.000
  120.250    0.287    0.518  100.289    8.955    0.000
  120.500    0.258    0.464   96.022   11.872    0.000
  120.750    0.245    0.421   83.219   14.878    0.000
  121.000    0.268    0.409   54.562   16.659    0.000
  121.250    0.291    0.412   50.905   16.984    0.000
  121.500    0.278    0.406   61.883   16.676    0.000
  121.750    0.296    0.403   72.251   16.069    0.000
  122.000    0.312    0.415   75.911   15.482    0.000
  122.250    0.234    0.431   70.425   14.919    0.000
  122.500    0.156    0.398   64.939   14.648    0.000
  122.750    0.161    0.370   71.038   14.657    0.000
  123.000    0.286    0.377   75.309   14.662    0.000
  123.250    0.318    0.404   76.530   15.228    0.000
  123.500    0.309    0.413   75.312   15.818    0.000
  123.750    0.302    0.442   69.826   16.741    0.000
  124.000    0.336    0.453   64.340   17.390    0.000
  124.250    0.339    0.429   61.293   17.397    0.000
  124.500    0.329    0.441   67.392   16.146    0.000
  124.750    0.320    0.423   81.419   13.900    0.000
  125.000    0.311    0.402   93.616   11.101    0.000
  125.250    0.291    0.426  104.593    8.701    0.000
  125.500    0.268    0.461  113.741    7.082    0.000
  125.750    0.232    0.486  110.695    7.084    0.000
  126.000    0.191    0.505  107.037    7.498    0.000
  126.250    0.161    0.456  106.429    8.239    0.000
  126.500    0.180    0.428  117.407    9.760    0.000
  126.750    0.245    0.441  124.726   12.232    0.000
  127.000    0.277    0.470  130.825   15.329    0.000
  127.250    0.317    0.436  128.388   18.157    0.000
  127.500    0.366    0.423  118.024   20.716    0.000
  127.750    0.377    0.436  100.343   22.343    0.000
  128.000    0.360    0.446   68.637   22.352    0.000
  128.250    0.350    0.450   63.761   21.538    0.000
  128.500    0.348    0.448   64.982   19.991    0.000
  128.750    0.345    0.440   65.594   19.260    0.000
  129.000    0.340    0.429   65.596   18.215    0.000
  129.250    0.340    0.415   71.695   17.225    0.000
  129.500    0.337    0.410   82.672   16.289    0.000
  129.750    0.321    0.425   89.991   15.406    0.000
  130.000    0.306    0.472   91.212   15.409    0.000
  130.250    0.304    0.450   93.653   15.420    0.000
  130.500    0.307    0.461   94.265   15.424    0.000
  130.750    0.301    0.479   83.901   15.725    0.000
  131.000    0.290    0.424   74.146   16.333    0.000
  131.250    0.278    0.381   75.368   17.286    0.000
  131.500    0.270    0.371   74.760   18.641    0.000
  131.750    0.277    0.373   65.005   21.671    0.000
  132.000    0.310    0.385   46.104   24.725    0.000
  132.250    0.337    0.372   41.838   27.170    0.000
  132.500    0.348    0.366   46.718   27.698    0.000
  132.750    0.318    0.413   51.598   26.195    0.000
  133.000    0.300    0.415   55.868   24.312    0.000
  133.250    0.308    0.400   56.479   22.564    0.000
  133.500    0.322    0.419   60.750   21.737    0.000
  133.750    0.333    0.430   66.849   20.176    0.000
  134.000    0.337    0.413   72.948   19.084    0.000
  134.250    0.331    0.400   75.389   18.734    0.000
  134.500    0.313    0.397   61.366   18.395    0.000
  134.750    0.322    0.403   58.319   18.749    0.000
  135.000    0.334    0.399   64.418   19.474    0.000
  135.250    0.329    0.416   70.518   20.230    0.000
  135.500    0.322    0.438   71.130   20.621    0.000
  135.750    0.327    0.424   67.473   20.250    0.000
  136.000    0.333    0.410   72.353   19.879    0.000
  136.250    0.332    0.425   77.233   18.801    0.000
  136.500    0.311    0.430   77.844   17.778    0.000
  136.750    0.308    0.413   86.382   16.499    0.000
  137.000    0.305    0.421   94.311   15.312    0.000
  137.250    0.285    0.434   98.582   13.947    0.000
  137.500    0.288    0.409   94.315   13.438    0.000
  137.750    0.318    0.422   85.780   13.196    0.000
  138.000    0.427    0.481   88.221   13.199    0.000
  138.250    0.407    0.467   90.052   13.207    0.000
  138.500    0.287    0.431   95.541   12.967    0.000
  138.750    0.278    0.421  105.909   12.493    0.000
  139.000    0.283    0.452  112.618   10.960    0.000
  139.250    0.274    0.464  116.279    9.615    0.000
  139.500    0.254    0.465  114.452    8.757    0.000
  139.750    0.240    0.467  111.404    8.598    0.000
  140.000    0.233    0.473  105.918    8.765    0.000
  140.250    0.240    0.467  102.871    9.454    0.000
  140.500    0.248    0.441   98.605    9.818    0.000
  140.750    0.256    0.422   94.338   10.993    0.000
  141.000    0.276    0.418   94.340   12.080    0.000
  141.250    0.276    0.421   99.220   12.548    0.000
  141.500    0.267    0.422  102.271   12.320    0.000
  141.750    0.262    0.421  105.321   11.650    0.000
  142.000    0.252    0.415  108.982   11.226    0.000
  142.250    0.240    0.408  111.422   10.419    0.000
  142.500    0.236    0.421  113.863    9.852    0.000
  142.750    0.258    0.452  113.865    9.494    0.000
  143.000    0.265    0.462  112.647    9.321    0.000
  143.250    0.265    0.486  109.600    9.503    0.000
  143.500    0.257    0.496  103.504   10.248    0.000
  143.750    0.252    0.476   94.970   11.261    0.000
  144.000    0.260    0.487   91.312   12.850    0.000
  144.250    0.283    0.470   87.046   13.600    0.000
  144.500    0.307    0.430   82.779   14.393    0.000
  144.750    0.321    0.427   88.269   14.400    0.000
  145.000    0.322    0.421   93.759   14.405    0.000
  145.250    0.308    0.429   94.371   14.144    0.000
  145.500    0.302    0.411   95.592   13.886    0.000
  145.750    0.305    0.397  101.081   13.634    0.000
  146.000    0.291    0.422  109.010   13.641    0.000
  146.250    0.270    0.455  110.231   13.905    0.000
  146.500    0.275    0.462   96.818   13.914    0.000
  146.750    0.297    0.449   81.576   13.918    0.000
  147.000    0.314    0.441   76.090   13.412    0.000
  147.250    0.257    0.447   74.872   13.166    0.000
  147.500    0.248    0.457   73.655   12.689    0.000
  147.750    0.263    0.422   74.266   12.000    0.000
  148.000    0.281    0.419   80.366   11.347    0.000
  148.250    0.290    0.413   82.806   10.531    0.000
  148.500    0.257    0.437   77.930    9.958    0.000
  148.750    0.201    0.487   84.030    9.241    0.000
  149.000    0.183    0.470   90.739    8.107    0.000
  149.250    0.192    0.452   96.228    7.384    0.000
  149.500    0.239    0.449   99.280    6.983    0.000
  149.750    0.275    0.465   98.671    6.985    0.000
  150.000    0.295    0.465   93.185    7.393    0.000
  150.250    0.319    0.448   82.821    9.094    0.000
  150.500    0.314    0.424   84.042   10.976    0.000
  150.750    0.313    0.390   82.824   12.289    0.000
  151.000    0.311    0.384   79.167   12.296    0.000
  151.250    0.289    0.430   80.389   11.627    0.000
  151.500    0.280    0.439   83.440   11.205    0.000
  151.750    0.284    0.433   80.392   11.638    0.000
  152.000    0.290    0.431   67.589   13.031    0.000
  152.250    0.292    0.422   59.664   14.590    0.000
  152.500    0.301    0.412   58.447   17.283    0.000
  152.750    0.327    0.421   60.278   20.092    0.000
