~VERSION INFORMATION
 VERS.                 2.0:   CWLS LOG ASCII STANDARD -VERSION 2.0
 WRAP.                  NO:   ONE LINE PER DEPTH STEP
~WELL INFORMATION BLOCK
#MNEM.UNIT           DATA                    DESCRIPTION OF MNEMONIC
#---------    -------------------            -------------------------------
# Generated from Intellog Unique Number	CS_67_68/WELL/2184
WELL.         CHIEFCO et al TWEEDIE          : Well_name    - WELL
LOC .         00/08-05-067-12W4/0            : Location     - LOCATION
UWI .         00/08-05-067-12W4/0            : Uwi          - UNIQUE WELL ID
ENTR.         SP                             : Entered      - ENTERED BY
SRVC.         SCHLUMBERGER                   : Scn          - SERVICE COMPANY
STRT.M        280                            : top_depth    - START DEPTH
STOP.M        485                            : bot_depth    - STOP DEPTH
STEP.M        0.25                           : increment    - STEP LENGTH
 NULL. -999.2500:NULL Value
~CURVE INFORMATION BLOCK
#MNEM UNIT       ERCB CURVE CODE    CURVE DESCRIPTION
#-----------   ------------------   ----------------------------------
DEPT.M        00 001 00 00         : DEPTH        - DEPTH
ILD .OHMM     00 120 00 00         : RESD         - DEEP RESISTIVITY (DIL)
DPHI.V/V      00 890 00 00         : PHID         - DENSITY POROSITY (LIMESTONE)
NPHI.V/V      00 330 00 00         : PHIN         - NEUTRON POROSITY (LIMESTONE)
GR  .API      00 310 00 00         : GR           - GAMMA RAY
CALI.MM       00 280 01 00         : CAL          - CALIPER
~PARAMETER INFORMATION
#MNEM.UNIT           DATA             DESCRIPTION OF MNEMONIC
#---------         -----------     ------------------------------
GL  .M        555.5                : gl           - GROUND LEVEL ELEVATION
EREF.M        558.5                : kb           - ELEVATION OF DEPTH REFERENCE
DATM.M        558.5                : datum        - DATUM ELEVATION
TDD .M        488                  : tdd          - TOTAL DEPTH DRILLER
RUN .         ONE                  : Run          - RUN NUMBER
ENG .         BILL                 : Engineer     - RECORDING ENGINEER
WIT .         JIM                  : Witness      - WITNESSED BY
MUD .         GEL                  : Mud_type     - MUD TYPE
MATR.         LIMESTONE            : Logunit      - NEUTRON MATRIX
TMAX.C        19                   : BHT          - MAXIMUM RECORDED TEMPERATURE
BHTD.M        487.4                : BHTDEP       - MAXIMUM RECORDED TEMPERATURE
MATR.         1                    : LOGUNIT      - NEUTRON MATRIX
RMT .C        25                   : MDTP         - TEMPERATURE OF MUD
NEUT.         1                    : NEUTRON      - NEUTRON TYPE
RESI.         0                    : RESIST       - RESISTIVITY TYPE
RMC .OHMM     0.25                 : RMC          - RESISTIVITY OF MUD CAKE
RMF .OHMM     0.25                 : RMF          - RESISTIVITY OF MUD FILTRATE
SUFT.C        15                   : SUFT         - SURFACE TEMPERATURE
~A  DEPTH     RESD     PHID     PHIN       GR      CAL
# ...
  353.000    3.062    0.253    0.372   78.724  178.682
  353.250    3.174    0.256    0.375   83.068  178.919
  353.500    3.302    0.249    0.366   86.984  180.373
  353.750    3.428    0.241    0.360   90.471  181.220
  354.000    3.567    0.230    0.375   95.239  181.955
  354.250    3.676    0.233    0.371   99.948  181.791
  354.500    3.775    0.228    0.365   99.540  181.113
  354.750    3.855    0.217    0.363   93.777  180.636
  355.000    4.040    0.215    0.358   90.141  180.765
  355.250    4.218    0.220    0.348   91.743  181.406
  355.500    4.324    0.220    0.350   93.833  182.453
  355.750    4.263    0.207    0.359   95.190  183.709
  356.000    4.133    0.194    0.368   94.664  184.444
  356.250    4.029    0.188    0.374   92.429  184.374
  356.500    3.856    0.213    0.383   89.283  183.594
  356.750    3.623    0.232    0.395   89.545  182.614
  357.000    3.267    0.249    0.402   93.705  184.478
  357.250    2.936    0.269    0.412   97.497  187.446
  357.500    2.658    0.298    0.426  101.413  193.667
  357.750    2.226    0.320    0.438  106.853  200.599
  358.000    2.158    0.316    0.455  109.609  206.009
  358.250    2.352    0.301    0.475  111.577  210.100
  358.500    2.548    0.309    0.482  106.181  212.668
  358.750    2.813    0.334    0.463  101.026  210.264
  359.000    3.088    0.362    0.446   99.945  201.874
  359.250    3.309    0.282    0.430   98.140  194.499
  359.500    3.559    0.244    0.414   94.203  191.588
  359.750    3.709    0.237    0.406   90.688  191.622
  360.000    3.823    0.246    0.413   91.682  192.160
  360.250    3.832    0.250    0.424   92.677  192.398
  360.500    3.627    0.241    0.421   93.486  191.927
  360.750    3.471    0.235    0.411   93.019  191.245
  361.000    3.213    0.233    0.411   89.992  189.754
  361.250    3.018    0.253    0.424   90.927  187.857
  361.500    2.799    0.276    0.432   93.744  186.164
  361.750    2.615    0.293    0.431   91.513  185.085
  362.000    2.452    0.272    0.422   89.463  184.502
  362.250    2.404    0.264    0.430   89.907  184.029
  362.500    2.370    0.280    0.423   90.474  183.758
  362.750    2.332    0.290    0.414   89.398  182.872
  363.000    2.253    0.289    0.408   85.762  181.183
  363.250    2.192    0.293    0.408   84.320  180.197
  363.500    2.125    0.301    0.403   85.435  179.924
  363.750    2.103    0.299    0.394   85.211  180.464
  364.000    2.100    0.294    0.385   83.708  181.005
  364.250    2.098    0.282    0.379   80.379  181.034
  364.500    2.118    0.281    0.372   76.440  181.066
  364.750    2.139    0.268    0.364   73.782  180.795
  365.000    2.217    0.256    0.355   72.217  180.424
  365.250    2.425    0.264    0.344   71.323  180.155
  365.500    2.910    0.274    0.330   72.075  179.880
  365.750    4.172    0.266    0.318   72.947  179.508
  366.000    5.441    0.274    0.301   73.757  179.332
  366.250    6.504    0.195    0.282   75.296  178.857
  366.500    8.546    0.106    0.250   76.594  179.094
  366.750   11.418    0.039    0.212   71.256  178.924
  367.000   13.081    0.011    0.178   63.119  179.163
  367.250   13.683    0.012    0.162   58.084  179.187
  367.500   14.051    0.014    0.156   53.902  179.017
  367.750    9.704    0.003    0.154   51.302  178.847
  368.000    6.802    0.004    0.161   52.540  178.677
  368.250    5.012    0.074    0.181   53.533  178.402
  368.500    3.673    0.113    0.247   54.282  178.432
  368.750    2.905    0.176    0.296   56.675  178.466
  369.000    2.912    0.292    0.339   62.541  178.401
  369.250    3.286    0.314    0.371   67.615  178.435
  369.500    3.779    0.327    0.384   71.102  178.361
  369.750    4.094    0.313    0.383   73.433  178.491
  370.000    4.396    0.279    0.373   73.029  178.630
  370.250    4.607    0.077    0.353   70.429  178.657
  370.500    4.491    0.065    0.317   68.561  178.385
  370.750    3.868    0.120    0.319   71.319  176.796
  371.000    3.355    0.174    0.352   74.991  175.303
  371.250    2.841    0.254    0.382   78.359  175.338
  371.500    2.811    0.275    0.406   82.093  176.591
  371.750    2.958    0.272    0.412   84.669  177.632
  372.000    3.099    0.263    0.415   82.922  179.694
  372.250    3.224    0.249    0.417   81.849  182.059
  372.500    3.361    0.246    0.413   83.447  183.108
  372.750    3.470    0.245    0.408   87.000  181.412
  373.000    3.543    0.237    0.402   88.844  179.621
  373.250    3.598    0.230    0.396   89.349  178.634
  373.500    3.568    0.224    0.401   88.517  177.757
  373.750    3.433    0.226    0.405   85.917  177.381
  374.000    3.237    0.234    0.407   86.546  177.217
  374.250    3.121    0.230    0.406   87.297  176.937
  374.500    3.123    0.227    0.405   87.254  176.664
  374.750    3.154    0.229    0.410   87.090  176.594
  375.000    3.203    0.230    0.414   88.394  176.730
  375.250    3.277    0.231    0.412   89.016  176.860
  375.500    3.353    0.236    0.403   89.950  177.098
  375.750    3.411    0.234    0.397   90.638  177.333
  376.000    3.516    0.234    0.388   91.875  177.362
  376.250    3.563    0.236    0.380   93.477  177.192
  376.500    3.652    0.238    0.371   94.835  177.631
  376.750    3.786    0.231    0.378   92.905  178.375
  377.000    3.945    0.222    0.392   91.586  179.114
  377.250    4.089    0.213    0.400   92.279  180.262
  377.500    4.230    0.226    0.411   93.024  181.309
  377.750    4.417    0.231    0.419   92.617  181.949
  378.000    4.502    0.215    0.408   90.019  182.083
  378.250    4.572    0.203    0.397   91.137  181.913
  378.500    4.524    0.197    0.395   92.311  181.843
  378.750    4.354    0.189    0.396   92.694  181.876
  379.000    4.136    0.182    0.398   91.010  181.805
  379.250    3.929    0.184    0.407   91.516  181.941
  379.500    3.895    0.190    0.412   92.873  181.870
  379.750    3.927    0.193    0.419   94.719  181.698
  380.000    3.928    0.195    0.419   96.261  181.630
  380.250    3.931    0.201    0.408   96.890  181.256
  380.500    3.904    0.209    0.402   95.935  181.186
  380.750    3.870    0.214    0.400   96.318  181.322
  381.000    3.830    0.218    0.405   97.251  181.455
  381.250    3.789    0.209    0.410   98.061  181.791
  381.500    3.736    0.204    0.413   96.256  181.822
  381.750    3.704    0.210    0.415   97.250  181.956
  382.000    3.678    0.219    0.416   98.729  181.784
  382.250    3.680    0.228    0.412   98.076  181.514
  382.500    3.682    0.235    0.405   93.712  181.546
  382.750    3.678    0.223    0.401   92.758  182.493
  383.000    3.666    0.208    0.401   93.935  184.143
  383.250    3.655    0.217    0.408   96.207  186.409
  383.500    3.650    0.234    0.415   98.541  188.985
  383.750    3.592    0.247    0.422  100.140  189.718
  384.000    3.567    0.238    0.425  100.585  190.259
  384.250    3.530    0.199    0.429   99.693  189.783
  384.500    3.499    0.177    0.429   99.407  189.715
  384.750    3.469    0.183    0.429  100.645  189.857
  385.000    3.484    0.190    0.435  101.759  190.284
  385.250    3.519    0.198    0.438  102.752  190.730
  385.500    3.546    0.226    0.430  102.953  191.061
  385.750    3.602    0.259    0.423  101.208  190.584
  386.000    3.617    0.242    0.416   99.949  187.470
  386.250    3.653    0.237    0.410   98.872  183.955
  386.500    3.682    0.230    0.399   98.404  182.056
  386.750    3.705    0.221    0.396   97.753  180.871
  387.000    3.721    0.226    0.403   97.287  180.700
  387.250    3.709    0.231    0.403   97.121  180.538
  387.500    3.670    0.227    0.399   96.959  180.763
  387.750    3.598    0.226    0.401   96.613  179.886
  388.000    3.488    0.227    0.399   95.900  178.898
  388.250    3.289    0.237    0.395   93.667  177.208
  388.500    2.956    0.270    0.389   90.276  176.528
  388.750    2.656    0.292    0.397   86.583  176.561
  389.000    2.378    0.307    0.384   80.575  176.298
  389.250    2.226    0.321    0.351   74.323  176.328
