~VERSION INFORMATION
 VERS.                 2.0:   CWLS LOG ASCII STANDARD -VERSION 2.0
 WRAP.                  NO:   ONE LINE PER DEPTH STEP
~WELL INFORMATION BLOCK
#MNEM.UNIT           DATA                    DESCRIPTION OF MNEMONIC
#---------    -------------------            -------------------------------
# Generated from Intellog Unique Number	CW_73_75/WELL/288
WELL.         CALGAS ET AL MITSUE 02-06      : Well_name    - WELL
LOC .         00/02-06-074-04W5/0            : Location     - LOCATION
UWI .         00/02-06-074-04W5/0            : Uwi          - UNIQUE WELL ID
ENTR.         JAYE                           : Entered      - ENTERED BY
SRVC.         SCHLUMBERGER                   : Scn          - SERVICE COMPANY
DATE.         6 SEP 88                       : Date         - LOG DATE
STRT.M        365                            : top_depth    - START DEPTH
STOP.M        620                            : bot_depth    - STOP DEPTH
STEP.M        0.25                           : increment    - STEP LENGTH
 NULL. -999.2500:NULL Value
~CURVE INFORMATION BLOCK
#MNEM UNIT       ERCB CURVE CODE    CURVE DESCRIPTION
#-----------   ------------------   ----------------------------------
DEPT.M        00 001 00 00         : DEPTH        - DEPTH
ILD .OHMM     00 120 00 00         : RESD         - DEEP RESISTIVITY (DIL)
DPHI.V/V      00 890 00 00         : PHID         - DENSITY POROSITY (SANDSTONE)
NPHI.V/V      00 330 00 00         : PHIN         - NEUTRON POROSITY (SANDSTONE)
GR  .API      00 310 00 00         : GR           - GAMMA RAY
CALI.MM       00 280 01 00         : CAL          - CALIPER
~PARAMETER INFORMATION
#MNEM.UNIT           DATA             DESCRIPTION OF MNEMONIC
#---------         -----------     ------------------------------
GL  .M        596.5                : gl           - GROUND LEVEL ELEVATION
EREF.M        596.5                : kb           - ELEVATION OF DEPTH REFERENCE
DATM.M        596.5                : datum        - DATUM ELEVATION
TDD .M        1650                 : tdd          - TOTAL DEPTH DRILLER
RUN .         ONE                  : Run          - RUN NUMBER
ENG .         ASHTOM               : Engineer     - RECORDING ENGINEER
WIT .         WORK                 : Witness      - WITNESSED BY
BASE.         SLAVE LAKE           : Branch       - HOME BASE OF LOGGING UNIT
MUD .         GEL CHEM             : Mud_type     - MUD TYPE
MATR.         SANDSTONE            : Logunit      - NEUTRON MATRIX
TMAX.C        47                   : BHT          - MAXIMUM RECORDED TEMPERATURE
BHTD.M        1652.8               : BHTDEP       - MAXIMUM RECORDED TEMPERATURE
RMT .C        29                   : MDTP         - TEMPERATURE OF MUD
MUDD.KG/M     1150                 : MWT          - MUD DENSITY
NEUT.         1                    : NEUTRON      - NEUTRON TYPE
RESI.         0                    : RESIST       - RESISTIVITY TYPE
RM  .OHMM     0.73                 : RM           - RESISTIVITY OF MUD
RMC .OHMM     0                    : RMC          - RESISTIVITY OF MUD CAKE
RMF .OHMM     0.74                 : RMF          - RESISTIVITY OF MUD FILTRATE
SUFT.C        0                    : SUFT         - SURFACE TEMPERATURE
~A  DEPTH     RESD     PHID     PHIN       GR      CAL
  365.000    2.316    0.386    0.540   70.469  311.836
  365.250    2.380    0.363    0.542   70.724  307.567
  365.500    2.375    0.372    0.533   71.286  300.750
  365.750    2.335    0.384    0.529   72.153  305.764
  366.000    2.270    0.385    0.539   74.673  309.760
  366.250    2.273    0.381    0.551   70.459  305.187
  366.500    2.354    0.447    0.562   66.121  289.896
  366.750    2.469    0.435    0.567   63.806  293.485
  367.000    2.623    0.461    0.562   63.693  287.380
  367.250    2.834    0.467    1.004   64.988  279.539
  367.500    2.978    0.412    1.041   70.204  272.309
  367.750    3.061    0.337    1.022   74.008  261.409
  368.000    3.111    0.263    1.040   79.038  257.547
  368.250    2.921    0.252    1.040   78.314  260.319
  368.500    2.481    0.240    1.039   70.548  251.356
  368.750    2.028    0.243    1.032   56.416  258.720
  369.000    1.818    0.308    1.271   46.385  422.307
  369.250    1.771    0.814    1.257   35.374  542.527
  369.500    1.806    0.847    1.237   29.875  561.013
  369.750    1.992    0.809    1.221   30.436  532.357
  370.000    2.172    0.761    1.217   32.956  500.945
  370.250    2.333    0.778    1.194   37.497  459.227
  370.500    2.380    0.588    1.162   44.118  309.448
  370.750    2.293    0.536    1.133   50.863  291.608
  371.000    2.318    0.553    1.173   55.098  274.788
  371.250    2.454    0.412    1.128   60.802  253.173
  371.500    2.766    0.343    1.085   66.138  254.413
  371.750    3.284    0.214    1.055   70.189  256.778
  372.000    3.716    0.236    1.037   64.138  244.345
  372.250    4.165    0.251    1.014   58.821  239.872
  372.500    4.508    0.267    0.990   51.240  245.504
  372.750    4.790    0.253    0.963   49.964  246.844
  373.000    5.006    0.245    0.994   51.504  242.372
  373.250    5.183    0.245    1.011   54.085  239.123
  373.500    5.288    0.252    1.010   51.463  238.017
  373.750    5.286    0.264    1.005   48.841  239.462
  374.000    5.216    0.245    1.008   47.564  242.133
  374.250    4.970    0.238    1.000   49.105  243.781
  374.500    4.648    0.240    0.989   56.830  245.126
  374.750    4.372    0.238    0.989   61.431  245.344
  375.000    4.395    0.236    1.001   61.625  243.321
  375.250    4.678    0.240    1.013   60.655  238.949
  375.500    5.139    0.257    1.009   58.706  234.476
  375.750    5.697    0.275    1.011   55.410  233.065
  376.000    6.020    0.272    1.023   53.767  232.571
  376.250    6.029    0.219    1.013   52.737  232.486
  376.500    5.702    0.186    0.997   51.889  233.728
  376.750    5.140    0.218    0.996   53.001  236.807
  377.000    3.872    0.246    1.072   56.685  247.842
  377.250    3.669    0.302    1.078   58.961  256.124
  377.500    3.993    0.300    1.056   59.827  243.385
  377.750    4.485    0.269    1.035   60.144  236.565
  378.000    4.110    0.306    1.011   60.644  239.337
  378.250    3.184    0.304    1.104   61.327  247.212
  378.500    2.705    0.343    1.183   59.133  259.881
  378.750    2.620    0.539    1.148   62.143  293.775
  379.000    2.759    0.458    1.177   72.499  274.506
  379.250    2.942    0.390    1.210   77.285  261.155
  379.500    3.360    0.307    1.104   74.540  253.009
  379.750    4.615    0.449    1.048   55.570  246.290
  380.000    5.349    0.423    1.028   45.172  241.409
  380.250    5.876    0.355    1.016   36.550  231.426
  380.500    5.661    0.321    1.000   35.825  221.137
  380.750    5.373    0.371    1.067   34.611  219.011
  381.000    5.186    0.404    1.064   33.213  218.109
  381.250    5.108    0.372    1.025   32.244  217.108
  381.500    5.050    0.344    1.004   31.886  216.512
  381.750    5.020    0.329    0.990   31.774  216.527
  382.000    5.019    0.327    0.997   32.151  216.137
  382.250    5.045    0.326    1.002   33.079  216.155
  382.500    5.071    0.325    0.991   34.558  216.885
  382.750    5.051    0.323    0.989   38.915  217.716
  383.000    4.821    0.315    0.991   41.619  218.856
  383.250    4.757    0.300    1.001   42.915  219.177
  383.500    4.809    0.293    1.003   42.375  218.479
  383.750    4.988    0.298    0.989   41.404  216.762
  384.000    5.290    0.313    0.985   41.659  215.759
  384.250    5.570    0.318    0.984   43.628  215.775
  384.500    5.842    0.311    0.986   45.842  215.997
  384.750    6.116    0.302    0.998   45.179  216.013
  385.000    6.240    0.291    0.993   45.678  216.540
  385.250    6.307    0.280    0.982   52.301  216.760
  385.500    6.470    0.268    0.978   60.209  217.084
  385.750    6.749    0.266    0.978   62.790  217.815
  386.000    6.975    0.279    0.982   58.392  219.157
  386.250    6.908    0.280    0.977   54.851  223.358
  386.500    6.390    0.265    0.974   59.208  227.149
  386.750    5.781    0.743    1.142   60.137  251.247
  387.000    4.875    0.774    1.155   60.024  305.040
  387.250    3.890    0.784    1.172   67.810  291.587
  387.500    3.317    0.742    1.196   75.962  276.910
  387.750    2.968    0.699    1.233   78.972  258.464
  388.000    2.705    0.654    1.111   72.187  247.964
  388.250    2.669    0.524    1.051   66.502  240.226
  388.500    2.927    0.445    1.014   69.146  243.405
  388.750    3.565    0.273    1.000   77.359  248.728
  389.000    4.328    0.252    1.012   67.635  228.336
  389.250    5.441    0.285    0.981   50.808  222.333
  389.500    6.294    0.312    0.938   36.308  220.616
  389.750    6.468    0.317    0.935   33.562  220.428
  390.000    6.443    0.312    0.950   32.104  220.648
  390.250    6.358    0.311    0.960   31.930  220.971
  390.500    6.193    0.290    0.946   35.736  221.906
  390.750    5.900    0.266    0.930   46.950  223.861
  391.000    5.570    0.243    0.957   63.062  226.633
  391.250    5.077    0.218    0.989   73.235  229.814
  391.500    4.653    0.233    1.011   80.715  231.463
  391.750    4.288    0.247    1.032   81.949  231.480
  392.000    4.063    0.245    1.052   79.142  230.986
  392.250    4.446    0.301    1.077   61.765  229.677
  392.500    5.031    0.408    1.055   45.061  227.041
  392.750    5.671    0.369    0.999   34.479  224.608
  393.000    6.476    0.313    0.931   32.163  222.995
  393.250    7.193    0.309    0.937   34.560  222.192
  393.500    7.858    0.305    0.978   35.245  222.311
  393.750    7.726    0.306    0.994   35.743  222.331
  394.000    7.320    0.316    0.969   38.999  221.834
  394.250    7.026    0.317    0.953   41.518  221.136
  394.500    6.869    0.305    0.954   44.284  220.951
  394.750    6.816    0.294    0.972   45.457  221.272
  395.000    6.776    0.293    0.977   45.406  221.798
  395.250    6.749    0.300    0.970   42.293  222.430
  395.500    6.746    0.317    0.976   41.079  222.650
  395.750    6.782    0.316    0.986   48.007  222.872
  396.000    6.817    0.305    0.991   53.528  222.479
  396.250    6.840    0.308    1.020   53.108  221.887
  396.500    6.825    0.322    1.016   48.160  221.797
  396.750    6.773    0.327    1.001   46.640  221.917
  397.000    6.720    0.318    0.988   47.874  221.934
  397.250    6.571    0.287    0.965   48.986  222.868
  397.500    6.413    0.270    0.991   48.813  223.598
  397.750    6.155    0.264    1.000   48.088  224.126
  398.000    5.757    0.262    0.988   48.099  225.366
  398.250    5.394    0.256    0.984   49.945  227.730
  398.500    5.036    0.249    1.042   53.015  231.114
  398.750    4.702    0.259    1.100   56.943  233.479
  399.000    4.513    0.282    1.096   59.831  232.985
  399.250    4.486    0.276    1.081   59.718  229.021
  399.500    4.654    0.260    1.059   56.912  224.854
  399.750    4.908    0.248    1.029   55.209  220.585
  400.000    5.234    0.272    1.015   51.483  219.072
  400.250    5.729    0.283    1.004   46.044  218.681
  400.500    6.042    0.288    1.011   40.483  218.495
  400.750    6.267    0.305    1.000   37.126  218.511
  401.000    6.394    0.314    0.984   37.380  219.239
  401.250    6.451    0.312    0.993   39.534  220.788
