~VERSION INFORMATION
 VERS.                 2.0:   CWLS LOG ASCII STANDARD -VERSION 2.0
 WRAP.                  NO:   ONE LINE PER DEPTH STEP
~WELL INFORMATION BLOCK
#MNEM.UNIT           DATA                    DESCRIPTION OF MNEMONIC
#---------    -------------------            -------------------------------
# Generated from Intellog Unique Number	CW_82_90/WELL/3070
WELL.         CHEVRON WABASCA 08-34          : Well_name    - WELL
LOC .         00/08-34-085-25W4/0            : Location     - LOCATION
UWI .         00/08-34-085-25W4/0            : Uwi          - UNIQUE WELL ID
ENTR.         JAYE                           : Entered      - ENTERED BY
SRVC.         SCHLUMBERGER                   : Scn          - SERVICE COMPANY
DATE.         01 FEB 1974                    : Date         - LOG DATE
STRT.M        182.88                         : top_depth    - START DEPTH
STOP.M        384.13                         : bot_depth    - STOP DEPTH
STEP.M        0.25                           : increment    - STEP LENGTH
 NULL. -999.2500:NULL Value
~CURVE INFORMATION BLOCK
#MNEM UNIT       ERCB CURVE CODE    CURVE DESCRIPTION
#-----------   ------------------   ----------------------------------
DEPT.M        00 001 00 00         : DEPTH        - DEPTH
GR  .API      00 310 00 00         : GR           - GAMMA RAY
CALI.MM       00 280 01 00         : CAL          - CALIPER
DPHI.V/V      00 890 00 00         : PHID         - DENSITY POROSITY (SANDSTONE)
NPHI.V/V      00 330 00 00         : PHIN         - NEUTRON POROSITY (SANDSTONE)
ILD .OHMM     00 120 00 00         : RESD         - DEEP RESISTIVITY (DIL)
~PARAMETER INFORMATION
#MNEM.UNIT           DATA             DESCRIPTION OF MNEMONIC
#---------         -----------     ------------------------------
GL  .M        564.185              : gl           - GROUND LEVEL ELEVATION
EREF.M        567.538              : kb           - ELEVATION OF DEPTH REFERENCE
DATM.M        564.185              : datum        - DATUM ELEVATION
TDD .M        382.524              : tdd          - TOTAL DEPTH DRILLER
RUN .         ONE                  : Run          - RUN NUMBER
ENG .         ASWAD                : Engineer     - RECORDING ENGINEER
WIT .         WONG & LILLIES       : Witness      - WITNESSED BY
BASE.         EDMONTON             : Branch       - HOME BASE OF LOGGING UNIT
MUD .         FGM                  : Mud_type     - MUD TYPE
MATR.         SANDSTONE            : Logunit      - NEUTRON MATRIX
TMAX.C        30.5556              : BHT          - MAXIMUM RECORDED TEMPERATURE
BHTD.M        382.524              : BHTDEP       - MAXIMUM RECORDED TEMPERATURE
RMT .C        18.8889              : MDTP         - TEMPERATURE OF MUD
MUDD.KG/M     9600                 : MWT          - MUD DENSITY
NEUT.         1                    : NEUTRON      - NEUTRON TYPE
RESI.         0                    : RESIST       - RESISTIVITY TYPE
RM  .OHMM     0                    : RM           - RESISTIVITY OF MUD
RMC .OHMM     5.49                 : RMC          - RESISTIVITY OF MUD CAKE
RMF .OHMM     3.22                 : RMF          - RESISTIVITY OF MUD FILTRATE
SUFT.C        4                    : SUFT         - SURFACE TEMPERATURE
~A  DEPTH       GR      CAL     PHID     PHIN     RESD
  182.880   71.184  221.499    0.256    0.494    7.960
  183.130   74.981  219.179    0.258    0.513    7.320
  183.380   82.512  218.118    0.256    0.502    5.673
  183.630   83.620  222.312    0.242    0.503    3.973
  183.880   83.638  228.662    0.242    0.689    3.319
  184.130   89.758  227.806    0.240    0.717    2.795
  184.380   92.152  226.839    0.251    0.722    2.589
  184.630   97.602  226.911    0.257    0.730    2.422
  184.880  103.905  228.842    0.265    0.736    2.304
  185.130  105.572  228.905    0.280    0.747    2.216
  185.380  105.709  229.592    0.283    0.760    2.156
  185.630  104.685  227.593    0.285    0.781    2.122
  185.880  105.618  225.083    0.284    0.797    2.092
  186.130  105.936  224.018    0.282    0.801    2.097
  186.380  105.769  224.911    0.271    0.773    2.151
  186.630  105.296  224.571    0.251    0.735    2.256
  186.880  103.052  224.947    0.223    0.729    2.187
  187.130  100.871  231.614    0.211    0.719    2.116
  187.380   95.270  234.257    0.264    0.704    2.198
  187.630   90.951  231.851    0.277    0.718    2.184
  187.880   94.509  232.539    0.279    0.747    2.073
  188.130   97.702  227.043    0.281    0.770    2.059
  188.380   97.471  227.316    0.279    0.787    2.080
  188.630   96.326  228.728    0.276    0.780    2.094
  188.880   95.913  226.625    0.271    0.754    2.099
  189.130   94.525  228.243    0.265    0.736    2.117
  189.380   95.888  230.891    0.270    0.727    2.139
  189.630   97.549  228.281    0.278    0.730    2.168
  189.880   99.578  227.312    0.276    0.740    2.203
  190.130   98.068  231.193    0.265    0.728    2.264
  190.380   98.635  230.963    0.259    0.738    2.312
  190.630  100.174  228.752    0.243    0.751    2.403
  190.880  103.306  226.556    0.255    0.752    2.554
  191.130  101.731  225.383    0.248    0.724    2.639
  191.380   97.048  225.041    0.251    0.696    2.656
  191.630   96.940  225.831    0.253    0.687    2.623
  191.880   98.176  226.001    0.264    0.696    2.620
  192.130   98.439  227.309    0.245    0.681    2.637
  192.380   99.490  225.938    0.245    0.669    2.659
  192.630   94.438  225.070    0.254    0.683    2.696
  192.880   94.704  225.037    0.248    0.695    2.760
  193.130   95.630  225.412    0.245    0.699    2.911
  193.380  100.469  224.144    0.241    0.692    3.019
  193.630  101.401  221.943    0.236    0.683    3.056
  193.880  100.621  221.503    0.235    0.551    3.971
  194.130   97.830  220.122    0.239    0.549    6.298
  194.380   94.731  217.609    0.242    0.540    8.907
  194.630   85.163  213.041    0.257    0.526    9.922
  194.880   76.815  212.388    0.247    0.518    9.930
  195.130   73.718  213.589    0.230    0.511    9.446
  195.380   70.620  211.908    0.215    0.509    9.021
  195.630   70.635  211.458    0.234    0.562    8.993
  195.880   68.819  211.728    0.284    0.567    9.035
  196.130   69.327  211.493    0.295    0.557    9.007
  196.380   74.466  211.355    0.295    0.551    8.830
  196.630   76.558  211.211    0.295    0.557    8.769
  196.880   76.512  211.182    0.290    0.560    8.726
  197.130   75.368  211.671    0.275    0.565    8.967
  197.380   74.407  211.934    0.267    0.566    8.990
  197.630   68.868  212.003    0.267    0.565    8.997
  197.880   65.281  212.075    0.266    0.548    8.987
  198.130   62.734  211.826    0.279    0.547    8.977
  198.380   65.314  211.898    0.296    0.536    8.933
  198.630   67.774  212.688    0.301    0.525    8.434
  198.880   67.969  214.210    0.295    0.548    7.290
  199.130   69.758  215.604    0.289    0.573    5.104
  199.380   73.128  219.290    0.274    0.601    3.328
  199.630   78.578  223.989    0.255    0.634    2.871
  199.880   82.743  226.638    0.253    0.700    2.731
  200.130   86.544  227.431    0.252    0.704    2.618
  200.380   90.774  229.359    0.247    0.756    2.551
  200.630   96.651  227.674    0.247    0.794    2.535
  200.880   96.910  227.320    0.248    0.784    2.518
  201.130   93.749  228.110    0.248    0.750    2.510
  201.380   92.544  227.043    0.238    0.716    2.559
  201.630   94.087  231.343    0.231    0.691    3.161
  201.880   92.516  233.882    0.239    0.632    3.463
  202.130   89.052  231.584    0.238    0.629    3.743
  202.380   87.358  227.629    0.228    0.652    3.963
  202.630   89.326  227.082    0.213    0.658    3.900
  202.880   92.396  223.949    0.200    0.627    3.717
  203.130   92.470  224.330    0.226    0.639    3.762
  203.380   92.669  225.445    0.243    0.685    4.035
  203.630   88.777  225.598    0.250    0.699    4.589
  203.880   88.611  221.027    0.261    0.709    5.238
  204.130   87.956  213.471    0.269    0.670    6.093
  204.380   84.734  213.540    0.259    0.628    5.624
  204.630   80.965  213.916    0.247    0.624    4.509
  204.880   77.745  213.777    0.208    0.621    3.971
  205.130   78.310  213.534    0.171    0.632    3.806
  205.380   82.966  213.404    0.227    0.665    3.794
  205.630   88.841  213.363    0.261    0.677    3.943
  205.880   86.538  215.074    0.263    0.644    3.961
  206.130   89.178  218.960    0.262    0.627    3.994
  206.380   92.859  216.757    0.265    0.616    4.065
  206.630   91.896  219.300    0.263    0.622    4.537
  206.880   89.164  212.679    0.249    0.610    4.988
  207.130   88.998  212.014    0.209    0.615    5.331
  207.380   87.302  210.330    0.184    0.627    9.271
  207.630   84.815  209.786    0.180    0.622   12.392
  207.880   74.026  209.548    0.291    0.494   14.743
  208.130   61.771  208.999    0.336    0.485   16.208
  208.380   52.569  208.543    0.329    0.481   17.488
  208.630   45.503  208.403    0.320    0.490   17.933
  208.880   39.231  208.579    0.334    0.521   18.253
  209.130   37.296  208.540    0.331    0.539   18.336
  209.380   37.983  208.825    0.316    0.542   18.351
  209.630   37.935  208.598    0.304    0.533   18.401
  209.880   38.014  208.538    0.308    0.496   18.311
  210.130   39.373  208.708    0.313    0.491   17.815
  210.380   39.875  208.579    0.323    0.510   16.756
  210.630   39.524  208.947    0.319    0.498   14.000
  210.880   37.830  209.433    0.316    0.478   11.056
  211.130   37.969  209.402    0.326    0.476    8.191
  211.380   39.265  208.339    0.320    0.483    6.445
  211.630   41.052  206.545    0.316    0.506    5.960
  211.880   42.898  206.097    0.304    0.583    5.564
  212.130   46.333  206.169    0.272    0.605    4.710
  212.380   53.126  208.705    0.258    0.593    4.299
  212.630   61.809  212.482    0.241    0.574    4.175
  212.880   69.088  216.678    0.232    0.564    4.010
  213.130   71.058  217.982    0.252    0.656    3.864
  213.380   80.963  220.007    0.262    0.644    3.788
  213.630   90.991  222.871    0.258    0.642    3.863
  213.880   90.459  220.366    0.257    0.670    4.215
  214.130   86.445  215.781    0.264    0.676    5.168
  214.380   85.911  213.376    0.280    0.652    5.877
  214.630   85.314  213.753    0.303    0.653    5.497
  214.880   81.362  214.135    0.315    0.639    4.473
  215.130   74.846  213.889    0.312    0.549    7.663
  215.380   61.614  213.755    0.298    0.569    7.979
  215.630   60.105  213.815    0.287    0.579    8.059
  215.880   62.256  214.002    0.291    0.559    7.219
  216.130   61.233  213.961    0.288    0.571    6.714
  216.380   62.593  213.310    0.273    0.575    6.898
  216.630   64.073  211.924    0.272    0.568    6.191
  216.880   62.379  212.104    0.286    0.552    5.514
  217.130   64.352  212.178    0.282    0.539    5.335
  217.380   66.684  212.238    0.261    0.580    5.380
  217.630   69.752  212.410    0.243    0.613    5.590
  217.880   72.209  212.691    0.244    0.614    5.775
  218.130   74.973  213.584    0.256    0.616    5.968
  218.380   74.684  214.363    0.252    0.606    6.131
  218.630   76.778  215.048    0.245    0.612    6.517
  218.880   79.477  214.321    0.248    0.645    6.810
  219.130   84.619  214.572    0.256    0.623    6.688
