~VERSION INFORMATION
 VERS.                 2.0:   CWLS LOG ASCII STANDARD -VERSION 2.0
 WRAP.                  NO:   ONE LINE PER DEPTH STEP
~WELL INFORMATION BLOCK
#MNEM.UNIT           DATA                    DESCRIPTION OF MNEMONIC
#---------    -------------------            -------------------------------
# Generated from Intellog Unique Number	CN_94_101/WELL/2594
WELL.         PARAMOUNT RESOURCES LTD.       : Well_name    - WELL
LOC .         00/09-35-094-18W4/0            : Location     - LOCATION
UWI .         00/09-35-094-18W400            : Uwi          - UNIQUE WELL ID
ENTR.         JOETTE                         : Entered      - ENTERED BY
SRVC.         COMPUTALOG                     : Scn          - SERVICE COMPANY
DATE.         06/12/92                       : Date         - LOG DATE
STRT.M        95                             : top_depth    - START DEPTH
STOP.M        295                            : bot_depth    - STOP DEPTH
STEP.M        0.25                           : increment    - STEP LENGTH
 NULL. -999.2500:NULL Value
~CURVE INFORMATION BLOCK
#MNEM UNIT       ERCB CURVE CODE    CURVE DESCRIPTION
#-----------   ------------------   ----------------------------------
DEPT.M        00 001 00 00         : DEPTH        - DEPTH
CALI.MM       00 280 01 00         : CAL          - CALIPER
GR  .API      00 310 00 00         : GR           - GAMMA RAY
NPHI.V/V      00 330 00 00         : PHIN         - NEUTRON POROSITY (SANDSTONE)
DPHI.V/V      00 890 00 00         : PHID         - DENSITY POROSITY (SANDSTONE)
ILD .OHMM     00 120 00 00         : RESD         - DEEP RESISTIVITY (DIL)
~PARAMETER INFORMATION
#MNEM.UNIT           DATA             DESCRIPTION OF MNEMONIC
#---------         -----------     ------------------------------
GL  .M        554.9                : gl           - GROUND LEVEL ELEVATION
EREF.M        558.7                : kb           - ELEVATION OF DEPTH REFERENCE
DATM.M        558.7                : datum        - DATUM ELEVATION
TDD .M        293.9                : tdd          - TOTAL DEPTH DRILLER
RUN .         ONE                  : Run          - RUN NUMBER
ENG .         BILL                 : Engineer     - RECORDING ENGINEER
WIT .         JIM                  : Witness      - WITNESSED BY
MUD .         GEL                  : Mud_type     - MUD TYPE
MATR.         SANDSTONE            : Logunit      - NEUTRON MATRIX
TMAX.C        25                   : BHT          - MAXIMUM RECORDED TEMPERATURE
BHTD.M        293.9                : BHTDEP       - MAXIMUM RECORDED TEMPERATURE
RMT .C        15                   : MDTP         - TEMPERATURE OF MUD
MUDD.KG/M     1100                 : MWT          - MUD DENSITY
NEUT.         1                    : NEUTRON      - NEUTRON TYPE
RESI.         0                    : RESIST       - RESISTIVITY TYPE
RM  .OHMM     2.1                  : RM           - RESISTIVITY OF MUD
RMC .OHMM     2.1                  : RMC          - RESISTIVITY OF MUD CAKE
RMF .OHMM     4.5                  : RMF          - RESISTIVITY OF MUD FILTRATE
SUFT.C        -15                  : SUFT         - SURFACE TEMPERATURE
~A  DEPTH      CAL       GR     PHIN     PHID     RESD
   95.000  159.385   78.774    0.519   -0.383    5.658
   95.250  170.843   98.153    0.514    0.288    5.347
   95.500  178.130  103.777    0.513    0.282    4.774
   95.750  177.086  101.274    0.519    0.282    5.247
   96.000  172.914   90.643    0.519    0.278    5.877
   96.250  169.784   85.013    0.510    0.245    6.103
   96.500  172.906   81.260    0.501    0.202    6.103
   96.750  181.238   86.259    0.485    0.245    5.877
   97.000  189.569   93.759    0.501    0.265    5.659
   97.250  188.523   98.758    0.501    0.259    5.450
   97.500  187.478   98.755    0.489    0.244    5.450
   97.750  185.389   97.502    0.515    0.222    5.348
   98.000  185.386   94.999    0.520    0.205    5.248
   98.250  186.425   91.246    0.529    0.211    5.150
   98.500  187.463   89.993    0.530    0.240    5.150
   98.750  188.500   91.866    0.526    0.256    5.054
   99.000  189.538   94.990    0.520    0.265    4.867
   99.250  190.577   97.489    0.514    0.272    4.776
   99.500  192.656   98.736    0.505    0.276    4.687
   99.750  194.736   99.985    0.499    0.281    4.599
  100.000  194.733  104.357    0.503    0.282    4.687
  100.250  195.771  101.855    0.504    0.283    4.867
  100.500  196.809   99.352    0.508    0.283    5.451
  100.750  196.804   98.099    0.515    0.282    5.879
  101.000  194.717   93.096    0.505    0.287    6.585
  101.250  190.545   74.963    0.471    0.320    6.838
  101.500  183.246   75.586    0.469    0.335    6.839
  101.750  181.158   81.835    0.482    0.330    6.341
  102.000  180.111   83.708    0.493    0.285    6.106
  102.250  175.940   85.582    0.506    0.280    5.880
  102.500  178.019   90.581    0.484    0.270    5.880
  102.750  183.226   81.200    0.465    0.270    6.586
  103.000  190.516   75.570    0.434    0.320    7.955
  103.250  180.091   72.442    0.444    0.331    8.580
  103.500  184.256   76.816    0.451    0.298    7.661
  103.750  190.504   82.441    0.441    0.275    7.103
  104.000  184.248   96.192    0.447    0.258    6.712
  104.250  175.908   97.441    0.463    0.254    6.343
  104.500  175.905   97.438    0.472    0.260    6.224
  104.750  174.857   95.560    0.467    0.267    6.464
  105.000  174.854   92.432    0.457    0.264    6.713
  105.250  169.638   88.678    0.454    0.255    7.519
  105.500  167.551   81.174    0.458    0.251    8.263
  105.750  164.423   74.294    0.442    0.255    8.582
  106.000  162.335   72.416    0.436    0.280    8.264
  106.250  164.413   74.289    0.441    0.290    7.663
  106.500  166.495   79.914    0.463    0.304    6.972
  106.750  170.659   85.537    0.474    0.274    6.226
  107.000  171.697   88.036    0.483    0.265    5.665
  107.250  167.524   88.659    0.492    0.266    5.253
  107.500  165.437   86.781    0.499    0.269    5.155
  107.750  171.685   83.028    0.492    0.277    5.353
  108.000  177.931   82.400    0.483    0.286    5.455
  108.250  175.845   84.273    0.494    0.290    5.253
  108.500  168.547   84.270    0.511    0.292    4.871
  108.750  166.458   79.892    0.524    0.298    4.780
  109.000  166.453   79.265    0.540    0.276    4.780
  109.250  169.575   83.013    0.541    0.266    4.780
  109.500  170.613   85.511    0.519    0.251    4.872
  109.750  169.566   85.508    0.473    0.249    5.354
  110.000  167.480   84.881    0.458    0.284    5.666
  110.250  163.307   81.127    0.463    0.280    6.716
  110.500  162.263   77.374    0.452    0.259    7.666
  110.750  160.173   72.996    0.439    0.256    7.961
  111.000  161.212   70.492    0.445    0.266    8.268
  111.250  162.251   73.616    0.459    0.277    8.113
  111.500  163.288   76.114    0.473    0.281    7.523
  111.750  164.326   76.737    0.484    0.287    7.109
  112.000  165.364   77.985    0.491    0.291    6.592
  112.250  167.445   79.233    0.488    0.296    6.112
  112.500  169.524   81.732    0.482    0.296    5.562
  112.750  171.603   81.729    0.477    0.290    5.061
  113.000  172.642   81.102    0.475    0.284    5.157
  113.250  173.680   91.102    0.483    0.276    5.158
  113.500  174.719  100.478    0.502    0.269    5.061
  113.750  175.757  103.601    0.513    0.263    4.782
  114.000  177.836  101.722    0.523    0.255    4.693
  114.250  179.915   98.594    0.528    0.256    5.062
  114.500  180.955   94.216    0.524    0.264    5.357
  114.750  179.907   89.212    0.498    0.264    5.777
  115.000  177.820   89.835    0.461    0.256    5.777
  115.250  174.691   92.959    0.463    0.253    5.357
  115.500  170.519   95.457    0.463    0.263    5.062
  115.750  168.429   97.330    0.461    0.261    4.968
  116.000  168.426   96.703    0.449    0.249    5.357
  116.250  170.505   86.697    0.430    0.248    6.350
  116.500  171.544   80.443    0.418    0.256    6.849
  116.750  173.623   81.691    0.418    0.264    7.527
  117.000  174.661   79.812    0.435    0.261    7.671
  117.250  174.656   79.810    0.447    0.254    7.527
  117.500  174.654   84.184    0.451    0.253    7.248
  117.750  174.650   91.684    0.450    0.253    6.980
  118.000  174.645   92.307    0.450    0.248    6.721
  118.250  174.641   90.429    0.454    0.250    6.472
  118.500  173.594   89.176    0.467    0.276    6.233
  118.750  173.592   95.426    0.472    0.284    6.116
  119.000  172.546  100.425    0.496    0.289    5.890
  119.250  171.501   99.797    0.520    0.279    5.359
  119.500  170.454   91.667    0.513    0.259    4.876
  119.750  169.409   93.541    0.498    0.248    4.522
  120.000  168.362   94.789    0.443    0.248    4.522
  120.250  168.358   92.910    0.471    0.249    4.608
  120.500  169.397   91.658    0.503    0.250    4.522
  120.750  171.475   89.779    0.517    0.252    4.273
  121.000  172.515   87.901    0.525    0.253    4.696
  121.250  173.552   86.649    0.491    0.253    5.781
  121.500  171.464   82.270    0.420    0.252    8.121
  121.750  167.293   79.142    0.404    0.244    8.926
  122.000  162.078   74.763    0.422    0.231    9.626
  122.250  167.284   82.263    0.443    0.194    9.626
  122.500  170.406   77.260    0.433    0.242    9.447
  122.750  166.234   71.004    0.402    0.238    8.596
  123.000  162.061   74.129    0.424    0.232    7.390
  123.250  162.058   79.752    0.428    0.274    5.463
  123.500  163.095   84.751    0.438    0.289    4.971
  123.750  165.176   87.249    0.466    0.284    4.610
  124.000  166.214   87.247    0.471    0.280    4.274
  124.250  166.210   82.869    0.464    0.275    4.116
  124.500  169.330   79.740    0.450    0.274    4.275
  124.750  170.370   82.239    0.457    0.275    4.879
  125.000  173.491   87.863    0.469    0.279    5.675
  125.250  173.486   88.486    0.471    0.268    6.120
  125.500  172.442   82.857    0.460    0.220    6.726
  125.750  167.227   72.852    0.450    0.209    6.855
  126.000  163.056   73.474    0.443    0.226    6.727
  126.250  160.968   85.975    0.441    0.239    6.121
  126.500  164.090   89.099    0.448    0.249    5.569
  126.750  165.128   95.349    0.460    0.248    5.465
  127.000  166.167   95.347    0.457    0.248    5.894
  127.250  166.162   89.092    0.445    0.254    6.727
  127.500  166.159   81.587    0.430    0.246    7.394
  127.750  165.112   79.084    0.411    0.236    7.825
  128.000  164.065   79.707    0.397    0.265    7.535
  128.250  163.021   82.830    0.405    0.270    6.728
  128.500  160.933   85.954    0.440    0.271    6.122
  128.750  163.013   89.703    0.480    0.268    5.364
  129.000  167.177   89.700    0.497    0.265    5.165
  129.250  170.298   86.572    0.493    0.263    5.165
  129.500  171.337   84.069    0.498    0.263    5.264
  129.750  172.374   84.066    0.509    0.263    5.364
  130.000  170.284   84.689    0.499    0.264    5.264
  130.250  169.239   82.811    0.485    0.264    5.166
  130.500  167.150   82.184    0.462    0.258    4.882
  130.750  167.148   79.680    0.465    0.254    4.701
  131.000  168.184   80.303    0.476    0.252    4.527
  131.250  169.223   84.052    0.475    0.251    4.277
