~VERSION INFORMATION
 VERS.                 2.0:   CWLS LOG ASCII STANDARD -VERSION 2.0
 WRAP.                  NO:   ONE LINE PER DEPTH STEP
~WELL INFORMATION BLOCK
#MNEM.UNIT           DATA                    DESCRIPTION OF MNEMONIC
#---------    -------------------            -------------------------------
# Generated from Intellog Unique Number	CX_WELLS/WELL/3239
WELL.         CHEVRON ALGAR                  : Well_name    - WELL
LOC .         00/06-24-083-16W4/0            : Location     - LOCATION
UWI .         00/06-24-083-16W400            : Uwi          - UNIQUE WELL ID
ENTR.         T                              : Entered      - ENTERED BY
SRVC.         SCHLUMBERGER                   : Scn          - SERVICE COMPANY
DATE.         03/04/92                       : Date         - LOG DATE
STRT.F        300                            : top_depth    - START DEPTH
STOP.F        920.079                        : bot_depth    - STOP DEPTH
STEP.F        0.82                           : increment    - STEP LENGTH
 NULL. -999.2500:NULL Value
~CURVE INFORMATION BLOCK
#MNEM UNIT       ERCB CURVE CODE    CURVE DESCRIPTION
#-----------   ------------------   ----------------------------------
DEPT.F        00 001 00 00         : DEPTH        - DEPTH
GR  .API      00 310 00 00         : GR           - GAMMA RAY
NPHI.V/V      00 330 00 00         : PHIN         - NEUTRON POROSITY (SANDSTONE)
DPHI.V/V      00 890 00 00         : PHID         - DENSITY POROSITY (SANDSTONE)
ILD .OHMM     00 120 00 00         : RESD         - DEEP RESISTIVITY (DIL)
~PARAMETER INFORMATION
#MNEM.UNIT           DATA             DESCRIPTION OF MNEMONIC
#---------         -----------     ------------------------------
GL  .F        1713.5               : gl           - GROUND LEVEL ELEVATION
EREF.F        1724.5               : kb           - ELEVATION OF DEPTH REFERENCE
DATM.F        1724.5               : datum        - DATUM ELEVATION
TDD .F        920                  : tdd          - TOTAL DEPTH DRILLER
RUN .         ONE                  : Run          - RUN NUMBER
ENG .         JO                   : Engineer     - RECORDING ENGINEER
WIT .         TIM                  : Witness      - WITNESSED BY
MUD .         GEL                  : Mud_type     - MUD TYPE
MATR.         SANDSTONE            : Logunit      - NEUTRON MATRIX
TMAX.F        85                   : BHT          - MAXIMUM RECORDED TEMPERATURE
BHTD.F        920                  : BHTDEP       - MAXIMUM RECORDED TEMPERATURE
RMT .F        60                   : MDTP         - TEMPERATURE OF MUD
MUDD.LB/G     1                    : MWT          - MUD DENSITY
NEUT.         1                    : NEUTRON      - NEUTRON TYPE
RESI.         4.27                 : RESIST       - RESISTIVITY TYPE
RM  .OHMM     4.27                 : RM           - RESISTIVITY OF MUD
RMC .OHMM     3.86                 : RMC          - RESISTIVITY OF MUD CAKE
RMF .OHMM     3                    : RMF          - RESISTIVITY OF MUD FILTRATE
SUFT.F        32.2                 : SUFT         - SURFACE TEMPERATURE
~A  DEPTH       GR     PHIN     PHID     RESD
# ...
  442.717   85.522    0.465    0.279    8.619
  443.537   87.301    0.460    0.282    7.297
  444.357   90.859    0.486    0.286    6.408
  445.177   95.014    0.496    0.289    6.286
  445.997  100.364    0.534    0.284    6.053
  446.818  103.922    0.569    0.269    6.273
  447.638  106.285    0.598    0.254    6.505
  448.458  106.253    0.593    0.247    7.258
  449.278  106.227    0.593    0.249    7.953
  450.098  105.007    0.602    0.259    8.872
  450.919  101.994    0.595    0.271    9.720
  451.739   98.385    0.571    0.266   10.264
  452.559   92.977    0.572    0.256   10.838
  453.379   86.382    0.559    0.259   11.238
  454.199   80.383    0.540    0.264   11.647
  455.020   75.579    0.520    0.276   11.854
  455.840   70.159    0.506    0.275   11.844
  456.660   68.951    0.502    0.274   11.835
  457.480   66.536    0.497    0.280   12.043
  458.301   64.121    0.493    0.285   12.256
  459.121   62.297    0.488    0.292   12.474
  459.941   62.862    0.482    0.286   12.464
  460.761   63.440    0.483    0.275   12.456
  461.581   63.999    0.485    0.277   12.443
  462.402   64.583    0.491    0.283   12.433
  463.222   63.363    0.495    0.286   12.421
  464.042   61.545    0.504    0.289   12.184
  464.862   60.922    0.504    0.288   11.954
  465.682   60.280    0.498    0.284   11.510
  466.503   61.455    0.493    0.286   11.082
  467.323   63.221    0.493    0.286   11.076
  468.143   64.396    0.491    0.286   11.067
  468.963   65.565    0.490    0.285   11.263
  469.783   64.935    0.490    0.279   11.254
  470.604   64.306    0.492    0.273   11.664
  471.424   64.293    0.489    0.264   12.092
  472.244   63.663    0.481    0.263   12.082
  473.064   63.631    0.480    0.288   12.070
  473.885   64.196    0.480    0.293   12.060
  474.705   64.774    0.482    0.297   12.053
  475.525   65.352    0.484    0.298   11.821
  476.345   66.520    0.499    0.298   11.379
  477.165   67.683    0.506    0.290   11.372
  477.986   68.248    0.508    0.281   11.365
  478.806   67.021    0.502    0.281   11.354
  479.626   67.008    0.499    0.283   11.347
  480.446   66.385    0.497    0.284   11.761
  481.266   66.346    0.499    0.284   11.969
  482.087   66.333    0.503    0.286   12.179
  482.907   68.087    0.504    0.287   12.169
  483.727   68.067    0.506    0.287   12.159
  484.547   66.243    0.506    0.285   12.147
  485.367   63.828    0.502    0.280   12.137
  486.188   61.407    0.499    0.273   12.353
  487.008   60.199    0.498    0.272   12.806
  487.828   58.369    0.497    0.284   14.030
  488.648   57.752    0.492    0.296   14.818
  489.469   57.129    0.489    0.297   15.361
  490.289   55.896    0.484    0.301   15.348
  491.109   55.286    0.478    0.303   15.333
  491.929   58.240    0.475    0.304   15.034
  492.749   60.609    0.472    0.306   15.028
  493.570   60.577    0.475    0.309   15.016
  494.390   60.545    0.481    0.309   14.730
  495.210   59.916    0.486    0.302   13.924
  496.030   59.896    0.491    0.298   12.686
  496.850   60.474    0.492    0.284   12.217
  497.671   61.643    0.493    0.281   12.898
  498.491   62.805    0.492    0.285   13.133
  499.311   63.974    0.491    0.293   14.122
  500.131   63.948    0.486    0.298   13.850
  500.951   63.325    0.483    0.297   12.619
  501.772   62.682    0.474    0.296   12.155
  502.592   62.669    0.470    0.292   11.921
  503.412   62.650    0.474    0.284   11.916
  504.232   63.819    0.483    0.281   11.471
  505.052   65.579    0.493    0.279   11.253
  505.873   67.935    0.499    0.271   10.445
  506.693   68.513    0.511    0.270   10.061
  507.513   68.487    0.513    0.272    9.869
  508.333   67.261    0.510    0.273    9.857
  509.154   67.241    0.507    0.276    9.849
  509.974   67.209    0.506    0.277    9.843
  510.794   67.183    0.503    0.282   10.018
  511.614   67.151    0.499    0.279    9.827
  512.434   68.313    0.492    0.267    9.640
  513.255   70.086    0.485    0.267    9.282
  514.075   71.858    0.483    0.268    9.105
  514.895   74.819    0.499    0.268    9.263
  515.715   74.195    0.515    0.268    9.255
  516.535   72.365    0.519    0.271    9.423
  517.356   71.151    0.516    0.272    9.412
  518.176   69.924    0.514    0.272    9.577
  518.996   71.087    0.518    0.273    9.571
  519.816   72.262    0.520    0.274    9.563
  520.636   73.437    0.524    0.277    9.557
  521.457   75.794    0.526    0.281    9.548
  522.277   76.359    0.530    0.275    9.713
  523.097   76.333    0.535    0.268    9.709
  523.917   75.113    0.527    0.256    9.701
  524.738   73.295    0.513    0.250    9.693
  525.558   72.081    0.509    0.259    9.866
  526.378   70.263    0.504    0.280   10.415
  527.198   68.433    0.499    0.291   10.998
  528.018   67.816    0.491    0.290   12.047
  528.839   67.193    0.489    0.288   12.954
  529.659   66.570    0.483    0.291   13.190
  530.479   65.941    0.479    0.297   13.424
  531.299   65.915    0.476    0.298   13.168
  532.119   66.480    0.470    0.295   12.918
  532.940   66.460    0.464    0.285   12.438
  533.760   67.623    0.459    0.274   11.755
  534.580   68.791    0.452    0.272   11.750
  535.400   70.551    0.450    0.278   11.526
  536.220   71.129    0.480    0.279   11.306
  537.041   72.298    0.494    0.276   11.086
  537.861   74.064    0.488    0.275   11.080
  538.681   77.018    0.486    0.271   10.869
  539.501   82.374    0.485    0.267   10.853
  540.322   88.918    0.486    0.263   10.651
  541.142   91.275    0.486    0.262   10.640
  541.962   91.846    0.484    0.258   10.439
  542.782   91.827    0.474    0.252   10.238
  543.602   91.801    0.461    0.244   10.043
  544.423   91.178    0.489    0.245    9.672
  545.243   91.152    0.495    0.253    9.490
  546.063   91.114    0.503    0.249    9.305
  546.883   92.282    0.518    0.243    9.126
  547.703   92.854    0.531    0.240    9.122
  548.524   92.834    0.544    0.242    8.948
  549.344   91.614    0.562    0.243    8.938
  550.164   88.602    0.558    0.235    8.767
  550.984   86.778    0.555    0.227    8.760
  551.804   84.947    0.553    0.226    8.436
  552.625   84.928    0.555    0.226    8.123
  553.445   84.311    0.560    0.225    7.971
  554.265   83.688    0.558    0.229    7.677
  555.085   83.065    0.542    0.235    7.121
  555.906   81.234    0.540    0.243    6.861
  556.726   80.618    0.543    0.251    6.487
  557.546   79.391    0.544    0.254    6.247
  558.366   77.573    0.538    0.254    6.242
  559.186   75.749    0.532    0.256    7.636
  560.007   75.133    0.524    0.263    9.006
  560.827   73.906    0.519    0.272   10.427
  561.647   73.289    0.513    0.285   11.633
  562.467   71.459    0.499    0.284   11.840
  563.287   70.849    0.498    0.282   11.830
  564.108   69.031    0.499    0.272   11.823
  564.928   67.207    0.472    0.255   11.591
  565.748   64.188    0.444    0.253   11.372
  566.568   62.377    0.445    0.284   11.363
  567.388   62.351    0.485    0.300   11.356
  568.209   64.105    0.511    0.305   11.347
  569.029   64.682    0.540    0.298   11.128
  569.849   65.254    0.566    0.289   11.119
  570.669   66.416    0.594    0.283   11.108
  571.490   66.397    0.586    0.293   10.896
  572.310   66.968    0.591    0.302   10.691
  573.130   68.131    0.594    0.307   10.487
  573.950   68.709    0.588    0.307   10.478
  574.770   69.273    0.580    0.309   10.087
  575.591   69.241    0.575    0.311   10.079
  576.411   69.222    0.547    0.307    9.889
  577.231   69.793    0.533    0.304    9.698
  578.051   69.767    0.524    0.300    9.514
  578.871   70.339    0.510    0.288    9.329
  579.692   70.910    0.495    0.277    9.323
  580.512   72.073    0.479    0.269    9.147
  581.332   72.651    0.485    0.260    8.971
  582.152   74.410    0.496    0.253    8.800
  582.972   77.364    0.515    0.245    8.473
  583.793   79.130    0.522    0.240    8.312
  584.613   81.500    0.540    0.234    8.155
