~VERSION INFORMATION
 VERS.                 2.0:   CWLS LOG ASCII STANDARD -VERSION 2.0
 WRAP.                  NO:   ONE LINE PER DEPTH STEP
~WELL INFORMATION BLOCK
#MNEM.UNIT           DATA                    DESCRIPTION OF MNEMONIC
#---------    -------------------            -------------------------------
# Generated from Intellog Unique Number	CS_77_79/WELL/862
WELL.         ICGR CHARD                     : Well_name    - WELL
LOC .         00/05-21-078-05W4/0            : Location     - LOCATION
UWI .         00/05-21-078-05W4/0            : Uwi          - UNIQUE WELL ID
ENTR.         JHS                            : Entered      - ENTERED BY
SRVC.         SCHLUMBERGER                   : Scn          - SERVICE COMPANY
STRT.M        155                            : top_depth    - START DEPTH
STOP.M        415                            : bot_depth    - STOP DEPTH
STEP.M        0.25                           : increment    - STEP LENGTH
 NULL. -999.2500:NULL Value
~CURVE INFORMATION BLOCK
#MNEM UNIT       ERCB CURVE CODE    CURVE DESCRIPTION
#-----------   ------------------   ----------------------------------
DEPT.M        00 001 00 00         : DEPTH        - DEPTH
DPHI.V/V      00 890 00 00         : PHID         - DENSITY POROSITY (LIMESTONE)
NPHI.V/V      00 330 00 00         : PHIN         - NEUTRON POROSITY (LIMESTONE)
GR  .API      00 310 00 00         : GR           - GAMMA RAY
ILD .OHMM     00 120 00 00         : RESD         - DEEP RESISTIVITY (DIL)
RHOB.KG/M3    00 350 00 00         : DENS         - BULK DENSITY
~PARAMETER INFORMATION
#MNEM.UNIT           DATA             DESCRIPTION OF MNEMONIC
#---------         -----------     ------------------------------
GL  .M        575.9                : gl           - GROUND LEVEL ELEVATION
EREF.M        579.5                : kb           - ELEVATION OF DEPTH REFERENCE
DATM.M        579.5                : datum        - DATUM ELEVATION
TDD .M        425                  : tdd          - TOTAL DEPTH DRILLER
RUN .         ONE                  : Run          - RUN NUMBER
ENG .         BILL                 : Engineer     - RECORDING ENGINEER
WIT .         JIM                  : Witness      - WITNESSED BY
MUD .         GEL                  : Mud_type     - MUD TYPE
MATR.         LIMESTONE            : Logunit      - NEUTRON MATRIX
TMAX.C        21                   : BHT          - MAXIMUM RECORDED TEMPERATURE
BHTD.M        425                  : BHTDEP       - MAXIMUM RECORDED TEMPERATURE
MATR.         1                    : LOGUNIT      - NEUTRON MATRIX
RMT .C        25                   : MDTP         - TEMPERATURE OF MUD
NEUT.         1                    : NEUTRON      - NEUTRON TYPE
RESI.         0                    : RESIST       - RESISTIVITY TYPE
RMC .OHMM     0.25                 : RMC          - RESISTIVITY OF MUD CAKE
RMF .OHMM     0.25                 : RMF          - RESISTIVITY OF MUD FILTRATE
SUFT.C        15                   : SUFT         - SURFACE TEMPERATURE
~A  DEPTH     PHID     PHIN       GR     RESD     DENS
# ...
  264.500    0.274    0.441   96.224    5.312    0.000
  264.750    0.287    0.456  101.712    6.063    0.000
  265.000    0.300    0.527  100.468    7.187    0.000
  265.250    0.317    0.555   88.203    8.850    0.000
  265.500    0.325    0.508   75.941   10.896    0.000
  265.750    0.329    0.482   72.244   12.204    0.000
  266.000    0.339    0.484   74.055   12.915    0.000
  266.250    0.346    0.484   68.526   13.410    0.000
  266.500    0.353    0.497   62.998   13.157    0.000
  266.750    0.360    0.525   59.301   12.908    0.000
  267.000    0.349    0.520   58.666   12.906    0.000
  267.250    0.339    0.500   55.585   12.904    0.000
  267.500    0.334    0.495   53.726   12.902    0.000
  267.750    0.343    0.501   55.543   12.657    0.000
  268.000    0.344    0.491   56.133   12.655    0.000
  268.250    0.333    0.470   56.719   12.417    0.000
  268.500    0.328    0.450   56.698   12.651    0.000
  268.750    0.332    0.464   55.448   12.649    0.000
  269.000    0.336    0.489   53.595   12.648    0.000
  269.250    0.330    0.481   52.956   12.887    0.000
  269.500    0.326    0.469   55.383   13.131    0.000
  269.750    0.327    0.468   59.036   13.380    0.000
  270.000    0.327    0.456   60.847   13.633    0.000
  270.250    0.320    0.452   60.213   13.375    0.000
  270.500    0.318    0.461   58.966   13.122    0.000
  270.750    0.320    0.472   59.560   13.120    0.000
  271.000    0.326    0.471   60.760   13.369    0.000
  271.250    0.329    0.469   60.742   14.418    0.000
  271.500    0.321    0.474   59.493   16.149    0.000
  271.750    0.218    0.487   55.188   17.090    0.000
  272.000    0.134    0.434   49.046   17.746    0.000
  272.250    0.125    0.246   52.695   16.764    0.000
  272.500    0.165    0.299   60.625   14.681    0.000
  272.750    0.308    0.421   64.281   12.617    0.000
  273.000    0.320    0.453   64.864   11.050    0.000
  273.250    0.319    0.475   67.298    9.677    0.000
  273.500    0.312    0.492   74.005    8.637    0.000
  273.750    0.301    0.481   78.882    8.006    0.000
  274.000    0.280    0.465   83.760    7.708    0.000
  274.250    0.263    0.486   86.798    7.853    0.000
  274.500    0.261    0.488   84.935    8.002    0.000
  274.750    0.266    0.472   82.466    7.851    0.000
  275.000    0.266    0.484   78.770    8.308    0.000
  275.250    0.261    0.499   82.426    8.307    0.000
  275.500    0.250    0.514   89.135    7.847    0.000
  275.750    0.245    0.510   94.012    7.413    0.000
  276.000    0.249    0.511   90.314    6.871    0.000
  276.250    0.247    0.514   87.231    6.615    0.000
  276.500    0.239    0.515   87.823    6.249    0.000
  276.750    0.237    0.499   89.026    6.016    0.000
  277.000    0.236    0.478   89.614    5.791    0.000
  277.250    0.233    0.503   93.259    5.471    0.000
  277.500    0.236    0.540   93.853    4.976    0.000
  277.750    0.241    0.539   96.888    4.526    0.000
  278.000    0.245    0.532   96.260    4.039    0.000
  278.250    0.257    0.528   93.791    3.674    0.000
  278.500    0.274    0.532   93.765    3.279    0.000
  278.750    0.276    0.573   94.964    2.927    0.000
  279.000    0.282    0.599   94.946    2.713    0.000
  279.250    0.291    0.611   93.089    2.662    0.000
  279.500    0.298    0.613   93.067    2.764    0.000
  279.750    0.282    0.590   96.104    2.870    0.000
  280.000    0.271    0.574   98.526    2.925    0.000
  280.250    0.259    0.570  100.339    3.095    0.000
  280.500    0.250    0.557  101.546    3.275    0.000
  280.750    0.246    0.546   98.465    3.532    0.000
  281.000    0.259    0.574   95.992    3.882    0.000
  281.250    0.286    0.600   92.912    4.267    0.000
  281.500    0.274    0.595   91.050    4.963    0.000
  281.750    0.263    0.547   91.638    5.559    0.000
  282.000    0.266    0.506   91.005    5.883    0.000
  282.250    0.274    0.490   88.535    6.465    0.000
  282.500    0.278    0.492   87.906    6.973    0.000
  282.750    0.278    0.482   86.047    7.379    0.000
  283.000    0.278    0.487   81.126    7.519    0.000
  283.250    0.285    0.483   76.822    8.108    0.000
  283.500    0.324    0.440   76.183    8.420    0.000
  283.750    0.331    0.392   78.002    8.743    0.000
  284.000    0.327    0.418   85.320    8.909    0.000
  284.250    0.322    0.454   84.687    9.078    0.000
  284.500    0.332    0.436   79.156    9.426    0.000
  284.750    0.327    0.421   76.077   10.360    0.000
  285.000    0.304    0.461   71.769   11.174    0.000
  285.250    0.252    0.480   68.072   12.998    0.000
  285.500    0.194    0.407   66.825   15.408    0.000
  285.750    0.205    0.407   63.745   17.259    0.000
  286.000    0.043    0.398   56.990   19.331    0.000
  286.250    0.090    0.186   52.070   21.652    0.000
  286.500    0.139    0.310   59.394   24.252    0.000
  286.750    0.099    0.297   62.432   26.154    0.000
  287.000    0.012    0.220   58.125   26.150    0.000
  287.250    0.000    0.186   55.648   23.784    0.000
  287.500    0.031    0.186   56.859   20.057    0.000
  287.750    0.100    0.208   61.731   14.264    0.000
  288.000    0.144    0.296   69.668   12.029    0.000
  288.250    0.191    0.397   76.381   10.143    0.000
  288.500    0.282    0.436   80.639    9.402    0.000
  288.750    0.279    0.480   78.170    9.224    0.000
  289.000    0.269    0.478   73.865    9.050    0.000
  289.250    0.284    0.467   70.170    9.048    0.000
  289.500    0.262    0.457   65.245    9.046    0.000
  289.750    0.252    0.453   65.227    9.045    0.000
  290.000    0.270    0.463   71.931    9.393    0.000
  290.250    0.289    0.461   72.525    9.754    0.000
  290.500    0.284    0.474   71.278   10.128    0.000
  290.750    0.280    0.494   71.858   10.320    0.000
  291.000    0.275    0.486   73.070   10.124    0.000
  291.250    0.267    0.470   73.052    9.747    0.000
  291.500    0.276    0.459   76.705    9.384    0.000
  291.750    0.276    0.450   81.576    8.698    0.000
  292.000    0.269    0.446   82.774    7.911    0.000
  292.250    0.260    0.469   83.370    7.474    0.000
  292.500    0.248    0.485   84.562    6.928    0.000
  292.750    0.242    0.469   85.163    6.927    0.000
  293.000    0.240    0.469   87.589    7.058    0.000
  293.250    0.240    0.474   89.406    7.469    0.000
  293.500    0.250    0.465   89.991    7.904    0.000
  293.750    0.266    0.464   85.076    8.524    0.000
  294.000    0.283    0.474   77.701    8.685    0.000
  294.250    0.302    0.432   72.782    8.521    0.000
  294.500    0.319    0.381   75.829    8.204    0.000
  294.750    0.313    0.395   83.760    7.461    0.000
  295.000    0.280    0.446   84.954    7.049    0.000
  295.250    0.261    0.472   84.935    6.534    0.000
  295.500    0.248    0.478   86.754    6.657    0.000
  295.750    0.254    0.479   86.731    6.531    0.000
  296.000    0.270    0.475   85.484    6.408    0.000
  296.250    0.257    0.475   86.073    5.940    0.000
  296.500    0.249    0.495   88.506    4.823    0.000
  296.750    0.255    0.503   92.157    4.304    0.000
  297.000    0.258    0.493   92.746    3.990    0.000
  297.250    0.253    0.484   90.878    4.065    0.000
  297.500    0.252    0.479   90.253    4.302    0.000
  297.750    0.257    0.492   90.232    4.468    0.000
  298.000    0.264    0.502   91.431    4.467    0.000
  298.250    0.257    0.504   95.082    4.727    0.000
  298.500    0.252    0.502   96.896    4.909    0.000
  298.750    0.264    0.512   97.482    4.465    0.000
  299.000    0.264    0.539   96.848    4.298    0.000
  299.250    0.269    0.560   94.381    4.138    0.000
  299.500    0.279    0.535   91.915    4.216    0.000
  299.750    0.281    0.518   91.276    4.634    0.000
  300.000    0.317    0.420   83.612    6.637 2167.460
  300.250    0.294    0.436   84.850    7.164 2207.610
  300.500    0.267    0.456   84.859    7.307 2254.100
  300.750    0.260    0.462   86.713    7.176 2264.690
