~VERSION INFORMATION
 VERS.                 2.0:   CWLS LOG ASCII STANDARD -VERSION 2.0
 WRAP.                  NO:   ONE LINE PER DEPTH STEP
~WELL INFORMATION BLOCK
#MNEM.UNIT           DATA                    DESCRIPTION OF MNEMONIC
#---------    -------------------            -------------------------------
# Generated from Intellog Unique Number	CC_84_87/WELL/2551
WELL.         GULF AOSTRA RESDELN            : Well_name    - WELL
LOC .         00/06-05-084-06W4/0            : Location     - LOCATION
UWI .         00/06-05-084-06W400            : Uwi          - UNIQUE WELL ID
ENTR.         JHS                            : Entered      - ENTERED BY
SRVC.         SCHLUMBERGER                   : Scn          - SERVICE COMPANY
STRT.M        150                            : top_depth    - START DEPTH
STOP.M        409.75                         : bot_depth    - STOP DEPTH
STEP.M        0.25                           : increment    - STEP LENGTH
 NULL. -999.2500:NULL Value
~CURVE INFORMATION BLOCK
#MNEM UNIT       ERCB CURVE CODE    CURVE DESCRIPTION
#-----------   ------------------   ----------------------------------
DEPT.M        00 001 00 00         : DEPTH        - DEPTH
GR  .API      00 310 00 00         : GR           - GAMMA RAY
DPHI.V/V      00 890 00 00         : PHID         - DENSITY POROSITY (SANDSTONE)
NPHI.V/V      00 330 00 00         : PHIN         - NEUTRON POROSITY (SANDSTONE)
ILD .OHMM     00 120 00 00         : RESD         - DEEP RESISTIVITY (DIL)
~PARAMETER INFORMATION
#MNEM.UNIT           DATA             DESCRIPTION OF MNEMONIC
#---------         -----------     ------------------------------
GL  .M        571                  : gl           - GROUND LEVEL ELEVATION
EREF.M        574.68               : kb           - ELEVATION OF DEPTH REFERENCE
DATM.M        574.68               : datum        - DATUM ELEVATION
TDD .M        420                  : tdd          - TOTAL DEPTH DRILLER
RUN .         ONE                  : Run          - RUN NUMBER
ENG .         BILL                 : Engineer     - RECORDING ENGINEER
WIT .         JIM                  : Witness      - WITNESSED BY
MUD .         GEL                  : Mud_type     - MUD TYPE
MATR.         SANDSTONE            : Logunit      - NEUTRON MATRIX
TMAX.C        21                   : BHT          - MAXIMUM RECORDED TEMPERATURE
BHTD.M        420                  : BHTDEP       - MAXIMUM RECORDED TEMPERATURE
MATR.         1                    : LOGUNIT      - NEUTRON MATRIX
RMT .C        25                   : MDTP         - TEMPERATURE OF MUD
NEUT.         1                    : NEUTRON      - NEUTRON TYPE
RESI.         0                    : RESIST       - RESISTIVITY TYPE
RMC .OHMM     0.25                 : RMC          - RESISTIVITY OF MUD CAKE
RMF .OHMM     0.25                 : RMF          - RESISTIVITY OF MUD FILTRATE
SUFT.C        15                   : SUFT         - SURFACE TEMPERATURE
~A  DEPTH       GR     PHID     PHIN     RESD
# ...
  367.500   15.032    0.018    0.154    8.827
  367.750   15.293    0.007    0.138    9.375
  368.000   18.071   -0.001    0.138   10.183
  368.250   18.874    0.008    0.149   10.772
  368.500   19.593    0.021    0.156   11.356
  368.750   22.614    0.022    0.150   12.067
  369.000   24.468    0.010    0.137   12.409
  369.250   23.667    0.001    0.138   12.430
  369.500   21.332   -0.001    0.145   12.299
  369.750   18.896    0.000    0.143   11.920
  370.000   17.683    0.004    0.135   11.197
  370.250   17.274    0.010    0.134   10.341
  370.500   16.253    0.013    0.141    9.567
  370.750   15.300    0.016    0.146    8.707
  371.000   14.233    0.023    0.149    8.113
  371.250   13.898    0.033    0.147    7.755
  371.500   14.086    0.032    0.143    7.701
  371.750   15.073    0.016    0.140    7.834
  372.000   17.200    0.006    0.134    8.138
  372.250   18.148    0.005    0.132    9.381
  372.500   20.456    0.014    0.138   10.463
  372.750   20.123    0.027    0.151   11.240
  373.000   17.712    0.039    0.160   11.843
  373.250   16.690    0.032    0.162   12.090
  373.500   16.886    0.005    0.158   12.086
  373.750   18.369    0.016    0.154   12.450
  374.000   20.583    0.029    0.150   13.068
  374.250   21.768    0.025    0.149   13.532
  374.500   22.036    0.017    0.157   13.405
  374.750   22.857    0.021    0.167   13.015
  375.000   24.490    0.033    0.166   12.822
  375.250   25.670    0.035    0.160   11.924
  375.500   26.257    0.024    0.150   10.633
  375.750   32.222    0.016    0.191    9.988
  376.000   40.221    0.042    0.228    9.803
  376.250   42.005    0.061    0.200    9.756
  376.500   36.792    0.028    0.158   10.500
  376.750   29.889    0.020    0.144   12.103
  377.000   28.130    0.005    0.141   13.899
  377.250   29.411   -0.001    0.136   17.421
  377.500   32.917   -0.001    0.135   20.160
  377.750   39.239    0.003    0.143   19.543
  378.000   47.694    0.020    0.166   16.089
  378.250   58.752    0.017    0.229    9.599
  378.500   64.063    0.062    0.293    7.448
  378.750   65.213    0.082    0.305    7.442
  379.000   66.797    0.072    0.297    7.178
  379.250   68.674    0.073    0.313    7.095
  379.500   68.468    0.062    0.323    6.994
  379.750   66.999    0.044    0.314    7.208
  380.000   65.396    0.036    0.305    7.540
  380.250   61.897    0.034    0.289    7.987
  380.500   60.083    0.024    0.278    8.521
  380.750   61.788    0.020    0.278    9.068
  381.000   62.092    0.035    0.280    9.660
  381.250   60.139    0.032    0.284   10.180
  381.500   58.422    0.046    0.282   10.106
  381.750   57.341    0.052    0.271   10.070
  382.000   56.458    0.037    0.253   10.395
  382.250   54.331    0.029    0.227   11.336
  382.500   46.405    0.034    0.193   13.354
  382.750   31.114    0.014    0.156   16.070
  383.000   26.431    0.001    0.117   20.054
  383.250   29.270   -0.000    0.103   25.942
  383.500   33.659    0.000    0.129   30.970
  383.750   39.847   -0.001    0.171   32.088
  384.000   46.393    0.000    0.197   28.701
  384.250   49.747    0.013    0.209   21.892
  384.500   50.535    0.009    0.218   19.459
  384.750   51.124    0.011    0.223   19.340
  385.000   51.161    0.022    0.221   19.000
  385.250   50.913    0.015    0.220   18.684
  385.500   52.732    0.000    0.235   18.090
  385.750   55.431    0.015    0.248   17.512
  386.000   56.214    0.015    0.247   17.499
  386.250   54.688    0.009    0.234   18.598
  386.500   52.881    0.026    0.220   19.190
  386.750   53.308    0.028    0.225   18.247
  387.000   56.701    0.000    0.254   17.164
  387.250   60.934    0.038    0.272   16.413
  387.500   62.984    0.027    0.269   15.392
  387.750   61.605    0.032    0.266   14.929
  388.000   60.345    0.045    0.270   14.577
  388.250   62.410    0.029    0.276   13.930
  388.500   65.470    0.039    0.280   13.772
  388.750   66.771    0.055    0.280   13.569
  389.000   71.589    0.057    0.274   13.365
  389.250   74.743    0.039    0.274   13.144
  389.500   74.542    0.034    0.283   13.030
  389.750   74.110    0.047    0.287   13.065
  390.000   72.991    0.045    0.284   13.069
  390.250   69.875    0.036    0.280   13.074
  390.500   69.054    0.031    0.275   13.090
  390.750   70.686    0.031    0.276   13.069
  391.000   72.839    0.048    0.286   13.176
  391.250   72.936    0.061    0.292   13.387
  391.500   70.885    0.045    0.289   13.361
  391.750   71.493    0.040    0.286   13.149
  392.000   70.825    0.051    0.293   13.145
  392.250   70.323    0.070    0.292   13.020
  392.500   70.475    0.070    0.283   12.882
  392.750   71.712    0.057    0.281   12.913
  393.000   74.880    0.058    0.288   12.923
  393.250   75.128    0.051    0.292   13.131
  393.500   73.112    0.044    0.294   13.345
  393.750   66.684    0.025    0.292   13.645
  394.000   58.442    0.015    0.275   14.280
  394.250   53.900    0.017    0.248   15.305
  394.500   51.359    0.004    0.226   16.571
  394.750   44.475    0.014    0.199   18.810
  395.000   43.666    0.005    0.167   24.983
  395.250   47.062   -0.000    0.168   32.602
  395.500   49.210    0.002    0.186   36.819
  395.750   50.165   -0.000    0.191   37.022
  396.000   51.801    0.006    0.187   35.724
  396.250   54.035    0.021    0.181   32.565
  396.500   60.423    0.018    0.209   29.985
  396.750   64.913    0.009    0.237   27.738
  397.000   65.140    0.007    0.243   25.983
  397.250   64.835    0.016    0.241   24.882
  397.500   66.073    0.030    0.242   23.769
  397.750   67.678    0.023    0.236   23.398
  398.000   68.388    0.013    0.238   23.099
  398.250   66.350    0.010    0.241   22.692
  398.500   64.836    0.009    0.236   22.509
  398.750   64.890    0.009    0.230   22.559
  399.000   63.272    0.016    0.229   22.570
  399.250   62.738    0.018    0.231   22.604
  399.500   63.077    0.009    0.230   22.345
  399.750   64.252    0.009    0.228   21.943
  400.000   64.518    0.016    0.230   21.753
  400.250   63.300    0.011    0.231   21.830
  400.500   63.655    0.003    0.227   21.821
  400.750   66.897    0.029    0.233   21.477
  401.000   67.318    0.038    0.238   21.441
  401.250   65.992    0.029    0.239   21.336
  401.500   67.278    0.030    0.242   20.798
  401.750   69.433    0.037    0.245   20.214
  402.000   68.781    0.022    0.248   19.942
  402.250   69.911    0.013    0.250   19.628
  402.500   69.286    0.032    0.250   19.579
  402.750   66.105    0.044    0.248   19.629
  403.000   63.069    0.039    0.246   19.601
  403.250   63.454    0.032    0.249   19.676
  403.500   67.320    0.030    0.252   20.027
  403.750   70.079    0.036    0.251   20.383
  404.000   70.281    0.036    0.249   20.427
  404.250   66.004    0.033    0.247   20.500
  404.500   63.953    0.034    0.249   20.230
  404.750   66.805    0.041    0.253   19.608
  405.000   66.902    0.043    0.255   19.350
  405.250   64.283    0.025    0.252   19.060
  405.500   63.962    0.034    0.249   18.809
  405.750   63.522    0.040    0.249   18.330
  406.000   64.371    0.026    0.252   17.833
  406.250   66.930    0.018    0.257   17.663
  406.500   67.252    0.030    0.262   17.693
  406.750   67.841    0.042    0.266   17.728
  407.000   67.738    0.042    0.268   17.480
  407.250   66.359    0.031    0.271   17.366
  407.500   63.823    0.014    0.272   17.420
  407.750   61.789    0.010    0.268   17.413
  408.000   62.116    0.024    0.264   17.431
  408.250   63.603    0.013    0.264   17.467
  408.500   65.804    0.011    0.267   17.205
  408.750   66.794    0.031    0.269   17.162
  409.000   64.400    0.046    0.271   16.994
  409.250   59.354    0.035    0.269   16.937
  409.500   54.396    0.015    0.265   17.842
  409.750   48.382    0.013    0.255   19.094
