~VERSION INFORMATION
 VERS.                 2.0:   CWLS LOG ASCII STANDARD -VERSION 2.0
 WRAP.                  NO:   ONE LINE PER DEPTH STEP
~WELL INFORMATION BLOCK
#MNEM.UNIT           DATA                    DESCRIPTION OF MNEMONIC
#---------    -------------------            -------------------------------
# Generated from Intellog Unique Number	CW_76_78/WELL/185
WELL.         AMOCO 78 MARTEN HILLS 02-05    : Well_name    - WELL
LOC .         00/02-05-076-26W4/0            : Location     - LOCATION
UWI .         00/02-05-076-26W4/0            : Uwi          - UNIQUE WELL ID
ENTR.         JAYE                           : Entered      - ENTERED BY
SRVC.         SCHLUMBERGER                   : Scn          - SERVICE COMPANY
DATE.         23 FEB 76                      : Date         - LOG DATE
STRT.M        612.648                        : top_depth    - START DEPTH
STOP.M        804.148                        : bot_depth    - STOP DEPTH
STEP.M        0.25                           : increment    - STEP LENGTH
 NULL. -999.2500:NULL Value
~CURVE INFORMATION BLOCK
#MNEM UNIT       ERCB CURVE CODE    CURVE DESCRIPTION
#-----------   ------------------   ----------------------------------
DEPT.M        00 001 00 00         : DEPTH        - DEPTH
CALI.MM       00 280 01 00         : CAL          - CALIPER
ILD .OHMM     00 120 00 00         : RESD         - DEEP RESISTIVITY (DIL)
NPHI.V/V      00 330 00 00         : PHIN         - NEUTRON POROSITY (SANDSTONE)
DPHI.V/V      00 890 00 00         : PHID         - DENSITY POROSITY (SANDSTONE)
GR  .API      00 310 00 00         : GR           - GAMMA RAY
~PARAMETER INFORMATION
#MNEM.UNIT           DATA             DESCRIPTION OF MNEMONIC
#---------         -----------     ------------------------------
GL  .M        899.77               : gl           - GROUND LEVEL ELEVATION
EREF.M        903.427              : kb           - ELEVATION OF DEPTH REFERENCE
DATM.M        899.77               : datum        - DATUM ELEVATION
TDD .M        806.196              : tdd          - TOTAL DEPTH DRILLER
RUN .         ONE                  : Run          - RUN NUMBER
ENG .         LAZOR                : Engineer     - RECORDING ENGINEER
WIT .         HUCULAK              : Witness      - WITNESSED BY
MUD .         GEL                  : Mud_type     - MUD TYPE
MATR.         SANDSTONE            : Logunit      - NEUTRON MATRIX
TMAX.C        29.4444              : BHT          - MAXIMUM RECORDED TEMPERATURE
BHTD.M        805.282              : BHTDEP       - MAXIMUM RECORDED TEMPERATURE
RMT .C        15.5556              : MDTP         - TEMPERATURE OF MUD
MUDD.KG/M     1080                 : MWT          - MUD DENSITY
NEUT.         1                    : NEUTRON      - NEUTRON TYPE
RESI.         0                    : RESIST       - RESISTIVITY TYPE
RM  .OHMM     5.07                 : RM           - RESISTIVITY OF MUD
RMC .OHMM     0                    : RMC          - RESISTIVITY OF MUD CAKE
RMF .OHMM     7.19                 : RMF          - RESISTIVITY OF MUD FILTRATE
SUFT.C        -17.7778             : SUFT         - SURFACE TEMPERATURE
~A  DEPTH      CAL     RESD     PHIN     PHID       GR
# ...
  758.648  220.923   26.169    0.389    0.135   58.703
  758.898  220.587   27.621    0.386    0.118   58.799
  759.148  220.228   27.943    0.378    0.125   57.556
  759.398  219.779   27.757    0.380    0.140   58.205
  759.648  219.745   27.019    0.378    0.124   61.904
  759.898  219.511   25.869    0.375    0.132   65.853
  760.148  219.665   24.541    0.373    0.142   66.192
  760.398  219.946   23.028    0.374    0.152   66.171
  760.648  220.007   21.646    0.378    0.165   68.651
  760.898  219.860   19.399    0.386    0.164   70.092
  761.148  219.615   17.611    0.406    0.148   68.421
  761.398  219.060   16.075    0.418    0.152   66.445
  761.648  218.005   14.728    0.427    0.160   67.647
  761.898  217.438   13.844    0.426    0.146   71.342
  762.148  216.991   13.109    0.421    0.169   75.348
  762.398  216.743   12.461    0.439    0.187   77.829
  762.648  216.601   12.085    0.456    0.178   79.818
  762.898  217.079   11.807    0.445    0.177   75.892
  763.148  218.082   12.056    0.432    0.197   79.224
  763.398  218.668   12.771    0.432    0.240   82.860
  763.648  218.836   13.552    0.458    0.232   84.974
  763.898  219.218   14.460    0.458    0.224   76.717
  764.148  219.483   15.776    0.434    0.172   72.366
  764.398  219.751   16.711    0.408    0.143   72.892
  764.648  219.822   17.538    0.395    0.138   73.666
  764.898  219.888   18.408    0.391    0.163   73.821
  765.148  220.155   18.624    0.400    0.171   73.128
  765.398  220.527   18.297    0.415    0.189   72.376
  765.648  220.802   17.712    0.409    0.161   72.050
  765.898  220.770   16.712    0.392    0.137   73.062
  766.148  220.208   16.030    0.389    0.132   77.918
  766.398  219.550   15.462    0.415    0.167   85.035
  766.648  219.303   15.586    0.442    0.205   83.059
  766.898  219.279   16.119    0.432    0.193   77.366
  767.148  219.332   17.455    0.420    0.153   73.988
  767.398  219.406   19.111    0.410    0.147   72.810
  767.648  219.260   20.545    0.402    0.149   74.312
  767.898  219.219   21.602    0.396    0.138   75.810
  768.148  219.187   21.655    0.382    0.149   71.458
  768.398  219.355   21.276    0.372    0.135   69.120
  768.648  219.426   20.748    0.371    0.131   70.499
  768.898  219.587   19.467    0.373    0.133   73.587
  769.148  219.760   17.097    0.373    0.118   77.103
  769.398  219.718   14.263    0.391    0.131   81.598
  769.648  219.788   12.141    0.409    0.186   86.087
  769.898  219.752   10.941    0.419    0.174   90.212
  770.148  219.817    9.859    0.426    0.157   90.438
  770.398  219.886    8.983    0.428    0.133   91.761
  770.648  219.941    8.230    0.429    0.115   93.566
  770.898  220.425    7.722    0.426    0.149   94.639
  771.148  221.828    7.614    0.420    0.133   92.848
  771.398  222.938    7.847    0.410    0.134   95.327
  771.648  222.993    7.924    0.408    0.140   99.634
  771.898  222.756    7.958    0.413    0.116   95.647
  772.148  221.994    8.007    0.404    0.080   89.768
  772.398  221.639    7.895    0.405    0.052   91.576
  772.648  221.922    7.573    0.427    0.154   96.563
  772.898  222.391    7.106    0.424    0.132  100.320
  773.148  222.877    6.692    0.417    0.135  102.797
  773.398  222.840    6.443    0.413    0.145  104.790
  773.648  222.904    6.203    0.411    0.138  105.623
  773.898  223.279    6.083    0.415    0.131  106.147
  774.148  224.379    6.142    0.420    0.130  107.780
  774.398  225.478    6.260    0.422    0.119  109.276
  774.648  225.948    6.475    0.421    0.119  114.070
  774.898  224.475    6.909    0.417    0.132  114.597
  775.148  223.295    7.373    0.406    0.134  110.550
  775.398  222.327    7.941    0.391    0.150  106.196
  775.648  221.569    8.318    0.369    0.149  104.716
  775.898  220.804    8.827    0.384    0.150  103.222
  776.148  220.257    9.665    0.397    0.137  101.434
  776.398  220.210   11.120    0.389    0.125  100.130
  776.648  219.973   13.619    0.386    0.113   97.727
  776.898  219.723   16.197    0.332    0.074   84.771
  777.148  219.489   18.262    0.263    0.038   76.942
  777.398  219.447   20.219    0.220    0.014   72.770
  777.648  219.625   20.795    0.239    0.002   74.640
  777.898  220.089   18.982    0.329    0.093   78.643
  778.148  220.465   15.604    0.353    0.122   83.749
  778.398  220.535   13.984    0.370    0.141   87.507
  778.648  220.190   12.671    0.380    0.153   91.756
  778.898  220.248   11.630    0.392    0.157   94.232
  779.148  220.422   11.321    0.397    0.156   97.814
  779.398  220.690   11.123    0.383    0.150   99.438
  779.648  219.417   11.048    0.373    0.120   99.841
  779.898  218.659   10.558    0.369    0.111   99.452
  780.148  218.722    9.888    0.368    0.146   99.917
  780.398  218.791    8.862    0.370    0.152  103.862
  780.648  218.751    8.119    0.374    0.139  108.596
  780.898  218.922    7.343    0.386    0.132  108.025
  781.148  218.982    7.044    0.402    0.127  107.395
  781.398  218.846    7.352    0.420    0.122  110.116
  781.648  218.601    8.080    0.433    0.116  114.365
  781.898  218.866    9.161    0.421    0.109  110.257
  782.148  219.048   10.637    0.390    0.097   98.091
  782.398  219.311   12.767    0.264    0.050   82.025
  782.648  219.385   13.953    0.278   -0.000   85.296
  782.898  219.560   13.458    0.326    0.106   93.451
  783.148  219.611   11.289    0.359    0.156   98.065
  783.398  220.087    9.400    0.397    0.172  100.363
  783.648  222.222    8.424    0.421    0.159  101.619
  783.898  224.352    8.007    0.435    0.152  106.415
  784.148  225.243    8.012    0.435    0.163  112.739
  784.398  224.898    8.062    0.430    0.134  115.829
  784.648  224.238    7.949    0.416    0.075  120.378
  784.898  223.483    7.823    0.395    0.058  128.473
  785.148  222.828    7.560    0.396    0.077  140.709
  785.398  222.474    7.481    0.403    0.097  148.373
  785.648  222.024    7.838    0.412    0.112  145.730
  785.898  221.785    8.364    0.397    0.134  144.002
  786.148  221.443    8.416    0.391    0.109  137.265
  786.398  221.400    8.237    0.381    0.072  127.422
  786.648  221.566    8.092    0.367    0.050  119.164
  786.898  221.526    7.820    0.381    0.038  127.621
  787.148  221.607    7.556    0.420    0.078  131.991
  787.398  221.653    7.369    0.409    0.087  126.177
  787.648  221.628    7.293    0.392    0.057  122.309
  787.898  221.482    7.164    0.385    0.044  121.435
  788.148  221.034    6.936    0.400    0.081  123.849
  788.398  220.892    6.532    0.420    0.104  128.041
  788.648  220.953    6.196    0.435    0.116  131.493
  788.898  221.847    5.730    0.423    0.134  134.222
  789.148  223.458    5.327    0.416    0.117  134.930
  789.398  226.316    4.889    0.416    0.097  135.390
  789.648  228.754    4.270    0.421    0.084  134.701
  789.898  229.953    3.912    0.429    0.078  134.125
  790.148  230.539    3.732    0.432    0.085  132.829
  790.398  231.016    4.079    0.459    0.112  130.791
  790.648  231.907    4.780    0.511    0.146  127.837
  790.898  233.631    5.748    0.413    0.178  109.025
  791.148  227.701    7.383    0.346    0.209   90.519
  791.398  223.124    9.502    0.326    0.257   70.366
  791.648  221.323   11.489    0.353    0.207   79.497
  791.898  220.263   13.002    0.376    0.183   86.915
  792.148  220.112   11.315    0.394    0.175   92.627
  792.398  220.284    9.704    0.395    0.176   99.010
  792.648  220.347    9.376    0.392    0.122  100.878
  792.898  220.109   10.024    0.389    0.126   97.019
  793.148  219.962   11.704    0.316    0.109   82.595
  793.398  219.407   14.413    0.257    0.091   73.910
  793.648  218.960   19.208    0.157    0.246   64.004
  793.898  218.823   29.220    0.132    0.323   52.210
  794.148  218.681   68.074    0.107    0.369   42.000
  794.398  218.855  103.366    0.112    0.366   36.852
  794.648  218.913  109.094    0.147    0.353   35.001
  794.898  218.978  105.226    0.166    0.347   34.432
