~VERSION INFORMATION
 VERS.                 2.0:   CWLS LOG ASCII STANDARD -VERSION 2.0
 WRAP.                  NO:   ONE LINE PER DEPTH STEP
~WELL INFORMATION BLOCK
#MNEM.UNIT           DATA                    DESCRIPTION OF MNEMONIC
#---------    -------------------            -------------------------------
# Generated from Intellog Unique Number	CS_67_68/WELL/2166
WELL.         MURPHY ET AL ATMORE            : Well_name    - WELL
LOC .         00/06-11-067-17W4/0            : Location     - LOCATION
UWI .         00/06-11-067-17W4/0            : Uwi          - UNIQUE WELL ID
ENTR.         SP                             : Entered      - ENTERED BY
SRVC.         SCHLUMBERGER                   : Scn          - SERVICE COMPANY
STRT.M        381                            : top_depth    - START DEPTH
STOP.M        554.50                         : bot_depth    - STOP DEPTH
STEP.M        0.25                           : increment    - STEP LENGTH
 NULL. -999.2500:NULL Value
~CURVE INFORMATION BLOCK
#MNEM UNIT       ERCB CURVE CODE    CURVE DESCRIPTION
#-----------   ------------------   ----------------------------------
DEPT.M        00 001 00 00         : DEPTH        - DEPTH
CALI.MM       00 280 01 00         : CAL          - CALIPER
GR  .API      00 310 00 00         : GR           - GAMMA RAY
DPHI.V/V      00 890 00 00         : PHID         - DENSITY POROSITY (SANDSTONE)
NPHI.V/V      00 330 00 00         : PHIN         - NEUTRON POROSITY (SANDSTONE)
ILD .OHMM     00 120 00 00         : RESD         - DEEP RESISTIVITY (DIL)
~PARAMETER INFORMATION
#MNEM.UNIT           DATA             DESCRIPTION OF MNEMONIC
#---------         -----------     ------------------------------
GL  .M        608.076              : gl           - GROUND LEVEL ELEVATION
EREF.M        611.124              : kb           - ELEVATION OF DEPTH REFERENCE
DATM.M        611.124              : datum        - DATUM ELEVATION
TDD .M        566.928              : tdd          - TOTAL DEPTH DRILLER
RUN .         `                    : Run          - RUN NUMBER
ENG .         BILL                 : Engineer     - RECORDING ENGINEER
WIT .         JIM                  : Witness      - WITNESSED BY
MUD .         GEL                  : Mud_type     - MUD TYPE
MATR.         SANDSTONE            : Logunit      - NEUTRON MATRIX
TMAX.C        24.4444              : BHT          - MAXIMUM RECORDED TEMPERATURE
BHTD.M        567.538              : BHTDEP       - MAXIMUM RECORDED TEMPERATURE
MATR.         1                    : LOGUNIT      - NEUTRON MATRIX
RMT .C        25                   : MDTP         - TEMPERATURE OF MUD
NEUT.         1                    : NEUTRON      - NEUTRON TYPE
RESI.         0                    : RESIST       - RESISTIVITY TYPE
RMC .OHMM     0.25                 : RMC          - RESISTIVITY OF MUD CAKE
RMF .OHMM     0.25                 : RMF          - RESISTIVITY OF MUD FILTRATE
SUFT.C        15                   : SUFT         - SURFACE TEMPERATURE
~A  DEPTH      CAL       GR     PHID     PHIN     RESD
  381.000  197.716  114.692    0.203    0.549    2.347
  381.250  192.094  112.854    0.212    0.559    2.266
  381.500  186.074  112.056    0.219    0.545    2.209
  381.750  188.795  112.748    0.192    0.556    2.201
  382.000  194.463  113.503    0.178    0.547    2.238
  382.250  199.527  114.928    0.181    0.534    2.277
  382.500  202.745  116.124    0.179    0.530    2.329
  382.750  206.849  115.810    0.186    0.547    2.394
  383.000  207.488  116.992    0.182    0.561    2.451
  383.250  206.714  118.903    0.174    0.557    2.487
  383.500  205.920  118.813    0.174    0.545    2.510
  383.750  204.032  119.094    0.177    0.553    2.482
  384.000  201.150  118.313    0.170    0.552    2.452
  384.250  201.046  116.011    0.183    0.538    2.470
  384.500  202.996  111.714    0.178    0.541    2.520
  384.750  197.694  108.854    0.193    0.530    2.473
  385.000  185.155  106.094    0.197    0.497    2.364
  385.250  175.556  104.391    0.194    0.492    2.253
  385.500  174.513  106.573    0.173    0.541    2.141
  385.750  182.987  108.382    0.222    0.575    2.092
  386.000  191.422  106.747    0.244    0.597    2.240
  386.250  196.468  102.603    0.261    0.529    2.370
  386.500  177.407   98.769    0.269    0.498    2.432
  386.750  166.125   95.297    0.262    0.465    2.436
  387.000  165.595   97.701    0.274    0.438    2.429
  387.250  164.021  104.557    0.260    0.427    2.431
  387.500  163.482  109.228    0.239    0.420    2.494
  387.750  163.908  112.770    0.223    0.411    2.622
  388.000  165.977  113.792    0.213    0.408    2.726
  388.250  168.734  109.266    0.210    0.415    2.779
  388.500  170.243  102.308    0.215    0.422    2.726
  388.750  171.449   93.762    0.223    0.432    2.647
  389.000  167.649   88.283    0.239    0.444    2.609
  389.250  167.194   82.211    0.258    0.434    2.677
  389.500  172.967   89.422    0.246    0.419    3.005
  389.750  179.517   99.391    0.211    0.415    3.253
  390.000  185.439  107.538    0.180    0.436    3.542
  390.250  185.170   98.820    0.144    0.452    3.858
  390.500  181.390   95.674    0.128    0.460    4.018
  390.750  176.156   94.256    0.133    0.468    4.001
  391.000  173.507   96.424    0.148    0.439    3.880
  391.250  172.515   95.255    0.164    0.421    3.836
  391.500  173.192   90.084    0.166    0.431    3.787
  391.750  172.646   86.166    0.183    0.438    3.794
  392.000  169.631   84.098    0.208    0.427    3.931
  392.250  166.960   82.692    0.188    0.413    4.192
  392.500  167.808   80.669    0.192    0.433    4.381
  392.750  168.430   76.098    0.237    0.444    4.362
  393.000  165.704   70.954    0.272    0.427    4.218
  393.250  163.356   66.529    0.281    0.407    3.996
  393.500  162.390   64.094    0.265    0.398    3.761
  393.750  161.805   60.773    0.268    0.412    3.494
  394.000  161.914   60.222    0.286    0.395    3.325
  394.250  162.175   68.071    0.282    0.385    3.221
  394.500  162.691   72.630    0.270    0.389    3.157
  394.750  163.691   78.141    0.265    0.392    3.135
  395.000  163.652   79.628    0.256    0.410    3.122
  395.250  162.931   78.236    0.252    0.426    3.066
  395.500  161.126   75.939    0.278    0.441    2.846
  395.750  159.520   74.295    0.281    0.446    2.544
  396.000  157.338   73.813    0.275    0.451    2.320
  396.250  154.574   73.103    0.272    0.459    2.036
  396.500  151.060   72.008    0.281    0.455    1.882
  396.750  147.158   70.948    0.287    0.460    1.788
  397.000  142.869   70.513    0.278    0.460    1.742
  397.250  139.672   71.844    0.268    0.458    1.755
  397.500  142.672   74.581    0.265    0.467    1.815
  397.750  147.147   77.058    0.275    0.475    1.872
  398.000  153.780   79.673    0.273    0.480    1.921
  398.250  158.788   81.029    0.267    0.487    1.970
  398.500  160.951   82.349    0.264    0.494    1.993
  398.750  161.855   82.321    0.267    0.499    2.014
  399.000  163.006   81.868    0.273    0.500    1.981
  399.250  164.053   82.979    0.265    0.485    1.952
  399.500  164.775   85.959    0.255    0.483    2.024
  399.750  165.517   88.592    0.253    0.477    2.097
  400.000  166.418   91.208    0.254    0.468    2.215
  400.250  166.590   91.993    0.256    0.456    2.301
  400.500  166.651   90.038    0.254    0.446    2.304
  400.750  166.492   87.430    0.246    0.443    2.298
  401.000  166.197   86.169    0.241    0.449    2.445
  401.250  166.113   84.536    0.237    0.430    2.662
  401.500  166.340   82.138    0.216    0.393    3.016
  401.750  166.581   80.274    0.167    0.357    3.202
  402.000  166.890   81.651    0.123    0.381    2.932
  402.250  167.414   84.137    0.173    0.427    2.691
  402.500  167.382   85.667    0.235    0.446    2.499
  402.750  167.576   89.923    0.217    0.446    2.398
  403.000  167.659   95.713    0.207    0.445    2.460
  403.250  167.578   99.190    0.192    0.449    2.681
  403.500  167.571  102.506    0.179    0.449    2.863
  403.750  167.728  102.150    0.169    0.459    2.977
  404.000  168.174  103.151    0.183    0.468    2.990
  404.250  168.450  104.864    0.197    0.468    3.052
  404.500  168.883  107.029    0.195    0.475    3.150
  404.750  169.395  108.774    0.192    0.485    3.280
  405.000  170.688  108.657    0.188    0.495    3.425
  405.250  173.809  108.546    0.183    0.500    3.542
  405.500  177.180  109.308    0.171    0.501    3.568
  405.750  174.440  111.350    0.161    0.491    3.502
  406.000  170.188  115.067    0.164    0.482    3.353
  406.250  168.704  118.084    0.166    0.476    3.242
  406.500  175.110  123.404    0.154    0.473    3.156
  406.750  181.568  129.089    0.152    0.487    3.188
  407.000  187.539  134.255    0.169    0.496    3.262
  407.250  185.845  130.696    0.194    0.484    3.350
  407.500  178.329  127.336    0.189    0.463    3.514
  407.750  172.623  124.774    0.180    0.448    3.679
  408.000  169.766  124.289    0.172    0.450    3.849
  408.250  169.162  124.338    0.167    0.442    3.960
  408.500  171.127  122.913    0.162    0.436    4.106
  408.750  173.259  121.340    0.173    0.433    4.187
  409.000  175.029  120.854    0.179    0.434    4.236
  409.250  175.446  118.481    0.190    0.436    4.240
  409.500  175.225  115.350    0.194    0.439    4.224
  409.750  175.076  115.894    0.188    0.447    4.108
  410.000  174.608  117.740    0.197    0.455    3.934
  410.250  173.813  117.004    0.190    0.461    3.765
  410.500  173.389  116.769    0.187    0.454    3.621
  410.750  173.255  120.446    0.193    0.440    3.484
  411.000  173.252  121.710    0.185    0.447    3.403
  411.250  173.230  122.228    0.176    0.459    3.311
  411.500  173.723  124.616    0.165    0.474    3.295
  411.750  173.760  128.695    0.176    0.478    3.354
  412.000  173.846  131.417    0.170    0.462    3.399
  412.250  170.783  131.690    0.168    0.456    3.485
  412.500  167.621  126.816    0.177    0.455    3.580
  412.750  168.141  124.359    0.189    0.442    3.673
  413.000  171.254  124.036    0.183    0.431    3.761
  413.250  174.924  125.604    0.164    0.430    3.742
  413.500  178.284  128.055    0.154    0.445    3.503
  413.750  176.385  132.213    0.156    0.458    3.304
  414.000  176.606  137.224    0.168    0.468    3.143
  414.250  179.807  135.874    0.174    0.480    2.990
  414.500  184.371  132.375    0.163    0.492    2.879
  414.750  188.593  130.590    0.144    0.513    2.833
  415.000  187.319  128.167    0.167    0.500    2.808
  415.250  181.821  123.615    0.192    0.484    2.830
  415.500  176.846  118.944    0.201    0.485    2.840
  415.750  173.783  114.034    0.201    0.487    2.760
  416.000  171.884  107.297    0.194    0.490    2.686
  416.250  170.475  102.148    0.187    0.498    2.667
  416.500  168.908   99.586    0.169    0.487    2.673
  416.750  167.485   94.485    0.147    0.487    2.675
  417.000  166.870   98.634    0.140    0.490    2.639
  417.250  166.886  100.009    0.196    0.484    2.591
