~VERSION INFORMATION
 VERS.                 2.0:   CWLS LOG ASCII STANDARD -VERSION 2.0
 WRAP.                  NO:   ONE LINE PER DEPTH STEP
~WELL INFORMATION BLOCK
#MNEM.UNIT           DATA                    DESCRIPTION OF MNEMONIC
#---------    -------------------            -------------------------------
# Generated from Intellog Unique Number	CS_71_72/WELL/813
WELL.         BOW VALLEY EXPLORATION         : Well_name    - WELL
LOC .         00/07-24-071-17W4/0            : Location     - LOCATION
UWI .         00/07-24-071-17W4/0            : Uwi          - UNIQUE WELL ID
ENTR.         SP                             : Entered      - ENTERED BY
SRVC.         SCHLUMBERGER                   : Scn          - SERVICE COMPANY
STRT.M        274.320                        : top_depth    - START DEPTH
STOP.M        475.320                        : bot_depth    - STOP DEPTH
STEP.M        0.25                           : increment    - STEP LENGTH
 NULL. -999.2500:NULL Value
~CURVE INFORMATION BLOCK
#MNEM UNIT       ERCB CURVE CODE    CURVE DESCRIPTION
#-----------   ------------------   ----------------------------------
DEPT.M        00 001 00 00         : DEPTH        - DEPTH
GR  .API      00 310 00 00         : GR           - GAMMA RAY
DPHI.V/V      00 890 00 00         : PHID         - DENSITY POROSITY (SANDSTONE)
NPHI.V/V      00 330 00 00         : PHIN         - NEUTRON POROSITY (SANDSTONE)
ILD .OHMM     00 120 00 00         : RESD         - DEEP RESISTIVITY (DIL)
~PARAMETER INFORMATION
#MNEM.UNIT           DATA             DESCRIPTION OF MNEMONIC
#---------         -----------     ------------------------------
GL  .M        565.404              : gl           - GROUND LEVEL ELEVATION
EREF.M        568.452              : kb           - ELEVATION OF DEPTH REFERENCE
DATM.M        565.404              : datum        - DATUM ELEVATION
TDD .M        482.803              : tdd          - TOTAL DEPTH DRILLER
RUN .         ONE                  : Run          - RUN NUMBER
ENG .         BILL                 : Engineer     - RECORDING ENGINEER
WIT .         JIM                  : Witness      - WITNESSED BY
MUD .         GEL                  : Mud_type     - MUD TYPE
MATR.         SANDSTONE            : Logunit      - NEUTRON MATRIX
TMAX.C        18.3333              : BHT          - MAXIMUM RECORDED TEMPERATURE
BHTD.M        476.707              : BHTDEP       - MAXIMUM RECORDED TEMPERATURE
MATR.         1                    : LOGUNIT      - NEUTRON MATRIX
RMT .C        25                   : MDTP         - TEMPERATURE OF MUD
NEUT.         1                    : NEUTRON      - NEUTRON TYPE
RESI.         0                    : RESIST       - RESISTIVITY TYPE
RMC .OHMM     0.25                 : RMC          - RESISTIVITY OF MUD CAKE
RMF .OHMM     0.25                 : RMF          - RESISTIVITY OF MUD FILTRATE
SUFT.C        15                   : SUFT         - SURFACE TEMPERATURE
~A  DEPTH       GR     PHID     PHIN     RESD
# ...
  404.820   73.418    0.248    0.425    5.840
  405.070   71.090    0.243    0.421    5.942
  405.320   69.245    0.254    0.414    6.086
  405.570   69.623    0.249    0.414    6.401
  405.820   70.670    0.221    0.400    6.874
  406.070   72.315    0.182    0.372    7.172
  406.320   76.966    0.193    0.395    7.194
  406.570   82.968    0.216    0.411    6.639
  406.820   88.924    0.241    0.413    5.809
  407.070   94.624    0.239    0.430    4.752
  407.320   98.772    0.230    0.457    4.225
  407.570  101.512    0.248    0.513    3.974
  407.820  102.140    0.264    0.514    3.853
  408.070  101.528    0.258    0.514    3.806
  408.320  102.165    0.252    0.504    3.831
  408.570  105.121    0.248    0.493    3.889
  408.820  107.623    0.244    0.492    3.952
  409.070  109.048    0.241    0.492    3.986
  409.320  108.421    0.238    0.495    4.001
  409.570  106.863    0.238    0.498    3.928
  409.820  105.324    0.237    0.491    3.820
  410.070  105.530    0.235    0.489    3.805
  410.320  107.615    0.234    0.492    3.772
  410.570  109.647    0.237    0.493    3.768
  410.820  111.930    0.240    0.503    3.767
  411.070  112.017    0.244    0.515    3.782
  411.320  111.169    0.248    0.525    3.820
  411.570  109.492    0.242    0.524    3.880
  411.820  108.751    0.238    0.507    3.968
  412.070  107.987    0.226    0.487    4.060
  412.320  106.873    0.213    0.471    4.264
  412.570  105.311    0.224    0.456    4.460
  412.820  103.095    0.221    0.448    4.805
  413.070  100.383    0.214    0.458    5.253
  413.320  103.261    0.211    0.448    5.817
  413.570   98.760    0.194    0.410    6.676
  413.820   89.041    0.176    0.371    8.026
  414.070   82.407    0.145    0.340    8.930
  414.320   74.627    0.094    0.317    8.954
  414.570   74.115    0.066    0.293    8.473
  414.820   80.475    0.065    0.321    7.772
  415.070   86.482    0.114    0.369    7.301
  415.320   89.986    0.179    0.392    7.104
  415.570   91.947    0.178    0.391    7.079
  415.820   88.136    0.151    0.354    7.386
  416.070   81.525    0.121    0.323    7.581
  416.320   92.509    0.131    0.368    7.563
  416.570   98.253    0.162    0.403    7.206
  416.820   98.081    0.199    0.427    6.847
  417.070   93.568    0.214    0.452    7.085
  417.320   90.565    0.194    0.438    7.339
  417.570   89.015    0.154    0.395    7.547
  417.820   90.010    0.121    0.362    7.625
  418.070   92.274    0.121    0.374    7.556
  418.320   94.003    0.158    0.400    7.244
  418.570   95.102    0.183    0.414    6.907
  418.820   95.545    0.203    0.417    6.597
  419.070   95.849    0.196    0.421    6.579
  419.320   93.648    0.203    0.423    6.636
  419.570   94.807    0.212    0.420    6.719
  419.820   98.022    0.189    0.422    6.816
  420.070   99.030    0.169    0.428    7.005
  420.320   98.768    0.172    0.428    7.142
  420.570   96.876    0.184    0.427    7.257
  420.820   99.372    0.161    0.415    7.272
  421.070   99.644    0.159    0.404    7.248
  421.320   98.486    0.169    0.396    7.176
  421.570  103.576    0.193    0.392    6.988
  421.820  107.485    0.201    0.406    6.830
  422.070  106.591    0.203    0.417    6.759
  422.320  103.305    0.187    0.422    6.795
  422.570  101.264    0.196    0.394    7.099
  422.820  102.326    0.188    0.375    7.541
  423.070  101.706    0.171    0.370    7.912
  423.320   99.521    0.172    0.371    8.127
  423.570   97.638    0.185    0.363    8.281
  423.820   94.796    0.167    0.348    8.206
  424.070   93.701    0.166    0.370    7.986
  424.320   95.778    0.190    0.405    7.614
  424.570   95.668    0.218    0.415    7.241
  424.820   95.235    0.204    0.410    6.714
  425.070   96.835    0.200    0.404    6.191
  425.320   99.679    0.204    0.397    5.482
  425.570  101.998    0.212    0.394    4.850
  425.820  104.372    0.207    0.428    4.057
  426.070  106.815    0.217    0.456    3.465
  426.320  108.471    0.237    0.498    2.930
  426.570  110.011    0.225    0.521    2.618
  426.820  110.646    0.218    0.515    2.768
  427.070  109.453    0.202    0.439    2.967
  427.320  104.822    0.172    0.408    3.378
  427.570   96.524    0.112    0.365    4.608
  427.820   84.537    0.035    0.327    6.279
  428.070   65.672    0.009    0.290    8.774
  428.320   73.475    0.057    0.304    9.725
  428.570   86.826    0.105    0.330    9.971
  428.820   93.749    0.158    0.353    9.635
  429.070   98.567    0.174    0.379    8.369
  429.320   93.667    0.182    0.401    7.007
  429.570   86.017    0.166    0.393    7.540
  429.820   79.842    0.108    0.370    8.681
  430.070   76.064    0.065    0.335    9.606
  430.320   74.103    0.038    0.298   10.627
  430.570   77.607    0.095    0.315   11.339
  430.820   82.441    0.108    0.329   11.867
  431.070   84.668    0.115    0.322   11.063
  431.320   90.590    0.101    0.282   10.149
  431.570  100.909    0.099    0.280    9.123
  431.820  103.803    0.127    0.326    8.360
  432.070  105.687    0.177    0.386    7.569
  432.320  107.234    0.171    0.396    6.837
  432.570  107.030    0.162    0.401    6.226
  432.820  105.079    0.156    0.406    5.998
  433.070  102.975    0.152    0.414    6.331
  433.320  102.644    0.156    0.413    6.654
  433.570  104.631    0.158    0.415    6.830
  433.820  102.618    0.157    0.417    6.829
  434.070   98.775    0.149    0.413    6.566
  434.320  100.238    0.158    0.415    6.189
  434.570  100.841    0.172    0.425    5.813
  434.820  100.486    0.171    0.433    5.667
  435.070  101.621    0.163    0.431    5.557
  435.320  104.525    0.162    0.423    5.482
  435.570  105.113    0.164    0.432    5.439
  435.820  100.763    0.171    0.435    5.427
  436.070   98.733    0.142    0.429    5.408
  436.320   99.600    0.123    0.433    5.459
  436.570  102.073    0.121    0.428    5.525
  436.820  104.101    0.135    0.420    5.553
  437.070  105.954    0.113    0.435    5.331
  437.320  108.784    0.165    0.452    5.054
  437.570  105.965    0.165    0.461    4.908
  437.820  103.018    0.151    0.459    4.892
  438.070  102.253    0.162    0.461    4.868
  438.320  101.173    0.174    0.467    4.948
  438.570   99.512    0.178    0.462    5.033
  438.820   98.605    0.166    0.453    5.206
  439.070   98.802    0.150    0.448    5.275
  439.320  100.582    0.154    0.463    5.365
  439.570  103.146    0.180    0.454    5.340
  439.820  103.253    0.194    0.433    5.150
  440.070  105.732    0.185    0.437    5.129
  440.320  109.732    0.181    0.452    5.210
  440.570  108.572    0.181    0.405    5.266
  440.820  106.362    0.187    0.390    5.275
  441.070  107.406    0.195    0.408    5.184
  441.320  109.381    0.174    0.430    4.884
  441.570  111.237    0.165    0.457    4.639
  441.820  110.566    0.178    0.479    4.323
  442.070  107.588    0.186    0.486    4.082
  442.320  103.892    0.171    0.485    4.060
  442.570   97.057    0.154    0.422    4.200
  442.820   92.428    0.133    0.418    4.322
  443.070   91.077    0.107    0.425    4.621
  443.320   86.556    0.109    0.421    5.020
  443.570   75.269    0.138    0.401    5.745
  443.820   66.866    0.187    0.377    6.537
  444.070   64.596    0.212    0.366    7.560
  444.320   66.406    0.210    0.360    8.499
  444.570   69.614    0.205    0.359    8.991
  444.820   73.007    0.197    0.367    9.282
  445.070   75.885    0.192    0.373    9.055
  445.320   74.155    0.199    0.360    7.681
  445.570   62.105    0.226    0.348    6.625
  445.820   52.895    0.258    0.345    5.840
  446.070   48.326    0.257    0.353    5.316
  446.320   45.981    0.265    0.349    4.936
  446.570   48.014    0.276    0.344    4.759
  446.820   50.745    0.234    0.352    4.614
  447.070   52.227    0.220    0.352    4.526
  447.320   52.257    0.231    0.354    4.493
  447.570   51.696    0.241    0.363    4.495
  447.820   51.674    0.254    0.370    4.505
  448.070   52.608    0.260    0.357    4.531
