~VERSION INFORMATION
 VERS.                 2.0:   CWLS LOG ASCII STANDARD -VERSION 2.0
 WRAP.                  NO:   ONE LINE PER DEPTH STEP
~WELL INFORMATION BLOCK
#MNEM.UNIT           DATA                    DESCRIPTION OF MNEMONIC
#---------    -------------------            -------------------------------
# Generated from Intellog Unique Number	CS_67_68/WELL/770
WELL.         FISHER CREEK                   : Well_name    - WELL
LOC .         00/07-12-068-05W4/0            : Location     - LOCATION
UWI .         00/07-12-068-05W4/0            : Uwi          - UNIQUE WELL ID
ENTR.         SP                             : Entered      - ENTERED BY
SRVC.         SCHLUMBERGER                   : Scn          - SERVICE COMPANY
STRT.M        330                            : top_depth    - START DEPTH
STOP.M        560                            : bot_depth    - STOP DEPTH
STEP.M        0.25                           : increment    - STEP LENGTH
 NULL. -999.2500:NULL Value
~CURVE INFORMATION BLOCK
#MNEM UNIT       ERCB CURVE CODE    CURVE DESCRIPTION
#-----------   ------------------   ----------------------------------
DEPT.M        00 001 00 00         : DEPTH        - DEPTH
ILD .OHMM     00 120 00 00         : RESD         - DEEP RESISTIVITY (DIL)
DPHI.V/V      00 890 00 00         : PHID         - DENSITY POROSITY (LIMESTONE)
NPHI.V/V      00 330 00 00         : PHIN         - NEUTRON POROSITY (LIMESTONE)
GR  .API      00 310 00 00         : GR           - GAMMA RAY
~PARAMETER INFORMATION
#MNEM.UNIT           DATA             DESCRIPTION OF MNEMONIC
#---------         -----------     ------------------------------
GL  .M        683.1                : gl           - GROUND LEVEL ELEVATION
EREF.M        686.8                : kb           - ELEVATION OF DEPTH REFERENCE
DATM.M        683.1                : datum        - DATUM ELEVATION
TDD .M        565                  : tdd          - TOTAL DEPTH DRILLER
RUN .         ONE                  : Run          - RUN NUMBER
ENG .         BILL                 : Engineer     - RECORDING ENGINEER
WIT .         JIM                  : Witness      - WITNESSED BY
MUD .         GEL                  : Mud_type     - MUD TYPE
MATR.         LIMESTONE            : Logunit      - NEUTRON MATRIX
TMAX.C        26.6                 : BHT          - MAXIMUM RECORDED TEMPERATURE
BHTD.M        565                  : BHTDEP       - MAXIMUM RECORDED TEMPERATURE
MATR.         1                    : LOGUNIT      - NEUTRON MATRIX
RMT .C        25                   : MDTP         - TEMPERATURE OF MUD
NEUT.         1                    : NEUTRON      - NEUTRON TYPE
RESI.         0                    : RESIST       - RESISTIVITY TYPE
RMC .OHMM     0.25                 : RMC          - RESISTIVITY OF MUD CAKE
RMF .OHMM     0.25                 : RMF          - RESISTIVITY OF MUD FILTRATE
SUFT.C        15                   : SUFT         - SURFACE TEMPERATURE
~A  DEPTH     RESD     PHID     PHIN       GR
# ...
  504.000    5.562    0.284    0.416   67.481
  504.250    5.470    0.299    0.356   69.818
  504.500    5.410    0.294    0.376   70.620
  504.750    5.679    0.058    0.390   67.249
  505.000    6.350    0.013    0.252   74.067
  505.250    7.303   -0.004    0.208   82.664
  505.500    7.912    0.020    0.266   89.114
  505.750    8.352    0.106    0.310   94.766
  506.000    8.137    0.174    0.330   90.781
  506.250    6.832    0.188    0.326   85.017
  506.500    6.020    0.194    0.325   78.333
  506.750    5.454    0.223    0.324   74.594
  507.000    4.951    0.268    0.355   73.862
  507.250    4.462    0.303    0.383   73.193
  507.500    4.204    0.343    0.400   72.829
  507.750    3.961    0.326    0.394   72.098
  508.000    3.874    0.308    0.387   74.619
  508.250    4.044    0.297    0.388   82.604
  508.500    4.213    0.286    0.398   88.439
  508.750    4.414    0.276    0.402   92.556
  509.000    4.712    0.265    0.398   97.411
  509.250    4.955    0.257    0.392  101.773
  509.500    5.211    0.252    0.387   96.991
  509.750    5.440    0.252    0.382   92.577
  510.000    5.522    0.252    0.378   93.933
  510.250    5.574    0.250    0.383   90.317
  510.500    5.574    0.253    0.383   89.340
  510.750    5.523    0.239    0.374   92.598
  511.000    5.412    0.231    0.371   93.769
  511.250    5.234    0.235    0.367   89.785
  511.500    5.043    0.238    0.386   84.328
  511.750    4.769    0.231    0.400   79.484
  512.000    4.502    0.262    0.383   67.889
  512.250    4.282    0.291    0.356   57.584
  512.500    4.080    0.282    0.342   58.264
  512.750    3.938    0.274    0.360   59.374
  513.000    3.795    0.270    0.375   59.379
  513.250    3.649    0.278    0.386   51.405
  513.500    3.543    0.290    0.372   42.020
  513.750    3.363    0.283    0.363   36.562
  514.000    3.252    0.283    0.356   39.575
  514.250    3.199    0.300    0.357   52.224
  514.500    3.259    0.308    0.363   62.724
  514.750    3.327    0.307    0.352   65.000
  515.000    3.396    0.305    0.348   66.296
  515.250    3.479    0.304    0.348   67.097
  515.500    3.565    0.300    0.371   67.900
  515.750    3.646    0.294    0.392   70.115
  516.000    3.715    0.288    0.389   76.012
  516.250    3.806    0.283    0.375   80.437
  516.500    3.900    0.280    0.368   83.081
  516.750    3.988    0.300    0.381   85.971
  517.000    4.086    0.310    0.395   87.939
  517.250    4.163    0.299    0.394   83.280
  517.500    4.265    0.289    0.373   74.755
  517.750    4.395    0.284    0.350   68.438
  518.000    4.528    0.288    0.356   58.684
  518.250    4.692    0.292    0.361   62.127
  518.500    4.843    0.271    0.351   66.673
  518.750    4.953    0.256    0.344   71.404
  519.000    5.037    0.244    0.338   74.846
  519.250    5.075    0.255    0.347   77.184
  519.500    5.113    0.275    0.352   76.882
  519.750    5.095    0.291    0.371   74.617
  520.000    4.927    0.307    0.402   73.762
  520.250    4.643    0.297    0.419   72.601
  520.500    4.440    0.290    0.398   69.784
  520.750    4.367    0.285    0.386   74.392
  521.000    4.351    0.281    0.399   77.957
  521.250    4.367    0.276    0.397   79.250
  521.500    4.425    0.267    0.390   80.360
  521.750    4.509    0.252    0.390   85.030
  522.000    4.671    0.240    0.400   87.981
  522.250    4.786    0.239    0.399   76.449
  522.500    4.858    0.257    0.381   69.641
  522.750    4.895    0.243    0.373   64.122
  523.000    4.905    0.128    0.359   58.173
  523.250    4.979    0.061    0.312   60.143
  523.500    5.197    0.050    0.273   67.697
  523.750    5.558    0.079    0.280   78.934
  524.000    6.100    0.130    0.322   84.033
  524.250    6.597    0.167    0.351   73.666
  524.500    6.899    0.277    0.358   64.342
  524.750    6.217    0.250    0.351   66.925
  525.000    5.707    0.221    0.344   77.241
  525.250    5.509    0.203    0.337   99.525
  525.500    6.003    0.187    0.350  109.841
  525.750    6.150    0.171    0.364  110.707
  526.000    6.419    0.159    0.356  105.863
  526.250    6.651    0.153    0.360  111.821
  526.500    6.866    0.168    0.374  117.289
  526.750    7.022    0.192    0.385  110.727
  527.000    7.061    0.221    0.374   97.107
  527.250    6.970    0.241    0.362   89.624
  527.500    6.642    0.236    0.348   89.015
  527.750    6.399    0.224    0.338   99.761
  528.000    6.189    0.207    0.329  108.113
  528.250    5.997    0.186    0.357  115.177
  528.500    5.800    0.170    0.381  120.951
  528.750    5.714    0.169    0.402  115.739
  529.000    5.557    0.179    0.401   89.046
  529.250    5.683    0.189    0.356   75.487
  529.500    5.988    0.172    0.340   88.566
  529.750    6.286    0.160    0.369  103.731
  530.000    6.357    0.146    0.390  111.898
  530.250    6.298    0.150    0.409  111.475
  530.500    6.252    0.168    0.399  108.840
  530.750    6.172    0.181    0.374  107.188
  531.000    6.126    0.177    0.352  109.772
  531.250    6.025    0.181    0.405  112.477
  531.500    5.741    0.188    0.426  113.709
  531.750    5.542    0.184    0.420  112.794
  532.000    5.390    0.166    0.401  113.229
  532.250    5.390    0.151    0.393  112.742
  532.500    5.585    0.172    0.401  103.542
  532.750    5.808    0.188    0.390   94.770
  533.000    6.040    0.195    0.381   86.489
  533.250    6.258    0.208    0.386   84.592
  533.500    6.364    0.231    0.390   87.850
  533.750    6.472    0.250    0.392   90.249
  534.000    6.533    0.214    0.384   93.139
  534.250    6.510    0.191    0.377   94.986
  534.500    6.367    0.202    0.374   95.788
  534.750    6.296    0.203    0.386   93.154
  535.000    6.238    0.199    0.400   91.748
  535.250    6.193    0.209    0.395   94.392
  535.500    6.136    0.215    0.389   98.755
  535.750    6.102    0.219    0.386  102.811
  536.000    6.080    0.221    0.380  104.780
  536.250    5.991    0.209    0.380  105.399
  536.500    5.924    0.195    0.395  107.553
  536.750    5.848    0.186    0.416  108.969
  537.000    5.795    0.187    0.429  110.079
  537.250    5.773    0.199    0.441  110.882
  537.500    5.774    0.208    0.417  109.966
  537.750    5.764    0.213    0.399  107.640
  538.000    5.775    0.216    0.387  107.644
  538.250    5.797    0.222    0.381  107.895
  538.500    5.787    0.227    0.382  106.059
  538.750    5.798    0.233    0.383  101.891
  539.000    5.864    0.236    0.385   97.600
  539.250    5.919    0.216    0.389   98.158
  539.500    6.008    0.197    0.392   99.942
  539.750    6.054    0.210    0.371   93.994
  540.000    6.043    0.232    0.336   87.002
  540.250    5.866    0.265    0.323   79.212
  540.500    5.684    0.276    0.312   67.188
  540.750    5.579    0.259    0.327   65.597
  541.000    5.570    0.241    0.360   85.305
  541.250    5.633    0.249    0.387   95.743
  541.500    5.665    0.286    0.406  103.359
  541.750    5.697    0.287    0.390  106.678
  542.000    5.729    0.297    0.378  105.394
  542.250    5.740    0.315    0.388   64.769
  542.500    5.645    0.321    0.402   53.543
  542.750    5.379    0.311    0.395   47.901
  543.000    5.116    0.328    0.362   43.610
  543.250    4.920    0.307    0.334   41.099
  543.500    4.776    0.282    0.317   39.263
  543.750    4.750    0.283    0.309   38.900
  544.000    4.741    0.292    0.314   38.107
  544.250    4.804    0.305    0.323   36.087
  544.500    4.849    0.316    0.332   32.226
  544.750    4.886    0.324    0.335   30.389
  545.000    4.896    0.328    0.330   29.351
  545.250    4.833    0.332    0.326   32.057
  545.500    4.717    0.335    0.337   33.474
  545.750    4.665    0.335    0.348   35.136
  546.000    4.674    0.331    0.354   36.491
  546.250    4.710    0.325    0.340   36.803
  546.500    4.799    0.323    0.330   35.888
  546.750    4.871    0.327    0.329   34.236
  547.000    4.899    0.329    0.333   32.892
  547.250    4.872    0.329    0.334   31.852
