~VERSION INFORMATION
 VERS.                 2.0:   CWLS LOG ASCII STANDARD -VERSION 2.0
 WRAP.                  NO:   ONE LINE PER DEPTH STEP
~WELL INFORMATION BLOCK
#MNEM.UNIT           DATA                    DESCRIPTION OF MNEMONIC
#---------    -------------------            -------------------------------
# Generated from Intellog Unique Number	CW_73_75/WELL/2731
WELL.         RIVA KELLY 07-22               : Well_name    - WELL
LOC .         00/07-22-073-19W4/0            : Location     - LOCATION
UWI .         00/07-22-073-19W4/0            : Uwi          - UNIQUE WELL ID
ENTR.         JAYE                           : Entered      - ENTERED BY
SRVC.         SCHLUMBERGER                   : Scn          - SERVICE COMPANY
DATE.         16 DEC 77                      : Date         - LOG DATE
STRT.M        365.76                         : top_depth    - START DEPTH
STOP.M        570.01                         : bot_depth    - STOP DEPTH
STEP.M        0.25                           : increment    - STEP LENGTH
 NULL. -999.2500:NULL Value
~CURVE INFORMATION BLOCK
#MNEM UNIT       ERCB CURVE CODE    CURVE DESCRIPTION
#-----------   ------------------   ----------------------------------
DEPT.M        00 001 00 00         : DEPTH        - DEPTH
ILD .OHMM     00 120 00 00         : RESD         - DEEP RESISTIVITY (DIL)
NPHI.V/V      00 330 00 00         : PHIN         - NEUTRON POROSITY (SANDSTONE)
DPHI.V/V      00 890 00 00         : PHID         - DENSITY POROSITY (SANDSTONE)
GR  .API      00 310 00 00         : GR           - GAMMA RAY
CALI.MM       00 280 01 00         : CAL          - CALIPER
~PARAMETER INFORMATION
#MNEM.UNIT           DATA             DESCRIPTION OF MNEMONIC
#---------         -----------     ------------------------------
GL  .M        670.865              : gl           - GROUND LEVEL ELEVATION
EREF.M        673.913              : kb           - ELEVATION OF DEPTH REFERENCE
DATM.M        670.865              : datum        - DATUM ELEVATION
TDD .M        567.842              : tdd          - TOTAL DEPTH DRILLER
RUN .         ONE                  : Run          - RUN NUMBER
ENG .         DALY                 : Engineer     - RECORDING ENGINEER
WIT .         STEIDEL              : Witness      - WITNESSED BY
BASE.         EDM                  : Branch       - HOME BASE OF LOGGING UNIT
MUD .         DAPP                 : Mud_type     - MUD TYPE
MATR.         SANDSTONE            : Logunit      - NEUTRON MATRIX
TMAX.C        23.3333              : BHT          - MAXIMUM RECORDED TEMPERATURE
BHTD.M        566.318              : BHTDEP       - MAXIMUM RECORDED TEMPERATURE
RMT .C        18.8889              : MDTP         - TEMPERATURE OF MUD
MUDD.KG/M     1176                 : MWT          - MUD DENSITY
NEUT.         1                    : NEUTRON      - NEUTRON TYPE
RESI.         0                    : RESIST       - RESISTIVITY TYPE
RM  .OHMM     0.99                 : RM           - RESISTIVITY OF MUD
RMC .OHMM     0                    : RMC          - RESISTIVITY OF MUD CAKE
RMF .OHMM     0                    : RMF          - RESISTIVITY OF MUD FILTRATE
SUFT.C        -17.7778             : SUFT         - SURFACE TEMPERATURE
~A  DEPTH     RESD     PHIN     PHID       GR      CAL
# ...
  548.260    4.239    0.433    0.155  113.766  157.423
  548.510    4.075    0.444    0.173  114.719  157.136
  548.760    3.896    0.454    0.174  112.114  156.842
  549.010    3.732    0.463    0.167  110.194  156.870
  549.260    3.684    0.466    0.148  109.461  157.011
  549.510    3.735    0.447    0.129  104.981  157.143
  549.760    3.843    0.411    0.083  104.810  157.592
  550.010    3.969    0.394    0.054  111.384  158.151
  550.260    4.085    0.404    0.146  113.025  158.709
  550.510    4.133    0.433    0.172  113.670  159.156
  550.760    4.118    0.424    0.171  114.495  159.503
  551.010    4.005    0.408    0.170  116.511  159.955
  551.260    3.873    0.419    0.179  119.650  160.297
  551.510    3.816    0.443    0.189  120.977  160.535
  551.760    3.774    0.434    0.196  120.745  159.401
  552.010    3.747    0.427    0.199  116.826  156.467
  552.260    3.727    0.436    0.194  116.845  153.323
  552.510    3.728    0.454    0.187  117.924  152.296
  552.760    3.779    0.465    0.188  118.502  153.697
  553.010    3.911    0.447    0.175  119.516  156.583
  553.260    4.055    0.429    0.167  119.719  158.722
  553.510    4.189    0.417    0.165  116.801  162.137
  553.760    4.359    0.409    0.152  110.448  164.597
  554.010    4.528    0.405    0.149  109.342  165.892
  554.260    4.821    0.402    0.149  108.919  165.499
  554.510    5.094    0.401    0.145  106.252  158.019
  554.760    5.444    0.401    0.139  103.394  154.345
  555.010    5.806    0.434    0.155   83.301  154.374
  555.260    6.205    0.447    0.151   69.517  156.622
  555.510    7.017    0.403    0.158   52.233  158.132
  555.760    8.178    0.377    0.276   41.446  153.084
  556.010    9.806    0.357    0.278   37.091  147.929
  556.260   11.537    0.345    0.273   34.609  149.862
  556.510   13.911    0.338    0.270   32.502  151.794
  556.760   17.321    0.330    0.282   39.452  151.715
  557.010   18.545    0.322    0.277   51.398  149.311
  557.260   17.663    0.316    0.274   60.221  148.915
  557.510   15.022    0.314    0.267   73.851  151.378
  557.760   12.897    0.327    0.257   86.607  153.841
  558.010   11.327    0.371    0.246   92.682  154.923
  558.260    9.947    0.400    0.226   96.320  155.797
  558.510    9.350    0.422    0.217   97.337  156.459
  558.760    8.905    0.422    0.226   94.233  156.911
  559.010    8.595    0.416    0.242   92.625  157.045
  559.260    8.294    0.404    0.253   91.454  156.653
  559.510    7.945    0.398    0.237   89.035  156.362
  559.760    7.510    0.379    0.217   87.990  154.170
  560.010    7.262    0.357    0.195   87.631  152.824
  560.260    7.075    0.342    0.159   80.966  153.276
  560.510    6.906    0.336    0.100   74.302  155.312
  560.760    6.869    0.341    0.095   75.254  158.408
  561.010    6.705    0.346    0.116   77.331  159.068
  561.260    6.459    0.335    0.145   78.474  158.885
  561.510    6.304    0.316    0.177   78.740  158.807
  561.760    6.165    0.299    0.202   79.256  158.415
  562.010    6.063    0.295    0.225   80.708  157.279
  562.260    6.043    0.292    0.219   84.472  155.508
  562.510    6.125    0.289    0.204   88.485  155.432
  562.760    6.267    0.287    0.190   92.812  156.306
  563.010    6.498    0.284    0.179   97.012  157.709
  563.260    6.637    0.281    0.169   98.590  158.689
  563.510    6.715    0.275    0.140   99.234  159.244
  563.760    6.819    0.271    0.136   99.936  159.593
  564.010    6.873    0.266    0.146  100.390  159.728
  564.260    6.888    0.263    0.157  100.655  159.964
  564.510    6.904    0.261    0.172  100.422  160.205
  564.760    6.880    0.258    0.180   99.568  158.539
  565.010    6.882    0.249    0.186   99.583  154.761
  565.260    6.884    0.252    0.187   99.285  156.799
  565.510    6.848    0.260    0.200   98.615  160.423
  565.760    6.850    0.277    0.222   97.570  162.459
  566.010    6.852    0.302    0.243   96.277  149.904
  566.260    6.855    0.398    0.267   95.855  133.433
  566.510    6.818    0.402    0.265   95.685  132.197
  566.760    6.769    0.413    0.268   95.888  132.116
  567.010    6.708    0.404    0.272   95.842  131.932
  567.260    6.647    0.396    0.274   95.547  131.540
  567.510    6.649    0.400    0.274   94.752  131.572
  567.760    6.677    0.405    0.275   93.643  131.807
  568.010    6.691    0.402    0.273   92.162  132.363
  568.260    6.707    0.391    0.271   90.055  132.813
  568.510    6.721    0.367    0.270   87.511  133.158
  568.760    6.736    0.327    0.267   83.343  133.508
  569.010    6.713    0.285    0.264   76.178  133.639
  569.260    6.690    0.274    0.243   70.449  133.670
  569.510    6.731    0.281    0.192   68.405  133.485
  569.760    6.720    0.279    0.130   67.860  133.516
  570.010    6.672    0.277    0.123   67.564  133.439
