~VERSION INFORMATION
 VERS.                 2.0:   CWLS LOG ASCII STANDARD -VERSION 2.0
 WRAP.                  NO:   ONE LINE PER DEPTH STEP
~WELL INFORMATION BLOCK
#MNEM.UNIT           DATA                    DESCRIPTION OF MNEMONIC
#---------    -------------------            -------------------------------
# Generated from Intellog Unique Number	CS_71_72/WELL/776
WELL.         SULPETRO BRENDA IPIATIK        : Well_name    - WELL
LOC .         00/06-24-072-10W4/0            : Location     - LOCATION
UWI .         00/06-24-072-10W4/0            : Uwi          - UNIQUE WELL ID
ENTR.         SP                             : Entered      - ENTERED BY
SRVC.         SCHLUMBERGER                   : Scn          - SERVICE COMPANY
STRT.M        315                            : top_depth    - START DEPTH
STOP.M        505                            : bot_depth    - STOP DEPTH
STEP.M        0.25                           : increment    - STEP LENGTH
 NULL. -999.2500:NULL Value
~CURVE INFORMATION BLOCK
#MNEM UNIT       ERCB CURVE CODE    CURVE DESCRIPTION
#-----------   ------------------   ----------------------------------
DEPT.M        00 001 00 00         : DEPTH        - DEPTH
ILD .OHMM     00 120 00 00         : RESD         - DEEP RESISTIVITY (DIL)
DPHI.V/V      00 890 00 00         : PHID         - DENSITY POROSITY (LIMESTONE)
NPHI.V/V      00 330 00 00         : PHIN         - NEUTRON POROSITY (LIMESTONE)
GR  .API      00 310 00 00         : GR           - GAMMA RAY
~PARAMETER INFORMATION
#MNEM.UNIT           DATA             DESCRIPTION OF MNEMONIC
#---------         -----------     ------------------------------
GL  .M        666.96               : gl           - GROUND LEVEL ELEVATION
EREF.M        666.93               : kb           - ELEVATION OF DEPTH REFERENCE
DATM.M        666.96               : datum        - DATUM ELEVATION
TDD .M        520                  : tdd          - TOTAL DEPTH DRILLER
RUN .         ONE                  : Run          - RUN NUMBER
ENG .         BILL                 : Engineer     - RECORDING ENGINEER
WIT .         JIM                  : Witness      - WITNESSED BY
MUD .         GEL                  : Mud_type     - MUD TYPE
MATR.         LIMESTONE            : Logunit      - NEUTRON MATRIX
TMAX.C        20                   : BHT          - MAXIMUM RECORDED TEMPERATURE
BHTD.M        520                  : BHTDEP       - MAXIMUM RECORDED TEMPERATURE
MATR.         1                    : LOGUNIT      - NEUTRON MATRIX
RMT .C        25                   : MDTP         - TEMPERATURE OF MUD
NEUT.         1                    : NEUTRON      - NEUTRON TYPE
RESI.         0                    : RESIST       - RESISTIVITY TYPE
RMC .OHMM     0.25                 : RMC          - RESISTIVITY OF MUD CAKE
RMF .OHMM     0.25                 : RMF          - RESISTIVITY OF MUD FILTRATE
SUFT.C        15                   : SUFT         - SURFACE TEMPERATURE
~A  DEPTH     RESD     PHID     PHIN       GR
# ...
  402.000   12.333    0.288    0.523   70.811
  402.250   12.107    0.293    0.527   71.430
  402.500   12.808    0.306    0.500   61.641
  402.750   14.604    0.313    0.458   53.076
  403.000   17.287    0.302    0.421   47.571
  403.250   18.986    0.297    0.414   42.067
  403.500   20.466    0.290    0.411   50.646
  403.750   21.251    0.286    0.443   54.938
  404.000   20.473    0.299    0.465   58.006
  404.250   19.359    0.303    0.402   55.564
  404.500   19.003    0.287    0.378   56.182
  404.750   19.365    0.243    0.367   57.414
  405.000   19.368    0.166    0.281   56.807
  405.250   18.314    0.165    0.270   50.691
  405.500   16.068    0.104    0.285   45.186
  405.750   14.635    0.119    0.273   41.519
  406.000   14.099    0.182    0.415   52.548
  406.250   12.604    0.276    0.473   59.288
  406.500   12.142    0.296    0.474   62.357
  406.750   11.481    0.298    0.455   66.037
  407.000   11.061    0.283    0.447   67.879
  407.250   10.657    0.278    0.444   67.885
  407.500   10.658    0.280    0.457   59.933
  407.750   10.462    0.283    0.470   61.164
  408.000   10.270    0.285    0.461   63.006
  408.250   10.081    0.284    0.481   62.400
  408.500    9.712    0.271    0.499   63.020
  408.750    9.357    0.256    0.507   64.865
  409.000    8.848    0.236    0.496   66.708
  409.250    8.524    0.220    0.502   67.937
  409.500    8.213    0.223    0.480   69.169
  409.750    8.213    0.214    0.471   69.178
  410.000    7.913    0.210    0.470   69.182
  410.250    7.914    0.213    0.470   68.575
  410.500    7.769    0.218    0.477   65.521
  410.750    7.771    0.221    0.467   65.528
  411.000    7.628    0.221    0.470   68.595
  411.250    7.629    0.224    0.483   71.051
  411.500    7.630    0.225    0.470   71.668
  411.750    7.490    0.229    0.494   71.676
  412.000    7.492    0.231    0.507   72.294
  412.250    7.493    0.230    0.493   75.361
  412.500    7.636    0.230    0.471   79.654
  412.750    7.637    0.236    0.458   82.722
  413.000    7.782    0.226    0.444   77.219
  413.250    7.784    0.213    0.423   71.102
  413.500    7.641    0.204    0.432   68.658
  413.750    7.642    0.208    0.450   75.402
  414.000    7.363    0.210    0.454   76.632
  414.250    7.227    0.205    0.450   77.862
  414.500    7.094    0.200    0.445   80.931
  414.750    6.964    0.199    0.441   80.936
  415.000    6.836    0.202    0.454   74.821
  415.250    6.710    0.199    0.460   71.153
  415.500    6.711    0.194    0.470   74.221
  415.750    6.840    0.193    0.471   77.288
  416.000    6.970    0.200    0.459   73.009
  416.250    6.972    0.200    0.457   69.342
  416.500    6.972    0.193    0.449   71.798
  416.750    6.845    0.187    0.435   74.254
  417.000    6.846    0.183    0.429   76.097
  417.250    6.595    0.182    0.428   76.102
  417.500    6.474    0.194    0.440   73.048
  417.750    6.475    0.190    0.463   76.118
  418.000    6.239    0.189    0.473   79.183
  418.250    6.239    0.195    0.465   82.863
  418.500    6.124    0.209    0.462   77.360
  418.750    6.012    0.210    0.484   78.591
  419.000    6.013    0.204    0.503   84.109
  419.250    6.014    0.190    0.515   84.728
  419.500    6.015    0.183    0.511   84.732
  419.750    6.016    0.181    0.493   84.738
  420.000    5.796    0.187    0.482   81.683
  420.250    5.085    0.185    0.465   80.466
  420.500    4.297    0.187    0.455   84.145
  420.750    3.700    0.217    0.430   97.010
  421.000    3.186    0.236    0.419  104.976
  421.250    2.743    0.243    0.431  103.757
  421.500    2.452    0.241    0.435   95.193
  421.750    2.276    0.236    0.455   92.137
  422.000    2.276    0.236    0.482   89.082
  422.250    2.500    0.221    0.474   82.966
  422.500    2.905    0.209    0.464   77.464
  422.750    3.131    0.206    0.459   75.019
  423.000    3.776    0.207    0.455   78.090
  423.250    4.070    0.215    0.458   78.706
  423.500    4.470    0.204    0.472   75.040
  423.750    4.910    0.200    0.479   73.207
  424.000    5.194    0.201    0.478   76.277
  424.250    5.294    0.209    0.486   74.447
  424.500    5.295    0.209    0.473   72.004
  424.750    5.295    0.213    0.464   72.010
  425.000    5.396    0.237    0.469   70.179
  425.250    5.603    0.255    0.492   65.288
  425.500    5.710    0.264    0.488   61.620
  425.750    5.819    0.255    0.499   69.589
  426.000    6.042    0.247    0.489   72.654
  426.250    6.043    0.224    0.473   73.885
  426.500    6.044    0.217    0.465   65.320
  426.750    6.045    0.255    0.458   60.428
  427.000    6.161    0.269    0.460   63.501
  427.250    6.161    0.276    0.467   64.118
  427.500    6.162    0.280    0.474   64.733
  427.750    6.163    0.284    0.479   64.739
  428.000    6.165    0.280    0.471   62.298
  428.250    6.282    0.262    0.458   64.753
  428.500    6.402    0.238    0.444   67.208
  428.750    6.524    0.226    0.441   67.827
  429.000    6.648    0.216    0.433   62.323
  429.250    6.904    0.211    0.441   64.166
  429.500    6.905    0.249    0.451   64.172
  429.750    6.906    0.271    0.463   61.117
  430.000    6.907    0.266    0.468   59.287
  430.250    6.908    0.264    0.446   61.742
  430.500    6.656    0.265    0.437   64.810
  430.750    6.656    0.265    0.432   67.877
  431.000    6.413    0.266    0.427   67.271
  431.250    6.295    0.270    0.430   62.993
  431.500    6.179    0.276    0.407   61.774
  431.750    5.843    0.262    0.399   62.394
  432.000    5.736    0.243    0.415   65.463
  432.250    5.630    0.245    0.436   65.467
  432.500    5.527    0.243    0.454   65.474
  432.750    5.425    0.239    0.470   66.705
  433.000    5.326    0.233    0.456   68.551
  433.250    5.326    0.219    0.428   68.554
  433.500    5.229    0.208    0.441   69.174
  433.750    5.133    0.207    0.449   66.732
  434.000    5.231    0.212    0.465   64.289
  434.250    5.232    0.227    0.481   62.460
  434.500    5.232    0.231    0.485   61.852
  434.750    5.433    0.235    0.477   60.636
  435.000    5.536    0.250    0.477   63.090
  435.250    5.642    0.258    0.483   65.545
  435.500    5.858    0.257    0.469   66.776
  435.750    5.970    0.253    0.458   67.394
  436.000    6.084    0.247    0.449   68.626
  436.250    6.317    0.245    0.445   71.082
  436.500    6.438    0.250    0.446   71.700
  436.750    6.439    0.253    0.445   72.318
  437.000    6.561    0.255    0.438   71.100
  437.250    6.686    0.244    0.435   64.984
  437.500    6.688    0.230    0.435   61.929
  437.750    6.689    0.224    0.451   60.711
  438.000    6.690    0.234    0.467   63.780
  438.250    6.691    0.241    0.481   66.235
  438.500    6.692    0.245    0.497   67.465
  438.750    6.570    0.239    0.489   68.085
  439.000    6.571    0.235    0.482   69.314
  439.250    6.572    0.235    0.491   71.158
  439.500    6.573    0.235    0.466   69.328
  439.750    6.574    0.229    0.448   65.661
  440.000    6.453    0.227    0.436   61.993
  440.250    6.454    0.227    0.429   65.673
  440.500    6.455    0.227    0.411   68.129
  440.750    6.457    0.215    0.398   67.523
  441.000    6.338    0.207    0.379   70.592
  441.250    6.221    0.198    0.368   74.271
  441.500    5.882    0.192    0.395   79.176
  441.750    5.459    0.198    0.444   83.468
  442.000    4.613    0.208    0.473   79.190
  442.250    3.899    0.221    0.515   76.132
  442.500    3.174    0.235    0.554   78.588
  442.750    2.837    0.221    0.533   84.719
  443.000    2.733    0.208    0.514   87.172
  443.250    2.946    0.209    0.482   88.404
  443.500    3.359    0.230    0.453   73.103
  443.750    3.759    0.240    0.438   64.538
  444.000    4.207    0.248    0.422   61.483
  444.250    4.535    0.237    0.417   59.042
  444.500    4.709    0.214    0.422   64.560
  444.750    4.982    0.199    0.428   71.299
  445.000    5.173    0.220    0.426   79.879
  445.250    5.173    0.225    0.424   81.720
