~VERSION INFORMATION
 VERS.                 2.0:   CWLS LOG ASCII STANDARD -VERSION 2.0
 WRAP.                  NO:   ONE LINE PER DEPTH STEP
~WELL INFORMATION BLOCK
#MNEM.UNIT           DATA                    DESCRIPTION OF MNEMONIC
#---------    -------------------            -------------------------------
# Generated from Intellog Unique Number	CW_82_90/WELL/3420
WELL.         TEXACO CORN LAKE               : Well_name    - WELL
LOC .         00/06-11-089-25W4/0            : Location     - LOCATION
UWI .         00/06-11-089-25W4/0            : Uwi          - UNIQUE WELL ID
ENTR.         MAX                            : Entered      - ENTERED BY
SRVC.         COMPUTALOG                     : Scn          - SERVICE COMPANY
STRT.M        200                            : top_depth    - START DEPTH
STOP.M        413                            : bot_depth    - STOP DEPTH
STEP.M        0.25                           : increment    - STEP LENGTH
 NULL. -999.2500:NULL Value
~CURVE INFORMATION BLOCK
#MNEM UNIT       ERCB CURVE CODE    CURVE DESCRIPTION
#-----------   ------------------   ----------------------------------
DEPT.M        00 001 00 00         : DEPTH        - DEPTH
GR  .API      00 310 00 00         : GR           - GAMMA RAY
CALI.MM       00 280 01 00         : CAL          - CALIPER
DPHI.V/V      00 890 00 00         : PHID         - DENSITY POROSITY (SANDSTONE)
NPHI.V/V      00 330 00 00         : PHIN         - NEUTRON POROSITY (SANDSTONE)
ILD .OHMM     00 120 00 00         : RESD         - DEEP RESISTIVITY (DIL)
~PARAMETER INFORMATION
#MNEM.UNIT           DATA             DESCRIPTION OF MNEMONIC
#---------         -----------     ------------------------------
GL  .M        617.98               : gl           - GROUND LEVEL ELEVATION
EREF.M        621.5                : kb           - ELEVATION OF DEPTH REFERENCE
DATM.M        617.98               : datum        - DATUM ELEVATION
TDD .M        415                  : tdd          - TOTAL DEPTH DRILLER
RUN .         ONE                  : Run          - RUN NUMBER
ENG .         BILL                 : Engineer     - RECORDING ENGINEER
WIT .         JIM                  : Witness      - WITNESSED BY
MUD .         GEL                  : Mud_type     - MUD TYPE
MATR.         SANDSTONE            : Logunit      - NEUTRON MATRIX
TMAX.C        16.6                 : BHT          - MAXIMUM RECORDED TEMPERATURE
BHTD.M        415                  : BHTDEP       - MAXIMUM RECORDED TEMPERATURE
MATR.         1                    : LOGUNIT      - NEUTRON MATRIX
RMT .C        15.6                 : MDTP         - TEMPERATURE OF MUD
NEUT.         1                    : NEUTRON      - NEUTRON TYPE
RESI.         0                    : RESIST       - RESISTIVITY TYPE
RMC .OHMM     4                    : RMC          - RESISTIVITY OF MUD CAKE
RMF .OHMM     5.5                  : RMF          - RESISTIVITY OF MUD FILTRATE
SUFT.C        -13.7                : SUFT         - SURFACE TEMPERATURE
~A  DEPTH       GR      CAL     PHID     PHIN     RESD
# ...
  346.000   71.943  215.294    0.210    0.364    7.154
  346.250   76.748  216.279    0.184    0.378    6.698
  346.500   77.341  216.263    0.167    0.352    6.510
  346.750   76.726  219.758    0.165    0.375    6.693
  347.000   79.124  221.245    0.171    0.424    6.818
  347.250   79.412  219.221    0.160    0.454    7.009
  347.500   77.294  218.701    0.096    0.404    7.623
  347.750   72.166  219.185    0.106    0.236    7.912
  348.000   71.253  223.682    0.160    0.260    7.983
  348.250   81.177  228.178    0.195    0.379    7.906
  348.500   87.486  222.140    0.196    0.398    7.265
  348.750   85.369  218.609    0.196    0.399    7.061
  349.000   82.648  218.591    0.174    0.381    7.537
  349.250   83.241  220.078    0.150    0.378    7.971
  349.500   86.843  220.057    0.164    0.395    8.043
  349.750   90.145  227.067    0.183    0.412    7.891
  350.000   90.433  229.555    0.199    0.397    7.670
  350.250   89.822  231.042    0.196    0.387    7.455
  350.500   88.908  229.019    0.198    0.380    7.382
  350.750   88.897  225.485    0.199    0.373    7.177
  351.000   91.894  223.460    0.200    0.369    6.846
  351.250   94.895  222.942    0.202    0.365    6.716
  351.500   97.595  222.419    0.203    0.367    6.715
  351.750  100.895  219.890    0.204    0.426    6.840
  352.000   97.573  219.372    0.204    0.451    7.233
  352.250   92.143  218.852    0.210    0.409    7.648
  352.500   87.313  217.834    0.204    0.350    8.012
  352.750   84.291  215.802    0.174    0.305    8.472
  353.000   83.678  215.788    0.168    0.264    8.710
  353.250   82.765  215.767    0.176    0.276    8.790
  353.500   80.645  215.754    0.198    0.281    8.787
  353.750   78.227  214.732    0.220    0.284    8.702
  354.000   80.623  214.211    0.225    0.290    8.699
  354.250   84.226  213.189    0.226    0.314    8.455
  354.500   87.527  213.171    0.221    0.343    8.374
  354.750   87.817  213.148    0.203    0.369    8.371
  355.000   88.109  214.138    0.195    0.346    8.447
  355.250   87.496  214.120    0.182    0.317    8.445
  355.500   90.193  212.094    0.189    0.357    8.441
  355.750   89.580  209.567    0.191    0.377    8.439
  356.000   85.355  209.546    0.190    0.341    8.436
  356.250   87.150  209.530    0.182    0.330    8.354
  356.500   87.440  211.015    0.184    0.337    8.274
  356.750   86.222  214.007    0.196    0.328    7.893
  357.000   86.515  214.995    0.209    0.312    7.745
  357.250   88.913  217.485    0.196    0.305    7.527
  357.500   93.418  221.484    0.187    0.312    7.317
  357.750   96.416  223.974    0.175    0.350    6.915
  358.000   91.589  222.448    0.144    0.327    6.721
  358.250   83.750  218.418    0.093    0.294    6.782
  358.500   77.416  217.396    0.123    0.283    6.908
  358.750   84.028  219.385    0.164    0.388    7.373
  359.000   76.190  221.373    0.099    0.303    7.510
  359.250   66.243  220.351    0.127    0.205    7.032
  359.500   66.232  220.331    0.167    0.216    5.259
  359.750   74.350  220.814    0.202    0.490    4.401
  360.000   83.673  220.798    0.220    0.489    3.895
  360.250   92.996  219.772    0.217    0.430    3.647
  360.500   94.491  218.752    0.203    0.411    3.479
  360.750   87.555  218.734    0.201    0.381    3.679
  361.000   82.125  217.714    0.214    0.384    4.193
  361.250   82.114  217.693    0.213    0.429    4.734
  361.500   77.888  218.177    0.176    0.401    5.445
  361.750   70.651  217.659    0.123    0.313    5.922
  362.000   65.521  218.644    0.130    0.276    6.204
  362.250   73.338  220.129    0.157    0.327    6.378
  362.500   78.746  222.120    0.144    0.338    6.558
  362.750   76.928  223.107    0.155    0.344    6.679
  363.000   76.918  223.591    0.172    0.354    6.740
  363.250   77.510  224.074    0.198    0.371    6.866
  363.500   80.208  225.559    0.206    0.391    6.928
  363.750   82.305  226.045    0.210    0.391    6.926
  364.000   80.487  226.526    0.203    0.359    6.924
  364.250   79.573  226.508    0.188    0.355    7.052
  364.500   86.184  225.483    0.174    0.371    7.183
  364.750   82.261  225.467    0.159    0.360    7.316
  365.000   84.958  225.447    0.179    0.367    7.522
  365.250   85.248  225.932    0.195    0.364    7.520
  365.500   85.841  227.419    0.205    0.341    7.107
  365.750   87.336  228.405    0.198    0.354    7.171
  366.000   88.831  228.389    0.185    0.390    7.727
  366.250   93.035  223.852    0.157    0.363    8.562
  366.500   94.830  220.825    0.056    0.342    9.667
  366.750   90.002  217.294    0.072    0.255   10.813
  367.000   79.754  215.268    0.112    0.315   12.323
  367.250   74.924  215.250    0.133    0.316   14.177
  367.500   70.096  215.731    0.103    0.288   17.577
  367.750   65.269  216.214    0.030    0.205   20.992
  368.000   61.042  214.691    0.053    0.238   18.931
  368.250   64.041  213.671    0.111    0.276   17.074
  368.500   63.729  213.652    0.141    0.306   14.287
  368.750   63.720  213.634    0.167    0.353   10.585
  369.000   66.416  214.118    0.198    0.361    9.195
  369.250   68.816  214.099    0.228    0.356    8.063
  369.500   71.212  214.083    0.232    0.414    7.985
  369.750   73.008  213.563    0.227    0.423    8.444
  370.000   71.190  213.040    0.190    0.386    9.534
  370.250   66.664  213.524    0.060    0.177   11.280
  370.500   60.331  217.522    0.005    0.160   13.598
  370.750   55.201  215.999    0.005    0.167   16.860
  371.000   55.490  218.489    0.006    0.167   21.299
  371.250   55.480  218.973    0.005    0.150   28.729
  371.500   51.253  210.424    0.005    0.127   34.632
  371.750   53.351  213.916    0.005    0.168   30.369
  372.000   57.555  214.903    0.100    0.227   24.250
  372.250   63.867  213.879    0.157    0.334   16.827
  372.500   71.685  213.361    0.188    0.374   13.311
  372.750   80.104  213.343    0.173    0.365   10.530
  373.000   84.308  214.325    0.167    0.378    9.497
  373.250   84.296  215.308    0.163    0.394    9.231
  373.500   83.081  216.802    0.169    0.410    9.228
  373.750   80.963  219.793    0.161    0.415    9.225
  374.000   81.252  221.280    0.146    0.376    9.308
  374.250   80.942  220.258    0.131    0.350    9.393
  374.500   79.424  217.231    0.105    0.298    9.478
  374.750   80.016  217.712    0.153    0.306    9.475
  375.000   82.713  217.693    0.190    0.344    9.210
  375.250   86.016  217.677    0.204    0.328    8.623
  375.500   89.919  217.157    0.199    0.322    8.225
  375.750   88.401  217.137    0.190    0.349    8.071
  376.000   86.284  217.622    0.187    0.356    7.918
  376.250   87.778  217.602    0.187    0.357    7.915
  376.500   90.477  216.078    0.188    0.358    7.988
  376.750   88.360  215.560    0.188    0.377    8.060
  377.000   85.939  216.041    0.187    0.413    8.133
  377.250   87.432  217.026    0.183    0.435    8.131
  377.500   89.832  217.010    0.179    0.411    8.052
  377.750   91.025  217.996    0.177    0.369    7.975
  378.000   86.799  219.483    0.179    0.353    7.972
  378.250   86.787  219.966    0.182    0.357    7.970
  378.500   86.476  218.944    0.176    0.359    8.117
  378.750   82.852  218.923    0.140    0.339    8.664
  379.000   79.228  218.910    0.062    0.307    9.512
  379.250   75.603  218.387    0.073    0.280   10.345
  379.500   78.000  218.371    0.127    0.294   11.145
  379.750   83.109  220.862    0.160    0.303   10.337
  380.000   87.012  221.343    0.165    0.313    9.679
  380.250   87.301  221.327    0.162    0.330    8.977
  380.500   87.591  220.305    0.151    0.348    8.726
  380.750   84.871  217.777    0.135    0.428    8.723
  381.000   80.043  215.245    0.111    0.401    9.310
  381.250   77.021  213.724    0.092    0.374    9.846
  381.500   78.513  213.708    0.104    0.348   10.029
  381.750   81.213  214.689    0.134    0.343    9.932
  382.000   83.611  215.678    0.180    0.348    9.475
  382.250   86.311  217.165    0.173    0.352    9.039
