~VERSION INFORMATION
 VERS.                 2.0:   CWLS LOG ASCII STANDARD -VERSION 2.0
 WRAP.                  NO:   ONE LINE PER DEPTH STEP
~WELL INFORMATION BLOCK
#MNEM.UNIT           DATA                    DESCRIPTION OF MNEMONIC
#---------    -------------------            -------------------------------
# Generated from Intellog Unique Number	CS_67_68/WELL/2163
WELL.         ESSO AEC 85 FISHCK             : Well_name    - WELL
LOC .         00/03-25-067-07W4/0            : Location     - LOCATION
UWI .         00/03-25-067-07W4/0            : Uwi          - UNIQUE WELL ID
ENTR.         SP                             : Entered      - ENTERED BY
SRVC.         SCHLUMBERGER                   : Scn          - SERVICE COMPANY
STRT.M        325                            : top_depth    - START DEPTH
STOP.M        545                            : bot_depth    - STOP DEPTH
STEP.M        0.25                           : increment    - STEP LENGTH
 NULL. -999.2500:NULL Value
~CURVE INFORMATION BLOCK
#MNEM UNIT       ERCB CURVE CODE    CURVE DESCRIPTION
#-----------   ------------------   ----------------------------------
DEPT.M        00 001 00 00         : DEPTH        - DEPTH
ILD .OHMM     00 120 00 00         : RESD         - DEEP RESISTIVITY (DIL)
DPHI.V/V      00 890 00 00         : PHID         - DENSITY POROSITY (LIMESTONE)
NPHI.V/V      00 330 00 00         : PHIN         - NEUTRON POROSITY (LIMESTONE)
GR  .API      00 310 00 00         : GR           - GAMMA RAY
CALI.MM       00 280 01 00         : CAL          - CALIPER
~PARAMETER INFORMATION
#MNEM.UNIT           DATA             DESCRIPTION OF MNEMONIC
#---------         -----------     ------------------------------
GL  .M        649.9                : gl           - GROUND LEVEL ELEVATION
EREF.M        653.5                : kb           - ELEVATION OF DEPTH REFERENCE
DATM.M        653.5                : datum        - DATUM ELEVATION
TDD .M        549                  : tdd          - TOTAL DEPTH DRILLER
RUN .         ONE                  : Run          - RUN NUMBER
ENG .         BILL                 : Engineer     - RECORDING ENGINEER
WIT .         JIM                  : Witness      - WITNESSED BY
MUD .         GEL                  : Mud_type     - MUD TYPE
MATR.         LIMESTONE            : Logunit      - NEUTRON MATRIX
TMAX.C        19                   : BHT          - MAXIMUM RECORDED TEMPERATURE
BHTD.M        548                  : BHTDEP       - MAXIMUM RECORDED TEMPERATURE
MATR.         1                    : LOGUNIT      - NEUTRON MATRIX
RMT .C        25                   : MDTP         - TEMPERATURE OF MUD
NEUT.         1                    : NEUTRON      - NEUTRON TYPE
RESI.         0                    : RESIST       - RESISTIVITY TYPE
RMC .OHMM     0.25                 : RMC          - RESISTIVITY OF MUD CAKE
RMF .OHMM     0.25                 : RMF          - RESISTIVITY OF MUD FILTRATE
SUFT.C        15                   : SUFT         - SURFACE TEMPERATURE
~A  DEPTH     RESD     PHID     PHIN       GR      CAL
# ...
  471.000    1.622    0.407    0.549   76.768  183.064
  471.250    1.574    0.384    0.542   76.916  182.088
  471.500    1.536    0.373    0.553   77.428  177.759
  471.750    1.510    0.368    0.559   78.677  172.206
  472.000    1.518    0.404    0.572   80.589  166.763
  472.250    1.527    0.438    0.589   81.164  164.760
  472.500    1.573    0.463    0.588   77.162  163.584
  472.750    1.658    0.480    0.572   74.623  166.271
  473.000    1.764    0.436    0.555   73.855  172.516
  473.250    1.884    0.405    0.556   73.635  177.440
  473.500    2.046    0.396    0.562   73.905  179.414
  473.750    2.197    0.390    0.558   73.319  175.186
  474.000    2.378    0.394    0.542   71.575  172.279
  474.250    2.483    0.412    0.529   71.233  172.621
  474.500    2.573    0.393    0.514   74.438  173.587
  474.750    2.558    0.352    0.519   76.594  173.213
  475.000    2.346    0.332    0.545   79.736  172.034
  475.250    2.264    0.325    0.535   82.076  170.348
  475.500    2.201    0.333    0.513   83.322  168.663
  475.750    2.144    0.344    0.492   83.836  167.993
  476.000    2.042    0.364    0.478   85.140  172.004
  476.250    1.894    0.387    0.497   86.814  181.405
  476.500    1.578    0.407    0.521   89.590  194.564
  476.750    1.363    0.379    0.524   91.441  201.113
  477.000    1.222    0.332    0.514   94.336  203.700
  477.250    1.115    0.316    0.505   96.312  204.861
  477.500    1.090    0.318    0.516   92.070  204.902
  477.750    1.264    0.343    0.521   87.759  203.823
  478.000    1.434    0.360    0.514   84.000  201.830
  478.250    1.596    0.358    0.538   82.681  198.419
  478.500    1.714    0.347    0.562   84.903  198.764
  478.750    1.904    0.337    0.574   87.064  201.043
  479.000    2.022    0.335    0.557   88.314  198.955
  479.250    2.103    0.344    0.546   88.640  193.907
  479.500    2.115    0.349    0.539   88.481  188.555
  479.750    2.119    0.342    0.558   88.692  191.037
  480.000    2.103    0.331    0.565   89.203  193.823
  480.250    2.183    0.323    0.546   90.392  190.410
  480.500    2.262    0.326    0.529   91.392  182.111
  480.750    2.297    0.319    0.515   91.781  175.235
  481.000    2.349    0.312    0.544   88.942  173.038
  481.250    2.375    0.323    0.561   87.011  173.999
  481.500    2.384    0.351    0.571   85.754  175.669
  481.750    2.389    0.375    0.560   85.046  176.421
  482.000    2.389    0.360    0.537   86.970  175.140
  482.250    2.388    0.330    0.502   88.455  171.928
  482.500    2.411    0.330    0.507   90.066  173.086
  482.750    2.447    0.354    0.514   90.211  178.212
  483.000    2.438    0.376    0.525   89.023  181.000
  483.250    2.375    0.387    0.515   88.554  176.167
  483.500    2.375    0.365    0.517   88.091  173.455
  483.750    2.507    0.334    0.523   88.237  170.956
  484.000    2.673    0.308    0.515   89.055  172.014
  484.250    2.838    0.285    0.491   90.178  176.434
  484.500    3.003    0.275    0.461   92.280  181.672
  484.750    3.195    0.297    0.446   93.524  185.873
  485.000    3.437    0.311    0.405   90.986  191.000
  485.250    3.671    0.278    0.384   84.237  191.549
  485.500    4.116    0.253    0.372   76.999  173.486
  485.750    4.555    0.229    0.372   72.631  166.609
  486.000    5.022    0.196    0.416   72.046  164.311
  486.250    5.664    0.085    0.403   70.545  169.443
  486.500    6.280    0.054    0.375   66.969  169.280
  486.750    6.706    0.076    0.330   62.966  164.543
  487.000    6.963    0.189    0.385   72.215  162.749
  487.250    6.884    0.236    0.420   76.567  163.300
  487.500    6.897    0.272    0.414   81.166  164.159
  487.750    6.858    0.280    0.403   84.489  164.815
  488.000    6.819    0.285    0.393   84.573  165.058
  488.250    6.793    0.292    0.385   83.684  165.299
  488.500    6.445    0.296    0.388   86.091  165.137
  488.750    6.173    0.291    0.398   88.802  164.980
  489.000    5.790    0.284    0.405   91.082  165.328
  489.250    5.412    0.277    0.403   93.121  164.860
  489.500    5.067    0.270    0.408   95.100  164.192
  489.750    4.826    0.270    0.414   98.360  163.513
  490.000    4.493    0.275    0.409  102.411  163.150
  490.250    4.223    0.279    0.412  106.525  163.808
  490.500    4.136    0.270    0.421  110.885  164.249
  490.750    4.105    0.261    0.418  109.203  164.702
  491.000    4.222    0.252    0.404  100.807  164.436
  491.250    4.509    0.258    0.393   94.665  164.276
  491.500    4.861    0.262    0.404   92.736  164.522
  491.750    5.269    0.246    0.424   91.662  165.479
  492.000    5.670    0.229    0.388   84.732  166.839
  492.250    6.009    0.245    0.371   77.066  166.984
  492.500    6.275    0.269    0.375   66.107  166.321
  492.750    6.393    0.284    0.370   53.681  164.933
  493.000    6.441    0.297    0.344   60.543  164.465
  493.250    6.180    0.280    0.330   66.734  163.895
  493.500    5.852    0.263    0.347   75.788  163.742
  493.750    5.398    0.249    0.360   82.161  163.273
  494.000    4.823    0.241    0.368   86.153  162.596
  494.250    4.374    0.235    0.368   85.139  162.538
  494.500    4.119    0.254    0.348   62.827  162.479
  494.750    3.842    0.268    0.336   49.854  162.420
  495.000    3.645    0.283    0.351   46.339  162.156
  495.250    3.407    0.297    0.349   42.457  161.692
  495.500    3.269    0.292    0.338   38.759  161.730
  495.750    3.226    0.289    0.354   45.071  161.061
  496.000    3.275    0.290    0.359   49.795  159.269
  496.250    3.393    0.281    0.346   54.826  159.009
  496.500    3.556    0.275    0.338   59.854  159.354
  496.750    3.672    0.269    0.346   64.212  159.499
  497.000    3.727    0.259    0.344   68.570  159.435
  497.250    3.699    0.252    0.338   72.257  159.583
  497.500    3.637    0.245    0.365   74.602  159.622
  497.750    3.556    0.275    0.386   73.287  159.262
  498.000    3.177    0.304    0.401   68.977  158.802
  498.250    2.897    0.327    0.398   64.486  158.428
  498.500    2.723    0.341    0.384   63.845  157.857
  498.750    2.584    0.342    0.387   64.416  157.597
  499.000    2.474    0.329    0.397   65.658  157.332
  499.250    2.598    0.308    0.409   68.492  157.380
  499.500    2.848    0.240    0.423   69.556  157.315
  499.750    3.164    0.092    0.293   66.958  157.457
  500.000    3.555    0.023    0.256   71.866  157.811
  500.250    3.905    0.000    0.234   79.637  158.148
  500.500    4.185    0.142    0.251   91.686  158.499
  500.750    4.411    0.174    0.300   99.767  158.541
  501.000    4.289    0.193    0.346  103.455  158.782
  501.250    4.321    0.206    0.370  106.103  159.337
  501.500    4.386    0.217    0.378  104.663  159.888
  501.750    4.444    0.215    0.374  100.721  160.537
  502.000    4.469    0.211    0.357   95.927  160.984
  502.250    4.502    0.208    0.348   96.500  161.537
  502.500    4.511    0.205    0.368  102.751  162.192
  502.750    4.485    0.204    0.378  105.948  162.644
  503.000    4.452    0.206    0.388   96.879  162.880
  503.250    4.393    0.268    0.398   75.544  162.925
  503.500    4.247    0.285    0.429   67.026  162.974
  503.750    4.037    0.292    0.446   61.070  163.111
  504.000    3.533    0.299    0.384   53.039  163.154
  504.250    3.144    0.316    0.366   45.129  163.393
  504.500    3.040    0.326    0.359   44.544  163.336
  504.750    3.051    0.324    0.364   52.630  163.587
  505.000    2.939    0.291    0.368   58.086  163.825
  505.250    3.085    0.275    0.363   62.260  163.972
  505.500    3.345    0.265    0.355   66.495  164.319
  505.750    3.744    0.257    0.349   72.866  164.974
  506.000    4.081    0.241    0.342   78.749  165.518
  506.250    4.318    0.221    0.361   86.159  166.068
  506.500    4.383    0.201    0.380   91.921  166.825
  506.750    4.269    0.240    0.371   82.914  167.377
  507.000    4.089    0.261    0.362   93.194  167.924
  507.250    4.020    0.257    0.372  100.176  168.172
