~VERSION INFORMATION
 VERS.                 2.0:   CWLS LOG ASCII STANDARD -VERSION 2.0
 WRAP.                  NO:   ONE LINE PER DEPTH STEP
~WELL INFORMATION BLOCK
#MNEM.UNIT           DATA                    DESCRIPTION OF MNEMONIC
#---------    -------------------            -------------------------------
# Generated from Intellog Unique Number	CW_73_75/WELL/2728
WELL.         ALLIED ET AL CALL 06-21        : Well_name    - WELL
LOC .         00/06-21-073-20W4/0            : Location     - LOCATION
UWI .         00/06-21-073-20W4/0            : Uwi          - UNIQUE WELL ID
ENTR.         JAYE                           : Entered      - ENTERED BY
SRVC.         SCHLUMBERGER                   : Scn          - SERVICE COMPANY
DATE.         22 JAN 74                      : Date         - LOG DATE
STRT.M        411.48                         : top_depth    - START DEPTH
STOP.M        615.73                         : bot_depth    - STOP DEPTH
STEP.M        0.25                           : increment    - STEP LENGTH
 NULL. -999.2500:NULL Value
~CURVE INFORMATION BLOCK
#MNEM UNIT       ERCB CURVE CODE    CURVE DESCRIPTION
#-----------   ------------------   ----------------------------------
DEPT.M        00 001 00 00         : DEPTH        - DEPTH
ILD .OHMM     00 120 00 00         : RESD         - DEEP RESISTIVITY (DIL)
NPHI.V/V      00 330 00 00         : PHIN         - NEUTRON POROSITY (SANDSTONE)
DPHI.V/V      00 890 00 00         : PHID         - DENSITY POROSITY (SANDSTONE)
GR  .API      00 310 00 00         : GR           - GAMMA RAY
CALI.MM       00 280 01 00         : CAL          - CALIPER
~PARAMETER INFORMATION
#MNEM.UNIT           DATA             DESCRIPTION OF MNEMONIC
#---------         -----------     ------------------------------
GL  .M        708.508              : gl           - GROUND LEVEL ELEVATION
EREF.M        711.556              : kb           - ELEVATION OF DEPTH REFERENCE
DATM.M        708.508              : datum        - DATUM ELEVATION
TDD .M        621.792              : tdd          - TOTAL DEPTH DRILLER
RUN .         ONE                  : Run          - RUN NUMBER
ENG .         CONNELLY             : Engineer     - RECORDING ENGINEER
WIT .         CONNELLY             : Witness      - WITNESSED BY
BASE.         EDM                  : Branch       - HOME BASE OF LOGGING UNIT
MUD .         CAUSTIC GEL          : Mud_type     - MUD TYPE
MATR.         SANDSTONE            : Logunit      - NEUTRON MATRIX
TMAX.C        21.1111              : BHT          - MAXIMUM RECORDED TEMPERATURE
BHTD.M        622.097              : BHTDEP       - MAXIMUM RECORDED TEMPERATURE
RMT .C        20                   : MDTP         - TEMPERATURE OF MUD
MUDD.KG/M     1140                 : MWT          - MUD DENSITY
NEUT.         1                    : NEUTRON      - NEUTRON TYPE
RESI.         0                    : RESIST       - RESISTIVITY TYPE
RM  .OHMM     2.83                 : RM           - RESISTIVITY OF MUD
RMC .OHMM     0                    : RMC          - RESISTIVITY OF MUD CAKE
RMF .OHMM     2.86                 : RMF          - RESISTIVITY OF MUD FILTRATE
SUFT.C        -17.7778             : SUFT         - SURFACE TEMPERATURE
~A  DEPTH     RESD     PHIN     PHID       GR      CAL
# ...
  593.980    8.231    0.333    0.115  101.120  166.919
  594.230    8.204    0.362    0.109   95.730  166.621
  594.480    8.058    0.349    0.068   90.153  166.532
  594.730    7.794    0.280    0.075   88.076  166.438
  594.980    7.377    0.266    0.088   95.935  166.140
  595.230    6.995    0.255    0.064  109.562  165.530
  595.480    6.810    0.274    0.052  124.048  165.439
  595.730    6.627    0.310    0.059  125.897  165.451
  595.980    6.715    0.341    0.095  118.174  164.841
  596.230    7.039    0.360    0.100  111.556  163.711
  596.480    7.364    0.343    0.108  103.957  162.789
  596.730    7.570    0.342    0.042   98.443  161.971
  596.980    7.738    0.345    0.066   93.849  161.256
  597.230    7.788    0.337    0.059   88.580  160.749
  597.480    7.838    0.326    0.084   83.005  161.074
  597.730    7.614    0.310    0.085   84.240  161.711
  597.980    7.233    0.304    0.063   82.345  162.347
  598.230    6.620    0.286    0.069   81.985  163.190
  598.480    6.238    0.260    0.080   88.618  164.242
  598.730    5.857    0.312    0.095  103.227  165.295
  598.980    5.516    0.334    0.084  114.155  166.034
  599.230    5.256    0.354    0.157  111.341  166.669
  599.480    5.187    0.372    0.167  103.496  165.955
  599.730    5.197    0.388    0.173   90.006  163.787
  599.980    5.325    0.410    0.187   80.873  161.930
  600.230    5.650    0.410    0.216   75.420  161.007
  600.480    6.092    0.407    0.260   76.962  160.294
  600.730    6.298    0.387    0.293   87.398  159.890
  600.980    6.232    0.419    0.264   92.682  159.593
  601.230    5.968    0.437    0.256   96.125  159.397
  601.480    5.862    0.461    0.268   99.936  159.305
  601.730    5.989    0.476    0.273  100.190  159.218
  601.980    7.136    0.470    0.274  103.878  159.123
  602.230    7.657    0.436    0.269  111.493  158.931
  602.480    8.137    0.457    0.255  108.739  158.631
  602.730    8.931    0.467    0.248   98.318  158.643
  602.980   10.313    0.450    0.242   85.933  158.657
  603.230   12.517    0.512    0.291   76.308  159.085
  603.480   14.837    0.465    0.264   61.040  158.994
  603.730   17.433    0.428    0.169   43.195  158.901
  603.980    3.490    0.311    0.071   29.215  158.707
  604.230   16.300    0.295    0.015   21.738  159.031
  604.480   33.883    0.268    0.052   21.377  159.668
  604.730   64.954    0.290    0.064   23.348  164.355
  604.980   67.786    0.295    0.061   24.645  163.017
  605.230   64.052    0.302    0.046   24.959  162.406
  605.480   48.603    0.313    0.084   25.702  162.005
  605.730   44.040    0.330    0.127   26.078  161.705
  605.980   47.286    0.346    0.122   23.080  161.199
  606.230   48.344    0.292    0.060   24.437  160.068
  606.480   47.685    0.280    0.058   28.003  158.939
  606.730   42.254    0.256    0.071   30.894  157.603
  606.980   42.029    0.270    0.048   33.600  157.097
  607.230   38.295    0.262    0.051   25.203  156.797
  607.480   19.322    0.254    0.085   27.604  156.185
  607.730   17.766    0.283    0.082   33.010  154.640
  607.980   11.435    0.320    0.110   41.115  152.888
  608.230    8.588    0.354    0.141   49.650  152.589
  608.480    7.739    0.395    0.191   61.989  152.497
  608.730    7.789    0.379    0.150   62.550  152.513
  608.980    7.916    0.319    0.117   56.053  153.042
  609.230    8.280    0.287    0.069   49.988  153.886
  609.480    8.213    0.261    0.035   52.081  154.836
  609.730    7.127    0.326    0.052   60.187  154.951
  609.980    5.965    0.349    0.147   68.415  154.861
  610.230    5.467    0.362    0.166   69.712  154.873
  610.480    5.124    0.375    0.183   69.597  154.575
  610.730    4.587    0.393    0.189   66.843  154.484
  610.980    4.208    0.437    0.184   69.734  154.184
  611.230    4.103    0.400    0.170   75.938  153.887
  611.480    4.072    0.445    0.185   71.528  153.793
  611.730    4.086    0.499    0.214   69.941  153.703
  611.980    4.134    0.447    0.239   72.157  153.613
  612.230    4.379    0.394    0.216   62.594  153.212
  612.480    4.782    0.320    0.139   66.344  152.911
  612.730    5.263    0.319    0.135   72.978  152.819
  612.980    5.197    0.335    0.164   80.102  152.628
  613.230    4.972    0.348    0.169   84.097  152.328
  613.480    4.044    0.371    0.179   80.730  152.234
  613.730    3.743    0.397    0.224   80.308  152.247
  613.980    3.596    0.401    0.270   82.954  152.574
  614.230    3.490    0.422    0.281   82.716  152.792
  614.480    3.501    0.425    0.275   82.724  152.912
  614.730    3.513    0.414    0.267   82.363  152.819
  614.980    3.600    0.391    0.254   83.291  152.833
  615.230    3.966    0.411    0.240   85.323  152.947
  615.480    4.367    0.403    0.252   85.392  152.960
  615.730    4.849    0.376    0.189   84.480  152.767
