~VERSION INFORMATION
 VERS.                 2.0:   CWLS LOG ASCII STANDARD -VERSION 2.0
 WRAP.                  NO:   ONE LINE PER DEPTH STEP
~WELL INFORMATION BLOCK
#MNEM.UNIT           DATA                    DESCRIPTION OF MNEMONIC
#---------    -------------------            -------------------------------
# Generated from Intellog Unique Number	CS_77_79/WELL/901
WELL.         CWWE WINEFRED                  : Well_name    - WELL
LOC .         00/07-19-078-03W4/0            : Location     - LOCATION
UWI .         00/07-19-078-03W4/0            : Uwi          - UNIQUE WELL ID
ENTR.         JHS                            : Entered      - ENTERED BY
SRVC.         SCHLUMBERGER                   : Scn          - SERVICE COMPANY
STRT.M        135                            : top_depth    - START DEPTH
STOP.M        415                            : bot_depth    - STOP DEPTH
STEP.M        0.25                           : increment    - STEP LENGTH
 NULL. -999.2500:NULL Value
~CURVE INFORMATION BLOCK
#MNEM UNIT       ERCB CURVE CODE    CURVE DESCRIPTION
#-----------   ------------------   ----------------------------------
DEPT.M        00 001 00 00         : DEPTH        - DEPTH
DPHI.V/V      00 890 00 00         : PHID         - DENSITY POROSITY (LIMESTONE)
NPHI.V/V      00 330 00 00         : PHIN         - NEUTRON POROSITY (LIMESTONE)
GR  .API      00 310 00 00         : GR           - GAMMA RAY
ILD .OHMM     00 120 00 00         : RESD         - DEEP RESISTIVITY (DIL)
RHOB.KG/M3    00 350 00 00         : DENS         - BULK DENSITY
~PARAMETER INFORMATION
#MNEM.UNIT           DATA             DESCRIPTION OF MNEMONIC
#---------         -----------     ------------------------------
GL  .M        556.2                : gl           - GROUND LEVEL ELEVATION
EREF.M        560.15               : kb           - ELEVATION OF DEPTH REFERENCE
DATM.M        560.15               : datum        - DATUM ELEVATION
TDD .M        423                  : tdd          - TOTAL DEPTH DRILLER
RUN .         ONE                  : Run          - RUN NUMBER
ENG .         BILL                 : Engineer     - RECORDING ENGINEER
WIT .         JIM                  : Witness      - WITNESSED BY
MUD .         GEL                  : Mud_type     - MUD TYPE
MATR.         LIMESTONE            : Logunit      - NEUTRON MATRIX
TMAX.C        24                   : BHT          - MAXIMUM RECORDED TEMPERATURE
BHTD.M        423                  : BHTDEP       - MAXIMUM RECORDED TEMPERATURE
MATR.         1                    : LOGUNIT      - NEUTRON MATRIX
RMT .C        25                   : MDTP         - TEMPERATURE OF MUD
NEUT.         1                    : NEUTRON      - NEUTRON TYPE
RESI.         0                    : RESIST       - RESISTIVITY TYPE
RMC .OHMM     0.25                 : RMC          - RESISTIVITY OF MUD CAKE
RMF .OHMM     0.25                 : RMF          - RESISTIVITY OF MUD FILTRATE
SUFT.C        15                   : SUFT         - SURFACE TEMPERATURE
~A  DEPTH     PHID     PHIN       GR     RESD     DENS
# ...
  171.500    0.353    0.386   54.737   23.852    0.000
  171.750    0.351    0.402   54.117   23.439    0.000
  172.000    0.336    0.382   59.775   23.020    0.000
  172.250    0.334    0.383   67.316   22.191    0.000
  172.500    0.329    0.391   71.091   21.389    0.000
  172.750    0.296    0.397   70.474   20.621    0.000
  173.000    0.260    0.378   65.462   19.503    0.000
  173.250    0.243    0.364   60.449   18.448    0.000
  173.500    0.244    0.368   51.045   18.120    0.000
  173.750    0.260    0.389   43.522   18.142    0.000
  174.000    0.303    0.407   39.770   19.232    0.000
  174.250    0.338    0.408   41.032   19.613    0.000
  174.500    0.346    0.403   47.945   21.180    0.000
  174.750    0.350    0.409   51.720   22.444    0.000
  175.000    0.357    0.416   53.613   23.332    0.000
  175.250    0.371    0.428   50.486   24.258    0.000
  175.500    0.389    0.436   45.472   24.749    0.000
  175.750    0.414    0.444   36.694   24.776    0.000
  176.000    0.432    0.453   29.173   24.339    0.000
  176.250    0.394    0.453   26.672   24.372    0.000
  176.500    0.360    0.416   27.311   24.392    0.000
  176.750    0.362    0.382   27.947   24.425    0.000
  177.000    0.367    0.363   27.956   24.925    0.000
  177.250    0.361    0.356   27.967   24.942    0.000
  177.500    0.352    0.352   28.602   25.449    0.000
  177.750    0.345    0.355   29.866   25.968    0.000
  178.000    0.341    0.364   27.366   26.498    0.000
  178.250    0.341    0.375   25.493   27.037    0.000
  178.500    0.342    0.388   30.524   27.055    0.000
  178.750    0.341    0.385   35.554   26.579    0.000
  179.000    0.337    0.364   39.331   26.609    0.000
  179.250    0.336    0.357   44.359   26.141    0.000
  179.500    0.333    0.373   54.411   25.680    0.000
  179.750    0.330    0.404   62.580   24.754    0.000
  180.000    0.327    0.422   70.748   24.316    0.000
  180.250    0.317    0.425   76.405   23.887    0.000
  180.500    0.294    0.406   68.257   23.467    0.000
  180.750    0.295    0.383   56.969   23.055    0.000
  181.000    0.299    0.369   55.723   22.653    0.000
  181.250    0.297    0.381   67.032   22.245    0.000
  181.500    0.301    0.386   74.572   21.854    0.000
  181.750    0.299    0.375   79.601   21.471    0.000
  182.000    0.289    0.371   77.729   21.496    0.000
  182.250    0.287    0.385   75.856   21.521    0.000
  182.500    0.289    0.405   80.258   21.549    0.000
  182.750    0.299    0.416   87.171   21.561    0.000
  183.000    0.297    0.400   90.318   21.182    0.000
  183.250    0.305    0.387   86.562   21.203    0.000
  183.500    0.307    0.381   84.688   20.834    0.000
  183.750    0.301    0.390   87.836   20.473    0.000
  184.000    0.292    0.392   88.473   20.484    0.000
  184.250    0.274    0.381   92.249   20.131    0.000
  184.500    0.235    0.372   96.652   19.403    0.000
  184.750    0.205    0.353   96.662   18.704    0.000
  185.000    0.202    0.342   83.490   18.028    0.000
  185.250    0.228    0.351   59.022   18.053    0.000
  185.500    0.261    0.345   43.970   18.765    0.000
  185.750    0.306    0.335   42.724   20.261    0.000
  186.000    0.309    0.332   43.988   22.296    0.000
  186.250    0.306    0.340   43.373   24.534    0.000
  186.500    0.306    0.350   38.986   27.002    0.000
  186.750    0.323    0.356   34.603   28.609    0.000
  187.000    0.332    0.359   32.105   29.747    0.000
  187.250    0.328    0.362   32.738   29.793    0.000
  187.500    0.324    0.370   39.653   29.811    0.000
  187.750    0.325    0.381   44.054   29.844    0.000
  188.000    0.320    0.392   46.575   29.881    0.000
  188.250    0.315    0.375   45.332   29.352    0.000
  188.500    0.308    0.365   46.593   29.391    0.000
  188.750    0.305    0.368   49.742   28.882    0.000
  189.000    0.312    0.381   49.125   28.360    0.000
  189.250    0.323    0.382   48.504   27.860    0.000
  189.500    0.329    0.375   50.400   27.372    0.000
  189.750    0.321    0.365   56.056   27.392    0.000
  190.000    0.294    0.352   64.225   26.417    0.000
  190.250    0.282    0.347   71.766   25.942    0.000
  190.500    0.279    0.347   68.010   25.004    0.000
  190.750    0.294    0.360   64.252   24.111    0.000
  191.000    0.286    0.363   69.283   23.687    0.000
  191.250    0.274    0.348   79.336   23.266    0.000
  191.500    0.264    0.353   83.109   22.859    0.000
  191.750    0.276    0.371   79.353   22.459    0.000
  192.000    0.309    0.383   73.086   22.477    0.000
  192.250    0.310    0.379   76.234   22.085    0.000
  192.500    0.263    0.379   80.639   21.699    0.000
  192.750    0.238    0.384   80.647   21.709    0.000
  193.000    0.227    0.394   85.677   21.329    0.000
  193.250    0.235    0.414   89.451   20.560    0.000
  193.500    0.282    0.431   80.674   20.200    0.000
  193.750    0.324    0.408   69.387   20.612    0.000
  194.000    0.346    0.380   68.770   21.434    0.000
  194.250    0.335    0.368   75.684   22.282    0.000
  194.500    0.316    0.364   77.575   22.308    0.000
  194.750    0.295    0.372   78.840   21.907    0.000
  195.000    0.278    0.377   83.243   20.342    0.000
  195.250    0.267    0.377   87.645   19.972    0.000
  195.500    0.260    0.375   92.048   18.537    0.000
  195.750    0.259    0.363   99.590   16.261    0.000
  196.000    0.234    0.369  112.150   15.088    0.000
  196.250    0.217    0.379  119.064   14.006    0.000
  196.500    0.207    0.383  117.192   13.499    0.000
  196.750    0.204    0.363  111.554   13.014    0.000
  197.000    0.207    0.364  110.934   12.542    0.000
  197.250    0.213    0.389  113.457   12.097    0.000
  197.500    0.222    0.400  114.090   11.658    0.000
  197.750    0.222    0.401  112.219   11.668    0.000
  198.000    0.216    0.402  109.092   11.467    0.000
  198.250    0.213    0.413  107.847   11.474    0.000
  198.500    0.218    0.422  105.344   11.708    0.000
  198.750    0.232    0.407  102.213   11.722    0.000
  199.000    0.249    0.393   94.063   12.185    0.000
  199.250    0.272    0.392   85.915   13.161    0.000
  199.500    0.293    0.381   92.827   14.209    0.000
  199.750    0.289    0.380   97.857   14.773    0.000
  200.000    0.284    0.388   90.964   15.659    0.000
  200.250    0.284    0.376   85.954   16.279    0.000
  200.500    0.280    0.359   89.099   16.607    0.000
  200.750    0.258    0.356   99.781   16.312    0.000
  201.000    0.234    0.367  104.810   16.026    0.000
  201.250    0.213    0.375  107.331   15.450    0.000
  201.500    0.203    0.382  111.105   15.183    0.000
  201.750    0.212    0.406  115.507   15.189    0.000
  202.000    0.219    0.432  113.007   14.926    0.000
  202.250    0.213    0.460  106.113   14.659    0.000
  202.500    0.214    0.452   95.452   14.677    0.000
  202.750    0.231    0.427   84.165   15.264    0.000
  203.000    0.252    0.406   76.015   15.867    0.000
  203.250    0.257    0.387   71.630   16.193    0.000
  203.500    0.250    0.381   91.096   16.210    0.000
  203.750    0.286    0.398   99.893   16.228    0.000
  204.000    0.325    0.424  100.531   16.557    0.000
  204.250    0.346    0.409   93.007   16.892    0.000
  204.500    0.344    0.387   91.134   17.560    0.000
  204.750    0.337    0.378   91.773   18.258    0.000
  205.000    0.326    0.378   85.505   18.985    0.000
  205.250    0.315    0.377   76.727   19.373    0.000
  205.500    0.298    0.373   78.620   19.385    0.000
  205.750    0.290    0.373   89.301   19.408    0.000
  206.000    0.293    0.378   91.820   19.434    0.000
  206.250    0.290    0.387   86.807   19.090    0.000
  206.500    0.285    0.389   81.170   18.760    0.000
  206.750    0.279    0.390   79.297   18.770    0.000
  207.000    0.266    0.398   81.816   18.096    0.000
  207.250    0.247    0.384   88.730   17.451    0.000
  207.500    0.240    0.366   93.131   17.133    0.000
  207.750    0.247    0.371   92.514   16.833    0.000
