~VERSION INFORMATION
 VERS.                 2.0:   CWLS LOG ASCII STANDARD -VERSION 2.0
 WRAP.                  NO:   ONE LINE PER DEPTH STEP
~WELL INFORMATION BLOCK
#MNEM.UNIT           DATA                    DESCRIPTION OF MNEMONIC
#---------    -------------------            -------------------------------
# Generated from Intellog Unique Number	CW_73_75/WELL/288
WELL.         CALGAS ET AL MITSUE 02-06      : Well_name    - WELL
LOC .         00/02-06-074-04W5/0            : Location     - LOCATION
UWI .         00/02-06-074-04W5/0            : Uwi          - UNIQUE WELL ID
ENTR.         JAYE                           : Entered      - ENTERED BY
SRVC.         SCHLUMBERGER                   : Scn          - SERVICE COMPANY
DATE.         6 SEP 88                       : Date         - LOG DATE
STRT.M        365                            : top_depth    - START DEPTH
STOP.M        620                            : bot_depth    - STOP DEPTH
STEP.M        0.25                           : increment    - STEP LENGTH
 NULL. -999.2500:NULL Value
~CURVE INFORMATION BLOCK
#MNEM UNIT       ERCB CURVE CODE    CURVE DESCRIPTION
#-----------   ------------------   ----------------------------------
DEPT.M        00 001 00 00         : DEPTH        - DEPTH
ILD .OHMM     00 120 00 00         : RESD         - DEEP RESISTIVITY (DIL)
DPHI.V/V      00 890 00 00         : PHID         - DENSITY POROSITY (SANDSTONE)
NPHI.V/V      00 330 00 00         : PHIN         - NEUTRON POROSITY (SANDSTONE)
GR  .API      00 310 00 00         : GR           - GAMMA RAY
CALI.MM       00 280 01 00         : CAL          - CALIPER
~PARAMETER INFORMATION
#MNEM.UNIT           DATA             DESCRIPTION OF MNEMONIC
#---------         -----------     ------------------------------
GL  .M        596.5                : gl           - GROUND LEVEL ELEVATION
EREF.M        596.5                : kb           - ELEVATION OF DEPTH REFERENCE
DATM.M        596.5                : datum        - DATUM ELEVATION
TDD .M        1650                 : tdd          - TOTAL DEPTH DRILLER
RUN .         ONE                  : Run          - RUN NUMBER
ENG .         ASHTOM               : Engineer     - RECORDING ENGINEER
WIT .         WORK                 : Witness      - WITNESSED BY
BASE.         SLAVE LAKE           : Branch       - HOME BASE OF LOGGING UNIT
MUD .         GEL CHEM             : Mud_type     - MUD TYPE
MATR.         SANDSTONE            : Logunit      - NEUTRON MATRIX
TMAX.C        47                   : BHT          - MAXIMUM RECORDED TEMPERATURE
BHTD.M        1652.8               : BHTDEP       - MAXIMUM RECORDED TEMPERATURE
RMT .C        29                   : MDTP         - TEMPERATURE OF MUD
MUDD.KG/M     1150                 : MWT          - MUD DENSITY
NEUT.         1                    : NEUTRON      - NEUTRON TYPE
RESI.         0                    : RESIST       - RESISTIVITY TYPE
RM  .OHMM     0.73                 : RM           - RESISTIVITY OF MUD
RMC .OHMM     0                    : RMC          - RESISTIVITY OF MUD CAKE
RMF .OHMM     0.74                 : RMF          - RESISTIVITY OF MUD FILTRATE
SUFT.C        0                    : SUFT         - SURFACE TEMPERATURE
~A  DEPTH     RESD     PHID     PHIN       GR      CAL
# ...
  547.500    3.791    0.281    1.087   68.166  290.752
  547.750    4.014    0.307    1.106   65.176  301.789
  548.000    4.393    0.385    1.065   63.288  312.317
  548.250    4.650    0.266    1.027   63.544  308.047
  548.500    4.753    0.236    0.994   65.879  293.166
  548.750    4.769    0.189    0.979   69.746  289.715
  549.000    4.732    0.179    0.975   73.797  289.629
  549.250    4.704    0.183    0.978   74.971  289.954
  549.500    4.608    0.213    0.987   70.572  291.804
  549.750    4.530    0.237    1.014   69.909  294.474
  550.000    4.284    0.209    0.421   67.988  298.051
  550.250    3.607    0.214    0.428   65.161  300.528
  550.500    3.330    0.297    0.485   62.636  299.463
  550.750    3.069    0.411    0.511   61.934  308.115
  551.000    2.968    0.435    0.500   63.966  323.760
  551.250    3.734    0.420    0.507   65.334  339.297
  551.500    4.378    0.427    0.517   63.354  350.581
  551.750    4.758    0.396    0.480   63.867  328.756
  552.000    5.038    0.196    0.452   67.785  291.742
  552.250    5.208    0.178    0.370   70.790  302.624
  552.500    5.265    0.186    0.436   75.192  305.911
  552.750    5.314    0.226    0.443   72.729  305.048
  553.000    5.402    0.206    0.410   67.958  305.701
  553.250    5.482    0.180    0.389   67.439  309.801
  553.500    5.657    0.192    0.372   67.164  316.124
  553.750    5.848    0.197    0.382   65.915  309.992
  554.000    6.238    0.182    0.386   62.481  302.750
  554.250    6.643    0.174    0.368   59.834  297.025
  554.500    7.074    0.180    0.352   57.069  293.732
  554.750    7.394    0.196    0.357   57.949  291.547
  555.000    7.672    0.204    0.385   57.916  292.809
  555.250    7.800    0.199    0.371   57.029  294.581
  555.500    7.916    0.191    0.385   54.870  294.933
  555.750    8.107    0.182    0.390   55.323  294.972
  556.000    8.242    0.177    0.365   56.689  295.224
  556.250    8.395    0.174    0.357   57.870  295.371
  556.500    8.504    0.170    0.346   56.684  294.809
  556.750    8.393    0.146    0.330   54.831  294.249
  557.000    7.822    0.145    0.321   54.248  293.485
  557.250    6.744    0.171    0.328   55.248  292.724
  557.500    6.844    0.189    0.368   58.984  292.771
  557.750    6.919    0.186    0.369   61.382  292.612
  558.000    6.424    0.157    0.338   64.567  292.359
  558.250    5.338    0.123    0.318   64.292  292.914
  558.500    4.594    0.164    0.327   61.829  294.175
  558.750    4.249    0.198    0.330   66.657  297.862
  559.000    3.997    0.330    0.361   68.750  321.703
  559.250    3.670    0.349    0.432   64.585  336.940
  559.500    3.459    0.347    0.467   67.165  327.671
  559.750    3.363    0.353    0.525   72.054  338.855
  560.000    3.363    0.498    0.566   67.647  376.875
  560.250    3.709    0.482    0.576   62.025  361.225
  560.500    4.144    0.496    0.499   61.506  347.097
  560.750    4.709    0.453    0.436   64.146  335.295
  561.000    5.350    0.270    0.387   73.712  300.815
  561.250    6.135    0.240    0.407   67.909  292.051
  561.500    7.087    0.224    0.421   58.762  289.671
  561.750    7.463    0.186    0.374   59.033  288.705
  562.000    7.366    0.149    0.355   63.435  286.827
  562.250    7.058    0.136    0.348   69.114  284.948
  562.500    6.775    0.188    0.380   68.899  280.131
  562.750    6.420    0.230    0.421   66.131  272.485
  563.000    6.267    0.258    0.432   64.884  262.303
  563.250    6.128    0.261    0.401   65.642  252.629
  563.500    5.982    0.264    0.382   66.215  251.257
  563.750    5.882    0.247    0.399   65.394  259.100
  564.000    5.870    0.246    0.418   64.999  271.805
  564.250    5.990    0.262    0.405   65.269  274.588
  564.500    6.320    0.268    0.404   67.362  270.585
  564.750    6.680    0.244    0.383   69.272  265.564
  565.000    7.533    0.158    0.356   72.095  266.322
  565.250    8.355    0.127    0.329   67.931  272.038
  565.500    8.463    0.104    0.309   63.340  275.526
  565.750    8.215    0.120    0.321   58.328  274.057
  566.000    7.350    0.136    0.348   55.741  278.252
  566.250    6.552    0.188    0.375   60.934  287.716
  566.500    6.163    0.263    0.405   66.977  293.737
  566.750    6.016    0.249    0.414   66.033  295.303
  567.000    6.048    0.266    0.433   64.967  297.072
  567.250    6.138    0.251    0.407   67.852  297.929
  567.500    6.114    0.221    0.408   66.847  296.153
  567.750    6.035    0.201    0.404   70.033  292.758
  568.000    5.989    0.165    0.359   73.280  283.285
  568.250    5.825    0.201    0.377   71.729  284.143
  568.500    5.560    0.252    0.397   66.472  285.807
  568.750    5.308    0.287    0.401   65.711  288.186
  569.000    5.162    0.300    0.424   65.192  291.167
  569.250    5.152    0.307    0.449   62.242  297.592
  569.500    5.415    0.281    0.398   63.849  296.122
  569.750    5.874    0.155    0.359   64.850  291.309
  570.000    6.243    0.172    0.353   63.601  291.149
  570.250    5.423    0.245    0.392   66.243  323.400
  570.500    4.286    0.297    0.465   68.459  346.226
  570.750    3.169    0.420    0.507   68.302  343.949
  571.000    2.077    0.510    0.543   65.597  336.396
  571.250    1.742    0.641    0.567   61.858  350.518
  571.500    1.483    0.662    0.576   57.208  414.965
  571.750    1.281    0.605    0.561   52.861  391.420
  572.000    1.159    0.572    0.548   52.222  368.074
  572.250    1.131    0.589    0.579   55.044  338.958
  572.500    1.137    0.596    0.619   59.446  319.057
  572.750    1.182    0.598    0.638   65.794  306.243
  573.000    1.263    0.539    0.596   68.797  318.039
  573.250    1.388    0.525    0.562   67.307  391.799
  573.500    1.583    0.558    0.570   63.628  404.604
  573.750    1.759    0.510    0.568   59.100  378.019
  574.000    2.063    0.430    0.500   59.556  345.463
  574.250    2.599    0.397    0.475   57.758  359.381
  574.500    4.206    0.309    0.427   59.126  346.265
  574.750    5.552    0.446    0.396   61.157  321.907
  575.000    6.001    0.556    0.449   60.030  368.432
  575.250    5.955    0.458    0.452   60.182  368.984
  575.500    5.792    0.425    0.412   62.517  327.615
  575.750    5.529    0.429    0.427   66.311  346.902
  576.000    4.901    0.550    0.507   66.582  397.477
  576.250    4.696    0.596    0.528   60.170  392.971
  576.500    4.722    0.622    0.498   59.468  392.204
  576.750    4.669    0.568    0.460   61.078  382.022
  577.000    4.608    0.505    0.456   63.169  370.324
  577.250    4.465    0.453    0.522   63.379  420.898
  577.500    4.415    0.446    0.559   59.824  441.197
  577.750    4.423    0.528    0.568   60.459  390.309
  578.000    4.547    0.532    0.491   64.678  373.245
  578.250    4.761    0.475    0.462   70.540  364.278
  578.500    4.805    0.418    0.419   71.722  611.426
  578.750    4.445    0.368    0.363   68.592  613.460
  579.000    4.021    0.549    0.524   61.328  627.987
  579.250    3.853    0.519    0.557   56.859  646.059
  579.500    3.699    0.491    0.542   57.920  658.154
  579.750    3.525    0.510    0.543   61.899  637.340
  580.000    3.371    0.507    0.577   66.969  613.997
  580.250    3.309    0.481    0.560   66.814  600.576
  580.500    3.308    0.442    0.507   62.103  613.889
  580.750    3.357    0.425    0.514   59.215  644.516
  581.000    3.464    0.425    0.513   61.857  660.458
  581.250    3.709    0.428    0.493   64.012  656.859
  581.500    4.031    0.453    0.531   64.951  644.451
  581.750    4.276    0.451    0.543   65.464  638.828
  582.000    4.388    0.435    0.555   66.949  633.108
  582.250    4.236    0.526    0.567   68.071  626.365
  582.500    4.251    0.593    0.531   69.010  603.122
  582.750    4.444    0.534    0.506   71.590  526.112
  583.000    4.776    0.306    0.477   75.993  495.580
  583.250    5.268    0.254    0.460   79.726  494.411
  583.500    5.527    0.215    0.433   81.455  496.283
  583.750    5.713    0.183    0.368   81.969  498.857
