~VERSION INFORMATION
 VERS.                 2.0:   CWLS LOG ASCII STANDARD -VERSION 2.0
 WRAP.                  NO:   ONE LINE PER DEPTH STEP
~WELL INFORMATION BLOCK
#MNEM.UNIT           DATA                    DESCRIPTION OF MNEMONIC
#---------    -------------------            -------------------------------
# Generated from Intellog Unique Number	CS_71_72/WELL/3324
WELL.         AEC FOSTER CREEK 7-12          : Well_name    - WELL
LOC .         07-12-071-03W4                 : Location     - LOCATION
UWI .         00/07-12-071-03W4/0            : Uwi          - UNIQUE WELL ID
ENTR.         ANDERSEN                       : Entered      - ENTERED BY
SRVC.         COMPUTALOG                     : Scn          - SERVICE COMPANY
STRT.M        345                            : top_depth    - START DEPTH
STOP.M        571.75                         : bot_depth    - STOP DEPTH
STEP.M        0.25                           : increment    - STEP LENGTH
 NULL. -999.2500:NULL Value
~CURVE INFORMATION BLOCK
#MNEM UNIT       ERCB CURVE CODE    CURVE DESCRIPTION
#-----------   ------------------   ----------------------------------
DEPT.M        00 001 00 00         : DEPTH        - DEPTH
ILD .OHMM     00 120 00 00         : RESD         - DEEP RESISTIVITY (DIL)
CALI.MM       00 280 01 00         : CAL          - CALIPER
DPHI.V/V      00 890 00 00         : PHID         - DENSITY POROSITY (SANDSTONE)
NPHI.V/V      00 330 00 00         : PHIN         - NEUTRON POROSITY (SANDSTONE)
GR  .API      00 310 00 00         : GR           - GAMMA RAY
~PARAMETER INFORMATION
#MNEM.UNIT           DATA             DESCRIPTION OF MNEMONIC
#---------         -----------     ------------------------------
GL  .M        697.61               : gl           - GROUND LEVEL ELEVATION
EREF.M        701.01               : kb           - ELEVATION OF DEPTH REFERENCE
DATM.M        701.01               : datum        - DATUM ELEVATION
TDD .M        585.5                : tdd          - TOTAL DEPTH DRILLER
RUN .         ONE                  : Run          - RUN NUMBER
ENG .         BILL                 : Engineer     - RECORDING ENGINEER
WIT .         JIM                  : Witness      - WITNESSED BY
MUD .         GEL                  : Mud_type     - MUD TYPE
MATR.         SANDSTONE            : Logunit      - NEUTRON MATRIX
TMAX.C        31                   : BHT          - MAXIMUM RECORDED TEMPERATURE
BHTD.M        585.5                : BHTDEP       - MAXIMUM RECORDED TEMPERATURE
RMT .C        15                   : MDTP         - TEMPERATURE OF MUD
MUDD.KG/M     1100                 : MWT          - MUD DENSITY
NEUT.         1                    : NEUTRON      - NEUTRON TYPE
RESI.         0                    : RESIST       - RESISTIVITY TYPE
RM  .OHMM     2.7                  : RM           - RESISTIVITY OF MUD
RMC .OHMM     2.1                  : RMC          - RESISTIVITY OF MUD CAKE
RMF .OHMM     3.5                  : RMF          - RESISTIVITY OF MUD FILTRATE
SUFT.C        15                   : SUFT         - SURFACE TEMPERATURE
~A  DEPTH     RESD      CAL     PHID     PHIN       GR
  345.000    3.623  162.425    0.228    0.618   96.028
  345.250    3.759  161.421    0.221    0.616   97.784
  345.500    3.830  161.391    0.207    0.592   96.633
  345.750    3.901  161.362    0.186    0.559   93.149
  346.000    3.833  161.333    0.200    0.534   97.233
  346.250    3.565  160.329    0.214    0.552   97.249
  346.500    3.376  160.300    0.230    0.580   99.585
  346.750    3.317  160.278    0.233    0.610   99.598
  347.000    3.318  161.224    0.233    0.632   98.442
  347.250    3.319  162.171    0.236    0.631   97.288
  347.500    3.320  162.134    0.237    0.638   95.553
  347.750    3.321  162.098    0.236    0.642   94.981
  348.000    3.384  162.069    0.226    0.638   96.156
  348.250    3.447  162.047    0.224    0.619   96.748
  348.500    3.512  161.043    0.226    0.608   97.922
  348.750    3.577  161.006    0.226    0.613   98.515
  349.000    3.645  160.984    0.223    0.611   97.364
  349.250    3.781  160.955    0.213    0.581   93.880
  349.500    3.852  160.919    0.206    0.565   91.565
  349.750    3.997  160.890    0.215    0.564   94.483
  350.000    4.147  160.868    0.224    0.561  101.477
  350.250    4.148  160.839    0.224    0.531  104.979
  350.500    3.928  160.810    0.222    0.462   97.424
  350.750    3.721  160.759    0.225    0.469   94.525
  351.000    3.524  160.737    0.229    0.487   95.122
  351.250    3.339  160.723    0.228    0.508   93.966
  351.500    3.280  160.686    0.228    0.516   96.305
  351.750    3.465  160.657    0.232    0.447   96.897
  352.000    4.392  160.628    0.244    0.345   91.670
  352.250    6.211  160.607    0.271    0.205   80.623
  352.500    9.798  159.595    0.297    0.103   66.084
  352.750   17.241  159.573    0.325    0.087   46.889
  353.000   46.979  159.529    0.343    0.093   38.168
  353.250   59.555  158.525    0.381    0.085   31.776
  353.500   60.672  157.520    0.390    0.062   29.462
  353.750   64.104  156.516    0.395    0.042   27.726
  354.000   67.729  156.486    0.402    0.048   28.901
  354.250   75.580  156.457    0.389    0.052   29.493
  354.500   85.891  156.428    0.384    0.055   29.506
  354.750   97.609  156.399    0.391    0.057   28.935
  355.000  112.975  156.370    0.398    0.068   26.617
  355.250  117.199  157.317    0.396    0.085   24.297
  355.500  117.242  158.263    0.367    0.109   26.638
  355.750  107.083  158.241    0.349    0.153   28.394
  356.000   97.786  159.188    0.352    0.206   28.984
  356.250   81.529  159.159    0.326    0.211   34.232
  356.500   60.937  159.115    0.297    0.221   44.136
  356.750   47.236  159.093    0.309    0.248   48.803
  357.000   38.672  160.032    0.322    0.266   56.379
  357.250   37.988  160.018    0.334    0.236   58.138
  357.500   43.964  159.989    0.347    0.199   55.238
  357.750   62.176  159.952    0.348    0.175   51.175
  358.000   84.778  159.923    0.347    0.156   47.111
  358.250  101.765  159.887    0.370    0.140   44.794
  358.500  101.802  159.851    0.388    0.181   39.567
  358.750   91.285  159.836    0.383    0.230   36.670
  359.000   72.062  159.800    0.387    0.275   39.588
  359.250   44.080  159.778    0.373    0.319   44.836
  359.500   31.767  159.749    0.321    0.402   52.994
  359.750   26.486  159.713    0.302    0.465   64.062
  360.000   22.904  159.684    0.319    0.478   69.892
  360.250   20.538  160.630    0.305    0.486   72.812
  360.500   18.086  160.594    0.330    0.479   73.405
  360.750   15.081  160.579    0.372    0.489   74.579
  361.000   14.024  160.535    0.350    0.501   75.753
  361.250   13.776  160.521    0.290    0.474   74.605
  361.500   13.781  160.477    0.288    0.460   74.031
  361.750   15.102  160.463    0.289    0.462   69.968
  362.000   16.852  160.426    0.279    0.458   64.158
  362.250   18.132  160.397    0.274    0.449   64.754
  362.500   18.472  160.376    0.281    0.446   64.764
  362.750   18.818  160.339    0.285    0.450   63.029
  363.000   18.825  160.303    0.278    0.450   63.036
  363.250   18.832  160.288    0.270    0.461   64.793
  363.500   17.837  160.259    0.263    0.478   67.131
  363.750   16.589  160.223    0.256    0.486   65.398
  364.000   15.713  160.194    0.257    0.488   67.734
  364.250   14.615  160.165    0.254    0.500   70.072
  364.500   13.843  161.104    0.249    0.494   70.085
  364.750   12.874  161.082    0.256    0.496   72.421
  365.000   12.194  162.029    0.265    0.501   75.341
  365.250   11.341  163.951    0.261    0.479   75.352
  365.500   10.172  164.890    0.261    0.461   77.108
  365.750    9.811  164.868    0.260    0.457   81.777
  366.000    9.638  165.800    0.249    0.445   86.443
  366.250    9.642  165.778    0.235    0.430   92.273
  366.500    9.644  166.724    0.220    0.416   96.939
  366.750    9.825  167.664    0.198    0.412   95.786
  367.000   10.009  167.642    0.173    0.413   91.141
  367.250   10.012  168.588    0.175    0.418   85.913
  367.500   10.017  169.520    0.180    0.416   88.254
  367.750   10.021  169.506    0.180    0.412   88.844
  368.000   10.024  170.452    0.177    0.421   90.021
  368.250    9.847  170.416    0.182    0.429   94.105
  368.500    9.850  170.401    0.189    0.425   92.367
  368.750    9.853  170.372    0.198    0.415   89.468
  369.000   10.223  170.343    0.200    0.404   89.478
  369.250   10.606  170.307    0.196    0.400   85.997
  369.500   11.206  170.270    0.196    0.403   81.934
  369.750   12.059  169.258    0.219    0.410   81.944
  370.000   12.511  169.237    0.245    0.421   81.373
  370.250   12.980  168.239    0.268    0.421   73.817
  370.500   13.222  168.203    0.273    0.419   64.516
  370.750   13.227  168.174    0.235    0.419   65.109
  371.000   13.232  168.138    0.223    0.419   78.507
  371.250   12.533  168.116    0.232    0.421   92.485
  371.500   11.239  168.094    0.229    0.446   97.733
  371.750    9.718  168.058    0.202    0.494  103.563
  372.000    8.252  168.021    0.179    0.519  108.814
  372.250    7.135  168.007    0.187    0.537  109.404
  372.500    5.633  167.970    0.191    0.551  111.742
  372.750    5.335  168.917    0.197    0.565  115.247
  373.000    4.785  168.888    0.204    0.578  112.927
  373.250    4.450  168.851    0.221    0.589  112.358
  373.500    4.138  168.837    0.230    0.596  114.694
  373.750    3.920  169.776    0.233    0.603  114.122
  374.000    3.781  169.740    0.236    0.609  117.045
  374.250    3.714  170.693    0.240    0.597  117.640
  374.500    3.924  170.664    0.247    0.584  118.815
  374.750    4.379  169.660    0.276    0.562  119.407
  375.000    5.653  167.680    0.325    0.477   95.554
  375.250    8.141  166.675    0.348    0.429   77.523
  375.500   11.941  165.663    0.357    0.422   64.728
  375.750   16.885  165.642    0.361    0.433   52.517
  376.000   22.200  164.630    0.363    0.447   46.126
  376.250   23.032  164.608    0.367    0.446   43.811
  376.500   22.218  164.572    0.368    0.442   47.313
  376.750   21.044  163.574    0.366    0.442   49.070
  377.000   19.932  163.545    0.358    0.444   50.247
  377.250   18.536  162.541    0.348    0.429   51.421
  377.500   17.556  162.512    0.331    0.421   53.759
  377.750   16.934  162.482    0.310    0.424   57.844
  378.000   16.635  162.453    0.301    0.426   62.507
  378.250   16.642  162.424    0.310    0.432   71.832
  378.500   16.954  162.395    0.318    0.440   68.350
  378.750   16.961  162.366    0.321    0.450   70.686
  379.000   16.967  162.337    0.297    0.460   74.770
  379.250   16.973  162.308    0.283    0.466   78.857
  379.500   16.981  162.272    0.280    0.468   82.357
  379.750   16.987  162.243    0.278    0.466   80.624
  380.000   16.991  162.199    0.274    0.453   80.635
  380.250   16.998  162.177    0.265    0.436   84.719
  380.500   17.005  162.141    0.268    0.418   85.898
  380.750   16.703  162.119    0.270    0.417   85.322
  381.000   16.709  163.058    0.256    0.418   82.422
  381.250   16.715  163.036    0.224    0.409   78.941
