~VERSION INFORMATION
 VERS.                 2.0:   CWLS LOG ASCII STANDARD -VERSION 2.0
 WRAP.                  NO:   ONE LINE PER DEPTH STEP
~WELL INFORMATION BLOCK
#MNEM.UNIT           DATA                    DESCRIPTION OF MNEMONIC
#---------    -------------------            -------------------------------
# Generated from Intellog Unique Number	CS_69_70/WELL/811
WELL.         WINTERSHALL OIL OF CANADA      : Well_name    - WELL
LOC .         00/07-02-069-14W4/0            : Location     - LOCATION
UWI .         00/07-02-069-14W4/0            : Uwi          - UNIQUE WELL ID
ENTR.         SP                             : Entered      - ENTERED BY
SRVC.         SCHLUMBERGER                   : Scn          - SERVICE COMPANY
STRT.M        283.464                        : top_depth    - START DEPTH
STOP.M        475.214                        : bot_depth    - STOP DEPTH
STEP.M        0.25                           : increment    - STEP LENGTH
 NULL. -999.2500:NULL Value
~CURVE INFORMATION BLOCK
#MNEM UNIT       ERCB CURVE CODE    CURVE DESCRIPTION
#-----------   ------------------   ----------------------------------
DEPT.M        00 001 00 00         : DEPTH        - DEPTH
GR  .API      00 310 00 00         : GR           - GAMMA RAY
DPHI.V/V      00 890 00 00         : PHID         - DENSITY POROSITY (SANDSTONE)
NPHI.V/V      00 330 00 00         : PHIN         - NEUTRON POROSITY (SANDSTONE)
ILD .OHMM     00 120 00 00         : RESD         - DEEP RESISTIVITY (DIL)
~PARAMETER INFORMATION
#MNEM.UNIT           DATA             DESCRIPTION OF MNEMONIC
#---------         -----------     ------------------------------
GL  .M        577.901              : gl           - GROUND LEVEL ELEVATION
EREF.M        580.949              : kb           - ELEVATION OF DEPTH REFERENCE
DATM.M        577.901              : datum        - DATUM ELEVATION
TDD .M        475.488              : tdd          - TOTAL DEPTH DRILLER
RUN .         ONE                  : Run          - RUN NUMBER
ENG .         BILL                 : Engineer     - RECORDING ENGINEER
WIT .         JIM                  : Witness      - WITNESSED BY
MUD .         GEL                  : Mud_type     - MUD TYPE
MATR.         SANDSTONE            : Logunit      - NEUTRON MATRIX
TMAX.C        21.1111              : BHT          - MAXIMUM RECORDED TEMPERATURE
BHTD.M        475.488              : BHTDEP       - MAXIMUM RECORDED TEMPERATURE
MATR.         1                    : LOGUNIT      - NEUTRON MATRIX
RMT .C        25                   : MDTP         - TEMPERATURE OF MUD
NEUT.         1                    : NEUTRON      - NEUTRON TYPE
RESI.         0                    : RESIST       - RESISTIVITY TYPE
RMC .OHMM     0.25                 : RMC          - RESISTIVITY OF MUD CAKE
RMF .OHMM     0.25                 : RMF          - RESISTIVITY OF MUD FILTRATE
SUFT.C        15                   : SUFT         - SURFACE TEMPERATURE
~A  DEPTH       GR     PHID     PHIN     RESD
# ...
  413.964   74.349    0.257    0.480    3.246
  414.214   77.397    0.279    0.490    3.322
  414.464   79.823    0.300    0.488    3.426
  414.714   78.250    0.301    0.490    3.532
  414.964   78.612    0.290    0.496    3.637
  415.214   81.446    0.280    0.497    3.691
  415.464   83.740    0.266    0.480    3.684
  415.714   85.192    0.247    0.471    3.676
  415.964   84.990    0.232    0.485    3.603
  416.214   84.694    0.217    0.495    3.472
  416.464   87.142    0.205    0.503    3.353
  416.714   90.003    0.214    0.544    3.192
  416.964   92.553    0.226    0.576    3.080
  417.214   95.569    0.233    0.605    2.947
  417.464   97.397    0.239    0.584    2.846
  417.714   99.032    0.244    0.568    2.726
  417.964  100.582    0.247    0.551    2.627
  418.214  101.043    0.250    0.539    2.510
  418.464   99.441    0.245    0.541    2.426
  418.714   96.689    0.236    0.548    2.372
  418.964   93.852    0.232    0.552    2.196
  419.214   92.813    0.227    0.552    2.304
  419.464   92.932    0.216    0.562    2.411
  419.714   93.435    0.205    0.574    2.541
  419.964   94.338    0.188    0.547    2.788
  420.214   92.859    0.179    0.526    3.088
  420.464   92.677    0.189    0.524    3.349
  420.714   91.684    0.207    0.547    3.515
  420.964   89.575    0.189    0.516    3.494
  421.214   89.448    0.199    0.492    3.477
  421.464   88.836    0.208    0.468    3.470
  421.714   86.535    0.211    0.455    3.495
  421.964   82.419    0.226    0.462    3.569
  422.214   79.123    0.235    0.463    3.761
  422.464   76.408    0.215    0.454    3.969
  422.714   75.579    0.171    0.442    4.334
  422.964   75.103    0.103    0.420    4.604
  423.214   78.597    0.087    0.392    4.845
  423.464   82.052    0.107    0.395    5.006
  423.714   84.969    0.153    0.442    5.817
  423.964   86.164    0.163    0.443    7.599
  424.214   78.190    0.106    0.409    8.624
  424.464   71.416    0.057    0.353    9.236
  424.714   63.447    0.023    0.302    8.560
  424.964   53.129    0.000    0.221    7.267
  425.214   51.295    0.044    0.247    6.065
  425.464   57.941    0.112    0.300    5.079
  425.714   66.338    0.140    0.364    4.492
  425.964   73.409    0.156    0.409    4.176
  426.214   80.379    0.166    0.447    4.108
  426.464   84.154    0.177    0.461    4.134
  426.714   85.864    0.187    0.462    4.269
  426.964   83.667    0.184    0.463    4.568
  427.214   81.328    0.168    0.469    4.977
  427.464   78.049    0.157    0.469    5.368
  427.714   74.143    0.139    0.429    5.744
  427.964   70.162    0.114    0.336    5.940
  428.214   74.315    0.093    0.362    5.787
  428.464   82.496    0.138    0.411    5.315
  428.714   86.191    0.184    0.444    4.735
  428.964   88.652    0.201    0.457    4.267
  429.214   89.220    0.221    0.465    3.965
  429.464   88.257    0.224    0.447    3.840
  429.714   88.049    0.209    0.446    3.802
  429.964   85.805    0.213    0.448    3.845
  430.214   84.153    0.202    0.462    3.889
  430.464   88.008    0.198    0.476    3.967
  430.714   89.981    0.184    0.481    4.027
  430.964   91.297    0.183    0.461    4.081
  431.214   88.689    0.196    0.451    4.100
  431.464   84.467    0.204    0.444    4.126
  431.714   82.910    0.198    0.440    4.531
  431.964   82.153    0.181    0.455    4.602
  432.214   80.083    0.168    0.470    4.711
  432.464   80.028    0.168    0.478    4.870
  432.714   81.736    0.166    0.460    4.936
  432.964   82.604    0.155    0.450    4.823
  433.214   85.003    0.180    0.448    4.731
  433.464   87.754    0.201    0.454    4.639
  433.714   88.583    0.210    0.438    4.568
  433.964   85.415    0.194    0.442    4.539
  434.214   84.433    0.191    0.440    4.541
  434.464   85.386    0.206    0.428    4.606
  434.714   87.130    0.197    0.420    4.740
  434.964   88.835    0.178    0.411    4.885
  435.214   89.939    0.184    0.401    5.026
  435.464   90.884    0.179    0.412    5.106
  435.714   91.411    0.164    0.428    5.072
  435.964   88.188    0.168    0.426    4.780
  436.214   87.321    0.200    0.415    4.245
  436.464   87.416    0.217    0.443    3.407
  436.714   87.783    0.228    0.483    2.884
  436.964   88.257    0.240    0.523    2.485
  437.214   89.438    0.240    0.550    2.253
  437.464   90.082    0.223    0.547    2.132
  437.714   91.740    0.220    0.554    2.145
  437.964   93.797    0.231    0.559    2.219
  438.214   95.082    0.238    0.558    2.337
  438.464   95.527    0.243    0.523    2.699
  438.714   93.070    0.196    0.480    3.497
  438.964   87.990    0.146    0.444    4.500
  439.214   79.503    0.116    0.413    5.765
  439.464   72.817    0.082    0.362    7.005
  439.714   69.231    0.061    0.330    7.242
  439.964   67.813    0.068    0.306    6.215
  440.214   72.712    0.132    0.385    5.401
  440.464   77.397    0.171    0.414    4.775
  440.714   80.570    0.176    0.433    4.475
  440.964   82.171    0.160    0.445    4.291
  441.214   82.448    0.147    0.459    4.194
  441.464   81.545    0.138    0.458    4.159
  441.714   84.136    0.132    0.438    4.167
  441.964   86.803    0.160    0.423    4.172
  442.214   88.657    0.187    0.413    4.092
  442.464   88.488    0.204    0.427    3.957
  442.714   85.696    0.187    0.437    3.826
  442.964   89.479    0.174    0.447    3.727
  443.214   91.347    0.162    0.453    3.687
  443.464   91.440    0.175    0.462    3.647
  443.714   88.150    0.178    0.446    3.620
  443.964   87.732    0.168    0.456    3.552
  444.214   89.055    0.154    0.464    3.437
  444.464   90.897    0.129    0.469    3.292
  444.714   92.614    0.142    0.478    3.115
  444.964   93.532    0.170    0.495    2.965
  445.214   94.675    0.146    0.478    2.824
  445.464   95.143    0.142    0.491    2.745
  445.714   93.900    0.165    0.499    2.719
  445.964   90.066    0.176    0.503    2.665
  446.214   89.797    0.144    0.495    2.663
  446.464   94.336    0.165    0.514    2.652
  446.714   99.379    0.189    0.530    2.621
  446.964  102.142    0.204    0.518    2.627
  447.214  103.772    0.197    0.524    2.684
  447.464  104.718    0.194    0.529    2.813
  447.714  103.725    0.169    0.523    3.151
  447.964   99.148    0.136    0.518    3.393
  448.214   93.089    0.107    0.491    3.511
  448.464   88.174    0.083    0.445    3.469
  448.714   95.430    0.085    0.402    3.314
  448.964  102.074    0.182    0.441    3.098
  449.214  106.184    0.201    0.507    2.767
  449.464  106.986    0.195    0.540    2.523
  449.714  105.597    0.193    0.525    2.446
  449.964  102.252    0.199    0.517    2.509
  450.214   93.102    0.206    0.508    3.017
  450.464   83.036    0.197    0.488    3.564
  450.714   75.747    0.181    0.450    4.206
  450.964   70.533    0.167    0.413    4.931
  451.214   66.337    0.151    0.353    5.811
  451.464   67.397    0.123    0.334    6.479
  451.714   71.208    0.112    0.354    6.657
  451.964   74.364    0.151    0.373    6.535
  452.214   75.567    0.178    0.393    6.452
  452.464   74.788    0.199    0.378    6.559
  452.714   70.580    0.221    0.364    7.233
  452.964   62.266    0.239    0.349    8.560
  453.214   56.317    0.258    0.344   10.484
  453.464   52.178    0.267    0.378   12.217
  453.714   47.817    0.246    0.399   13.452
  453.964   45.756    0.234    0.413   14.256
  454.214   44.320    0.250    0.401   14.909
  454.464   45.302    0.242    0.404   14.968
  454.714   48.566    0.204    0.390   13.857
  454.964   49.806    0.175    0.315   12.101
  455.214   48.841    0.054    0.291   10.917
  455.464   45.893    0.049    0.298    9.883
  455.714   50.770    0.075    0.328    8.804
  455.964   59.017    0.096    0.349    7.655
  456.214   64.861    0.120    0.367    6.595
  456.464   70.129    0.146    0.376    5.288
  456.714   74.855    0.186    0.396    4.235
  456.964   77.447    0.183    0.430    3.789
  457.214   78.672    0.199    0.456    3.656
