~VERSION INFORMATION
 VERS.                 2.0:   CWLS LOG ASCII STANDARD -VERSION 2.0
 WRAP.                  NO:   ONE LINE PER DEPTH STEP
~WELL INFORMATION BLOCK
#MNEM.UNIT           DATA                    DESCRIPTION OF MNEMONIC
#---------    -------------------            -------------------------------
# Generated from Intellog Unique Number	CX_WELLS/WELL/2902
NULL.         -999.25                        : NULL_VALUE
WELL.         GULF RISNNIN                   : Well_name    - WELL              
LOC .         00/07-24-082-06W4/0            : Location     - LOCATION          
UWI .         00/07-24-082-06W4/0            : Uwi          - UNIQUE WELL ID    
ENTR.         T                              : Entered      - ENTERED BY        
SRVC.         SCHLUMBERGER                   : Scn          - SERVICE COMPANY   
STRT.M        90                             : top_depth    - START DEPTH       
STOP.M        270                            : bot_depth    - STOP DEPTH        
STEP.M        0.25                           : increment    - STEP LENGTH       
~CURVE INFORMATION BLOCK
#MNEM UNIT       ERCB CURVE CODE    CURVE DESCRIPTION
#-----------   ------------------   ----------------------------------
DEPT.M        00 001 00 00         : DEPTH        - DEPTH                       
GR  .API      00 310 00 00         : GR           - GAMMA RAY                   
NPHI.V/V      00 330 00 00         : PHIN         - NEUTRON POROSITY (SANDSTONE)
DPHI.V/V      00 890 00 00         : PHID         - DENSITY POROSITY (SANDSTONE)
ILD .OHMM     00 120 00 00         : RESD         - DEEP RESISTIVITY (OTHER)    
~PARAMETER INFORMATION       
#MNEM.UNIT           DATA             DESCRIPTION OF MNEMONIC
#---------         -----------     ------------------------------
GL  .M        471.6                : gl           - GROUND LEVEL ELEVATION      
EREF.M        474.8                : kb           - ELEVATION OF DEPTH REFERENCE
DATM.M        474.8                : datum        - DATUM ELEVATION             
TDD .M        320                  : tdd          - TOTAL DEPTH DRILLER         
RUN .         ONE                  : Run          - RUN NUMBER                  
ENG .         BILL                 : Engineer     - RECORDING ENGINEER          
WIT .         JIM                  : Witness      - WITNESSED BY                
MUD .         GEL                  : Mud_type     - MUD TYPE                    
MATR.         SANDSTONE            : Logunit      - NEUTRON MATRIX              
TMAX.C        19                   : BHT          - MAXIMUM RECORDED TEMPERATURE
BHTD.M        320                  : BHTDEP       - MAXIMUM RECORDED TEMPERATURE
MATR.         1                    : LOGUNIT      - NEUTRON MATRIX              
RMT .C        17                   : MDTP         - TEMPERATURE OF MUD          
NEUT.         1                    : NEUTRON      - NEUTRON TYPE                
RESI.         4                    : RESIST       - RESISTIVITY TYPE            
RMC .OHMM     6.36                 : RMC          - RESISTIVITY OF MUD CAKE     
RMF .OHMM     6.36                 : RMF          - RESISTIVITY OF MUD FILTRATE 
SUFT.C        4                    : SUFT         - SURFACE TEMPERATURE         
~A  DEPTH       GR     PHIN     PHID     RESD
# ...
  177.000   85.178    0.519    0.275    3.137
  177.250   84.095    0.503    0.268    3.073
  177.500   83.600    0.458    0.262    3.138
  177.750   83.623    0.441    0.251    3.272
  178.000   83.680    0.438    0.240    3.631
  178.250   83.738    0.431    0.231    4.030
  178.500   83.761    0.427    0.225    4.472
  178.750   83.830    0.420    0.220    4.861
  179.000   84.429    0.412    0.215    5.742
  179.250   86.745    0.398    0.214    5.987
  179.500   87.897    0.395    0.214    6.242
  179.750   91.364    0.420    0.212    6.243
  180.000   92.516    0.424    0.212    6.244
  180.250   94.255    0.446    0.212    5.868
  180.500   93.737    0.457    0.214    5.630
  180.750   92.654    0.470    0.220    5.401
  181.000   92.136    0.474    0.222    5.076
  181.250   91.629    0.475    0.219    4.870
  181.500   92.251    0.478    0.219    4.576
  181.750   92.274    0.479    0.221    4.390
  182.000   92.884    0.475    0.223    4.300
  182.250   92.366    0.471    0.226    4.041
  182.500   91.859    0.470    0.227    4.042
  182.750   91.341    0.474    0.227    3.878
  183.000   91.951    0.489    0.225    3.799
  183.250   93.679    0.501    0.223    3.799
  183.500   94.313    0.492    0.225    3.800
  183.750   93.794    0.484    0.227    3.881
  184.000   93.794    0.491    0.224    3.963
  184.250   93.875    0.496    0.221    4.132
  184.500   93.356    0.502    0.214    4.308
  184.750   92.838    0.489    0.211    4.399
  185.000   88.933    0.474    0.213    4.587
  185.250   87.850    0.457    0.220    4.883
  185.500   87.896    0.443    0.225    5.198
  185.750   87.942    0.430    0.220    5.420
  186.000   88.552    0.432    0.218    5.651
  186.250   89.174    0.438    0.213    5.771
  186.500   89.221    0.439    0.209    5.894
  186.750   89.255    0.434    0.202    5.895
  187.000   89.865    0.423    0.194    5.896
  187.250   89.923    0.411    0.171    5.897
  187.500   88.264    0.389    0.124    6.148
  187.750   86.064    0.378    0.110    6.967
  188.000   87.239    0.380    0.143    7.417
  188.250   86.144    0.372    0.188    8.404
  188.500   81.122    0.346    0.224    9.135
  188.750   77.781    0.311    0.268    9.524
  189.000   74.993    0.280    0.292   10.352
  189.250   69.959    0.274    0.309   11.021
  189.500   64.360    0.288    0.310   11.254
  189.750   59.337    0.308    0.309   11.257
  190.000   57.678    0.313    0.307   10.361
  190.250   65.063    0.298    0.303    9.939
  190.500   70.754    0.306    0.302    8.959
  190.750   75.891    0.344    0.299    8.596
  191.000   75.937    0.398    0.299    8.247
  191.250   73.725    0.361    0.305    8.079
  191.500   71.525    0.304    0.322    8.250
  191.750   68.737    0.260    0.329    9.348
  192.000   65.397    0.234    0.330   10.815
  192.250   61.491    0.224    0.332   12.255
  192.500   59.291    0.197    0.335   13.885
  192.750   57.632    0.177    0.339   15.410
  193.000   58.819    0.176    0.339   17.462
  193.250   61.123    0.185    0.337   18.206
  193.500   62.297    0.202    0.332   18.209
  193.750   64.037    0.215    0.325   17.839
  194.000   65.776    0.226    0.318   17.474
  194.250   66.951    0.233    0.308   17.477
  194.500   68.126    0.233    0.304   16.768
  194.750   67.608    0.211    0.306   16.771
  195.000   64.820    0.204    0.312   16.428
  195.250   62.620    0.215    0.325   16.432
  195.500   62.113    0.233    0.326   16.096
  195.750   62.700    0.245    0.312   15.767
  196.000   63.875    0.252    0.308   15.447
  196.250   67.884    0.252    0.311   15.131
  196.500   70.188    0.252    0.311   14.822
  196.750   72.492    0.264    0.311   13.928
  197.000   73.679    0.281    0.309   12.819
  197.250   73.725    0.280    0.309   12.045
  197.500   74.347    0.273    0.310   10.635
  197.750   75.499    0.280    0.313   10.417
  198.000   78.379    0.296    0.311    9.197
  198.250   81.247    0.365    0.308    8.464
  198.500   82.987    0.384    0.304    7.319
  198.750   85.302    0.394    0.289    6.597
  199.000   86.477    0.404    0.281    6.199
  199.250   87.652    0.407    0.271    5.947
  199.500   88.274    0.333    0.270    5.588
  199.750   87.168    0.261    0.287    5.707
  200.000   82.698    0.178    0.313    8.474
  200.250   75.406    0.145    0.327   10.879
  200.500   68.679    0.116    0.330   13.120
  200.750   61.951    0.080    0.331   16.842
  201.000   64.819    0.068    0.331   22.075
  201.250   77.284    0.064    0.332   34.170
  201.500   81.846    0.059    0.336   45.730
  201.750   79.069    0.049    0.340   46.699
  202.000   77.998    0.050    0.342   46.707
  202.250   77.480    0.053    0.344   43.890
  202.500   74.139    0.058    0.345   39.560
  202.750   70.798    0.062    0.349   36.408
  203.000   67.457    0.068    0.351   32.820
  203.250   64.105    0.077    0.354   29.584
  203.500   60.776    0.085    0.351   25.581
  203.750   60.245    0.097    0.340   23.058
  204.000   59.739    0.139    0.333   20.785
  204.250   60.349    0.158    0.327   19.128
  204.500   66.040    0.175    0.320   16.887
  204.750   66.662    0.190    0.315   13.718
  205.000   65.591    0.204    0.310   11.379
  205.250   64.485    0.227    0.306    9.244
  205.500   63.966    0.240    0.298    7.055
  205.750   64.577    0.268    0.292    5.498
  206.000   65.199    0.286    0.286    4.025
  206.250   65.809    0.310    0.270    2.947
  206.500   66.996    0.327    0.255    2.113
  206.750   68.724    0.340    0.247    1.790
  207.000   69.887    0.351    0.248    1.790
  207.250   71.638    0.341    0.256    1.828
  207.500   72.260    0.322    0.246    1.828
  207.750   67.779    0.322    0.245    1.828
  208.000   61.604    0.356    0.262    1.829
  208.250   57.135    0.342    0.279    1.829
  208.500   67.364    0.329    0.245    1.755
  208.750   56.662    0.330    0.253    1.684
  209.000   51.628    0.337    0.298    1.649
  209.250   46.029    0.342    0.315    1.518
  209.500   41.007    0.347    0.314    1.487
  209.750   40.477    0.349    0.313    1.369
  210.000   38.829    0.349    0.311    1.260
  210.250   38.875    0.353    0.310    1.208
  210.500   42.308    0.358    0.311    1.159
  210.750   45.741    0.359    0.311    1.112
  211.000   50.314    0.357    0.311    1.067
  211.250   51.489    0.351    0.310    1.067
  211.500   49.842    0.341    0.307    1.068
  211.750   47.642    0.332    0.305    1.068
  212.000   45.994    0.327    0.300    1.068
  212.250   46.605    0.331    0.296    1.091
  212.500   47.768    0.335    0.289    1.137
  212.750   51.766    0.361    0.285    1.236
  213.000   56.328    0.365    0.281    1.343
  213.250   60.336    0.375    0.276    1.522
  213.500   63.205    0.385    0.269    1.655
  213.750   65.509    0.392    0.259    1.875
  214.000   67.248    0.392    0.254    1.955
  214.250   68.435    0.387    0.252    2.081
  214.500   68.469    0.378    0.249    2.039
  214.750   66.257    0.362    0.256    1.916
  215.000   62.917    0.367    0.268    1.877
  215.250   59.011    0.378    0.282    1.763
  215.500   55.106    0.389    0.293    1.623
  215.750   50.636    0.394    0.296    1.590
  216.000   48.436    0.364    0.289    1.494
  216.250   62.594    0.357    0.262    1.463
  216.500   73.930    0.380    0.248    1.464
  216.750   79.067    0.387    0.231    1.495
  217.000   83.053    0.402    0.230    1.558
  217.250   88.767    0.413    0.231    1.659
  217.500   84.839    0.420    0.237    1.730
  217.750   72.466    0.422    0.250    1.730
  218.000   62.916    0.405    0.276    1.730
  218.250   53.931    0.390    0.298    1.695
  218.500   53.977    0.383    0.309    1.626
  218.750   61.361    0.393    0.307    1.497
  219.000   65.923    0.399    0.295    1.407
  219.250   65.404    0.389    0.284    1.378
  219.500   64.886    0.371    0.285    1.350
  219.750   62.121    0.364    0.286    1.322
  220.000   58.769    0.363    0.284    1.322
  220.250   55.428    0.363    0.285    1.323
