~VERSION INFORMATION
 VERS.                 2.0:   CWLS LOG ASCII STANDARD -VERSION 2.0
 WRAP.                  NO:   ONE LINE PER DEPTH STEP
~WELL INFORMATION BLOCK
#MNEM.UNIT           DATA                    DESCRIPTION OF MNEMONIC
#---------    -------------------            -------------------------------
# Generated from Intellog Unique Number	CW_70_72/WELL/693
NULL.         -999.25                        : NULL_VALUE
WELL.         AMOCO MIAMI B-1 SPURFIELD 06-2 : Well_name    - WELL              
LOC .         06-22-071-02W5                 : Location     - LOCATION          
UWI .         00/06-22-071-02W5/0            : Uwi          - UNIQUE WELL ID    
ENTR.         JAYE                           : Entered      - ENTERED BY        
SRVC.         SCHLUMBERGER                   : Scn          - SERVICE COMPANY   
DATE.         12 MAR 75                      : Date         - LOG DATE          
STRT.M        365.76                         : top_depth    - START DEPTH       
STOP.M        615.76                         : bot_depth    - STOP DEPTH        
STEP.M        0.25                           : increment    - STEP LENGTH       
~CURVE INFORMATION BLOCK
#MNEM UNIT       ERCB CURVE CODE    CURVE DESCRIPTION
#-----------   ------------------   ----------------------------------
DEPT.M        00 001 00 00         : DEPTH        - DEPTH                       
DPHI.V/V      00 890 00 00         : PHID         - DENSITY POROSITY (SANDSTONE)
NPHI.V/V      00 330 00 00         : PHIN         - NEUTRON POROSITY (SANDSTONE)
GR  .API      00 310 00 00         : GR           - GAMMA RAY                   
CALI.MM       00 280 01 00         : CAL          - CALIPER                     
ILD .OHMM     00 120 00 00         : RESD         - DEEP RESISTIVITY (DIL)      
~PARAMETER INFORMATION       
#MNEM.UNIT           DATA             DESCRIPTION OF MNEMONIC
#---------         -----------     ------------------------------
GL  .M        584.911              : gl           - GROUND LEVEL ELEVATION      
EREF.M        589.026              : kb           - ELEVATION OF DEPTH REFERENCE
DATM.M        584.911              : datum        - DATUM ELEVATION             
TDD .M        614.172              : tdd          - TOTAL DEPTH DRILLER         
RUN .         ONE                  : Run          - RUN NUMBER                  
ENG .         JENSEN               : Engineer     - RECORDING ENGINEER          
WIT .         GIBSON               : Witness      - WITNESSED BY                
BASE.         R.D.                 : Branch       - HOME BASE OF LOGGING UNIT   
MATR.         SANDSTONE            : Logunit      - NEUTRON MATRIX              
TMAX.C        32.2222              : BHT          - MAXIMUM RECORDED TEMPERATURE
BHTD.M        613.867              : BHTDEP       - MAXIMUM RECORDED TEMPERATURE
RMT .C        23.3333              : MDTP         - TEMPERATURE OF MUD          
MUDD.KG/M     0                    : MWT          - MUD DENSITY                 
NEUT.         1                    : NEUTRON      - NEUTRON TYPE                
RESI.         0                    : RESIST       - RESISTIVITY TYPE            
RM  .OHMM     2                    : RM           - RESISTIVITY OF MUD          
RMC .OHMM     0                    : RMC          - RESISTIVITY OF MUD CAKE     
RMF .OHMM     1.95                 : RMF          - RESISTIVITY OF MUD FILTRATE 
SUFT.C        -17.7778             : SUFT         - SURFACE TEMPERATURE         
~A  DEPTH     PHID     PHIN       GR      CAL     RESD
# ...
  511.760    0.209    0.383   65.403  214.943    3.271
  512.010    0.179    0.384   64.008  218.380    3.130
  512.260    0.180    0.428   62.545  218.075    2.967
  512.510    0.199    0.459   60.965  216.436    3.035
  512.760    0.239    0.447   57.909  216.958    3.256
  513.010    0.229    0.427   54.426  218.950    3.592
  513.260    0.182    0.391   50.945  220.943    4.044
  513.510    0.135    0.363   48.928  221.885    4.570
  513.760    0.104    0.322   49.059  221.990    5.089
  514.010    0.078    0.305   49.918  221.695    5.282
  514.260    0.140    0.297   51.160  221.195    4.481
  514.510    0.135    0.297   54.107  220.269    3.830
  514.760    0.155    0.311   57.858  219.463    3.372
  515.010    0.186    0.376   62.272  218.753    2.893
  515.260    0.230    0.433   66.204  218.357    2.683
  515.510    0.262    0.439   64.671  218.578    2.644
  515.760    0.276    0.433   64.201  218.894    2.664
  516.010    0.270    0.447   65.247  219.312    2.694
  516.260    0.257    0.438   66.054  219.244    2.720
  516.510    0.250    0.429   65.141  218.841    2.751
  516.760    0.257    0.409   63.193  218.017    2.798
  517.010    0.260    0.410   65.100  217.530    2.819
  517.260    0.270    0.428   68.287  216.823    2.846
  517.510    0.269    0.450   70.510  216.210    2.889
  517.760    0.253    0.463   73.763  216.529    2.922
  518.010    0.249    0.448   75.419  217.795    2.983
  518.260    0.256    0.462   73.842  220.092    3.033
  518.510    0.240    0.466   71.519  220.936    3.085
  518.760    0.230    0.446   73.364  220.841    3.143
  519.010    0.223    0.437   74.175  220.553    3.191
  519.260    0.241    0.444   73.325  220.040    3.281
  519.510    0.230    0.439   71.003  219.752    3.521
  519.760    0.211    0.419   69.118  219.662    3.778
  520.010    0.184    0.390   66.791  219.985    4.046
  520.260    0.174    0.370   67.972  220.936    4.131
  520.510    0.191    0.387   66.508  222.391    4.086
  520.760    0.209    0.419   67.307  223.245    3.924
  521.010    0.226    0.416   68.601  223.466    3.782
  521.260    0.244    0.403   70.270  223.575    3.673
  521.510    0.225    0.396   73.036  223.701    3.606
  521.760    0.207    0.406   75.429  223.517    3.548
  522.010    0.188    0.417   77.098  223.206    3.490
  522.260    0.204    0.414   78.818  222.819    3.427
  522.510    0.217    0.426   76.255  221.884    3.383
  522.760    0.234    0.451   71.918  221.594    3.298
  523.010    0.228    0.435   69.537  221.722    3.196
  523.260    0.212    0.424   69.050  221.842    3.156
  523.510    0.202    0.436   68.144  221.647    3.204
  523.760    0.206    0.465   67.664  215.129    3.276
  524.010    0.216    0.443   68.038  213.590    3.382
  524.260    0.207    0.416   69.394  218.682    3.516
  524.510    0.197    0.396   70.631  222.117    3.684
  524.760    0.211    0.404   71.615  222.325    3.802
  525.010    0.226    0.425   71.873  221.940    3.747
  525.260    0.240    0.429   72.861  220.906    3.585
  525.510    0.223    0.419   75.379  220.417    3.520
  525.760    0.208    0.417   79.494  220.003    3.495
  526.010    0.200    0.429   84.585  219.616    3.490
  526.260    0.189    0.425   85.880  219.215    3.510
  526.510    0.177    0.427   80.989  217.671    3.524
  526.760    0.216    0.433   79.099  215.508    3.577
  527.010    0.222    0.400   82.721  216.144    3.618
  527.260    0.205    0.403   84.509  219.588    3.652
  527.510    0.191    0.419   81.328  224.164    3.694
  527.760    0.183    0.448   80.722  224.165    3.722
  528.010    0.168    0.444   81.225  223.777    3.771
  528.260    0.180    0.433   80.498  223.482    3.821
  528.510    0.182    0.420   79.710  223.189    3.901
  528.760    0.172    0.407   82.599  222.557    3.960
  529.010    0.165    0.394   84.198  222.167    4.027
  529.260    0.158    0.384   83.534  221.881    4.095
  529.510    0.146    0.395   84.157  221.794    4.142
  529.760    0.169    0.413   83.432  222.011    4.151
  530.010    0.170    0.430   80.377  222.759    4.144
  530.260    0.180    0.437   83.078  222.460    4.137
  530.510    0.175    0.441   83.756  222.469    4.169
  530.760    0.161    0.445   83.829  223.611    4.193
  531.010    0.150    0.450   83.106  224.359    4.241
  531.260    0.159    0.440   84.952  224.695    4.281
  531.510    0.158    0.431   88.024  224.806    4.250
  531.760    0.169    0.417   80.683  225.248    4.090
  532.010    0.186    0.401   80.080  225.866    3.949
  532.260    0.185    0.404   82.473  226.610    3.878
  532.510    0.170    0.423   84.559  227.158    3.836
  532.760    0.162    0.444   85.311  227.787    3.815
  533.010    0.163    0.436   83.235  228.015    3.852
  533.260    0.166    0.417   82.996  228.215    3.910
  533.510    0.161    0.410   84.109  228.250    4.036
  533.760    0.160    0.418   85.713  228.161    4.158
  534.010    0.164    0.421   87.494  227.967    4.276
  534.260    0.152    0.411   82.725  228.074    4.373
  534.510    0.138    0.396   81.819  227.997    4.398
  534.760    0.157    0.373   85.191  227.681    4.343
  535.010    0.162    0.390   88.144  227.509    4.272
  535.260    0.162    0.408   91.522  227.309    4.140
  535.510    0.148    0.420   90.366  227.219    4.103
  535.760    0.155    0.414   88.050  227.558    4.235
  536.010    0.142    0.407   84.017  227.567    4.587
  536.260    0.128    0.395   78.327  227.270    4.940
  536.510    0.180    0.376   81.701  226.759    5.430
  536.760    0.201    0.392   88.879  226.160    5.794
  537.010    0.175    0.429   87.052  225.660    6.160
  537.260    0.154    0.412   81.115  225.151    6.610
  537.510    0.129    0.385   76.718  224.234    6.860
  537.760    0.114    0.397   72.927  221.649    7.226
  538.010    0.150    0.393   71.336  218.236    7.556
  538.260    0.169    0.379   67.922  215.245    7.727
  538.510    0.156    0.358   65.605  214.236    7.086
  538.760    0.161    0.341   70.326  214.966    6.215
  539.010    0.167    0.351   76.767  219.853    5.616
  539.260    0.147    0.366   82.226  224.237    5.178
  539.510    0.161    0.388   83.701  226.723    4.766
  539.760    0.156    0.392   84.323  227.584    4.526
  540.010    0.168    0.415   83.849  228.622    4.428
  540.260    0.168    0.414   81.712  229.582    4.421
  540.510    0.160    0.409   83.130  229.991    4.430
  540.760    0.165    0.403   84.977  229.286    4.480
  541.010    0.154    0.395   83.815  228.591    4.590
  541.260    0.143    0.397   85.784  227.864    4.703
  541.510    0.135    0.410   87.876  227.885    4.678
  541.760    0.129    0.427   89.603  227.802    4.594
  542.010    0.125    0.435   89.120  227.712    4.544
  542.260    0.121    0.432   89.859  227.823    4.511
  542.510    0.130    0.427   90.302  227.839    4.512
  542.760    0.147    0.418   90.621  227.659    4.555
  543.010    0.142    0.411   91.544  227.856    4.624
  543.260    0.132    0.405   92.840  228.296    4.720
  543.510    0.143    0.419   88.810  228.828    4.757
  543.760    0.132    0.429   82.018  229.466    4.766
  544.010    0.126    0.422   82.577  229.999    4.706
  544.260    0.139    0.416   86.074  230.648    4.629
  544.510    0.153    0.412   89.210  231.370    4.521
  544.760    0.167    0.424   91.424  231.606    4.390
  545.010    0.161    0.451   92.841  232.337    4.318
  545.260    0.151    0.451   91.319  232.986    4.232
  545.510    0.148    0.441   89.729  233.834    4.225
  545.760    0.142    0.421   89.375  234.362    4.297
  546.010    0.136    0.413   87.669  234.793    4.444
  546.260    0.130    0.409   82.411  234.189    4.690
  546.510    0.149    0.402   74.824  231.916    5.060
  546.760    0.179    0.393   70.361  228.709    5.450
  547.010    0.244    0.384   64.306  223.237    6.091
  547.260    0.270    0.381   61.618  215.987    6.499
  547.510    0.272    0.383   60.160  210.926    6.671
  547.760    0.257    0.389   58.145  200.672    6.106
  548.010    0.234    0.416   57.418  199.022    5.466
