~VERSION INFORMATION
 VERS.                 2.0:   CWLS LOG ASCII STANDARD -VERSION 2.0
 WRAP.                  NO:   ONE LINE PER DEPTH STEP
~WELL INFORMATION BLOCK
#MNEM.UNIT           DATA                    DESCRIPTION OF MNEMONIC
#---------    -------------------            -------------------------------
# Generated from Intellog Unique Number	CS_73_76/WELL/2157
WELL.         DOME ET AL KIRBY               : Well_name    - WELL
LOC .         00/05-21-074-04W4/0            : Location     - LOCATION
UWI .         00/05-21-074-04W4/0            : Uwi          - UNIQUE WELL ID
ENTR.         SP                             : Entered      - ENTERED BY
SRVC.         SCHLUMBERGER                   : Scn          - SERVICE COMPANY
STRT.M        210                            : top_depth    - START DEPTH
STOP.M        420                            : bot_depth    - STOP DEPTH
STEP.M        0.25                           : increment    - STEP LENGTH
 NULL. -999.2500:NULL Value
~CURVE INFORMATION BLOCK
#MNEM UNIT       ERCB CURVE CODE    CURVE DESCRIPTION
#-----------   ------------------   ----------------------------------
DEPT.M        00 001 00 00         : DEPTH        - DEPTH
ILD .OHMM     00 120 00 00         : RESD         - DEEP RESISTIVITY (DIL)
DPHI.V/V      00 890 00 00         : PHID         - DENSITY POROSITY (LIMESTONE)
NPHI.V/V      00 330 00 00         : PHIN         - NEUTRON POROSITY (LIMESTONE)
GR  .API      00 310 00 00         : GR           - GAMMA RAY
~PARAMETER INFORMATION
#MNEM.UNIT           DATA             DESCRIPTION OF MNEMONIC
#---------         -----------     ------------------------------
GL  .M        598                  : gl           - GROUND LEVEL ELEVATION
EREF.M        601.9                : kb           - ELEVATION OF DEPTH REFERENCE
DATM.M        598                  : datum        - DATUM ELEVATION
TDD .M        432                  : tdd          - TOTAL DEPTH DRILLER
RUN .         ONE                  : Run          - RUN NUMBER
ENG .         BILL                 : Engineer     - RECORDING ENGINEER
WIT .         JIM                  : Witness      - WITNESSED BY
MUD .         GEL                  : Mud_type     - MUD TYPE
MATR.         LIMESTONE            : Logunit      - NEUTRON MATRIX
TMAX.C        20                   : BHT          - MAXIMUM RECORDED TEMPERATURE
BHTD.M        432                  : BHTDEP       - MAXIMUM RECORDED TEMPERATURE
MATR.         1                    : LOGUNIT      - NEUTRON MATRIX
RMT .C        25                   : MDTP         - TEMPERATURE OF MUD
NEUT.         1                    : NEUTRON      - NEUTRON TYPE
RESI.         0                    : RESIST       - RESISTIVITY TYPE
RMC .OHMM     0.25                 : RMC          - RESISTIVITY OF MUD CAKE
RMF .OHMM     0.25                 : RMF          - RESISTIVITY OF MUD FILTRATE
SUFT.C        15                   : SUFT         - SURFACE TEMPERATURE
~A  DEPTH     RESD     PHID     PHIN       GR
# ...
  253.500    9.337    0.348    0.481  106.612
  253.750    9.168    0.332    0.489  112.810
  254.000    8.833    0.326    0.494  117.769
  254.250    8.512    0.316    0.477  112.810
  254.500    8.200    0.305    0.459  115.909
  254.750    7.901    0.335    0.470  109.711
  255.000    7.470    0.357    0.482  106.612
  255.250    7.335    0.373    0.461  101.653
  255.500    7.339    0.286    0.470  102.273
  255.750    7.346    0.302    0.484   99.174
  256.000    7.491    0.320    0.493   98.554
  256.250    7.499    0.329    0.473   94.835
  256.500    7.648    0.264    0.455  104.132
  256.750    7.653    0.275    0.431   96.074
  257.000    7.808    0.264    0.434   90.496
  257.250    7.962    0.245    0.414   99.793
  257.500    8.119    0.245    0.398  106.612
  257.750    8.444    0.249    0.406  105.992
  258.000    8.611    0.234    0.387  103.512
  258.250    8.780    0.220    0.401  105.992
  258.500    8.958    0.219    0.410  107.231
  258.750    8.965    0.199    0.430  107.231
  259.000    8.803    0.177    0.449   97.934
  259.250    8.322    0.204    0.453  104.132
  259.500    7.576    0.228    0.427  112.190
  259.750    7.298    0.226    0.415  106.612
  260.000    7.030    0.229    0.410  101.653
  260.250    6.523    0.240    0.390   92.355
  260.500    6.283    0.251    0.379   83.058
  260.750    6.286    0.268    0.406   82.438
  261.000    6.175    0.257    0.409   94.835
  261.250    6.062    0.250    0.428   97.314
  261.500    6.066    0.242    0.459   98.554
  261.750    6.073    0.246    0.445   96.074
  262.000    6.078    0.251    0.454   92.975
  262.250    6.082    0.251    0.436   87.397
  262.500    6.085    0.256    0.420   86.157
  262.750    5.979    0.259    0.410   87.397
  263.000    5.871    0.267    0.422   93.595
  263.250    5.875    0.267    0.416   96.074
  263.500    5.768    0.262    0.421  100.413
  263.750    5.663    0.257    0.422   97.314
  264.000    5.561    0.263    0.400   90.496
  264.250    5.358    0.271    0.371   84.917
  264.500    5.262    0.278    0.361   75.620
  264.750    5.166    0.280    0.361   61.983
  265.000    5.170    0.263    0.348   63.843
  265.250    5.272    0.248    0.339   68.802
  265.500    5.277    0.233    0.356   68.802
  265.750    5.381    0.222    0.361   69.421
  266.000    5.489    0.197    0.364   72.521
  266.250    5.493    0.107    0.341   63.843
  266.500    4.907    0.072    0.301   68.182
  266.750    4.727    0.117    0.338   75.000
  267.000    4.553    0.175    0.365   71.901
  267.250    4.304    0.264    0.372   77.479
  267.500    4.070    0.279    0.380   84.297
  267.750    3.848    0.264    0.387   75.620
  268.000    3.706    0.249    0.403   65.703
  268.250    3.571    0.237    0.400   52.066
  268.500    3.506    0.285    0.383   46.488
  268.750    3.253    0.302    0.393   42.149
  269.000    3.018    0.304    0.381   46.488
  269.250    2.963    0.308    0.384   45.248
  269.500    2.801    0.312    0.389   48.347
  269.750    2.802    0.313    0.401   53.306
  270.000    2.753    0.315    0.414   57.025
  270.250    2.808    0.318    0.409   55.785
  270.500    2.810    0.319    0.403   60.744
  270.750    2.812    0.319    0.409   63.843
  271.000    2.814    0.315    0.420   64.463
  271.250    2.816    0.309    0.416   65.703
  271.500    2.818    0.306    0.417   67.562
  271.750    2.875    0.304    0.415   68.802
  272.000    2.877    0.304    0.415   72.521
  272.250    2.934    0.301    0.415   72.521
  272.500    3.051    0.290    0.404   72.521
  272.750    3.110    0.280    0.391   69.421
  273.000    3.234    0.277    0.378   71.901
  273.250    3.361    0.273    0.383   69.421
  273.500    3.562    0.274    0.379   67.562
  273.750    3.633    0.270    0.373   60.744
  274.000    3.704    0.256    0.374   65.083
  274.250    3.779    0.236    0.326   65.703
  274.500    3.854    0.205    0.304   55.165
  274.750    3.931    0.171    0.265   46.488
  275.000    3.861    0.172    0.254   54.545
  275.250    3.719    0.249    0.283   47.727
  275.500    3.020    0.280    0.390   46.488
  275.750    2.453    0.302    0.377   40.909
  276.000    2.109    0.320    0.376   42.769
  276.250    1.956    0.318    0.397   44.628
  276.500    1.780    0.318    0.397   44.628
  276.750    1.651    0.319    0.393   46.488
  277.000    1.621    0.318    0.398   50.826
  277.250    1.622    0.314    0.403   55.165
  277.500    1.656    0.310    0.366   57.025
  277.750    1.688    0.307    0.369   48.967
  278.000    1.689    0.307    0.381   45.248
  278.250    1.723    0.308    0.387   48.967
  278.500    1.725    0.313    0.388   50.207
  278.750    1.726    0.316    0.399   52.686
  279.000    1.727    0.320    0.410   51.446
  279.250    1.697    0.323    0.405   47.727
  279.500    1.666    0.325    0.416   54.545
  279.750    1.636    0.329    0.405   48.347
  280.000    1.606    0.322    0.383   43.388
  280.250    1.607    0.319    0.381   47.727
  280.500    1.578    0.320    0.388   49.587
  280.750    1.579    0.320    0.395   53.306
  281.000    1.580    0.317    0.403   51.446
  281.250    1.612    0.310    0.369   52.066
  281.500    1.675    0.307    0.360   55.785
  281.750    1.809    0.305    0.341   57.025
  282.000    2.068    0.303    0.298   48.967
  282.250    2.550    0.293    0.231   51.446
  282.500    3.803    0.263    0.175   50.826
  282.750    5.670    0.071    0.129   53.926
  283.000    8.295    0.040    0.104   46.488
  283.250   14.957    0.029    0.099   46.488
  283.500   27.482    0.023    0.088   47.727
  283.750   32.015    0.028    0.093   45.248
  284.000   19.189    0.038    0.246   42.769
  284.250   10.069    0.075    0.327   48.347
  284.500    5.922    0.193    0.370   55.785
  284.750    3.617    0.296    0.393   60.124
  285.000    2.572    0.317    0.409   58.884
  285.250    2.088    0.315    0.420   63.223
  285.500    1.729    0.312    0.427   61.983
  285.750    1.604    0.317    0.413   55.165
  286.000    1.516    0.321    0.401   52.066
  286.250    1.489    0.320    0.405   47.727
  286.500    1.518    0.316    0.398   50.826
  286.750    1.549    0.315    0.405   55.165
  287.000    1.580    0.315    0.406   56.405
  287.250    1.611    0.316    0.422   51.446
  287.500    1.643    0.315    0.427   59.504
  287.750    1.676    0.315    0.423   63.223
  288.000    1.710    0.316    0.438   60.744
  288.250    1.743    0.321    0.449   55.785
  288.500    1.848    0.312    0.456   50.207
  288.750    1.885    0.307    0.387   56.405
  289.000    1.959    0.308    0.395   58.264
  289.250    2.036    0.311    0.403   57.025
  289.500    2.157    0.314    0.408   55.165
  289.750    2.285    0.318    0.398   55.165
  290.000    2.331    0.316    0.422   50.826
  290.250    2.332    0.309    0.426   52.686
  290.500    2.290    0.307    0.455   53.306
  290.750    2.045    0.312    0.434   56.405
  291.000    1.897    0.322    0.412   52.686
  291.250    1.793    0.331    0.413   53.306
  291.500    1.728    0.339    0.441   54.545
  291.750    1.665    0.340    0.464   58.264
  292.000    1.666    0.322    0.432   66.322
  292.250    1.667    0.313    0.427   68.802
  292.500    1.701    0.320    0.429   61.983
  292.750    1.703    0.320    0.403   58.264
  293.000    1.704    0.318    0.393   54.545
  293.250    1.705    0.312    0.374   55.165
  293.500    1.706    0.302    0.373   53.926
  293.750    1.675    0.305    0.380   55.165
  294.000    1.677    0.308    0.399   60.744
  294.250    1.646    0.311    0.409   60.744
  294.500    1.647    0.313    0.426   57.645
  294.750    1.617    0.314    0.438   54.545
  295.000    1.589    0.313    0.460   53.926
  295.250    1.560    0.308    0.428   56.405
  295.500    1.561    0.303    0.422   58.264
  295.750    1.533    0.301    0.411   60.124
  296.000    1.534    0.304    0.415   63.843
  296.250    1.535    0.308    0.427   61.364
  296.500    1.536    0.321    0.427   56.405
  296.750    1.537    0.317    0.438   52.066
