~VERSION INFORMATION
 VERS.                 2.0:   CWLS LOG ASCII STANDARD -VERSION 2.0
 WRAP.                  NO:   ONE LINE PER DEPTH STEP
~WELL INFORMATION BLOCK
#MNEM.UNIT           DATA                    DESCRIPTION OF MNEMONIC
#---------    -------------------            -------------------------------
# Generated from Intellog Unique Number	CW_73_75/WELL/642
LOC .         00/07-02-075-24W4/0            : Location     - LOCATION
UWI .         00/07-02-075-24W4/0            : Uwi          - UNIQUE WELL ID
ENTR.         JAYE                           : Entered      - ENTERED BY
SRVC.         SCHLUMBERGER                   : Scn          - SERVICE COMPANY
DATE.         1 MAR 75                       : Date         - LOG DATE
STRT.M        426.72                         : top_depth    - START DEPTH
STOP.M        621.72                         : bot_depth    - STOP DEPTH
STEP.M        0.25                           : increment    - STEP LENGTH
 NULL. -999.2500:NULL Value
~CURVE INFORMATION BLOCK
#MNEM UNIT       ERCB CURVE CODE    CURVE DESCRIPTION
#-----------   ------------------   ----------------------------------
DEPT.M        00 001 00 00         : DEPTH        - DEPTH
ILD .OHMM     00 120 00 00         : RESD         - DEEP RESISTIVITY (DIL)
CALI.MM       00 280 01 00         : CAL          - CALIPER
GR  .API      00 310 00 00         : GR           - GAMMA RAY
DPHI.V/V      00 890 00 00         : PHID         - DENSITY POROSITY (SANDSTONE)
NPHI.V/V      00 330 00 00         : PHIN         - NEUTRON POROSITY (SANDSTONE)
~PARAMETER INFORMATION
#MNEM.UNIT           DATA             DESCRIPTION OF MNEMONIC
#---------         -----------     ------------------------------
GL  .M        702.107              : gl           - GROUND LEVEL ELEVATION
EREF.M        706.222              : kb           - ELEVATION OF DEPTH REFERENCE
DATM.M        702.107              : datum        - DATUM ELEVATION
TDD .M        623.316              : tdd          - TOTAL DEPTH DRILLER
RUN .         ONE                  : Run          - RUN NUMBER
ENG .         EARLE                : Engineer     - RECORDING ENGINEER
WIT .         BRYANT               : Witness      - WITNESSED BY
BASE.         EDM                  : Branch       - HOME BASE OF LOGGING UNIT
MATR.         SANDSTONE            : Logunit      - NEUTRON MATRIX
TMAX.C        29.4444              : BHT          - MAXIMUM RECORDED TEMPERATURE
BHTD.M        622.706              : BHTDEP       - MAXIMUM RECORDED TEMPERATURE
RMT .C        20                   : MDTP         - TEMPERATURE OF MUD
MUDD.KG/M     0                    : MWT          - MUD DENSITY
NEUT.         1                    : NEUTRON      - NEUTRON TYPE
RESI.         0                    : RESIST       - RESISTIVITY TYPE
RM  .OHMM     3.85                 : RM           - RESISTIVITY OF MUD
RMC .OHMM     0                    : RMC          - RESISTIVITY OF MUD CAKE
RMF .OHMM     4.96                 : RMF          - RESISTIVITY OF MUD FILTRATE
SUFT.C        -17.7778             : SUFT         - SURFACE TEMPERATURE
~A  DEPTH     RESD      CAL       GR     PHID     PHIN
  426.720    2.980  230.170  118.735    0.229    0.565
  426.970    3.029  229.766  119.966    0.236    0.572
  427.220    3.040  229.259  119.667    0.235    0.562
  427.470    2.963  228.546  118.877    0.226    0.530
  427.720    2.851  227.832  117.353    0.239    0.545
  427.970    2.861  227.116  114.057    0.237    0.573
  428.220    3.022  226.196  110.208    0.223    0.554
  428.470    3.221  225.380  105.077    0.236    0.530
  428.720    3.359  225.179  102.024    0.219    0.495
  428.970    3.353  224.983   94.872    0.200    0.452
  429.220    3.268  224.683   97.142    0.169    0.485
  429.470    3.232  224.384  102.287    0.310    0.527
  429.720    3.232  224.289   98.134    0.414    0.562
  429.970    3.202  225.026   93.491    0.393    0.535
  430.220    3.115  225.864   96.922    0.316    0.527
  430.470    2.970  226.082  101.578    0.316    0.540
  430.720    2.843  225.888  103.847    0.235    0.549
  430.970    2.613  225.584  104.099    0.251    0.564
  431.220    2.407  224.870  103.004    0.264    0.609
  431.470    2.283  224.157  100.013    0.238    0.621
  431.720    2.492  223.650   92.678    0.237    0.600
  431.970    3.343  222.623   87.790    0.245    0.555
  432.220    4.108  220.563   82.597    0.278    0.527
  432.470    5.004  219.226   77.465    0.331    0.479
  432.720    5.779  217.060   72.454    0.327    0.462
  432.970    6.424  215.311   69.831    0.321    0.467
  433.220    6.518  214.907   68.736    0.315    0.475
  433.470    6.342  215.332   67.702    0.298    0.460
  433.720    5.894  216.793   66.668    0.279    0.421
  433.970    5.600  218.151   66.308    0.205    0.438
  434.220    5.448  219.612   66.681    0.313    0.452
  434.470    5.369  220.138   67.238    0.345    0.449
  434.720    5.271  220.564   67.917    0.340    0.467
  434.970    5.185  220.885   68.780    0.325    0.483
  435.220    5.137  220.687   69.948    0.319    0.494
  435.470    5.155  220.905   71.972    0.319    0.478
  435.720    5.231  221.436   74.976    0.311    0.477
  435.970    5.298  221.860   77.858    0.290    0.479
  436.220    5.355  222.388   79.087    0.277    0.479
  436.470    5.493  222.814   78.848    0.265    0.469
  436.720    5.564  223.445   70.230    0.261    0.457
  436.970    5.452  223.972   67.973    0.264    0.451
  437.220    5.324  224.398   68.528    0.274    0.465
  437.470    5.208  224.823   74.224    0.299    0.486
  437.720    4.975  225.041   84.813    0.311    0.484
  437.970    4.591  225.467   94.240    0.324    0.492
  438.220    4.182  225.786  101.647    0.271    0.508
  438.470    3.845  225.901  112.848    0.253    0.537
  438.720    3.528  226.430  122.214    0.281    0.568
  438.970    3.464  226.958  125.096    0.276    0.573
  439.220    3.659  227.381  121.186    0.246    0.487
  439.470    3.900  227.703  110.609    0.241    0.458
  439.720    4.233  227.094  102.358    0.229    0.469
  439.970    4.749  225.963   90.742    0.227    0.487
  440.220    5.184  223.384   83.529    0.252    0.482
  440.470    5.405  221.529   80.905    0.297    0.461
  440.720    5.616  219.365   83.786    0.300    0.466
  440.970    5.803  217.097   91.011    0.256    0.469
  441.220    6.152  216.176   99.459    0.249    0.454
  441.470    6.151  216.912  105.399    0.242    0.457
  441.720    5.930  218.579  109.810    0.225    0.472
  441.970    5.655  221.180  112.018    0.207    0.491
  442.220    5.363  224.402  113.248    0.223    0.517
  442.470    5.003  226.793  110.500    0.251    0.502
  442.720    4.779  228.772   91.483    0.266    0.505
  442.970    4.752  227.642   78.582    0.284    0.505
  443.220    4.804  223.924   69.290    0.310    0.476
  443.470    4.866  218.653   66.359    0.315    0.451
  443.720    4.964  217.006   70.220    0.304    0.466
  443.970    5.027  216.499   77.445    0.287    0.474
  444.220    5.091  217.027   82.527    0.264    0.472
  444.470    5.119  217.867   88.712    0.251    0.474
  444.720    5.137  219.224   92.572    0.262    0.481
  444.970    5.155  220.581   94.352    0.270    0.488
  445.220    5.174  222.042   95.887    0.271    0.478
  445.470    5.192  223.191   97.546    0.281    0.464
  445.720    5.220  223.618   90.885    0.254    0.480
  445.970    5.268  223.625   82.938    0.265    0.492
  446.220    5.325  223.221   76.276    0.309    0.478
  446.470    5.482  222.300   71.879    0.290    0.472
  446.720    5.675  221.690   69.132    0.299    0.484
  446.970    5.790  221.078   75.439    0.315    0.483
  447.220    5.811  220.468   81.990    0.314    0.461
  447.470    5.789  220.167   91.172    0.277    0.442
  447.720    5.767  219.659  100.110    0.254    0.425
  447.970    5.777  219.566  105.560    0.213    0.434
  448.220    5.787  219.577  109.237    0.197    0.451
  448.470    5.861  219.486  106.674    0.194    0.430
  448.720    5.914  219.599  100.746    0.205    0.437
  448.970    6.023  219.713   97.326    0.230    0.451
  449.220    6.167  219.618   95.559    0.250    0.448
  449.470    6.257  220.044   97.707    0.257    0.422
  449.720    6.348  220.780   98.324    0.238    0.395
  449.970    6.394  221.516   94.293    0.189    0.373
  450.220    6.464  223.806   84.450    0.215    0.359
  450.470    6.452  225.886   89.044    0.228    0.373
  450.720    6.311  227.865   94.006    0.230    0.417
  450.970    6.073  228.601   97.131    0.220    0.461
  451.220    5.898  226.747   86.861    0.221    0.458
  451.470    5.563  219.817   76.406    0.245    0.407
  451.720    5.227  215.581   56.226    0.264    0.424
  451.970    4.930  215.488   44.060    0.286    0.429
  452.220    4.718  217.156   38.928    0.312    0.406
  452.470    4.524  219.031   35.385    0.320    0.400
  452.720    4.393  220.905   31.660    0.319    0.394
  452.970    4.313  222.265   37.967    0.322    0.385
  453.220    4.274  222.585   42.867    0.327    0.407
  453.470    4.250  222.593   48.379    0.314    0.416
  453.720    4.273  221.984   52.422    0.323    0.412
  453.970    4.423  221.475   57.872    0.317    0.404
  454.220    4.554  221.488   70.786    0.298    0.396
  454.470    4.688  221.497   81.558    0.275    0.420
  454.720    4.809  221.506  105.238    0.258    0.440
  454.970    4.933  221.726  105.183    0.238    0.439
  455.220    5.033  222.046  102.559    0.260    0.421
  455.470    5.069  222.367  107.337    0.244    0.435
  455.720    4.977  222.791  111.992    0.230    0.466
  455.970    4.686  223.425  115.791    0.231    0.485
  456.220    4.184  224.057  118.978    0.246    0.499
  456.470    3.702  225.103  121.554    0.224    0.558
  456.720    3.366  228.117  123.211    0.196    0.584
  456.970    3.050  231.442  125.236    0.133    0.593
  457.220    2.814  234.663  128.302    0.235    0.596
  457.470    2.708  235.192  130.142    0.218    0.567
  457.720    2.708  233.029  129.048    0.242    0.552
  457.970    2.707  230.243  127.708    0.218    0.553
  458.220    2.762  227.765  128.693    0.217    0.563
  458.470    2.767  230.884  132.187    0.210    0.569
  458.720    2.707  238.146  134.761    0.203    0.580
  458.970    2.761  244.474  137.398    0.267    0.574
  459.220    2.911  241.895  133.183    0.267    0.507
  459.470    3.160  237.140  130.497    0.248    0.486
  459.720    3.545  231.764  125.733    0.231    0.468
  459.970    4.309  230.325  122.497    0.200    0.458
  460.220    4.661  231.578  122.442    0.186    0.455
  460.470    4.878  232.522  126.118    0.227    0.452
  460.720    4.959  232.948  132.548    0.223    0.439
  460.970    4.842  232.750  135.551    0.202    0.447
  461.220    4.642  231.622  132.988    0.223    0.457
  461.470    4.583  230.492  124.797    0.212    0.458
  461.720    4.633  228.638  117.524    0.210    0.475
  461.970    4.735  226.783  112.453    0.222    0.466
  462.220    4.929  225.344  106.893    0.207    0.471
  462.470    5.084  223.804  101.210    0.218    0.498
  462.720    5.253  223.293   95.038    0.211    0.494
  462.970    5.398  222.578   89.415    0.264    0.476
