~VERSION INFORMATION
 VERS.                 2.0:   CWLS LOG ASCII STANDARD -VERSION 2.0
 WRAP.                  NO:   ONE LINE PER DEPTH STEP
~WELL INFORMATION BLOCK
#MNEM.UNIT           DATA                    DESCRIPTION OF MNEMONIC
#---------    -------------------            -------------------------------
# Generated from Intellog Unique Number	CC_80_83/WELL/1045
LOC .         00/02-29-080-13W4/0            : Location     - LOCATION
UWI .         00/02-29-080-13W4/0            : Uwi          - UNIQUE WELL ID
ENTR.         DW                             : Entered      - ENTERED BY
SRVC.         SCHLUMBERGER                   : Scn          - SERVICE COMPANY
STRT.M        275                            : top_depth    - START DEPTH
STOP.M        504.75                         : bot_depth    - STOP DEPTH
STEP.M        0.25                           : increment    - STEP LENGTH
 NULL. -999.2500:NULL Value
~CURVE INFORMATION BLOCK
#MNEM UNIT       ERCB CURVE CODE    CURVE DESCRIPTION
#-----------   ------------------   ----------------------------------
DEPT.M        00 001 00 00         : DEPTH        - DEPTH
GR  .API      00 310 00 00         : GR           - GAMMA RAY
DPHI.V/V      00 890 00 00         : PHID         - DENSITY POROSITY (SANDSTONE)
NPHI.V/V      00 330 00 00         : PHIN         - NEUTRON POROSITY (SANDSTONE)
ILD .OHMM     00 120 00 00         : RESD         - DEEP RESISTIVITY (DIL)
~PARAMETER INFORMATION
#MNEM.UNIT           DATA             DESCRIPTION OF MNEMONIC
#---------         -----------     ------------------------------
GL  .M        698.4                : gl           - GROUND LEVEL ELEVATION
EREF.M        701.6                : kb           - ELEVATION OF DEPTH REFERENCE
DATM.M        701.6                : datum        - DATUM ELEVATION
TDD .M        509.5                : tdd          - TOTAL DEPTH DRILLER
RUN .         ONE                  : Run          - RUN NUMBER
ENG .         BILL                 : Engineer     - RECORDING ENGINEER
WIT .         JIM                  : Witness      - WITNESSED BY
MUD .         GEL                  : Mud_type     - MUD TYPE
MATR.         SANDSTONE            : Logunit      - NEUTRON MATRIX
TMAX.C        21.2                 : BHT          - MAXIMUM RECORDED TEMPERATURE
BHTD.M        509                  : BHTDEP       - MAXIMUM RECORDED TEMPERATURE
MATR.         1                    : LOGUNIT      - NEUTRON MATRIX
RMT .C        25                   : MDTP         - TEMPERATURE OF MUD
NEUT.         1                    : NEUTRON      - NEUTRON TYPE
RESI.         0                    : RESIST       - RESISTIVITY TYPE
RMC .OHMM     0.25                 : RMC          - RESISTIVITY OF MUD CAKE
RMF .OHMM     0.25                 : RMF          - RESISTIVITY OF MUD FILTRATE
SUFT.C        15                   : SUFT         - SURFACE TEMPERATURE
~A  DEPTH       GR     PHID     PHIN     RESD
# ...
  362.000   62.196    0.319    0.427   17.658
  362.250   65.508    0.319    0.423   17.389
  362.500   65.939    0.323    0.431   17.065
  362.750   66.012    0.322    0.438   16.904
  363.000   64.956    0.318    0.441   17.152
  363.250   62.235    0.319    0.442   17.775
  363.500   62.120    0.322    0.450   18.332
  363.750   65.317    0.320    0.464   18.666
  364.000   66.166    0.315    0.450   18.459
  364.250   64.912    0.313    0.434   18.073
  364.500   63.121    0.319    0.436   17.031
  364.750   61.984    0.325    0.446   15.358
  365.000   63.319    0.322    0.445   13.951
  365.250   67.632    0.309    0.432   12.424
  365.500   74.394    0.299    0.420   11.676
  365.750   73.892    0.291    0.416   11.276
  366.000   67.311    0.304    0.414   11.611
  366.250   63.492    0.325    0.411   12.607
  366.500   64.504    0.312    0.408   13.183
  366.750   67.150    0.294    0.411   13.885
  367.000   68.324    0.290    0.428   13.828
  367.250   67.188    0.300    0.431   13.508
  367.500   64.491    0.303    0.425   13.357
  367.750   66.447    0.292    0.425   13.055
  368.000   75.642    0.282    0.413   12.401
  368.250   79.394    0.272    0.404   11.643
  368.500   82.660    0.268    0.418   10.767
  368.750   86.076    0.265    0.429    9.968
  369.000   85.804    0.268    0.435    9.516
  369.250   79.978    0.285    0.467    8.609
  369.500   69.737    0.301    0.507    7.085
  369.750   59.154    0.305    0.478    7.685
  370.000   58.663    0.307    0.452    9.276
  370.250   58.551    0.312    0.446   10.571
  370.500   54.717    0.320    0.440   12.406
  370.750   52.370    0.324    0.426   14.467
  371.000   53.903    0.318    0.409   15.003
  371.250   58.412    0.319    0.400   15.245
  371.500   57.330    0.321    0.418   15.355
  371.750   56.040    0.315    0.436   14.990
  372.000   59.352    0.307    0.436   14.582
  372.250   61.696    0.304    0.426   14.334
  372.500   57.405    0.306    0.416   13.857
  372.750   52.496    0.307    0.418   13.608
  373.000   51.495    0.308    0.425   13.611
  373.250   55.555    0.312    0.423   13.471
  373.500   58.666    0.320    0.413   13.264
  373.750   57.895    0.325    0.417   12.965
  374.000   59.371    0.317    0.442   11.841
  374.250   66.014    0.290    0.451    9.746
  374.500   72.231    0.267    0.442    8.535
  374.750   79.464    0.256    0.470    7.629
  375.000   84.830    0.253    0.489    6.740
  375.250   85.984    0.253    0.466    6.370
  375.500   88.326    0.259    0.456    6.154
  375.750   94.386    0.265    0.454    5.280
  376.000  100.665    0.256    0.451    4.263
  376.250  104.187    0.223    0.487    3.611
  376.500  105.014    0.216    0.518    3.259
  376.750  104.847    0.238    0.519    3.052
  377.000  105.516    0.234    0.548    3.020
  377.250  107.708    0.233    0.584    3.018
  377.500  107.515    0.239    0.592    3.019
  377.750  105.053    0.248    0.588    3.011
  378.000  102.981    0.258    0.565    3.034
  378.250  104.321    0.257    0.533    3.080
  378.500  106.650    0.241    0.539    3.072
  378.750  101.050    0.240    0.567    3.027
  379.000   97.360    0.252    0.573    2.937
  379.250  101.228    0.261    0.569    2.842
  379.500  103.064    0.264    0.574    2.750
  379.750   98.179    0.266    0.591    2.668
  380.000   94.872    0.272    0.603    2.630
  380.250   93.748    0.275    0.583    2.628
  380.500   93.507    0.276    0.587    2.669
  380.750   94.252    0.275    0.593    2.918
  381.000   95.161    0.278    0.568    3.253
  381.250   95.581    0.278    0.539    3.595
  381.500   94.818    0.269    0.535    4.180
  381.750   90.651    0.266    0.518    5.189
  382.000   87.922    0.287    0.486    6.848
  382.250   86.736    0.304    0.483    7.956
  382.500   84.204    0.296    0.498    8.225
  382.750   80.594    0.281    0.496    8.095
  383.000   81.326    0.281    0.484    7.543
  383.250   89.332    0.285    0.482    6.745
  383.500   91.501    0.298    0.502    6.099
  383.750   87.962    0.305    0.506    6.078
  384.000   80.824    0.300    0.491    6.927
  384.250   74.207    0.293    0.477    8.029
  384.500   71.870    0.296    0.464    8.468
  384.750   66.288    0.327    0.462    8.482
  385.000   67.888    0.336    0.459    8.206
  385.250   76.433    0.311    0.427    6.762
  385.500   88.168    0.281    0.414    4.765
  385.750   98.183    0.276    0.442    3.498
  386.000  102.186    0.287    0.481    2.984
  386.250  105.256    0.276    0.553    2.702
  386.500  108.357    0.261    0.566    2.516
  386.750  111.224    0.262    0.563    2.182
  387.000  111.620    0.262    0.577    1.741
  387.250  107.656    0.251    0.572    1.358
  387.500  102.000    0.242    0.542    1.010
  387.750  100.207    0.243    0.520    0.724
  388.000  100.692    0.257    0.496    0.634
  388.250  100.514    0.272    0.515    0.611
  388.500   98.603    0.282    0.562    0.618
  388.750   96.984    0.288    0.595    0.679
  389.000   97.092    0.287    0.611    0.971
  389.250   95.249    0.272    0.588    2.111
  389.500   91.130    0.261    0.534    3.950
  389.750   88.153    0.256    0.471    5.117
  390.000   86.528    0.250    0.439    5.330
  390.250   87.183    0.246    0.455    5.132
  390.500   89.634    0.255    0.492    4.620
  390.750   87.005    0.267    0.522    3.916
  391.000   92.534    0.263    0.547    3.622
  391.250   96.492    0.267    0.570    3.603
  391.500   93.532    0.273    0.564    3.605
  391.750   90.495    0.267    0.528    3.725
  392.000   90.212    0.265    0.500    4.050
  392.250   89.135    0.279    0.486    4.269
  392.500   88.885    0.268    0.512    4.300
  392.750   88.897    0.258    0.538    4.626
  393.000   87.605    0.248    0.534    5.023
  393.250   87.520    0.232    0.510    5.420
  393.500   91.495    0.234    0.492    6.178
  393.750   94.756    0.239    0.487    6.620
  394.000   95.758    0.244    0.472    6.683
  394.250   95.494    0.242    0.455    6.590
  394.500   96.397    0.237    0.450    6.476
  394.750   99.627    0.236    0.445    6.378
  395.000  102.487    0.239    0.448    6.145
  395.250  101.452    0.243    0.494    5.560
  395.500  100.338    0.239    0.516    5.372
  395.750   93.613    0.237    0.517    5.352
  396.000   88.964    0.237    0.492    5.466
  396.250   90.963    0.235    0.461    5.736
  396.500   90.702    0.234    0.484    5.570
  396.750   92.062    0.233    0.515    4.791
  397.000   94.765    0.245    0.521    4.664
  397.250   93.496    0.274    0.500    5.035
  397.500   90.103    0.289    0.468    5.977
  397.750   89.624    0.280    0.439    7.260
  398.000   91.299    0.269    0.427    8.046
  398.250   91.088    0.258    0.451    8.627
  398.500   87.118    0.261    0.461    8.585
  398.750   81.420    0.122    0.501    8.517
  399.000   69.658    0.030    0.421    9.308
  399.250   57.782    0.133    0.281   10.848
  399.500   62.475    0.218    0.341   11.783
  399.750   77.458    0.247    0.374   10.944
  400.000   82.745    0.258    0.427    9.670
  400.250   82.618    0.261    0.435    9.083
  400.500   85.528    0.254    0.409    8.447
  400.750   90.212    0.245    0.409    7.588
  401.000   92.434    0.243    0.410    7.410
  401.250   92.885    0.255    0.422    7.159
  401.500   94.258    0.257    0.446    7.179
  401.750   95.269    0.260    0.450    7.435
  402.000   92.278    0.278    0.454    7.574
  402.250   85.129    0.293    0.466    7.542
  402.500   80.007    0.280    0.455    7.395
  402.750   83.243    0.255    0.442    6.915
  403.000   89.281    0.258    0.445    6.757
  403.250   92.864    0.256    0.435    6.508
  403.500   92.118    0.241    0.423    5.678
  403.750   89.376    0.238    0.439    4.647
  404.000   90.576    0.245    0.468    4.146
  404.250   98.025    0.238    0.490    4.200
  404.500  100.641    0.245    0.501    4.333
  404.750   99.607    0.252    0.512    4.559
  405.000   97.189    0.246    0.511    5.127
  405.250   94.282    0.246    0.483    5.914
