~VERSION INFORMATION
 VERS.                 2.0:   CWLS LOG ASCII STANDARD -VERSION 2.0
 WRAP.                  NO:   ONE LINE PER DEPTH STEP
~WELL INFORMATION BLOCK
#MNEM.UNIT           DATA                    DESCRIPTION OF MNEMONIC
#---------    -------------------            -------------------------------
# Generated from Intellog Unique Number	CS_67_68/WELL/637
WELL.         CANADIAN HOMESTEAD OIL         : Well_name    - WELL
LOC .         00/03-19-068-09W4/0            : Location     - LOCATION
UWI .         00/03-19-068-09W4/0            : Uwi          - UNIQUE WELL ID
ENTR.         SP                             : Entered      - ENTERED BY
SRVC.         SCHLUMBERGER                   : Scn          - SERVICE COMPANY
STRT.M        390                            : top_depth    - START DEPTH
STOP.M        609                            : bot_depth    - STOP DEPTH
STEP.M        0.25                           : increment    - STEP LENGTH
 NULL. -999.2500:NULL Value
~CURVE INFORMATION BLOCK
#MNEM UNIT       ERCB CURVE CODE    CURVE DESCRIPTION
#-----------   ------------------   ----------------------------------
DEPT.M        00 001 00 00         : DEPTH        - DEPTH
ILD .OHMM     00 120 00 00         : RESD         - DEEP RESISTIVITY (DIL)
DPHI.V/V      00 890 00 00         : PHID         - DENSITY POROSITY (LIMESTONE)
NPHI.V/V      00 330 00 00         : PHIN         - NEUTRON POROSITY (LIMESTONE)
GR  .API      00 310 00 00         : GR           - GAMMA RAY
~PARAMETER INFORMATION
#MNEM.UNIT           DATA             DESCRIPTION OF MNEMONIC
#---------         -----------     ------------------------------
GL  .M        702.5                : gl           - GROUND LEVEL ELEVATION
EREF.M        705.5                : kb           - ELEVATION OF DEPTH REFERENCE
DATM.M        702.5                : datum        - DATUM ELEVATION
TDD .M        624                  : tdd          - TOTAL DEPTH DRILLER
RUN .         ONE                  : Run          - RUN NUMBER
ENG .         BILL                 : Engineer     - RECORDING ENGINEER
WIT .         JIM                  : Witness      - WITNESSED BY
MUD .         GEL                  : Mud_type     - MUD TYPE
MATR.         LIMESTONE            : Logunit      - NEUTRON MATRIX
TMAX.C        23                   : BHT          - MAXIMUM RECORDED TEMPERATURE
BHTD.M        624                  : BHTDEP       - MAXIMUM RECORDED TEMPERATURE
MATR.         1                    : LOGUNIT      - NEUTRON MATRIX
RMT .C        25                   : MDTP         - TEMPERATURE OF MUD
NEUT.         1                    : NEUTRON      - NEUTRON TYPE
RESI.         0                    : RESIST       - RESISTIVITY TYPE
RMC .OHMM     0.25                 : RMC          - RESISTIVITY OF MUD CAKE
RMF .OHMM     0.25                 : RMF          - RESISTIVITY OF MUD FILTRATE
SUFT.C        15                   : SUFT         - SURFACE TEMPERATURE
~A  DEPTH     RESD     PHID     PHIN       GR
# ...
  520.500    1.962    0.373    0.518  122.422
  520.750    1.977    0.380    0.508  124.721
  521.000    2.184    0.387    0.518  120.975
  521.250    2.505    0.393    0.533  117.774
  521.500    2.894    0.374    0.534  114.090
  521.750    3.376    0.330    0.507  109.921
  522.000    3.793    0.280    0.475  111.556
  522.250    3.968    0.201    0.403  113.914
  522.500    4.293    0.199    0.328  109.444
  522.750    4.603    0.232    0.376  105.578
  523.000    4.797    0.267    0.419  106.789
  523.250    4.772    0.258    0.411  108.664
  523.500    4.615    0.238    0.386  109.149
  523.750    4.439    0.249    0.374  108.124
  524.000    4.269    0.257    0.386  104.802
  524.250    4.060    0.235    0.394   97.068
  524.500    3.956    0.186    0.380   97.916
  524.750    3.854    0.150    0.275  110.307
  525.000    3.820    0.143    0.277  117.561
  525.250    3.771    0.207    0.309  120.404
  525.500    3.723    0.241    0.344  119.681
  525.750    3.648    0.279    0.377  117.204
  526.000    3.528    0.283    0.403  112.493
  526.250    3.451    0.281    0.413  106.995
  526.500    3.375    0.280    0.410  100.772
  526.750    3.308    0.280    0.411   97.631
  527.000    3.309    0.283    0.414   95.457
  527.250    3.359    0.285    0.415   99.448
  527.500    3.476    0.284    0.415  104.043
  527.750    3.630    0.280    0.412  107.067
  528.000    3.734    0.284    0.412  105.558
  528.250    3.777    0.289    0.416  108.702
  528.500    3.814    0.275    0.423  111.363
  528.750    3.837    0.248    0.399  113.239
  529.000    3.838    0.230    0.354  113.543
  529.250    3.846    0.254    0.371  112.517
  529.500    3.847    0.283    0.387  111.432
  529.750    3.848    0.290    0.403  105.753
  530.000    3.849    0.295    0.419  101.463
  530.250    3.765    0.298    0.426  101.707
  530.500    3.628    0.292    0.422  105.335
  530.750    3.522    0.290    0.419  109.689
  531.000    3.413    0.294    0.420  113.015
  531.250    3.331    0.303    0.426  117.307
  531.500    3.252    0.306    0.431  116.705
  531.750    3.217    0.300    0.435  113.262
  532.000    3.182    0.294    0.435  110.786
  532.250    3.141    0.294    0.429  107.827
  532.500    3.072    0.300    0.425  104.988
  532.750    2.955    0.307    0.428  102.573
  533.000    2.928    0.302    0.433  103.602
  533.250    2.946    0.299    0.435  104.631
  533.500    2.991    0.301    0.432  103.424
  533.750    3.060    0.299    0.428   99.075
  534.000    3.118    0.287    0.429   95.451
  534.250    3.179    0.272    0.425   93.216
  534.500    3.215    0.259    0.413   99.141
  534.750    3.265    0.251    0.401  108.390
  535.000    3.278    0.250    0.389  119.210
  535.250    3.348    0.258    0.383  127.914
  535.500    3.374    0.264    0.389  125.801
  535.750    3.406    0.268    0.394  120.848
  536.000    3.407    0.271    0.398  117.948
  536.250    3.389    0.273    0.402  114.264
  536.500    3.371    0.273    0.404  111.667
  536.750    3.328    0.272    0.403  109.554
  537.000    3.292    0.274    0.401  109.737
  537.250    3.256    0.283    0.399  108.530
  537.500    3.221    0.293    0.402  105.994
  537.750    3.150    0.300    0.412  102.369
  538.000    3.098    0.283    0.420  100.014
  538.250    3.036    0.271    0.416   99.351
  538.500    2.882    0.263    0.401   99.353
  538.750    2.404    0.271    0.387  100.383
  539.000    1.979    0.293    0.399  100.808
  539.250    1.663    0.336    0.419  100.507
  539.500    1.476    0.366    0.453  101.476
  539.750    1.417    0.390    0.498  103.715
  540.000    1.394    0.408    0.539  105.590
  540.250    1.391    0.409    0.543  108.009
  540.500    1.400    0.406    0.541  110.126
  540.750    1.421    0.401    0.536  111.700
  541.000    1.454    0.395    0.531  111.037
  541.250    1.485    0.389    0.526  112.127
  541.500    1.510    0.385    0.521  114.788
  541.750    1.551    0.382    0.518  117.388
  542.000    1.569    0.385    0.516  120.352
  542.250    1.587    0.384    0.516  122.711
  542.500    1.608    0.377    0.516  123.075
  542.750    1.639    0.373    0.513  119.028
  543.000    1.665    0.377    0.508  116.250
  543.250    1.693    0.381    0.514  113.109
  543.500    1.716    0.384    0.520  109.787
  543.750    1.752    0.380    0.519  112.569
  544.000    1.783    0.374    0.515  116.439
  544.250    1.803    0.370    0.511  118.979
  544.500    1.831    0.372    0.506  120.129
  544.750    1.866    0.375    0.507  111.912
  545.000    1.982    0.364    0.507  101.277
  545.250    2.157    0.346    0.498  100.010
  545.500    2.520    0.323    0.472  104.665
  545.750    3.029    0.285    0.422  109.805
  546.000    3.409    0.248    0.387  113.312
  546.250    3.474    0.275    0.405  116.698
  546.500    2.992    0.290    0.418  120.809
  546.750    2.751    0.307    0.429  127.097
  547.000    2.437    0.324    0.441  131.510
  547.250    2.300    0.338    0.460  135.803
  547.500    2.224    0.353    0.479  138.646
  547.750    2.151    0.363    0.487  140.461
  548.000    2.076    0.361    0.486  139.677
  548.250    2.035    0.364    0.492  137.020
  548.500    2.020    0.370    0.502  136.357
  548.750    2.013    0.380    0.510  132.914
  549.000    2.003    0.388    0.520  129.713
  549.250    2.007    0.383    0.518  127.599
  549.500    2.030    0.354    0.474  132.376
  549.750    2.050    0.329    0.458  136.427
  550.000    2.066    0.330    0.457  133.105
  550.250    2.074    0.352    0.489  128.937
  550.500    2.075    0.372    0.514  131.598
  550.750    2.064    0.375    0.519  134.198
  551.000    2.053    0.371    0.507  128.580
  551.250    2.065    0.370    0.501  119.093
  551.500    2.307    0.370    0.508  108.035
  551.750    2.767    0.351    0.463   97.098
  552.000    3.114    0.319    0.430  102.479
  552.250    3.599    0.281    0.402  105.926
  552.500    4.027    0.249    0.379  101.939
  552.750    4.383    0.279    0.401   93.783
  553.000    4.734    0.295    0.416   89.312
  553.250    5.328    0.308    0.404   83.633
  553.500    5.712    0.150    0.327   82.245
  553.750    6.321    0.103    0.267   84.604
  554.000    7.414    0.073    0.215   87.627
  554.250    9.027    0.116    0.212   91.981
  554.500    9.934    0.168    0.257   95.730
  554.750    7.952    0.205    0.310   98.874
  555.000    6.913    0.225    0.346  101.293
  555.250    6.111    0.244    0.359  104.438
  555.500    5.535    0.272    0.387  108.368
  555.750    5.176    0.297    0.425  113.628
  556.000    4.950    0.266    0.413  123.239
  556.250    4.797    0.246    0.385  121.731
  556.500    4.700    0.257    0.375   95.201
  556.750    4.495    0.265    0.397   80.094
  557.000    4.267    0.256    0.399   71.514
  557.250    3.952    0.245    0.386   69.642
  557.500    3.641    0.237    0.375   75.144
  557.750    3.502    0.231    0.365   83.546
  558.000    3.419    0.228    0.357   96.482
  558.250    3.388    0.225    0.353  108.390
  558.500    3.357    0.223    0.351  116.913
  558.750    3.346    0.226    0.348  115.888
  559.000    3.347    0.232    0.355  113.774
  559.250    3.443    0.239    0.364  113.353
  559.500    3.562    0.244    0.369  112.932
  559.750    3.672    0.241    0.367  104.956
  560.000    3.700    0.238    0.365  109.854
  560.250    3.729    0.236    0.362  133.486
  560.500    3.709    0.241    0.384  145.092
  560.750    3.682    0.256    0.408  142.616
  561.000    3.656    0.284    0.430  128.838
  561.250    3.861    0.306    0.446  119.170
  561.500    4.070    0.294    0.433  109.382
  561.750    4.339    0.267    0.409  101.043
  562.000    4.557    0.247    0.392   97.056
  562.250    4.759    0.226    0.372  105.399
  562.500    4.951    0.204    0.330  110.900
  562.750    5.018    0.182    0.301  110.781
  563.000    4.991    0.207    0.346  102.564
  563.250    4.764    0.228    0.370   97.671
  563.500    4.438    0.246    0.363   96.101
  563.750    4.143    0.244    0.372   94.169
