~VERSION INFORMATION
 VERS.                 2.0:   CWLS LOG ASCII STANDARD -VERSION 2.0
 WRAP.                  NO:   ONE LINE PER DEPTH STEP
~WELL INFORMATION BLOCK
#MNEM.UNIT           DATA                    DESCRIPTION OF MNEMONIC
#---------    -------------------            -------------------------------
# Generated from Intellog Unique Number	CC_80_83/WELL/1168
NULL.         -999.25                        : NULL_VALUE
WELL.         CAVALIER ET AL ALGAR           : Well_name    - WELL
LOC .         06-35-080-18W4                 : Location     - LOCATION          
UWI .         00/06-35-080-18W4/0            : Uwi          - UNIQUE WELL ID    
ENTR.         DW                             : Entered      - ENTERED BY        
SRVC.         SCHLUMBERGER                   : Scn          - SERVICE COMPANY   
DATE.         08 MAR 78                      : Date         - LOG DATE
STRT.M        195.072                        : top_depth    - START DEPTH       
STOP.M        329.185                        : bot_depth    - STOP DEPTH        
STEP.M        0.305                          : increment    - STEP LENGTH       
~CURVE INFORMATION BLOCK
#MNEM UNIT       ERCB CURVE CODE    CURVE DESCRIPTION
#-----------   ------------------   ----------------------------------
DEPT.M        00 001 00 00         : DEPTH        - DEPTH                       
DPHI.V/V      00 890 00 00         : PHID         - DENSITY POROSITY (LIMESTONE)
NPHI.V/V      00 330 00 00         : PHIN         - NEUTRON POROSITY (LIMESTONE)
GR  .API      00 310 00 00         : GR           - GAMMA RAY                   
ILD .OHMM     00 120 00 00         : RESD         - DEEP RESISTIVITY (DIL)      
~PARAMETER INFORMATION       
#MNEM.UNIT           DATA             DESCRIPTION OF MNEMONIC
#---------         -----------     ------------------------------
GL  .M        550.469              : gl           - GROUND LEVEL ELEVATION      
EREF.M        553.517              : kb           - ELEVATION OF DEPTH REFERENCE
DATM.M        553.517              : datum        - DATUM ELEVATION             
TDD .M        329.184              : tdd          - TOTAL DEPTH DRILLER         
RUN .         ONE                  : Run          - RUN NUMBER                  
ENG .         BILL                 : Engineer     - RECORDING ENGINEER          
WIT .         JIM                  : Witness      - WITNESSED BY                
MUD .         GEL                  : Mud_type     - MUD TYPE                    
MATR.         LIMESTONE            : Logunit      - NEUTRON MATRIX              
TMAX.C        25                   : BHT          - MAXIMUM RECORDED TEMPERATURE
BHTD.M        329.184              : BHTDEP       - MAXIMUM RECORDED TEMPERATURE
MATR.         1                    : LOGUNIT      - NEUTRON MATRIX              
RMT .C        25                   : MDTP         - TEMPERATURE OF MUD          
NEUT.         1                    : NEUTRON      - NEUTRON TYPE                
RESI.         0                    : RESIST       - RESISTIVITY TYPE            
RMC .OHMM     0.25                 : RMC          - RESISTIVITY OF MUD CAKE     
RMF .OHMM     0.25                 : RMF          - RESISTIVITY OF MUD FILTRATE 
SUFT.C        15                   : SUFT         - SURFACE TEMPERATURE         
~A  DEPTH     PHID     PHIN       GR     RESD
  195.072    0.309    0.463   56.988   12.858
  195.377    0.302    0.447   55.207   11.748
  195.682    0.293    0.476   54.618   10.321
  195.986    0.291    0.476   55.828    9.529
  196.291    0.322    0.459   59.441    9.292
  196.596    0.292    0.451   65.467    9.373
  196.901    0.290    0.445   66.678    9.374
  197.206    0.328    0.467   67.889    8.899
  197.510    0.317    0.482   67.907    8.028
  197.815    0.310    0.476   67.922    7.950
  198.120    0.309    0.470   67.332    8.348
  198.425    0.302    0.495   66.745    9.461
  198.730    0.374    0.553   64.954   12.240
  199.034    0.554    0.603   57.761   14.305
  199.339    0.439    0.508   46.968   15.497
  199.644    0.311    0.470   46.982   15.895
  199.949    0.328    0.452   50.600   16.135
  200.254    0.337    0.485   53.615   16.533
  200.558    0.340    0.517   54.228   17.329
  200.863    0.354    0.487   56.644   17.965
  201.168    0.319    0.472   57.856   18.284
  201.473    0.295    0.464   54.870   20.313
  201.777    0.307    0.456   51.280   23.499
  202.082    0.304    0.465   50.094   19.002
  202.387    0.318    0.444   48.904   17.892
  202.692    0.323    0.448   45.916   19.402
  202.997    0.311    0.463   46.527   23.557
  203.301    0.289    0.454   46.544   27.541
  203.606    0.269    0.435   43.556   26.762
  203.911    0.221    0.343   41.770   19.963
  204.216    0.255    0.340   43.582   18.298
  204.521    0.325    0.406   50.201   17.506
  204.825    0.340    0.467   50.814   17.111
  205.130    0.320    0.442   47.222   16.874
  205.435    0.308    0.424   45.439   16.796
  205.740    0.338    0.441   49.055   16.718
  206.045    0.345    0.427   49.071   16.878
  206.349    0.337    0.421   48.480   17.118
  206.654    0.334    0.430   46.096   16.722
  206.959    0.347    0.469   45.504   16.327
  207.264    0.346    0.494   44.322   16.091
  207.569    0.338    0.481   44.329   16.092
  207.873    0.356    0.455   47.348   16.172
  208.178    0.355    0.439   47.357   16.253
  208.483    0.346    0.436   45.573   16.255
  208.788    0.339    0.446   44.986   16.257
  209.093    0.312    0.456   43.796   16.099
  209.397    0.334    0.465   43.207   15.941
  209.702    0.344    0.446   42.620   15.705
  210.007    0.357    0.450   43.837   15.468
  210.312    0.370    0.455   46.251   15.311
  210.617    0.353    0.457   46.864   15.153
  210.921    0.350    0.446   45.678   14.917
  211.226    0.348    0.439   46.898   14.680
  211.531    0.347    0.441   48.106   14.523
  211.836    0.361    0.477   48.119   14.445
  212.140    0.345    0.468   45.135   14.605
  212.445    0.351    0.451   44.542   14.686
  212.750    0.355    0.451   43.360   14.846
  213.055    0.346    0.468   43.369   14.848
  213.360    0.346    0.489   44.587   14.770
  213.664    0.340    0.508   44.599   14.771
  213.969    0.353    0.524   44.016   14.852
  214.274    0.354    0.514   43.428   14.933
  214.579    0.346    0.477   42.839   15.093
  214.884    0.352    0.490   42.250   15.253
  215.188    0.343    0.467   42.264   15.334
  215.493    0.331    0.469   42.875   15.335
  215.798    0.340    0.486   42.893   15.496
  216.103    0.331    0.502   42.303   15.576
  216.408    0.331    0.497   41.720   15.657
  216.712    0.342    0.492   41.733   15.658
  217.017    0.341    0.484   45.351   15.739
  217.322    0.337    0.459   47.162   15.899
  217.627    0.338    0.437   47.177   16.139
  217.932    0.338    0.433   46.596   16.617
  218.236    0.319    0.471   46.005   16.856
  218.541    0.323    0.493   45.414   17.334
  218.846    0.355    0.491   46.035   18.605
  219.151    0.367    0.484   47.243   78.290
  219.456    0.355    0.478   49.657   79.894
  219.760    0.323    0.456   46.069   57.682
  220.065    0.092    0.299   40.679   19.325
  220.370    0.000    0.144   36.490   17.263
  220.675    0.004    0.126   34.102   16.868
  220.980    0.032    0.158   33.512   16.631
  221.284    0.084    0.209   36.527   15.680
  221.589    0.163    0.318   48.551   14.491
  221.894    0.241    0.398   54.575   13.937
  222.199    0.289    0.441   56.984   14.335
  222.503    0.299    0.442   58.801   15.606
  222.808    0.268    0.431   58.813   19.735
  223.113    0.169    0.348   52.220   51.491
  223.418    0.043    0.190   43.228  105.476
  223.723    0.000    0.153   41.442  204.704
  224.027    0.010    0.139   42.059  207.098
  224.332    0.006    0.134   42.068  199.967
  224.637    0.005    0.135   41.490  177.762
  224.942    0.032    0.139   41.501  168.249
  225.247    0.001    0.140   41.513  155.565
  225.551    0.006    0.140   42.125  140.499
  225.856    0.014    0.141   42.739  107.973
  226.161    0.032    0.159   43.951   66.715
  226.466    0.080    0.204   44.562   21.490
  226.771    0.148    0.291   46.984   17.214
  227.075    0.254    0.336   50.597   15.390
  227.380    0.310    0.439   55.413   14.042
  227.685    0.295    0.464   56.630   13.885
  227.990    0.289    0.465   57.248   13.966
  228.295    0.324    0.474   56.657   13.967
  228.599    0.297    0.480   57.268   13.492
  228.904    0.290    0.483   57.887   13.494
  229.209    0.304    0.458   57.897   13.654
  229.514    0.299    0.452   56.711   13.655
  229.819    0.299    0.484   54.923   13.578
  230.123    0.305    0.493   53.738   13.500
  230.428    0.340    0.476   54.947   13.264
  230.733    0.315    0.473   56.761   13.185
  231.038    0.306    0.476   59.780   13.187
  231.343    0.345    0.483   60.391   13.267
  231.647    0.317    0.495   60.409   13.348
  231.952    0.311    0.495   59.223   13.508
  232.257    0.337    0.467   58.631   13.351
  232.562    0.325    0.458   58.646   12.162
  232.867    0.303    0.492   59.264   11.607
  233.171    0.287    0.492   59.271   10.498
  233.476    0.267    0.470   60.487    9.944
  233.781    0.251    0.470   63.500    9.469
  234.086    0.285    0.490   68.320    8.836
  234.390    0.298    0.486   71.337    8.281
  234.695    0.293    0.480   70.151    7.806
  235.000    0.264    0.489   71.965    7.412
  235.305    0.271    0.505   75.580    7.492
  235.610    0.263    0.483   78.601    7.573
  235.914    0.252    0.473   79.813    7.733
  236.219    0.236    0.485   79.822    7.973
  236.524    0.240    0.472   78.638    8.053
  236.829    0.244    0.466   76.849    8.452
  237.134    0.239    0.487   79.263    8.612
  237.438    0.247    0.475   79.275    8.534
  237.743    0.270    0.456   68.483    8.059
  238.048    0.274    0.443   65.492    7.902
  238.353    0.227    0.432   67.308    7.903
  238.658    0.266    0.449   66.723    8.381
  238.962    0.251    0.454   67.336    8.700
  239.267    0.239    0.450   69.750    8.780
  239.572    0.281    0.450   70.963    8.782
  239.877    0.272    0.458   69.777    8.307
  240.182    0.262    0.464   69.789    7.118
  240.486    0.251    0.467   78.209    5.929
  240.791    0.217    0.449   83.631    6.327
  241.096    0.205    0.437   84.841    7.281
  241.401    0.242    0.497   78.252    9.187
  241.706    0.263    0.524   74.059   11.967
  242.010    0.291    0.513   70.470   13.635
  242.315    0.291    0.504   67.489   14.033
  242.620    0.296    0.511   67.503   12.606
  242.925    0.257    0.511   68.119    9.194
  243.230    0.251    0.499   69.936    7.847
  243.534    0.263    0.482   71.143    6.737
  243.839    0.248    0.458   75.355    7.216
  244.144    0.227    0.492   82.578    7.375
  244.449    0.246    0.517   75.987    7.297
  244.753    0.268    0.537   76.600    7.060
  245.058    0.253    0.517   76.614    6.585
  245.363    0.241    0.490   78.429    6.190
  245.668    0.225    0.489   82.643    5.954
  245.973    0.219    0.503   85.057    6.194
  246.277    0.224    0.491   84.472    6.750
  246.582    0.253    0.493   81.485    6.989
  246.887    0.292    0.495   75.494    7.229
  247.192    0.299    0.494   76.103    7.469
  247.497    0.279    0.488   76.721    7.708
  247.801    0.265    0.490   78.533    8.106
