~VERSION INFORMATION
 VERS.                 2.0:   CWLS LOG ASCII STANDARD -VERSION 2.0
 WRAP.                  NO:   ONE LINE PER DEPTH STEP
~WELL INFORMATION BLOCK
#MNEM.UNIT           DATA                    DESCRIPTION OF MNEMONIC
#---------    -------------------            -------------------------------
# Generated from Intellog Unique Number	CS_69_70/WELL/850
NULL.         -999.25                        : NULL_VALUE
WELL.         KISSINGER POETROLEUMS          : Well_name    - WELL              
LOC .         00/07-35-070-11W4/0            : Location     - LOCATION          
UWI .         00/07-35-070-11W4/0            : Uwi          - UNIQUE WELL ID    
ENTR.         SP                             : Entered      - ENTERED BY        
SRVC.         SCHLUMBERGER                   : Scn          - SERVICE COMPANY   
STRT.M        290                            : top_depth    - START DEPTH       
STOP.M        515                            : bot_depth    - STOP DEPTH        
STEP.M        0.25                           : increment    - STEP LENGTH       
~CURVE INFORMATION BLOCK
#MNEM UNIT       ERCB CURVE CODE    CURVE DESCRIPTION
#-----------   ------------------   ----------------------------------
DEPT.M        00 001 00 00         : DEPTH        - DEPTH                       
ILD .OHMM     00 120 00 00         : RESD         - DEEP RESISTIVITY (DIL)      
DPHI.V/V      00 890 00 00         : PHID         - DENSITY POROSITY (LIMESTONE)
NPHI.V/V      00 330 00 00         : PHIN         - NEUTRON POROSITY (LIMESTONE)
GR  .API      00 310 00 00         : GR           - GAMMA RAY                   
~PARAMETER INFORMATION       
#MNEM.UNIT           DATA             DESCRIPTION OF MNEMONIC
#---------         -----------     ------------------------------
GL  .M        622                  : gl           - GROUND LEVEL ELEVATION      
EREF.M        625.35               : kb           - ELEVATION OF DEPTH REFERENCE
DATM.M        622                  : datum        - DATUM ELEVATION             
TDD .M        515                  : tdd          - TOTAL DEPTH DRILLER         
RUN .         ONE                  : Run          - RUN NUMBER                  
ENG .         BILL                 : Engineer     - RECORDING ENGINEER          
WIT .         JIM                  : Witness      - WITNESSED BY                
MUD .         GEL                  : Mud_type     - MUD TYPE                    
MATR.         LIMESTONE            : Logunit      - NEUTRON MATRIX              
TMAX.C        18                   : BHT          - MAXIMUM RECORDED TEMPERATURE
BHTD.M        515                  : BHTDEP       - MAXIMUM RECORDED TEMPERATURE
MATR.         1                    : LOGUNIT      - NEUTRON MATRIX              
RMT .C        25                   : MDTP         - TEMPERATURE OF MUD          
NEUT.         1                    : NEUTRON      - NEUTRON TYPE                
RESI.         0                    : RESIST       - RESISTIVITY TYPE            
RMC .OHMM     0.25                 : RMC          - RESISTIVITY OF MUD CAKE     
RMF .OHMM     0.25                 : RMF          - RESISTIVITY OF MUD FILTRATE 
SUFT.C        15                   : SUFT         - SURFACE TEMPERATURE         
~A  DEPTH     RESD     PHID     PHIN       GR
# ...
  377.000    9.535    0.334    0.393   73.010
  377.250    9.501    0.336    0.393   72.360
  377.500    9.443    0.318    0.383   71.768
  377.750    9.466    0.296    0.390   71.712
  378.000    9.496    0.313    0.402   71.972
  378.250    9.551    0.332    0.411   72.467
  378.500    9.556    0.336    0.414   73.076
  378.750    9.459    0.344    0.403   74.175
  379.000    9.290    0.356    0.390   74.853
  379.250    9.144    0.368    0.383   74.864
  379.500    9.126    0.383    0.380   73.485
  379.750    9.260    0.361    0.382   72.772
  380.000    9.435    0.345    0.394   73.388
  380.250    9.482    0.342    0.400   74.549
  380.500    8.783    0.354    0.408   76.678
  380.750    7.948    0.363    0.415   80.318
  381.000    7.313    0.360    0.417   84.806
  381.250    6.702    0.306    0.400   90.325
  381.500    6.163    0.271    0.404   93.480
  381.750    5.721    0.253    0.412   96.999
  382.000    5.847    0.248    0.423  101.127
  382.250    6.335    0.260    0.430  102.528
  382.500    7.167    0.279    0.419  102.119
  382.750    8.199    0.290    0.402   98.802
  383.000    8.727    0.317    0.390   93.248
  383.250    9.278    0.342    0.378   87.818
  383.500    9.589    0.347    0.366   84.924
  383.750   10.077    0.339    0.365   84.393
  384.000   10.941    0.329    0.372   83.799
  384.250   11.772    0.247    0.358   82.299
  384.500   12.284    0.140    0.290   80.316
  384.750   12.659    0.158    0.277   78.391
  385.000   12.922    0.219    0.326   77.315
  385.250   12.504    0.282    0.371   77.990
  385.500   11.164    0.347    0.408   80.845
  385.750   10.496    0.372    0.416   84.728
  386.000   10.038    0.346    0.402   86.555
  386.250    9.788    0.333    0.394   84.148
  386.500    9.666    0.324    0.380   85.309
  386.750    9.391    0.323    0.375   87.137
  387.000    9.262    0.329    0.388   88.297
  387.250    8.988    0.339    0.390   88.308
  387.500    9.147    0.345    0.380   87.654
  387.750    8.929    0.336    0.383   92.082
  388.000    8.599    0.260    0.394   95.661
  388.250    8.220    0.235    0.384   98.758
  388.500    7.858    0.242    0.378  100.829
  388.750    7.592    0.254    0.383  101.144
  389.000    7.390    0.241    0.394  100.972
  389.250    7.236    0.239    0.403  101.408
  389.500    7.202    0.243    0.410  102.571
  389.750    7.273    0.243    0.410  102.520
  390.000    7.368    0.238    0.410  100.958
  390.250    7.438    0.254    0.417  101.696
  390.500    7.308    0.254    0.424  104.551
  390.750    7.082    0.241    0.428  106.316
  391.000    6.768    0.237    0.425  106.813
  391.250    6.502    0.248    0.426  104.646
  391.500    6.340    0.257    0.441  106.110
  391.750    6.226    0.269    0.451  106.484
  392.000    6.209    0.263    0.450  105.771
  392.250    6.231    0.264    0.452  104.028
  392.500    6.261    0.274    0.453  101.016
  392.750    6.243    0.280    0.455   99.213
  393.000    6.218    0.287    0.448   98.136
  393.250    6.240    0.255    0.439   96.756
  393.500    6.335    0.241    0.431   97.675
  393.750    6.382    0.233    0.422  101.256
  394.000    6.412    0.233    0.416  104.837
  394.250    6.378    0.247    0.432  107.753
  394.500    6.313    0.249    0.437  106.251
  394.750    6.207    0.244    0.433  102.755
  395.000    5.955    0.242    0.435  105.731
  395.250    5.891    0.239    0.434  106.953
  395.500    5.705    0.239    0.429  106.481
  395.750    5.471    0.236    0.426  104.979
  396.000    5.365    0.238    0.436  106.141
  396.250    5.364    0.244    0.447  109.541
  396.500    5.410    0.250    0.455  112.396
  396.750    5.312    0.264    0.451  114.101
  397.000    4.212    0.273    0.441  111.510
  397.250    3.394    0.280    0.450  110.010
  397.500    2.679    0.293    0.476  115.708
  397.750    2.212    0.296    0.493  119.167
  398.000    1.842    0.284    0.496  111.438
  398.250    1.631    0.275    0.505  110.421
  398.500    1.694    0.275    0.481  109.162
  398.750    2.061    0.274    0.461  110.988
  399.000    2.629    0.254    0.442  114.448
  399.250    3.237    0.242    0.423  114.218
  399.500    3.764    0.252    0.417  110.602
  399.750    4.291    0.272    0.415  108.253
  400.000    4.618    0.269    0.412  108.084
  400.250    4.745    0.255    0.412  105.615
  400.500    4.703    0.241    0.415  107.261
  400.750    4.662    0.236    0.423  108.603
  401.000    4.820    0.248    0.441  105.651
  401.250    4.955    0.273    0.444  101.368
  401.500    5.002    0.290    0.427   99.203
  401.750    5.008    0.301    0.423   97.525
  402.000    4.990    0.313    0.431   96.443
  402.250    5.109    0.321    0.421   93.371
  402.500    5.332    0.310    0.426   89.753
  402.750    5.482    0.292    0.433   90.310
  403.000    5.537    0.288    0.433   90.927
  403.250    5.535    0.297    0.435   91.060
  403.500    5.470    0.311    0.434   90.647
  403.750    5.404    0.319    0.426   89.631
  404.000    5.410    0.329    0.436   89.522
  404.250    5.505    0.319    0.423   89.660
  404.500    5.711    0.303    0.409   90.698
  404.750    5.878    0.290    0.415   91.252
  405.000    6.005    0.281    0.420   91.326
  405.250    6.116    0.293    0.406   90.549
  405.500    6.026    0.309    0.393   88.807
  405.750    5.792    0.321    0.378   87.306
  406.000    5.646    0.328    0.370   85.806
  406.250    5.652    0.331    0.371   84.971
  406.500    5.755    0.317    0.366   84.801
  406.750    5.882    0.286    0.356   88.260
  407.000    6.081    0.265    0.353   94.683
  407.250    6.215    0.269    0.372  100.865
  407.500    6.157    0.275    0.389  105.111
  407.750    6.100    0.285    0.402  103.732
  408.000    5.473    0.272    0.382  103.444
  408.250    5.175    0.267    0.375  105.086
  408.500    5.237    0.264    0.357  105.400
  408.750    6.173    0.139    0.338  102.510
  409.000    8.216    0.036    0.323   98.893
  409.250    9.176    0.094    0.256   94.850
  409.500    8.918    0.150    0.220   85.548
  409.750    5.967    0.190    0.224   81.023
  410.000    4.618    0.207    0.225   89.261
  410.250    3.791    0.225    0.386   95.141
  410.500    3.445    0.247    0.403  100.112
  410.750    3.387    0.271    0.410  101.879
  411.000    3.482    0.268    0.401  102.920
  411.250    3.640    0.280    0.403  103.292
  411.500    3.775    0.270    0.409  102.820
  411.750    4.069    0.260    0.394  103.619
  412.000    4.141    0.250    0.403  105.809
  412.250    4.227    0.244    0.400  107.454
  412.500    4.314    0.246    0.405  108.859
  412.750    4.344    0.254    0.419  108.868
  413.000    4.334    0.254    0.411  106.704
  413.250    4.309    0.238    0.401  103.694
  413.500    4.203    0.226    0.396  101.707
  413.750    4.194    0.227    0.391  101.778
  414.000    4.200    0.221    0.400  103.120
  414.250    4.190    0.227    0.411  104.947
  414.500    4.213    0.237    0.412  108.346
  414.750    4.211    0.228    0.408  110.293
  415.000    4.194    0.234    0.418  106.493
  415.250    4.160    0.229    0.431  108.017
  415.500    4.126    0.227    0.442  109.845
  415.750    4.076    0.223    0.443  108.587
  416.000    4.051    0.215    0.424  107.266
  416.250    4.009    0.222    0.423  107.341
  416.500    3.991    0.225    0.424  108.017
  416.750    4.006    0.216    0.416  108.573
  417.000    3.989    0.216    0.427  109.679
  417.250    3.843    0.222    0.417  110.110
  417.500    3.649    0.233    0.421  111.391
  417.750    3.543    0.249    0.427  112.129
  418.000    3.493    0.259    0.428  110.991
  418.250    3.508    0.252    0.426  107.977
  418.500    3.586    0.247    0.440  108.232
  418.750    3.680    0.258    0.451  111.693
  419.000    3.735    0.264    0.462  112.792
  419.250    3.725    0.251    0.475  111.292
  419.500    3.708    0.246    0.491  109.429
  419.750    3.658    0.251    0.470  107.323
  420.000    3.569    0.225    0.453  109.210
  420.250    3.319    0.216    0.439  107.105
