~VERSION INFORMATION
 VERS.                 2.0:   CWLS LOG ASCII STANDARD -VERSION 2.0
 WRAP.                  NO:   ONE LINE PER DEPTH STEP
~WELL INFORMATION BLOCK
#MNEM.UNIT           DATA                    DESCRIPTION OF MNEMONIC
#---------    -------------------            -------------------------------
# Generated from Intellog Unique Number	CS_73_76/WELL/702
WELL.         AMOCO AEC IPIATIK              : Well_name    - WELL
LOC .         00/07-03-073-06W4/0            : Location     - LOCATION
UWI .         00/07-03-073-06W4/0            : Uwi          - UNIQUE WELL ID
ENTR.         SP                             : Entered      - ENTERED BY
SRVC.         SCHLUMBERGER                   : Scn          - SERVICE COMPANY
STRT.M        315                            : top_depth    - START DEPTH
STOP.M        560                            : bot_depth    - STOP DEPTH
STEP.M        0.25                           : increment    - STEP LENGTH
 NULL. -999.2500:NULL Value
~CURVE INFORMATION BLOCK
#MNEM UNIT       ERCB CURVE CODE    CURVE DESCRIPTION
#-----------   ------------------   ----------------------------------
DEPT.M        00 001 00 00         : DEPTH        - DEPTH
ILD .OHMM     00 120 00 00         : RESD         - DEEP RESISTIVITY (DIL)
DPHI.V/V      00 890 00 00         : PHID         - DENSITY POROSITY (LIMESTONE)
NPHI.V/V      00 330 00 00         : PHIN         - NEUTRON POROSITY (LIMESTONE)
GR  .API      00 310 00 00         : GR           - GAMMA RAY
~PARAMETER INFORMATION
#MNEM.UNIT           DATA             DESCRIPTION OF MNEMONIC
#---------         -----------     ------------------------------
GL  .M        703.68               : gl           - GROUND LEVEL ELEVATION
EREF.M        702.89               : kb           - ELEVATION OF DEPTH REFERENCE
DATM.M        703.68               : datum        - DATUM ELEVATION
TDD .M        578                  : tdd          - TOTAL DEPTH DRILLER
RUN .         ONE                  : Run          - RUN NUMBER
ENG .         BILL                 : Engineer     - RECORDING ENGINEER
WIT .         JIM                  : Witness      - WITNESSED BY
MUD .         GEL                  : Mud_type     - MUD TYPE
MATR.         LIMESTONE            : Logunit      - NEUTRON MATRIX
TMAX.C        17                   : BHT          - MAXIMUM RECORDED TEMPERATURE
BHTD.M        578                  : BHTDEP       - MAXIMUM RECORDED TEMPERATURE
MATR.         1                    : LOGUNIT      - NEUTRON MATRIX
RMT .C        25                   : MDTP         - TEMPERATURE OF MUD
NEUT.         1                    : NEUTRON      - NEUTRON TYPE
RESI.         0                    : RESIST       - RESISTIVITY TYPE
RMC .OHMM     0.25                 : RMC          - RESISTIVITY OF MUD CAKE
RMF .OHMM     0.25                 : RMF          - RESISTIVITY OF MUD FILTRATE
SUFT.C        15                   : SUFT         - SURFACE TEMPERATURE
~A  DEPTH     RESD     PHID     PHIN       GR
# ...
  402.000    5.002    0.332    0.465   62.014
  402.250    4.907    0.347    0.465   62.014
  402.500    4.904    0.337    0.456   63.222
  402.750    4.900    0.337    0.445   63.826
  403.000    5.176    0.334    0.440   64.430
  403.250    5.468    0.330    0.447   64.429
  403.500    5.776    0.316    0.454   63.219
  403.750    5.990    0.296    0.463   62.008
  404.000    6.211    0.259    0.451   57.774
  404.250    6.092    0.257    0.429   54.144
  404.500    5.653    0.307    0.399   51.724
  404.750    5.245    0.331    0.431   58.981
  405.000    4.868    0.339    0.448   61.400
  405.250    4.601    0.337    0.451   63.213
  405.500    4.430    0.333    0.470   64.422
  405.750    4.266    0.330    0.471   65.026
  406.000    4.263    0.347    0.482   66.235
  406.250    4.260    0.342    0.480   68.653
  406.500    4.256    0.335    0.471   69.862
  406.750    4.333    0.335    0.491   71.071
  407.000    4.409    0.325    0.488   69.861
  407.250    4.407    0.316    0.484   69.255
  407.500    4.486    0.313    0.484   69.859
  407.750    4.566    0.308    0.499   72.278
  408.000    4.563    0.310    0.496   74.696
  408.250    4.559    0.318    0.491   77.719
  408.500    4.555    0.310    0.510   80.743
  408.750    4.553    0.301    0.537   81.347
  409.000    4.304    0.280    0.561   83.765
  409.250    4.144    0.275    0.572   84.370
  409.500    4.296    0.287    0.553   84.369
  409.750    4.455    0.298    0.536   83.158
  410.000    4.621    0.304    0.518   76.504
  410.250    4.792    0.307    0.510   78.318
  410.500    4.968    0.291    0.506   81.946
  410.750    5.058    0.319    0.498   83.155
  411.000    5.055    0.337    0.485   83.154
  411.250    4.957    0.325    0.475   81.339
  411.500    4.774    0.313    0.462   77.709
  411.750    4.682    0.315    0.484   75.289
  412.000    4.594    0.314    0.469   75.288
  412.250    4.590    0.326    0.483   74.682
  412.500    4.500    0.340    0.489   71.053
  412.750    4.415    0.332    0.479   66.213
  413.000    4.413    0.331    0.477   67.422
  413.250    4.410    0.336    0.475   67.421
  413.500    4.406    0.346    0.466   68.025
  413.750    4.404    0.336    0.453   72.863
  414.000    4.482    0.324    0.450   75.886
  414.250    4.478    0.312    0.452   81.329
  414.500    4.475    0.310    0.460   83.748
  414.750    4.472    0.321    0.473   85.561
  415.000    4.387    0.330    0.473   85.561
  415.250    4.304    0.312    0.475   86.164
  415.500    3.993    0.295    0.486   89.793
  415.750    3.844    0.274    0.511   95.235
  416.000    3.842    0.260    0.551   96.444
  416.250    3.838    0.277    0.589   95.839
  416.500    3.981    0.286    0.592   90.394
  416.750    4.362    0.296    0.540   86.159
  417.000    4.609    0.304    0.501   81.925
  417.250    4.780    0.312    0.513   77.085
  417.500    5.048    0.321    0.526   75.270
  417.750    5.140    0.326    0.498   76.479
  418.000    5.041    0.318    0.467   79.502
  418.250    4.854    0.308    0.483   81.316
  418.500    4.674    0.295    0.508   82.525
  418.750    4.419    0.291    0.529   83.129
  419.000    3.952    0.283    0.532   84.338
  419.250    3.600    0.280    0.530   87.361
  419.500    3.340    0.283    0.535   88.570
  419.750    3.277    0.283    0.553   89.174
  420.000    3.335    0.292    0.562   88.568
  420.250    3.395    0.299    0.547   87.358
  420.500    3.653    0.284    0.535   87.962
  420.750    3.930    0.286    0.539   89.170
  421.000    4.076    0.299    0.534   89.775
  421.250    4.305    0.307    0.530   90.379
  421.500    4.383    0.300    0.523   89.773
  421.750    4.459    0.308    0.516   88.563
  422.000    4.456    0.303    0.520   90.376
  422.250    4.372    0.301    0.535   90.376
  422.500    4.288    0.286    0.545   87.955
  422.750    4.207    0.272    0.551   87.350
  423.000    4.052    0.263    0.541   86.744
  423.250    3.902    0.284    0.534   87.953
  423.500    3.757    0.296    0.545   95.210
  423.750    3.685    0.302    0.552   96.419
  424.000    4.039    0.301    0.548   95.813
  424.250    4.680    0.303    0.551   92.183
  424.500    5.227    0.307    0.575   87.949
  424.750    5.730    0.313    0.579   84.924
  425.000    6.398    0.313    0.554   83.108
  425.250    6.885    0.342    0.536   80.688
  425.500    7.272    0.347    0.553   82.502
  425.750    7.403    0.317    0.554   85.525
  426.000    7.397    0.279    0.495   89.154
  426.250    7.257    0.260    0.484   87.943
  426.500    7.119    0.262    0.487   89.152
  426.750    6.725    0.272    0.488   89.756
  427.000    6.476    0.279    0.501   87.336
  427.250    6.237    0.290    0.522   84.916
  427.500    6.007    0.325    0.537   84.915
  427.750    5.786    0.304    0.546   81.285
  428.000    5.269    0.302    0.550   80.679
  428.250    4.890    0.306    0.536   81.283
  428.500    4.537    0.344    0.548   80.073
  428.750    4.209    0.390    0.564   81.282
  429.000    4.055    0.425    0.584   84.305
  429.250    3.904    0.415    0.586   88.538
  429.500    3.830    0.367    0.579   90.352
  429.750    3.687    0.338    0.588   92.165
  430.000    3.617    0.316    0.598   93.374
  430.250    3.614    0.329    0.608   95.793
  430.500    3.611    0.351    0.597   97.606
  430.750    3.609    0.328    0.580   98.815
  431.000    3.673    0.321    0.592  100.024
  431.250    3.671    0.316    0.590  100.628
  431.500    3.737    0.309    0.568   98.813
  431.750    3.734    0.305    0.564   95.788
  432.000    4.407    0.323    0.553   91.553
  432.250    4.656    0.316    0.538   88.528
  432.500    5.011    0.300    0.522   86.713
  432.750    5.390    0.301    0.507   85.503
  433.000    5.488    0.307    0.515   84.897
  433.250    5.383    0.322    0.528   84.896
  433.500    5.379    0.287    0.533   86.105
  433.750    5.180    0.284    0.522   85.499
  434.000    5.176    0.296    0.522   84.894
  434.250    5.672    0.299    0.519   83.683
  434.500    6.104    0.305    0.534   84.287
  434.750    6.450    0.311    0.538   82.472
  435.000    6.940    0.318    0.522   78.842
  435.250    7.466    0.299    0.506   75.817
  435.500    7.602    0.270    0.487   75.816
  435.750    7.595    0.249    0.484   79.444
  436.000    7.590    0.248    0.486   80.049
  436.250    7.310    0.284    0.501   80.047
  436.500    6.783    0.304    0.507   79.442
  436.750    6.902    0.322    0.512   76.417
  437.000    7.027    0.324    0.513   75.811
  437.250    7.422    0.326    0.505   75.810
  437.500    7.556    0.322    0.492   76.414
  437.750    7.690    0.310    0.483   76.413
  438.000    7.686    0.311    0.478   76.413
  438.250    7.680    0.320    0.490   77.017
  438.500    7.534    0.333    0.500   77.016
  438.750    7.391    0.321    0.510   77.620
  439.000    6.985    0.299    0.510   77.619
  439.250    6.981    0.282    0.493   78.828
  439.500    6.975    0.268    0.477   82.456
  439.750    7.098    0.271    0.484   83.665
  440.000    7.227    0.271    0.486   84.269
  440.250    7.492    0.282    0.484   83.059
  440.500    7.628    0.299    0.486   78.219
  440.750    7.766    0.321    0.476   73.985
  441.000    7.903    0.321    0.475   70.960
  441.250    8.046    0.315    0.471   69.144
  441.500    8.041    0.309    0.464   73.982
  441.750    7.888    0.322    0.474   77.005
  442.000    7.594    0.316    0.482   80.029
  442.250    7.312    0.304    0.491   84.866
  442.500    7.042    0.298    0.498   87.285
  442.750    6.657    0.277    0.505   90.308
  443.000    6.530    0.266    0.511   92.122
  443.250    6.769    0.253    0.502   92.726
  443.500    6.766    0.254    0.493   93.330
  443.750    6.886    0.265    0.486   89.701
  444.000    6.882    0.257    0.482   92.119
  444.250    6.627    0.243    0.482   92.723
  444.500    6.150    0.239    0.464   90.303
  444.750    5.398    0.259    0.456   87.883
  445.000    4.737    0.270    0.445   85.463
  445.250    4.563    0.288    0.489   84.857
