~VERSION INFORMATION
 VERS.                 2.0:   CWLS LOG ASCII STANDARD -VERSION 2.0
 WRAP.                  NO:   ONE LINE PER DEPTH STEP
~WELL INFORMATION BLOCK
#MNEM.UNIT           DATA                    DESCRIPTION OF MNEMONIC
#---------    -------------------            -------------------------------
# Generated from Intellog Unique Number	CW_82_90/WELL/3067
WELL.         PARAMOUNT ET AL LIVOCK         : Well_name    - WELL
LOC .         00/07-29-086-21W4/0            : Location     - LOCATION
UWI .         00/07-29-086-21W4/0            : Uwi          - UNIQUE WELL ID
ENTR.         MAX                            : Entered      - ENTERED BY
SRVC.         COMPUTALOG                     : Scn          - SERVICE COMPANY
STRT.M        188.976                        : top_depth    - START DEPTH
STOP.M        368.726                        : bot_depth    - STOP DEPTH
STEP.M        0.25                           : increment    - STEP LENGTH
 NULL. -999.2500:NULL Value
~CURVE INFORMATION BLOCK
#MNEM UNIT       ERCB CURVE CODE    CURVE DESCRIPTION
#-----------   ------------------   ----------------------------------
DEPT.M        00 001 00 00         : DEPTH        - DEPTH
ILD .OHMM     00 120 00 00         : RESD         - DEEP RESISTIVITY (DIL)
NPHI.V/V      00 330 00 00         : PHIN         - NEUTRON POROSITY (SANDSTONE)
DPHI.V/V      00 890 00 00         : PHID         - DENSITY POROSITY (SANDSTONE)
CALI.MM       00 280 01 00         : CAL          - CALIPER
GR  .API      00 310 00 00         : GR           - GAMMA RAY
~PARAMETER INFORMATION
#MNEM.UNIT           DATA             DESCRIPTION OF MNEMONIC
#---------         -----------     ------------------------------
GL  .M        575.158              : gl           - GROUND LEVEL ELEVATION
EREF.M        578.206              : kb           - ELEVATION OF DEPTH REFERENCE
DATM.M        575.158              : datum        - DATUM ELEVATION
TDD .M        370.637              : tdd          - TOTAL DEPTH DRILLER
RUN .         ONE                  : Run          - RUN NUMBER
ENG .         BILL                 : Engineer     - RECORDING ENGINEER
WIT .         JIM                  : Witness      - WITNESSED BY
MUD .         GEL                  : Mud_type     - MUD TYPE
MATR.         SANDSTONE            : Logunit      - NEUTRON MATRIX
TMAX.C        16.6667              : BHT          - MAXIMUM RECORDED TEMPERATURE
BHTD.M        370.637              : BHTDEP       - MAXIMUM RECORDED TEMPERATURE
MATR.         1                    : LOGUNIT      - NEUTRON MATRIX
RMT .C        11.1111              : MDTP         - TEMPERATURE OF MUD
NEUT.         1                    : NEUTRON      - NEUTRON TYPE
RESI.         0                    : RESIST       - RESISTIVITY TYPE
RMC .OHMM     1.9                  : RMC          - RESISTIVITY OF MUD CAKE
RMF .OHMM     1.6                  : RMF          - RESISTIVITY OF MUD FILTRATE
SUFT.C        -26.1111             : SUFT         - SURFACE TEMPERATURE
~A  DEPTH     RESD     PHIN     PHID      CAL       GR
# ...
  225.476    6.104    0.455    0.348  153.756   88.583
  225.726    6.540    0.458    0.361  153.808   86.579
  225.976    6.937    0.420    0.310  154.355   87.196
  226.226    7.215    0.393    0.255  154.414   91.009
  226.476    7.495    0.384    0.261  153.482   91.626
  226.726    7.695    0.389    0.266  152.049   85.838
  226.976    7.975    0.388    0.260  151.105   84.706
  227.226    8.332    0.355    0.248  150.180   80.380
  227.476    8.768    0.369    0.241  150.232   79.830
  227.726    9.321    0.392    0.269  152.265   85.678
  227.976    9.639    0.367    0.272  152.323   85.128
  228.226    9.724    0.365    0.299  152.369   84.586
  228.476    9.689    0.394    0.293  151.438   85.777
  228.726    9.578    0.395    0.286  151.490   84.355
  228.976    9.387    0.400    0.277  152.037   80.606
  229.226    9.080    0.406    0.257  153.080   83.840
  229.476    8.733    0.415    0.249  154.129   79.219
  229.726    8.190    0.421    0.244  156.657   80.996
  229.976    7.413    0.426    0.235  158.214   83.358
  230.226    6.441    0.432    0.254  158.253   85.429
  230.476    5.860    0.445    0.263  161.778   88.664
  230.726    5.787    0.445    0.272  161.329   87.528
  230.976    6.419    0.435    0.283  158.912   87.269
  231.226    6.542    0.408    0.294  154.514   78.868
  231.476    6.664    0.420    0.292  153.576   73.956
  231.726    6.826    0.430    0.288  153.635   75.732
  231.976    6.948    0.418    0.286  151.707   71.987
  232.226    7.071    0.415    0.288  150.768   74.055
  232.476    7.194    0.424    0.285  150.319   72.923
  232.726    7.003    0.436    0.268  152.358   75.576
  232.976    6.422    0.443    0.254  154.398   77.062
  233.226    5.686    0.426    0.238  156.431   71.859
  233.476    5.574    0.453    0.234  161.434   72.477
  233.726    5.695    0.457    0.322  165.943   73.090
  233.976    6.093    0.444    0.304  163.526   69.927
  234.226    6.527    0.433    0.248  158.131   72.863
  234.476    7.119    0.421    0.242  153.727   79.005
  234.726    7.594    0.399    0.230  152.294   76.719
  234.976    7.717    0.404    0.271  151.871   75.870
  235.226    7.723    0.407    0.294  151.910   75.328
  235.476    7.649    0.410    0.296  153.448   78.850
  235.726    7.382    0.404    0.292  155.494   82.957
  235.976    6.995    0.408    0.285  158.523   86.769
  236.226    6.023    0.419    0.263  160.549   89.414
  236.476    5.207    0.442    0.242  163.573   92.071
  236.726    4.821    0.455    0.294  163.136   91.808
  236.976    4.474    0.469    0.305  163.188   90.967
  237.226    4.794    0.463    0.312  162.250   91.003
  237.476    5.111    0.427    0.287  161.312   86.963
  237.726    5.508    0.401    0.267  159.384   80.016
  237.976    5.983    0.380    0.257  155.970   73.940
  238.226    6.457    0.369    0.250  154.544   67.283
  238.476    7.362    0.361    0.237  155.098   63.535
  238.726    7.719    0.364    0.231  155.638   60.371
  238.976    8.467    0.393    0.272  155.704   58.077
  239.226    8.904    0.372    0.296  155.261   55.200
  239.476    9.260    0.360    0.307  154.824   53.200
  239.726    9.813    0.364    0.318  155.372   52.646
  239.976   10.288    0.364    0.333  155.926   53.841
  240.226   10.685    0.365    0.337  156.460   57.658
  240.476   10.651    0.379    0.332  157.522   61.474
  240.726   10.265    0.393    0.321  158.069   64.995
  240.976    9.645    0.417    0.315  158.109   70.843
  241.226    8.243    0.441    0.308  159.158   79.313
  241.476    6.879    0.453    0.312  161.692   88.367
  241.726    5.008    0.445    0.322  165.204   83.451
  241.976    4.856    0.439    0.331  159.823   77.085
  242.226    5.253    0.433    0.329  152.943   68.393
  242.476    5.766    0.422    0.321  151.503   60.572
  242.726    6.749    0.402    0.308  150.565   64.094
  242.976    8.045    0.388    0.312  150.624   64.126
  243.226    9.107    0.396    0.326  150.689   59.214
  243.476    9.348    0.420    0.330  151.230   56.050
  243.726    9.391    0.430    0.334  150.787   57.253
  243.976    9.358    0.436    0.328  148.859   58.735
  244.226    9.011    0.436    0.320  146.435   62.257
  244.476    8.116    0.432    0.308  151.445   68.395
  244.726    6.831    0.436    0.317  153.980   75.992
  244.976    6.095    0.421    0.328  154.521   81.557
  245.226    5.982    0.402    0.338  154.084   82.171
  245.476    6.613    0.376    0.340  154.137   77.836
  245.726    7.870    0.352    0.298  155.179   67.690
  245.976    8.657    0.290    0.236  157.219   61.324
  246.226    9.444    0.300    0.192  156.280   63.682
  246.476    9.685    0.338    0.257  154.847   64.594
  246.726    9.339    0.366    0.285  152.932   66.076
  246.976    8.874    0.378    0.291  152.984   73.091
  247.226    8.725    0.372    0.292  153.532   75.449
  247.476    8.807    0.412    0.300  153.584   70.541
  247.726    9.087    0.407    0.300  154.138   73.776
  247.976    9.482    0.413    0.302  155.675   69.732
  248.226   10.270    0.403    0.303  158.210   65.987
  248.476   11.018    0.387    0.297  157.767   65.147
  248.726   12.001    0.364    0.281  157.324   65.178
  248.976   12.789    0.333    0.246  157.376   64.632
  249.226   13.421    0.295    0.195  156.438   60.880
  249.476   13.348    0.217    0.118  157.481   55.386
  249.726   13.196    0.222    0.140  158.028   63.859
  249.976   12.812    0.265    0.155  158.589   69.122
  250.226   12.151    0.316    0.217  159.136   76.137
  250.476   10.436    0.355    0.231  159.683   81.403
  250.726    8.916    0.381    0.227  160.231   88.709
  250.976    8.414    0.398    0.231  160.785   93.107
  251.226    8.262    0.404    0.230  160.335   96.923
  251.476    8.189    0.404    0.232  160.394   94.334
  251.726    8.195    0.396    0.229  160.954   89.713
  251.976    8.161    0.376    0.226  161.489   91.493
  252.226    8.128    0.390    0.230  162.043   88.330
  252.476    8.093    0.414    0.232  163.580   87.198
  252.726    7.944    0.419    0.226  163.144   87.226
  252.976    7.869    0.410    0.229  162.701   87.847
  253.226    7.836    0.395    0.228  161.274   86.130
  253.476    7.880    0.385    0.223  160.343   83.549
  253.726    7.964    0.399    0.224  159.405   82.708
  253.976    8.047    0.391    0.227  159.952   85.648
  254.226    8.092    0.367    0.230  160.506   84.520
  254.476    8.059    0.371    0.232  160.558   82.803
  254.726    8.025    0.408    0.233  160.617   79.345
  254.976    8.148    0.419    0.227  160.663   84.034
  255.226    8.231    0.410    0.228  160.213   83.193
  255.476    8.197    0.398    0.234  157.797   82.938
  255.726    7.968    0.414    0.230  157.354   86.173
  255.976    7.386    0.411    0.225  158.403   87.073
  256.226    6.805    0.406    0.219  161.426   87.396
  256.476    6.499    0.403    0.214  162.976   90.630
  256.726    6.738    0.399    0.213  163.016   94.152
  256.976    7.173    0.394    0.221  163.074   88.076
  257.226    7.804    0.389    0.228  163.127   84.623
  257.476    8.592    0.374    0.225  163.179   84.949
  257.726    9.419    0.353    0.218  161.752   82.359
  257.976   10.597    0.331    0.199  159.335   72.794
  258.226   11.541    0.281    0.160  157.407   58.867
  258.476   12.563    0.068    0.124  157.961   46.972
  258.726   13.585    0.047    0.111  156.528   37.988
  258.976   13.669    0.143    0.282  154.593   41.514
  259.226   12.697    0.331    0.315  152.169   45.035
  259.476   10.434    0.353    0.316  151.238   51.764
  259.726    9.814    0.364    0.309  151.290   50.919
  259.976    9.389    0.350    0.301  151.349   49.791
  260.226    8.925    0.353    0.291  151.903   60.583
  260.476    8.148    0.347    0.284  153.440   76.904
  260.726    7.410    0.388    0.267  155.968   81.593
  260.976    6.281    0.386    0.243  158.503   84.828
  261.226    5.701    0.397    0.232  161.031   86.600
  261.476    5.510    0.400    0.224  163.552   90.126
  261.726    5.359    0.395    0.217  166.595   94.524
