~VERSION INFORMATION
 VERS.                 2.0:   CWLS LOG ASCII STANDARD -VERSION 2.0
 WRAP.                  NO:   ONE LINE PER DEPTH STEP
~WELL INFORMATION BLOCK
#MNEM.UNIT           DATA                    DESCRIPTION OF MNEMONIC
#---------    -------------------            -------------------------------
# Generated from Intellog Unique Number	CS_67_68/WELL/785
WELL.         CANADIAN HOMESTEAD OILS        : Well_name    - WELL
LOC .         00/07-36-068-10W4/0            : Location     - LOCATION
UWI .         00/07-36-068-10W4/0            : Uwi          - UNIQUE WELL ID
ENTR.         SP                             : Entered      - ENTERED BY
SRVC.         SCHLUMBERGER                   : Scn          - SERVICE COMPANY
STRT.M        445                            : top_depth    - START DEPTH
STOP.M        665                            : bot_depth    - STOP DEPTH
STEP.M        0.25                           : increment    - STEP LENGTH
 NULL. -999.2500:NULL Value
~CURVE INFORMATION BLOCK
#MNEM UNIT       ERCB CURVE CODE    CURVE DESCRIPTION
#-----------   ------------------   ----------------------------------
DEPT.M        00 001 00 00         : DEPTH        - DEPTH
ILD .OHMM     00 120 00 00         : RESD         - DEEP RESISTIVITY (DIL)
DPHI.V/V      00 890 00 00         : PHID         - DENSITY POROSITY (LIMESTONE)
NPHI.V/V      00 330 00 00         : PHIN         - NEUTRON POROSITY (LIMESTONE)
GR  .API      00 310 00 00         : GR           - GAMMA RAY
~PARAMETER INFORMATION
#MNEM.UNIT           DATA             DESCRIPTION OF MNEMONIC
#---------         -----------     ------------------------------
GL  .M        768.6                : gl           - GROUND LEVEL ELEVATION
EREF.M        761.69               : kb           - ELEVATION OF DEPTH REFERENCE
DATM.M        768.6                : datum        - DATUM ELEVATION
TDD .M        667                  : tdd          - TOTAL DEPTH DRILLER
RUN .         ONE                  : Run          - RUN NUMBER
ENG .         BILL                 : Engineer     - RECORDING ENGINEER
WIT .         JIM                  : Witness      - WITNESSED BY
MUD .         GEL                  : Mud_type     - MUD TYPE
MATR.         LIMESTONE            : Logunit      - NEUTRON MATRIX
TMAX.C        25                   : BHT          - MAXIMUM RECORDED TEMPERATURE
BHTD.M        667                  : BHTDEP       - MAXIMUM RECORDED TEMPERATURE
MATR.         1                    : LOGUNIT      - NEUTRON MATRIX
RMT .C        25                   : MDTP         - TEMPERATURE OF MUD
NEUT.         1                    : NEUTRON      - NEUTRON TYPE
RESI.         0                    : RESIST       - RESISTIVITY TYPE
RMC .OHMM     0.25                 : RMC          - RESISTIVITY OF MUD CAKE
RMF .OHMM     0.25                 : RMF          - RESISTIVITY OF MUD FILTRATE
SUFT.C        15                   : SUFT         - SURFACE TEMPERATURE
~A  DEPTH     RESD     PHID     PHIN       GR
# ...
  619.000    5.591    0.254    0.374   71.305
  619.250    5.340    0.267    0.370   77.472
  619.500    5.137    0.278    0.383   82.051
  619.750    5.101    0.264    0.385   85.106
  620.000    5.169    0.243    0.378   87.978
  620.250    5.268    0.226    0.370   87.501
  620.500    5.428    0.213    0.358   84.281
  620.750    5.657    0.198    0.351   87.641
  621.000    5.884    0.199    0.345   91.673
  621.250    6.041    0.197    0.350   96.252
  621.500    6.167    0.188    0.362   99.247
  621.750    6.285    0.192    0.367   94.992
  622.000    6.334    0.194    0.363   87.507
  622.250    6.336    0.186    0.347   80.633
  622.500    6.221    0.178    0.339   75.768
  622.750    6.075    0.190    0.330   70.965
  623.000    5.695    0.204    0.358   64.578
  623.250    5.308    0.221    0.378   60.017
  623.500    4.637    0.247    0.398   58.868
  623.750    4.404    0.272    0.389   57.966
  624.000    4.067    0.266    0.383   57.670
  624.250    3.855    0.274    0.379   58.167
  624.500    3.668    0.278    0.381   58.360
  624.750    3.582    0.283    0.376   57.701
  625.000    3.543    0.291    0.368   58.013
  625.250    3.525    0.299    0.363   60.277
  625.500    3.520    0.273    0.362   62.968
  625.750    3.540    0.272    0.372   65.537
  626.000    3.561    0.281    0.373   69.021
  626.250    3.616    0.263    0.367   72.198
  626.500    3.719    0.253    0.362   75.802
  626.750    3.948    0.240    0.363   81.661
  627.000    4.191    0.218    0.382   86.546
  627.250    4.408    0.204    0.398   89.601
  627.500    4.534    0.193    0.406   88.759
  627.750    4.603    0.183    0.390   88.158
  628.000    4.622    0.176    0.394   88.778
  628.250    4.598    0.189    0.403   89.762
  628.500    4.548    0.198    0.414   91.904
  628.750    4.507    0.204    0.418   93.498
  629.000    4.526    0.196    0.405   87.720
  629.250    4.586    0.162    0.388   81.393
  629.500    4.709    0.107    0.362   84.390
  629.750    4.870    0.059    0.335   94.268
  630.000    4.935    0.119    0.318  102.930
  630.250    4.855    0.162    0.388  101.538
  630.500    4.585    0.191    0.419   92.531
  630.750    4.528    0.220    0.401   84.741
  631.000    4.597    0.247    0.383   84.202
  631.250    4.817    0.220    0.372   89.332
  631.500    5.113    0.195    0.369   94.214
  631.750    5.644    0.178    0.371   99.161
  632.000    5.980    0.174    0.373  101.972
  632.250    6.151    0.184    0.375  103.444
  632.500    6.257    0.189    0.377  103.881
  632.750    6.247    0.184    0.382  100.845
  633.000    6.134    0.200    0.384  100.488
  633.250    5.968    0.207    0.385  103.484
  633.500    5.699    0.201    0.395   99.715
  633.750    5.332    0.208    0.409   89.915
  634.000    4.980    0.233    0.413   79.812
  634.250    4.694    0.251    0.388   70.864
  634.500    4.558    0.273    0.356   57.774
  634.750    4.493    0.277    0.329   58.698
  635.000    4.562    0.257    0.316   64.800
  635.250    4.745    0.252    0.322   75.901
  635.500    4.944    0.235    0.324   84.014
  635.750    5.142    0.185    0.337   90.725
  636.000    5.309    0.155    0.356   94.694
  636.250    5.471    0.158    0.372   98.056
  636.500    5.575    0.172    0.393   95.506
  636.750    5.681    0.180    0.400   89.485
  637.000    5.768    0.187    0.370   86.812
  637.250    5.759    0.162    0.344   88.773
  637.500    5.655    0.135    0.328   91.768
  637.750    5.331    0.144    0.333   93.727
  638.000    5.034    0.161    0.342   93.310
  638.250    4.710    0.176    0.367   76.321
  638.500    4.424    0.189    0.391   64.754
  638.750    4.401    0.228    0.373   63.667
  639.000    4.586    0.253    0.355   77.690
  639.250    4.752    0.229    0.344   83.366
  639.500    4.979    0.200    0.352   81.549
  639.750    5.037    0.188    0.340   75.953
  640.000    4.964    0.214    0.330   69.260
  640.250    4.838    0.237    0.320   66.164
  640.500    4.716    0.234    0.329   64.651
  640.750    4.700    0.228    0.342   64.355
  641.000    4.701    0.225    0.349   66.193
  641.250    4.747    0.226    0.356   69.126
  641.500    4.819    0.227    0.347   73.766
  641.750    4.929    0.217    0.335   79.749
  642.000    5.127    0.207    0.325   83.230
  642.250    5.453    0.197    0.318   86.286
  642.500    5.693    0.184    0.325   88.428
  642.750    5.823    0.175    0.330   88.561
  643.000    5.890    0.174    0.332   88.083
  643.250    5.881    0.172    0.334   89.922
  643.500    5.872    0.176    0.334   91.514
  643.750    5.895    0.182    0.336   93.415
  644.000    5.941    0.171    0.343   93.787
  644.250    6.078    0.163    0.354   93.494
  644.500    6.170    0.152    0.350   93.626
  644.750    6.300    0.162    0.343   93.514
  645.000    6.396    0.178    0.341   93.523
  645.250    6.470    0.178    0.346   93.227
  645.500    6.508    0.160    0.353   92.201
  645.750    6.510    0.149    0.358   91.663
  646.000    6.488    0.143    0.363   92.647
  646.250    6.479    0.140    0.367   95.034
  646.500    6.480    0.137    0.372   97.115
  646.750    6.458    0.142    0.375   98.343
  647.000    6.460    0.158    0.369   98.719
  647.250    6.463    0.149    0.365   97.996
  647.500    6.513    0.143    0.361   96.241
  647.750    6.564    0.146    0.356   95.030
  648.000    6.578    0.152    0.351   94.066
  648.250    6.581    0.157    0.346   94.136
  648.500    6.583    0.158    0.354   95.121
  648.750    6.597    0.155    0.365   95.802
  649.000    6.599    0.150    0.371   95.749
  649.250    6.626    0.145    0.361   93.383
  649.500    6.616    0.155    0.355   93.028
  649.750    6.618    0.144    0.358   94.073
  650.000    6.608    0.133    0.355   95.727
  650.250    6.585    0.127    0.350   96.956
  650.500    6.600    0.138    0.348   97.636
  650.750    6.664    0.153    0.348   96.976
  651.000    6.678    0.162    0.342   94.000
  651.250    6.680    0.169    0.335   91.999
  651.500    6.745    0.156    0.334   91.399
  651.750    6.823    0.148    0.348   90.921
  652.000    6.888    0.147    0.355   90.448
  652.250    6.929    0.160    0.356   90.275
  652.500    6.893    0.160    0.353   90.525
  652.750    6.857    0.153    0.350   91.692
  653.000    6.758    0.149    0.357   94.138
  653.250    6.563    0.148    0.370   98.109
  653.500    6.373    0.146    0.378  103.358
  653.750    6.292    0.138    0.383  112.812
  654.000    6.156    0.130    0.396  118.488
  654.250    6.078    0.143    0.411  121.118
  654.500    6.013    0.160    0.421  115.096
  654.750    5.937    0.176    0.399  108.343
  655.000    5.906    0.176    0.376  104.330
  655.250    5.854    0.165    0.363  102.269
  655.500    5.802    0.152    0.392  106.361
  655.750    5.718    0.136    0.410  110.940
  656.000    5.542    0.122    0.423  114.423
  656.250    5.147    0.121    0.433  117.174
  656.500    4.718    0.178    0.436  119.926
  656.750    5.355    0.170    0.447  122.069
  657.000    5.867    0.163    0.467  123.175
  657.250    6.205    0.156    0.469  121.967
  657.500    6.636    0.149    0.444  118.992
  657.750    6.941    0.146    0.428  116.868
  658.000    7.232    0.147    0.408  114.744
  658.250    7.384    0.148    0.392  113.048
  658.500    7.525    0.147    0.399  113.790
  658.750    7.640    0.170    0.411  115.627
  659.000    7.614    0.189    0.403  118.317
  659.250    7.124    0.200    0.402  116.560
  659.500    6.471    0.205    0.468  108.344
  659.750    6.933    0.102    0.499   45.597
  660.000    8.106    0.062    0.258   32.142
  660.250    9.964    0.056    0.240   22.037
  660.500   12.386    0.059    0.216   18.697
  660.750   15.395    0.069    0.187   17.061
  661.000   17.767    0.077    0.184   16.097
  661.250   18.721    0.089    0.189   15.498
  661.500   18.761    0.091    0.199   15.872
  661.750   18.218    0.103    0.203   16.247
  662.000   17.561    0.115    0.209   16.379
  662.250   17.020    0.108    0.212   16.206
