~VERSION INFORMATION
 VERS.                 2.0:   CWLS LOG ASCII STANDARD -VERSION 2.0
 WRAP.                  NO:   ONE LINE PER DEPTH STEP
~WELL INFORMATION BLOCK
#MNEM.UNIT           DATA                    DESCRIPTION OF MNEMONIC
#---------    -------------------            -------------------------------
# Generated from Intellog Unique Number	CW_70_72/WELL/3016
NULL.         -999.25                        : NULL_VALUE
WELL.         GULF CHISHOLM 07-10            : Well_name    - WELL              
LOC .         07-10-070-26W4                 : Location     - LOCATION          
UWI .         00/07-10-070-26W4/0            : Uwi          - UNIQUE WELL ID    
ENTR.         J                              : Entered      - ENTERED BY        
SRVC.         SCHLUMBERGER                   : Scn          - SERVICE COMPANY   
DATE.         12 MAR 77                      : Date         - LOG DATE          
STRT.M        463.296                        : top_depth    - START DEPTH       
STOP.M        701.046                        : bot_depth    - STOP DEPTH        
STEP.M        0.25                           : increment    - STEP LENGTH       
~CURVE INFORMATION BLOCK
#MNEM UNIT       ERCB CURVE CODE    CURVE DESCRIPTION
#-----------   ------------------   ----------------------------------
DEPT.M        00 001 00 00         : DEPTH        - DEPTH                       
ILD .OHMM     00 120 00 00         : RESD         - DEEP RESISTIVITY (DIL)      
CALI.MM       00 280 01 00         : CAL          - CALIPER                     
GR  .API      00 310 00 00         : GR           - GAMMA RAY                   
NPHI.V/V      00 330 00 00         : PHIN         - NEUTRON POROSITY (SANDSTONE)
DPHI.V/V      00 890 00 00         : PHID         - DENSITY POROSITY (SANDSTONE)
~PARAMETER INFORMATION       
#MNEM.UNIT           DATA             DESCRIPTION OF MNEMONIC
#---------         -----------     ------------------------------
GL  .M        638.861              : gl           - GROUND LEVEL ELEVATION      
EREF.M        642.214              : kb           - ELEVATION OF DEPTH REFERENCE
DATM.M        638.861              : datum        - DATUM ELEVATION             
TDD .M        701.345              : tdd          - TOTAL DEPTH DRILLER         
RUN .         ONE                  : Run          - RUN NUMBER                  
ENG .         FIGGURES             : Engineer     - RECORDING ENGINEER          
WIT .         LANE                 : Witness      - WITNESSED BY                
BASE.         EDM                  : Branch       - HOME BASE OF LOGGING UNIT   
MATR.         SANDSTONE            : Logunit      - NEUTRON MATRIX              
TMAX.C        25.5556              : BHT          - MAXIMUM RECORDED TEMPERATURE
BHTD.M        701.345              : BHTDEP       - MAXIMUM RECORDED TEMPERATURE
RMT .C        16.6667              : MDTP         - TEMPERATURE OF MUD          
MUDD.KG/M     1116                 : MWT          - MUD DENSITY                 
NEUT.         1                    : NEUTRON      - NEUTRON TYPE                
RESI.         0                    : RESIST       - RESISTIVITY TYPE            
RM  .OHMM     0.54                 : RM           - RESISTIVITY OF MUD          
RMC .OHMM     0.25                 : RMC          - RESISTIVITY OF MUD CAKE     
RMF .OHMM     0.25                 : RMF          - RESISTIVITY OF MUD FILTRATE 
SUFT.C        -17.7778             : SUFT         - SURFACE TEMPERATURE         
~A  DEPTH     RESD      CAL       GR     PHIN     PHID
# ...
  572.796    4.020  154.437   96.207    0.416    0.209
  573.046    4.773  154.737   94.017    0.408    0.183
  573.296    5.100  155.240   91.525    0.398    0.173
  573.546    8.653  155.435   88.849    0.389    0.161
  573.796    9.010  155.528   86.964    0.372    0.178
  574.046   11.716  156.134   82.046    0.351    0.156
  574.296   14.291  156.639   75.671    0.327    0.105
  574.546   16.927  157.142   71.177    0.273    0.079
  574.796   17.774  157.236   67.895    0.239    0.081
  575.046   15.686  156.197   65.949    0.229    0.072
  575.296   14.093  155.366   65.154    0.240    0.056
  575.546   11.923  154.844   66.180    0.263    0.083
  575.796    9.446  154.012   68.176    0.292    0.135
  576.046    7.096  153.694   75.024    0.319    0.203
  576.296    5.652  153.684   80.841    0.303    0.152
  576.546    4.477  153.879   87.628    0.282    0.119
  576.796    3.851  154.280   93.384    0.289    0.083
  577.046    3.380  154.066   96.290    0.349    0.152
  577.296    3.066  153.746   97.983    0.386    0.172
  577.546    3.030  153.430   98.765    0.408    0.184
  577.796    3.038  153.111   98.578    0.421    0.195
  578.046    3.053  152.382   98.269    0.429    0.203
  578.296    3.130  151.860   99.112    0.428    0.194
  578.546    3.233  151.542  100.745    0.420    0.204
  578.796    3.265  151.224  102.921    0.424    0.179
  579.046    3.263  151.420  103.826    0.432    0.195
  579.296    3.161  151.718  104.063    0.436    0.188
  579.546    3.297  152.118   99.508    0.424    0.180
  579.796    3.270  152.418  100.473    0.406    0.171
  580.046    3.250  153.023  103.743    0.399    0.165
  580.296    3.230  153.731  106.526    0.421    0.172
  580.546    3.245  153.927  100.698    0.449    0.179
  580.796    3.339  154.122   95.051    0.437    0.198
  581.046    3.448  154.421   93.225    0.422    0.221
  581.296    3.520  154.925   97.466    0.406    0.220
  581.546    3.642  155.122  103.890    0.410    0.194
  581.796    3.720  155.111  110.677    0.430    0.171
  582.046    3.764  155.204  114.068    0.446    0.171
  582.296    3.761  155.501  115.153    0.456    0.182
  582.546    3.765  155.801  114.542    0.439    0.183
  582.796    3.755  156.100  114.536    0.435    0.179
  583.046    3.732  156.294  115.803    0.442    0.183
  583.296    3.682  156.078  115.130    0.448    0.194
  583.546    3.548  155.965  113.791    0.450    0.177
  583.796    3.436  155.855  111.540    0.449    0.163
  584.046    3.317  155.640  107.956    0.445    0.175
  584.296    3.231  155.423  102.249    0.440    0.194
  584.546    3.234  155.003  102.000    0.432    0.211
  584.796    3.303  154.686  103.996    0.427    0.224
  585.046    3.348  154.676  106.599    0.413    0.195
  585.296    3.420  154.768  108.291    0.413    0.187
  585.546    3.487  154.759  109.317    0.426    0.185
  585.796    3.516  154.750  110.221    0.435    0.182
  586.046    3.539  153.711  111.367    0.439    0.183
  586.296    3.595  153.292  110.027    0.437    0.177
  586.546    3.617  153.588  109.293    0.430    0.180
  586.796    3.675  153.681  111.228    0.422    0.188
  587.046    3.713  153.672  114.438    0.425    0.178
  587.296    3.730  154.177  116.797    0.434    0.181
  587.546    3.721  154.270  118.064    0.456    0.167
  587.796    3.710  154.773  115.026    0.468    0.172
  588.046    3.575  155.790  108.652    0.482    0.171
  588.296    3.475  156.706  109.737    0.481    0.165
  588.546    3.288  157.826  110.581    0.458    0.158
  588.796    3.162  159.356  110.332    0.440    0.145
  589.046    3.069  161.400  107.477    0.433    0.147
  589.296    3.000  163.650  105.710    0.451    0.152
  589.546    2.961  165.592  107.464    0.460    0.166
  589.796    2.952  164.966  108.611    0.454    0.184
  590.046    3.004  159.821  107.453    0.444    0.159
  590.296    3.107  157.038  102.170    0.431    0.146
  590.546    3.208  157.334  106.289    0.419    0.145
  590.796    3.331  158.559  110.711    0.432    0.163
  591.046    3.458  159.576  112.343    0.446    0.184
  591.296    3.643  160.285  111.184    0.453    0.195
  591.546    3.817  160.069  109.905    0.444    0.191
  591.796    3.993  159.648  108.807    0.434    0.197
  592.046    4.077  159.742  111.289    0.429    0.190
  592.296    4.241  161.273  109.584    0.421    0.176
  592.546    4.241  162.804  102.602    0.413    0.178
  592.796    4.581  163.923   97.563    0.401    0.155
  593.046    4.668  165.658   90.885    0.389    0.147
  593.296    4.828  166.472   92.093    0.378    0.158
  593.546    5.024  167.283   93.057    0.389    0.148
  593.796    5.073  162.960   92.323    0.395    0.135
  594.046    5.060  158.225   91.348    0.381    0.167
  594.296    4.964  156.468   91.584    0.400    0.167
  594.546    4.705  156.049   90.061    0.410    0.163
  594.796    4.363  155.832   88.722    0.387    0.152
  595.046    4.054  155.927   87.382    0.365    0.160
  595.296    3.828  156.222   88.043    0.321    0.169
  595.546    3.674  156.216   90.221    0.340    0.182
  595.796    3.632  156.614   93.308    0.352    0.191
  596.046    3.642  156.813   96.335    0.379    0.198
  596.296    3.673  157.110   98.695    0.404    0.197
  596.546    3.723  157.099   96.141    0.409    0.178
  596.796    4.143  157.090   91.830    0.400    0.154
  597.046    4.815  157.080   85.576    0.377    0.148
  597.296    6.535  156.248   78.656    0.295    0.141
  597.546    7.850  155.210   69.127    0.233    0.112
  597.796    7.481  154.585   65.179    0.214    0.044
  598.046    6.355  154.472   64.323    0.210    0.048
  598.296    4.744  154.769   67.351    0.254    0.073
  598.546    3.851  154.865   77.778    0.305    0.122
  598.796    3.290  155.780   82.078    0.398    0.153
  599.046    2.979  156.693   83.588    0.417    0.209
  599.296    2.902  156.684   85.343    0.406    0.211
  599.546    2.927  155.853   92.008    0.399    0.206
  599.796    2.989  155.123   95.884    0.412    0.231
  600.046    3.103  155.113   95.454    0.420    0.218
  600.296    3.263  155.616   98.845    0.428    0.191
  600.546    3.387  159.408  104.723    0.434    0.163
  600.796    3.392  162.994  110.237    0.430    0.137
  601.046    3.297  163.908  108.835    0.417    0.148
  601.296    3.085  163.794  107.193    0.404    0.192
  601.546    2.871  163.272  105.246    0.404    0.183
  601.796    2.629  161.619  102.268    0.416    0.188
  602.046    2.415  157.602   97.834    0.419    0.202
  602.296    2.281  155.333   89.397    0.427    0.230
  602.546    2.166  153.577   84.721    0.444    0.251
  602.796    2.113  152.746   81.985    0.459    0.282
  603.046    2.104  152.429   80.039    0.478    0.300
  603.296    2.087  152.212   78.093    0.481    0.282
  603.546    2.089  151.998   76.024    0.472    0.266
  603.796    2.099  151.783   74.017    0.458    0.281
  604.046    2.109  151.464   72.434    0.446    0.282
  604.296    2.127  151.146   71.094    0.434    0.289
  604.546    2.152  151.548   71.876    0.429    0.286
  604.796    2.190  152.052   75.328    0.438    0.289
  605.046    2.220  152.351   77.809    0.461    0.300
  605.296    2.263  152.340   74.710    0.454    0.273
  605.546    2.312  152.122   75.250    0.438    0.282
  605.796    2.322  152.013   76.517    0.435    0.275
  606.046    2.333  152.209   74.268    0.440    0.275
  606.296    2.349  152.095   71.715    0.429    0.282
  606.546    2.373  151.981   72.859    0.420    0.270
  606.796    2.414  151.972   75.160    0.416    0.277
  607.046    2.484  152.065   81.522    0.417    0.282
  607.296    2.636  152.262   84.186    0.430    0.280
  607.546    2.756  152.150   84.726    0.447    0.267
  607.796    2.946  152.343   82.537    0.436    0.271
  608.046    3.076  152.231   78.710    0.425    0.263
  608.296    3.012  152.221   76.641    0.414    0.255
  608.546    2.718  152.418   75.362    0.406    0.255
  608.796    2.502  152.818   74.750    0.404    0.256
  609.046    2.424  153.117   75.654    0.426    0.281
