~VERSION INFORMATION
 VERS.                 2.0:   CWLS LOG ASCII STANDARD -VERSION 2.0
 WRAP.                  NO:   ONE LINE PER DEPTH STEP
~WELL INFORMATION BLOCK
#MNEM.UNIT           DATA                    DESCRIPTION OF MNEMONIC
#---------    -------------------            -------------------------------
# Generated from Intellog Unique Number	CS_67_68/WELL/772
WELL.         BURNT LAKE                     : Well_name    - WELL
LOC .         00/07-16-068-03W4/0            : Location     - LOCATION
UWI .         00/07-16-068-03W4/0            : Uwi          - UNIQUE WELL ID
ENTR.         SP                             : Entered      - ENTERED BY
SRVC.         SCHLUMBERGER                   : Scn          - SERVICE COMPANY
STRT.M        370                            : top_depth    - START DEPTH
STOP.M        605                            : bot_depth    - STOP DEPTH
STEP.M        0.25                           : increment    - STEP LENGTH
 NULL. -999.2500:NULL Value
~CURVE INFORMATION BLOCK
#MNEM UNIT       ERCB CURVE CODE    CURVE DESCRIPTION
#-----------   ------------------   ----------------------------------
DEPT.M        00 001 00 00         : DEPTH        - DEPTH
ILD .OHMM     00 120 00 00         : RESD         - DEEP RESISTIVITY (DIL)
DPHI.V/V      00 890 00 00         : PHID         - DENSITY POROSITY (LIMESTONE)
NPHI.V/V      00 330 00 00         : PHIN         - NEUTRON POROSITY (LIMESTONE)
GR  .API      00 310 00 00         : GR           - GAMMA RAY
~PARAMETER INFORMATION
#MNEM.UNIT           DATA             DESCRIPTION OF MNEMONIC
#---------         -----------     ------------------------------
GL  .M        736.44               : gl           - GROUND LEVEL ELEVATION
EREF.M        740.9                : kb           - ELEVATION OF DEPTH REFERENCE
DATM.M        736.44               : datum        - DATUM ELEVATION
TDD .M        608                  : tdd          - TOTAL DEPTH DRILLER
RUN .         ONE                  : Run          - RUN NUMBER
ENG .         BILL                 : Engineer     - RECORDING ENGINEER
WIT .         JIM                  : Witness      - WITNESSED BY
MUD .         GEL                  : Mud_type     - MUD TYPE
MATR.         LIMESTONE            : Logunit      - NEUTRON MATRIX
TMAX.C        25.5                 : BHT          - MAXIMUM RECORDED TEMPERATURE
BHTD.M        608                  : BHTDEP       - MAXIMUM RECORDED TEMPERATURE
MATR.         1                    : LOGUNIT      - NEUTRON MATRIX
RMT .C        25                   : MDTP         - TEMPERATURE OF MUD
NEUT.         1                    : NEUTRON      - NEUTRON TYPE
RESI.         0                    : RESIST       - RESISTIVITY TYPE
RMC .OHMM     0.25                 : RMC          - RESISTIVITY OF MUD CAKE
RMF .OHMM     0.25                 : RMF          - RESISTIVITY OF MUD FILTRATE
SUFT.C        15                   : SUFT         - SURFACE TEMPERATURE
~A  DEPTH     RESD     PHID     PHIN       GR
# ...
  413.500    6.323    0.359    0.405   25.957
  413.750    6.291    0.358    0.402   26.130
  414.000    6.260    0.360    0.404   27.287
  414.250    6.217    0.360    0.399   28.626
  414.500    6.209    0.358    0.405   29.722
  414.750    6.178    0.361    0.420   30.142
  415.000    6.182    0.367    0.413   28.778
  415.250    6.175    0.368    0.408   27.233
  415.500    6.167    0.366    0.406   25.072
  415.750    6.183    0.364    0.408   24.448
  416.000    6.163    0.363    0.409   25.358
  416.250    6.156    0.368    0.398   26.146
  416.500    6.160    0.370    0.392   26.627
  416.750    6.163    0.368    0.386   25.939
  417.000    6.133    0.361    0.386   24.086
  417.250    6.091    0.358    0.387   23.829
  417.500    6.083    0.365    0.376   26.459
  417.750    6.065    0.370    0.370   29.275
  418.000    6.056    0.370    0.380   32.703
  418.250    6.061    0.366    0.402   34.905
  418.500    6.031    0.364    0.421   32.253
  418.750    6.034    0.367    0.420   28.311
  419.000    6.038    0.368    0.409   27.071
  419.250    6.031    0.363    0.404   26.816
  419.500    6.046    0.361    0.400   25.515
  419.750    6.038    0.366    0.393   29.127
  420.000    6.031    0.369    0.390   30.469
  420.250    6.034    0.363    0.402   27.018
  420.500    6.039    0.364    0.392   26.762
  420.750    6.054    0.371    0.380   29.393
  421.000    6.058    0.382    0.377   32.883
  421.250    6.063    0.359    0.400   39.445
  421.500    6.078    0.332    0.402   55.526
  421.750    6.127    0.311    0.394   66.020
  422.000    6.261    0.302    0.408   78.293
  422.250    6.420    0.297    0.446   86.820
  422.500    6.671    0.296    0.469   88.529
  422.750    7.078    0.299    0.466   81.943
  423.000    7.367    0.306    0.459   79.663
  423.250    7.816    0.315    0.462   81.434
  423.500    8.214    0.309    0.477   80.685
  423.750    8.551    0.295    0.488   77.113
  424.000    9.457    0.285    0.474   72.309
  424.250   10.921    0.289    0.458   67.937
  424.500   12.307    0.307    0.447   64.120
  424.750   13.431    0.338    0.438   67.057
  425.000   14.716    0.355    0.433   71.653
  425.250   15.346    0.359    0.432   76.250
  425.500   16.221    0.358    0.440   67.763
  425.750   16.201    0.353    0.442   59.703
  426.000   15.377    0.347    0.435   54.965
  426.250   13.637    0.344    0.433   51.576
  426.500   11.388    0.347    0.432   53.529
  426.750   10.485    0.352    0.436   54.871
  427.000    9.370    0.352    0.438   55.533
  427.250    8.695    0.353    0.430   55.217
  427.500    8.425    0.357    0.433   53.978
  427.750    8.196    0.367    0.438   53.106
  428.000    7.988    0.374    0.422   51.746
  428.250    7.828    0.374    0.412   50.815
  428.500    7.687    0.371    0.405   56.271
  428.750    7.548    0.367    0.401   64.552
  429.000    7.469    0.363    0.395   71.848
  429.250    7.445    0.360    0.399   73.682
  429.500    7.423    0.359    0.429   69.614
  429.750    7.427    0.357    0.429   68.007
  430.000    7.404    0.355    0.422   67.078
  430.250    7.422    0.360    0.420   67.618
  430.500    7.414    0.367    0.421   66.503
  430.750    7.404    0.370    0.447   64.589
  431.000    7.409    0.365    0.460   62.366
  431.250    7.372    0.360    0.441   61.434
  431.500    7.349    0.358    0.432   62.283
  431.750    7.340    0.357    0.427   64.360
  432.000    7.345    0.357    0.429   66.621
  432.250    7.349    0.358    0.438   67.657
  432.500    7.354    0.356    0.433   68.138
  432.750    7.386    0.346    0.427   65.670
  433.000    7.504    0.340    0.421   64.675
  433.250    7.652    0.344    0.405   65.708
  433.500    7.671    0.325    0.393   66.497
  433.750    7.393    0.301    0.383   67.531
  434.000    6.937    0.284    0.392   70.100
  434.250    6.352    0.274    0.412   74.757
  434.500    5.840    0.266    0.435   79.292
  434.750    5.865    0.268    0.459   83.335
  435.000    6.083    0.276    0.473   84.061
  435.250    6.539    0.283    0.461   78.032
  435.500    6.965    0.255    0.434   73.230
  435.750    7.305    0.234    0.443   71.744
  436.000    7.649    0.220    0.472   67.374
  436.250    7.889    0.257    0.450   58.763
  436.500    7.998    0.279    0.425   57.462
  436.750    7.958    0.291    0.418   63.777
  437.000    7.755    0.277    0.430   71.199
  437.250    7.473    0.265    0.432   75.735
  437.500    7.255    0.256    0.415   74.002
  437.750    7.111    0.250    0.404   70.182
  438.000    7.116    0.273    0.396   67.348
  438.250    7.270    0.330    0.432   63.837
  438.500    7.540    0.358    0.441   59.526
  438.750    7.790    0.360    0.428   58.656
  439.000    8.019    0.344    0.440   59.383
  439.250    8.177    0.332    0.457   61.459
  439.500    8.198    0.333    0.466   61.141
  439.750    8.050    0.341    0.443   58.428
  440.000    7.787    0.345    0.418   57.189
  440.250    7.822    0.348    0.418   57.117
  440.500    7.438    0.354    0.432   55.325
  440.750    7.471    0.361    0.438   53.656
  441.000    7.519    0.356    0.434   51.985
  441.250    7.509    0.350    0.430   51.300
  441.500    7.485    0.348    0.420   51.474
  441.750    7.434    0.351    0.416   53.306
  442.000    7.285    0.354    0.419   52.803
  442.250    7.127    0.354    0.432   50.763
  442.500    6.829    0.353    0.442   50.264
  442.750    6.557    0.361    0.451   50.069
  443.000    6.426    0.367    0.459   49.260
  443.250    6.430    0.363    0.458   46.486
  443.500    6.544    0.358    0.445   45.123
  443.750    6.610    0.354    0.457   46.768
  444.000    6.689    0.356    0.464   48.598
  444.250    6.782    0.359    0.443   49.452
  444.500    6.865    0.358    0.427   51.343
  444.750    6.920    0.354    0.437   52.747
  445.000    6.951    0.356    0.445   54.516
  445.250    6.995    0.361    0.445   55.306
  445.500    6.961    0.361    0.438   54.742
  445.750    6.939    0.359    0.435   52.642
  446.000    6.878    0.358    0.431   50.909
  446.250    6.767    0.360    0.425   50.717
  446.500    6.533    0.364    0.410   51.137
  446.750    6.236    0.359    0.415   54.626
  447.000    5.986    0.332    0.451   60.206
  447.250    5.956    0.308    0.471   67.504
  447.500    5.983    0.308    0.485   73.144
  447.750    5.930    0.338    0.471   72.520
  448.000    5.693    0.350    0.458   72.571
  448.250    5.194    0.334    0.479   78.579
  448.500    4.477    0.305    0.537   85.755
  448.750    4.155    0.276    0.562   78.862
  449.000    4.595    0.328    0.504   73.019
  449.250    5.227    0.353    0.466   64.532
  449.500    5.913    0.364    0.438   55.368
  449.750    6.452    0.364    0.429   51.242
  450.000    6.923    0.369    0.443   50.372
  450.250    7.262    0.374    0.456   47.658
  450.500    7.364    0.381    0.468   48.814
  450.750    7.481    0.388    0.475   49.664
  451.000    7.528    0.376    0.479   47.687
  451.250    7.547    0.364    0.456   45.649
  451.500    7.538    0.355    0.427   44.963
  451.750    7.529    0.352    0.416   45.566
  452.000    7.490    0.352    0.425   46.662
  452.250    7.412    0.354    0.427   47.756
  452.500    7.388    0.365    0.431   48.422
  452.750    7.351    0.367    0.430   48.534
  453.000    7.342    0.364    0.420   48.401
  453.250    7.389    0.361    0.421   48.574
  453.500    7.421    0.362    0.434   49.667
  453.750    7.426    0.364    0.441   51.133
  454.000    7.402    0.365    0.437   51.982
  454.250    7.228    0.358    0.428   52.523
  454.500    7.005    0.352    0.423   53.617
  454.750    6.738    0.358    0.442   54.958
  455.000    6.590    0.353    0.439   56.361
  455.250    6.375    0.312    0.432   58.501
  455.500    6.418    0.297    0.431   62.357
  455.750    6.480    0.290    0.440   65.174
  456.000    6.570    0.288    0.440   66.269
  456.250    6.688    0.296    0.431   65.828
  456.500    6.729    0.300    0.422   67.413
  456.750    6.733    0.302    0.412   68.264
