~VERSION INFORMATION
 VERS.                 2.0:   CWLS LOG ASCII STANDARD -VERSION 2.0
 WRAP.                  NO:   ONE LINE PER DEPTH STEP
~WELL INFORMATION BLOCK
#MNEM.UNIT           DATA                    DESCRIPTION OF MNEMONIC
#---------    -------------------            -------------------------------
# Generated from Intellog Unique Number	CS_73_76/WELL/2107
WELL.         W.W. BECKER OIL & GAS LTD      : Well_name    - WELL
LOC .         00/07-12-075-13W4/0            : Location     - LOCATION
UWI .         00/07-12-075-13W4/0            : Uwi          - UNIQUE WELL ID
ENTR.         SP                             : Entered      - ENTERED BY
SRVC.         SCHLUMBERGER                   : Scn          - SERVICE COMPANY
STRT.M        313.944                        : top_depth    - START DEPTH
STOP.M        530.194                        : bot_depth    - STOP DEPTH
STEP.M        0.25                           : increment    - STEP LENGTH
 NULL. -999.2500:NULL Value
~CURVE INFORMATION BLOCK
#MNEM UNIT       ERCB CURVE CODE    CURVE DESCRIPTION
#-----------   ------------------   ----------------------------------
DEPT.M        00 001 00 00         : DEPTH        - DEPTH
GR  .API      00 310 00 00         : GR           - GAMMA RAY
DPHI.V/V      00 890 00 00         : PHID         - DENSITY POROSITY (SANDSTONE)
NPHI.V/V      00 330 00 00         : PHIN         - NEUTRON POROSITY (SANDSTONE)
ILD .OHMM     00 120 00 00         : RESD         - DEEP RESISTIVITY (DIL)
~PARAMETER INFORMATION
#MNEM.UNIT           DATA             DESCRIPTION OF MNEMONIC
#---------         -----------     ------------------------------
GL  .M        682.021              : gl           - GROUND LEVEL ELEVATION
EREF.M        685.19               : kb           - ELEVATION OF DEPTH REFERENCE
DATM.M        682.021              : datum        - DATUM ELEVATION
TDD .M        533.4                : tdd          - TOTAL DEPTH DRILLER
RUN .         ONE                  : Run          - RUN NUMBER
ENG .         BILL                 : Engineer     - RECORDING ENGINEER
WIT .         JIM                  : Witness      - WITNESSED BY
MUD .         GEL                  : Mud_type     - MUD TYPE
MATR.         SANDSTONE            : Logunit      - NEUTRON MATRIX
TMAX.C        18.8889              : BHT          - MAXIMUM RECORDED TEMPERATURE
BHTD.M        554.126              : BHTDEP       - MAXIMUM RECORDED TEMPERATURE
MATR.         1                    : LOGUNIT      - NEUTRON MATRIX
RMT .C        25                   : MDTP         - TEMPERATURE OF MUD
NEUT.         1                    : NEUTRON      - NEUTRON TYPE
RESI.         0                    : RESIST       - RESISTIVITY TYPE
RMC .OHMM     0.25                 : RMC          - RESISTIVITY OF MUD CAKE
RMF .OHMM     0.25                 : RMF          - RESISTIVITY OF MUD FILTRATE
SUFT.C        15                   : SUFT         - SURFACE TEMPERATURE
~A  DEPTH       GR     PHID     PHIN     RESD
# ...
  400.944   59.047    0.215    0.519    2.911
  401.194   59.820    0.231    0.542    3.032
  401.444   59.778    0.247    0.563    3.241
  401.694   57.370    0.257    0.595    3.549
  401.944   53.202    0.288    0.591    4.038
  402.194   47.473    0.310    0.575    4.700
  402.444   43.481    0.296    0.551    5.388
  402.694   39.445    0.279    0.525    6.427
  402.944   40.958    0.272    0.477    7.585
  403.194   45.111    0.276    0.461    8.241
  403.444   47.816    0.277    0.453    8.510
  403.694   50.639    0.259    0.445    8.541
  403.944   54.099    0.258    0.447    7.670
  404.194   58.329    0.261    0.460    6.706
  404.444   59.136    0.266    0.468    5.506
  404.694   60.148    0.268    0.464    4.309
  404.944   61.141    0.268    0.468    3.378
  405.194   63.100    0.240    0.490    2.809
  405.444   64.237    0.234    0.527    2.477
  405.694   62.930    0.253    0.556    2.401
  405.944   60.322    0.265    0.565    2.968
  406.194   58.555    0.261    0.559    3.894
  406.444   56.409    0.253    0.545    5.121
  406.694   54.358    0.255    0.528    6.251
  406.944   53.154    0.261    0.480    6.915
  407.194   52.161    0.261    0.454    7.114
  407.444   51.353    0.271    0.453    7.127
  407.694   52.105    0.271    0.464    6.974
  407.944   52.592    0.279    0.471    6.989
  408.194   52.935    0.281    0.477    7.002
  408.444   53.319    0.278    0.485    6.859
  408.694   52.968    0.271    0.490    6.858
  408.944   52.263    0.268    0.492    6.748
  409.194   52.740    0.274    0.484    6.501
  409.444   53.071    0.278    0.474    6.241
  409.694   54.012    0.283    0.474    6.264
  409.944   53.971    0.270    0.475    6.267
  410.194   53.979    0.256    0.469    6.208
  410.444   53.972    0.252    0.470    6.161
  410.694   54.478    0.259    0.480    6.160
  410.944   55.482    0.261    0.477    6.164
  411.194   56.456    0.255    0.488    6.168
  411.444   54.435    0.262    0.502    6.158
  411.694   53.233    0.270    0.512    6.300
  411.944   52.209    0.280    0.501    6.292
  412.194   51.816    0.277    0.489    6.380
  412.444   51.681    0.271    0.484    6.448
  412.694   51.043    0.290    0.493    6.538
  412.944   51.044    0.297    0.490    6.742
  413.194   51.038    0.297    0.491    6.952
  413.444   51.045    0.294    0.472    7.172
  413.694   51.041    0.306    0.462    7.412
  413.944   51.011    0.305    0.468    7.479
  414.194   49.931    0.277    0.479    7.742
  414.444   49.834    0.284    0.483    7.819
  414.694   50.528    0.291    0.466    7.910
  414.944   51.136    0.285    0.470    7.816
  415.194   51.309    0.285    0.480    7.569
  415.444   51.713    0.288    0.480    7.491
  415.694   52.795    0.264    0.468    7.343
  415.944   53.076    0.258    0.458    7.358
  416.194   53.572    0.243    0.455    7.360
  416.444   53.590    0.231    0.457    7.289
  416.694   53.674    0.222    0.452    7.239
  416.944   54.177    0.212    0.458    7.124
  417.194   55.172    0.218    0.454    6.853
  417.444   55.468    0.206    0.458    6.585
  417.694   56.009    0.219    0.470    6.386
  417.944   56.715    0.236    0.479    6.189
  418.194   56.654    0.240    0.471    6.130
  418.444   57.153    0.246    0.476    6.132
  418.694   56.550    0.250    0.488    6.135
  418.944   57.270    0.255    0.489    6.138
  419.194   57.267    0.246    0.476    6.141
  419.444   57.190    0.245    0.470    6.142
  419.694   56.643    0.244    0.485    6.154
  419.944   57.126    0.242    0.493    6.023
  420.194   56.101    0.237    0.495    6.027
  420.444   55.615    0.248    0.492    5.834
  420.694   55.483    0.249    0.485    5.835
  420.944   56.162    0.237    0.480    5.712
  421.194   56.152    0.240    0.489    5.722
  421.444   56.366    0.236    0.489    5.725
  421.694   56.765    0.251    0.475    5.725
  421.944   57.454    0.252    0.465    5.844
  422.194   57.581    0.242    0.469    5.844
  422.444   57.440    0.228    0.479    5.743
  422.694   57.410    0.235    0.469    5.623
  422.944   57.331    0.230    0.473    5.632
  423.194   56.296    0.224    0.478    5.629
  423.444   55.312    0.235    0.484    5.808
  423.694   54.325    0.244    0.481    5.861
  423.944   53.315    0.246    0.477    6.055
  424.194   52.064    0.250    0.473    6.254
  424.444   51.378    0.255    0.466    6.319
  424.694   50.325    0.265    0.460    6.447
  424.944   50.390    0.254    0.454    6.451
  425.194   50.790    0.244    0.459    6.328
  425.444   51.336    0.243    0.466    6.343
  425.694   52.737    0.242    0.469    6.204
  425.944   53.151    0.246    0.471    6.215
  426.194   53.843    0.236    0.467    6.159
  426.444   54.517    0.243    0.451    6.110
  426.694   54.944    0.253    0.445    6.106
  426.944   55.863    0.262    0.438    6.031
  427.194   58.249    0.255    0.446    5.661
  427.444   59.641    0.242    0.449    5.188
  427.694   60.736    0.248    0.442    4.548
  427.944   62.429    0.252    0.454    3.697
  428.194   62.836    0.236    0.464    3.159
  428.444   63.184    0.238    0.506    2.640
  428.694   63.670    0.252    0.539    2.203
  428.944   63.674    0.262    0.555    2.091
  429.194   63.680    0.266    0.569    2.091
  429.444   63.677    0.260    0.528    2.222
  429.694   63.443    0.249    0.507    2.469
  429.944   62.407    0.252    0.519    2.953
  430.194   61.418    0.258    0.528    3.285
  430.444   60.443    0.260    0.545    3.524
  430.694   59.462    0.261    0.525    3.873
  430.944   59.097    0.262    0.502    4.340
  431.194   58.044    0.267    0.497    4.658
  431.444   57.669    0.268    0.507    4.923
  431.694   57.254    0.250    0.513    5.011
  431.944   56.785    0.252    0.516    5.255
  432.194   53.589    0.244    0.499    5.316
  432.444   51.055    0.257    0.492    5.318
  432.694   47.008    0.270    0.485    5.320
  432.944   44.637    0.289    0.477    5.322
  433.194   40.667    0.294    0.469    5.325
  433.444   38.858    0.302    0.461    5.326
  433.694   38.292    0.315    0.469    5.339
  433.944   38.524    0.318    0.460    5.223
  434.194   38.929    0.317    0.453    5.236
  434.444   39.358    0.320    0.458    5.248
  434.694   39.538    0.323    0.448    5.134
  434.944   39.563    0.308    0.438    5.146
  435.194   39.571    0.305    0.427    5.148
  435.444   39.585    0.316    0.430    5.151
  435.694   39.543    0.310    0.441    5.153
  435.944   40.243    0.304    0.449    5.155
  436.194   40.141    0.315    0.457    5.158
  436.444   39.635    0.320    0.465    5.160
  436.694   38.941    0.318    0.473    5.162
  436.944   39.017    0.327    0.481    5.165
  437.194   38.980    0.322    0.489    5.166
  437.444   39.909    0.321    0.476    5.170
  437.694   40.247    0.322    0.464    5.171
  437.944   40.852    0.325    0.449    5.174
  438.194   41.512    0.338    0.439    5.177
  438.444   42.060    0.337    0.437    5.179
  438.694   42.373    0.336    0.445    5.192
  438.944   43.437    0.345    0.450    5.080
  439.194   44.444    0.340    0.455    5.091
  439.444   45.449    0.330    0.458    5.092
  439.694   46.455    0.323    0.461    5.094
  439.944   47.440    0.341    0.462    5.097
  440.194   48.224    0.330    0.463    5.099
  440.444   48.849    0.329    0.464    5.101
  440.694   49.270    0.327    0.469    5.104
  440.944   49.571    0.320    0.479    5.106
  441.194   50.676    0.312    0.487    5.108
  441.444   50.990    0.301    0.493    5.111
  441.694   51.991    0.291    0.490    5.114
  441.944   54.152    0.276    0.482    5.109
  442.194   55.248    0.258    0.469    5.242
  442.444   56.294    0.249    0.457    5.480
  442.694   56.860    0.258    0.450    5.184
  442.944   55.724    0.263    0.456    5.248
  443.194   53.700    0.267    0.459    5.428
  443.444   51.638    0.267    0.465    5.672
  443.694   50.213    0.260    0.461    6.050
  443.944   47.740    0.244    0.456    6.302
  444.194   46.426    0.228    0.436    7.087
