~VERSION INFORMATION
 VERS.                 2.0:   CWLS LOG ASCII STANDARD -VERSION 2.0
 WRAP.                  NO:   ONE LINE PER DEPTH STEP
~WELL INFORMATION BLOCK
#MNEM.UNIT           DATA                    DESCRIPTION OF MNEMONIC
#---------    -------------------            -------------------------------
# Generated from Intellog Unique Number	CS_77_79/WELL/854
WELL.         HB THORNBURY                   : Well_name    - WELL
LOC .         00/05-10-078-12W4/0            : Location     - LOCATION
UWI .         00/05-10-078-12W4/0            : Uwi          - UNIQUE WELL ID
ENTR.         JHS                            : Entered      - ENTERED BY
SRVC.         SCHLUMBERGER                   : Scn          - SERVICE COMPANY
STRT.M        256.032                        : top_depth    - START DEPTH
STOP.M        478.282                        : bot_depth    - STOP DEPTH
STEP.M        0.25                           : increment    - STEP LENGTH
 NULL. -999.2500:NULL Value
~CURVE INFORMATION BLOCK
#MNEM UNIT       ERCB CURVE CODE    CURVE DESCRIPTION
#-----------   ------------------   ----------------------------------
DEPT.M        00 001 00 00         : DEPTH        - DEPTH
RHOB.KG/M3    00 350 00 00         : DENS         - BULK DENSITY
GR  .API      00 310 00 00         : GR           - GAMMA RAY
DPHI.V/V      00 890 00 00         : PHID         - DENSITY POROSITY (SANDSTONE)
NPHI.V/V      00 330 00 00         : PHIN         - NEUTRON POROSITY (SANDSTONE)
ILD .OHMM     00 120 00 00         : RESD         - DEEP RESISTIVITY (DIL)
~PARAMETER INFORMATION
#MNEM.UNIT           DATA             DESCRIPTION OF MNEMONIC
#---------         -----------     ------------------------------
GL  .M        674.797              : gl           - GROUND LEVEL ELEVATION
EREF.M        674.797              : kb           - ELEVATION OF DEPTH REFERENCE
DATM.M        674.797              : datum        - DATUM ELEVATION
TDD .M        484.632              : tdd          - TOTAL DEPTH DRILLER
RUN .         ONE                  : Run          - RUN NUMBER
ENG .         BILL                 : Engineer     - RECORDING ENGINEER
WIT .         JIM                  : Witness      - WITNESSED BY
MUD .         GEL                  : Mud_type     - MUD TYPE
MATR.         SANDSTONE            : Logunit      - NEUTRON MATRIX
TMAX.C        21.6667              : BHT          - MAXIMUM RECORDED TEMPERATURE
BHTD.M        484.632              : BHTDEP       - MAXIMUM RECORDED TEMPERATURE
MATR.         1                    : LOGUNIT      - NEUTRON MATRIX
RMT .C        25                   : MDTP         - TEMPERATURE OF MUD
NEUT.         1                    : NEUTRON      - NEUTRON TYPE
RESI.         0                    : RESIST       - RESISTIVITY TYPE
RMC .OHMM     0.25                 : RMC          - RESISTIVITY OF MUD CAKE
RMF .OHMM     0.25                 : RMF          - RESISTIVITY OF MUD FILTRATE
SUFT.C        15                   : SUFT         - SURFACE TEMPERATURE
~A  DEPTH     DENS       GR     PHID     PHIN     RESD
# ...
  292.532    0.000  116.307    0.296    0.419   12.512
  292.782    0.000  122.561    0.255    0.428   12.135
  293.032    0.000  126.920    0.230    0.446   11.588
  293.282    0.000  125.403    0.227    0.460   10.930
  293.532    0.000  121.948    0.239    0.463   10.740
  293.782    0.000  110.356    0.256    0.445   11.025
  294.032    0.000  102.577    0.266    0.436   12.274
  294.282    0.000   95.672    0.276    0.439   13.149
  294.532    0.000   89.766    0.295    0.449   14.432
  294.782    0.000   95.401    0.323    0.459   15.389
  295.032    0.000  105.884    0.342    0.446   15.309
  295.282    0.000  118.357    0.323    0.437   14.442
  295.532    0.000  127.643    0.269    0.441   13.314
  295.782    0.000  133.637    0.242    0.454   10.864
  296.032    0.000  136.043    0.226    0.458    8.887
  296.282    0.000  134.370    0.225    0.452    7.262
  296.532    0.000  129.621    0.215    0.457    6.087
  296.782    0.000  126.991    0.203    0.498    5.964
  297.032    0.000  123.136    0.219    0.510    6.589
  297.282    0.000  115.443    0.267    0.491    7.466
  297.532    0.000  109.034    0.255    0.474    9.470
  297.782    0.000   97.510    0.243    0.482   11.999
  298.032    0.000   93.665    0.247    0.478   14.149
  298.282    0.000   94.329    0.256    0.464   15.493
  298.532    0.000  104.430    0.263    0.462   14.695
  298.782    0.000  107.730    0.265    0.462   13.079
  299.032    0.000  107.634    0.269    0.441   11.647
  299.282    0.000  106.113    0.237    0.439   11.808
  299.532    0.000  105.040    0.262    0.453   12.494
  299.782    0.000  104.770    0.257    0.461   12.867
  300.032    0.000  106.925    0.266    0.470   12.681
  300.282    0.000  107.060    0.270    0.469   12.582
  300.532    0.000  105.439    0.259    0.486   12.190
  300.782    0.000  105.212    0.255    0.498   11.876
  301.032    0.000  105.468    0.259    0.471   11.008
  301.282    0.000  108.347    0.262    0.458   10.048
  301.532    0.000  110.607    0.289    0.438    8.576
  301.782    0.000  114.313    0.277    0.444    7.371
  302.032    0.000  115.175    0.247    0.473    7.295
  302.282    0.000  115.970    0.256    0.491    7.560
  302.532    0.000  115.908    0.237    0.492    8.039
  302.782    0.000  113.341    0.262    0.472    8.831
  303.032    0.000  110.650    0.273    0.453    9.316
  303.282    0.000  106.858    0.275    0.444    9.843
  303.532    0.000  102.454    0.285    0.443   10.193
  303.782    0.000  100.207    0.263    0.434   10.643
  304.032    0.000   99.247    0.272    0.434   10.601
  304.282    0.000   96.560    0.285    0.462   10.491
  304.532    0.000   89.784    0.295    0.443   10.420
  304.782    0.000   86.056    0.281    0.428   10.726
  305.032    0.000   83.426    0.302    0.459   11.756
  305.282    0.000   78.967    0.323    0.472   12.889
  305.532    0.000   69.089    0.328    0.479   14.014
  305.782    0.000   60.532    0.317    0.482   16.071
  306.032    0.000   53.791    0.295    0.425   17.916
  306.282    0.000   53.833    0.276    0.406   19.041
  306.532    0.000   54.547    0.302    0.404   19.734
  306.782    0.000   55.139    0.310    0.415   19.968
  307.032    0.000   55.804    0.320    0.434   19.745
  307.282    0.000   55.705    0.335    0.441   19.656
  307.532    0.000   54.657    0.326    0.435   19.303
  307.782    0.000   54.666    0.325    0.433   19.500
  308.032    0.000   54.666    0.331    0.431   19.647
  308.282    0.000   55.254    0.334    0.418   19.701
  308.532    0.000   55.627    0.335    0.414   19.322
  308.782    0.000   55.963    0.339    0.416   18.959
  309.032    0.000   56.510    0.344    0.424   18.998
  309.282    0.000   56.690    0.348    0.437   18.978
  309.532    0.000   56.068    0.352    0.443   19.381
  309.782    0.000   56.048    0.353    0.433   19.336
  310.032    0.000   56.764    0.339    0.419   19.792
  310.282    0.000   57.370    0.318    0.409   19.764
  310.532    0.000   57.411    0.316    0.419   19.787
  310.782    0.000   57.575    0.324    0.420   19.861
  311.032    0.000   58.031    0.335    0.414   20.198
  311.282    0.000   60.019    0.339    0.436   19.781
  311.532    0.000   61.222    0.331    0.436   19.821
  311.782    0.000   60.615    0.329    0.423   19.837
  312.032    0.000   62.514    0.330    0.419   19.849
  312.282    0.000   63.088    0.344    0.427   19.859
  312.532    0.000   62.159    0.353    0.414   19.861
  312.782    0.000   63.021    0.343    0.415   19.761
  313.032    0.000   64.383    0.345    0.435   19.533
  313.282    0.000   66.528    0.357    0.454   19.529
  313.532    0.000   66.880    0.352    0.440   19.443
  313.782    0.000   66.331    0.343    0.434   19.543
  314.032    0.000   66.365    0.345    0.437   19.570
  314.282    0.000   66.539    0.364    0.453   19.589
  314.532    0.000   68.121    0.374    0.475   19.606
  314.782    0.000   68.938    0.346    0.480   19.653
  315.032    0.000   68.168    0.362    0.462   19.254
  315.282    0.000   67.598    0.355    0.449   18.995
  315.532    0.000   68.332    0.340    0.446   18.835
  315.782    0.000   68.980    0.335    0.428   18.246
  316.032    0.000   68.537    0.352    0.433   17.746
  316.282    0.000   68.473    0.367    0.450   16.849
  316.532    0.000   67.829    0.383    0.440   16.393
  316.782    0.000   68.545    0.365    0.436   16.048
  317.032    0.000   68.639    0.335    0.451   16.499
  317.282    0.000   69.112    0.351    0.474   16.710
  317.532    0.000   69.837    0.360    0.477   17.247
  317.782    0.000   69.841    0.354    0.454   17.402
  318.032    0.000   68.803    0.349    0.445   17.717
  318.282    0.000   67.068    0.347    0.443   17.856
  318.532    0.000   63.673    0.336    0.434   18.042
  318.782    0.000   62.525    0.334    0.440   18.058
  319.032    0.000   63.503    0.336    0.431   18.065
  319.282    0.000   64.517    0.330    0.418   18.077
  319.532    0.000   65.198    0.323    0.402   17.497
  319.782    0.000   65.372    0.310    0.401   17.276
  320.032    0.000   65.252    0.317    0.406   16.837
  320.282    0.000   63.929    0.336    0.419   16.057
  320.532    0.000   62.710    0.347    0.436   15.327
  320.782    0.000   62.124    0.363    0.446   15.128
  321.032    0.000   64.639    0.369    0.450   15.119
  321.282    0.000   64.049    0.358    0.476   15.144
  321.532    0.000   60.136    0.348    0.452   15.386
  321.782    0.000   56.260    0.334    0.437   15.703
  322.032    0.000   55.745    0.347    0.436   16.008
  322.282    0.000   56.837    0.362    0.441   16.002
  322.532    0.000   56.968    0.367    0.449   16.016
  322.782    0.000   57.036    0.362    0.449   16.026
  323.032    0.000   56.111    0.353    0.452   16.043
  323.282    0.000   54.346    0.330    0.459   16.111
  323.532    0.000   52.333    0.335    0.468   16.359
  323.782    0.000   52.575    0.351    0.474   16.373
  324.032    0.000   53.563    0.353    0.466   16.413
  324.282    0.000   53.601    0.359    0.457   16.705
  324.532   -0.000   52.913    0.359    0.448   16.847
  324.782    0.000   53.002    0.326    0.443   17.035
  325.032   -0.000   53.448    0.315    0.443   17.364
  325.282   -0.000   54.281    0.319    0.450   17.383
  325.532   -0.000   54.921    0.336    0.430   17.044
  325.782    0.000   55.338    0.348    0.417   17.089
  326.032    0.000   55.402    0.352    0.422   16.658
  326.282   -0.000   54.999    0.350    0.430   16.175
  326.532   -0.000   55.042    0.351    0.442   15.672
  326.782   -0.000   55.093    0.346    0.453   15.540
  327.032    0.000   54.558    0.348    0.445   15.328
  327.282    0.000   54.573    0.354    0.453   15.017
  327.532    0.000   53.832    0.348    0.472   15.055
  327.782   -0.000   53.403    0.350    0.472   15.073
  328.032   -0.000   52.772    0.356    0.470   15.197
  328.282   -0.000   52.189    0.362    0.463   15.373
  328.532    0.000   52.247    0.356    0.452   15.678
  328.782    0.000   52.273    0.351    0.449   15.677
