~VERSION INFORMATION
 VERS.                 2.0:   CWLS LOG ASCII STANDARD -VERSION 2.0
 WRAP.                  NO:   ONE LINE PER DEPTH STEP
~WELL INFORMATION BLOCK
#MNEM.UNIT           DATA                    DESCRIPTION OF MNEMONIC
#---------    -------------------            -------------------------------
# Generated from Intellog Unique Number	CS_67_68/WELL/2185
WELL.         CHIEFCO et al TWEEDIE          : Well_name    - WELL
LOC .         00/08-22-067-12W4/2            : Location     - LOCATION
UWI .         00/08-22-067-12W4/2            : Uwi          - UNIQUE WELL ID
ENTR.         SP                             : Entered      - ENTERED BY
SRVC.         SCHLUMBERGER                   : Scn          - SERVICE COMPANY
STRT.M        285                            : top_depth    - START DEPTH
STOP.M        455                            : bot_depth    - STOP DEPTH
STEP.M        0.25                           : increment    - STEP LENGTH
 NULL. -999.2500:NULL Value
~CURVE INFORMATION BLOCK
#MNEM UNIT       ERCB CURVE CODE    CURVE DESCRIPTION
#-----------   ------------------   ----------------------------------
DEPT.M        00 001 00 00         : DEPTH        - DEPTH
ILD .OHMM     00 120 00 00         : RESD         - DEEP RESISTIVITY (DIL)
DPHI.V/V      00 890 00 00         : PHID         - DENSITY POROSITY (LIMESTONE)
NPHI.V/V      00 330 00 00         : PHIN         - NEUTRON POROSITY (LIMESTONE)
GR  .API      00 310 00 00         : GR           - GAMMA RAY
CALI.MM       00 280 01 00         : CAL          - CALIPER
~PARAMETER INFORMATION
#MNEM.UNIT           DATA             DESCRIPTION OF MNEMONIC
#---------         -----------     ------------------------------
GL  .M        668.6                : gl           - GROUND LEVEL ELEVATION
EREF.M        671.6                : kb           - ELEVATION OF DEPTH REFERENCE
DATM.M        671.6                : datum        - DATUM ELEVATION
TDD .M        456.4                : tdd          - TOTAL DEPTH DRILLER
RUN .         ONE                  : Run          - RUN NUMBER
ENG .         BILL                 : Engineer     - RECORDING ENGINEER
WIT .         JIM                  : Witness      - WITNESSED BY
MUD .         GEL                  : Mud_type     - MUD TYPE
MATR.         LIMESTONE            : Logunit      - NEUTRON MATRIX
TMAX.C        11.7                 : BHT          - MAXIMUM RECORDED TEMPERATURE
BHTD.M        455.5                : BHTDEP       - MAXIMUM RECORDED TEMPERATURE
MATR.         1                    : LOGUNIT      - NEUTRON MATRIX
RMT .C        25                   : MDTP         - TEMPERATURE OF MUD
NEUT.         1                    : NEUTRON      - NEUTRON TYPE
RESI.         0                    : RESIST       - RESISTIVITY TYPE
RMC .OHMM     0.25                 : RMC          - RESISTIVITY OF MUD CAKE
RMF .OHMM     0.25                 : RMF          - RESISTIVITY OF MUD FILTRATE
SUFT.C        15                   : SUFT         - SURFACE TEMPERATURE
~A  DEPTH     RESD     PHID     PHIN       GR      CAL
  285.000    2.873    0.203    0.522   91.755  198.130
  285.250    2.820    0.234    0.503   90.903  200.950
  285.500    2.804    0.241    0.492   94.778  202.662
  285.750    2.851    0.243    0.491   97.623  205.886
  286.000    2.952    0.231    0.483   96.770  199.415
  286.250    3.079    0.254    0.469   92.826  190.216
  286.500    3.142    0.268    0.479   91.671  182.331
  286.750    3.254    0.199    0.459   92.636  175.960
  287.000    3.414    0.198    0.492   92.329  179.792
  287.250    3.913    0.188    0.520   84.385  188.775
  287.500    4.857    0.174    0.530   78.745  196.141
  287.750    5.746    0.177    0.348   72.680  202.902
  288.000    6.899    0.130    0.290   66.494  191.380
  288.250    8.116    0.276    0.281   61.096  171.878
  288.500    9.690    0.272    0.299   65.395  161.871
  288.750   11.087    0.316    0.296   62.057  163.883
  289.000   12.524    0.331    0.221   60.053  165.191
  289.250   14.198    0.345    0.197   58.474  164.073
  289.500   15.803    0.357    0.185   58.529  158.106
  289.750   17.138    0.364    0.199   60.223  156.179
  290.000   18.012    0.357    0.205   61.370  156.880
  290.250   18.896    0.357    0.199   57.911  157.984
  290.500   19.749    0.355    0.193   56.392  159.794
  290.750   20.263    0.344    0.196   56.751  161.303
  291.000   18.200    0.355    0.203   58.202  162.711
  291.250   11.442    0.341    0.213   60.743  162.704
  291.500    9.164    0.347    0.237   65.890  160.374
  291.750    7.859    0.322    0.270   71.947  156.024
  292.000    7.517    0.265    0.310   72.912  151.168
  292.250    7.944    0.247    0.305   70.120  153.585
  292.500    8.584    0.252    0.282   67.268  156.203
  292.750    9.553    0.278    0.269   65.627  158.014
  293.000   10.209    0.286    0.257   65.258  158.716
  293.250   11.154    0.292    0.248   65.012  155.577
  293.500   12.052    0.305    0.241   64.402  155.065
  293.750   12.573    0.314    0.231   61.792  155.261
  294.000   12.070    0.334    0.221   60.152  155.759
  294.250   10.921    0.307    0.248   63.905  154.439
  294.500    9.755    0.274    0.266   71.477  153.018
  294.750    8.137    0.225    0.293   80.139  151.596
  295.000    7.215    0.205    0.316   80.074  150.377
  295.250    6.812    0.204    0.342   77.100  149.562
  295.500    7.185    0.220    0.321   76.914  151.272
  295.750    7.909    0.208    0.314   76.850  153.589
  296.000    8.483    0.232    0.304   73.633  150.451
  296.250    9.371    0.256    0.286   67.993  145.392
  296.500    9.904    0.285    0.252   64.170  143.568
  296.750    9.994    0.294    0.247   61.318  146.389
  297.000    9.263    0.277    0.261   65.193  148.907
  297.250    8.538    0.263    0.274   70.158  151.728
  297.500    7.826    0.232    0.286   77.366  153.944
  297.750    7.471    0.212    0.301   82.513  155.856
  298.000    7.279    0.204    0.317   85.236  156.859
  298.250    7.580    0.194    0.329   80.080  157.257
  298.500    8.343    0.201    0.300   73.834  156.845
  298.750    9.032    0.225    0.271   68.194  154.313
  299.000    9.923    0.249    0.252   65.583  151.882
  299.250   10.882    0.273    0.229   64.124  150.561
  299.500   12.178    0.277    0.225   61.392  150.454
  299.750   13.183    0.283    0.236   60.540  151.861
  300.000   14.114    0.268    0.249   60.536  153.874
  300.250   13.227    0.285    0.265   60.169  153.867
  300.500   11.749    0.308    0.291   57.801  153.456
  300.750   10.651    0.296    0.231   61.675  152.843
  301.000    9.817    0.274    0.253   66.155  152.735
  301.250    8.982    0.243    0.279   69.484  152.830
  301.500    8.340    0.231    0.305   71.056  152.519
  301.750    8.201    0.240    0.295   70.931  152.310
  302.000    9.901    0.229    0.294   66.078  152.203
  302.250   12.449    0.234    0.298   57.408  152.600
  302.500   14.618    0.268    0.299   50.191  153.400
  302.750   16.331    0.316    0.247   45.218  154.201
  303.000   17.387    0.344    0.204   43.032  156.013
  303.250   14.211    0.330    0.167   52.603  157.622
  303.500   12.143    0.301    0.213   60.114  158.423
  303.750   10.148    0.277    0.264   68.049  159.425
  304.000    8.279    0.252    0.296   73.500  160.227
  304.250    7.114    0.246    0.329   77.071  160.321
  304.500    6.033    0.249    0.317   76.522  159.507
  304.750    5.280    0.269    0.306   70.941  157.984
  305.000    4.867    0.290    0.295   65.968  157.674
  305.250    4.536    0.276    0.308   73.236  157.970
  305.500    4.420    0.239    0.349   88.323  159.478
  305.750    4.535    0.204    0.374   95.106  161.694
  306.000    4.731    0.178    0.398  100.799  164.616
  306.250    4.926    0.154    0.406  102.249  167.235
  306.500    5.177    0.142    0.416   99.154  168.946
  306.750    5.381    0.180    0.426   97.029  169.544
  307.000    5.481    0.188    0.436   97.752  167.820
  307.250    5.520    0.195    0.422  100.536  167.006
  307.500    5.478    0.170    0.412  100.108  169.827
  307.750    5.468    0.168    0.420   97.254  172.142
  308.000    5.446    0.167    0.421   97.129  171.732
  308.250    5.445    0.192    0.420   99.186  170.210
  308.500    5.414    0.191    0.428  100.454  170.203
  308.750    5.393    0.191    0.437  100.510  167.368
  309.000    5.363    0.198    0.449   98.507  162.208
  309.250    5.362    0.183    0.435   98.017  163.515
  309.500    5.400    0.147    0.437   99.831  168.761
  309.750    5.470    0.150    0.429   99.888  172.289
  310.000    5.581    0.168    0.416   98.914  172.889
  310.250    5.694    0.148    0.407   97.212  170.153
  310.500    5.789    0.135    0.400   96.118  168.127
  310.750    5.885    0.149    0.395   95.144  166.908
  311.000    5.961    0.133    0.385   93.746  164.678
  311.250    5.993    0.127    0.387   91.136  162.247
  311.500    6.058    0.118    0.380   90.707  161.533
  311.750    6.114    0.144    0.383   92.521  162.839
  312.000    6.158    0.127    0.394   92.941  165.559
  312.250    6.134    0.143    0.396   90.997  168.987
  312.500    5.998    0.149    0.393   90.024  171.910
  312.750    5.279    0.153    0.394   89.596  174.731
  313.000    4.595    0.160    0.384   88.379  175.330
  313.250    4.119    0.171    0.390   85.890  172.798
  313.500    3.707    0.185    0.397   81.885  168.245
  313.750    3.360    0.194    0.381   79.397  164.703
  314.000    2.990    0.197    0.378   75.029  163.181
  314.250    2.726    0.210    0.408   69.812  163.072
  314.500    2.531    0.241    0.428   65.081  163.671
  314.750    2.421    0.243    0.412   59.925  163.564
  315.000    2.411    0.231    0.411   54.709  162.748
  315.250    2.479    0.262    0.434   50.463  161.429
  315.500    2.483    0.276    0.415   44.762  160.614
  315.750    2.437    0.292    0.381   47.364  159.697
  316.000    2.392    0.275    0.369   53.602  159.893
  316.250    2.330    0.248    0.379   59.477  159.886
  316.500    2.308    0.233    0.390   56.382  159.575
  316.750    2.291    0.237    0.401   51.044  159.165
  317.000    2.278    0.255    0.400   49.040  158.855
  317.250    2.261    0.266    0.389   56.610  159.151
  317.500    2.260    0.272    0.394   60.607  159.447
  317.750    2.231    0.261    0.412   58.603  160.147
  318.000    2.210    0.263    0.425   53.084  160.544
  318.250    2.201    0.264    0.435   47.443  160.133
  318.500    2.213    0.265    0.412   43.621  158.712
  318.750    2.271    0.259    0.386   48.041  156.785
  319.000    2.334    0.260    0.397   56.825  155.466
  319.250    2.494    0.275    0.383   66.093  154.247
  319.500    2.715    0.270    0.395   73.058  153.533
  319.750    3.022    0.273    0.418   78.327  153.526
  320.000    3.389    0.258    0.439   83.535  154.023
  320.250    3.675    0.266    0.455   89.713  154.723
  320.500    3.927    0.231    0.464   98.193  155.626
  320.750    4.158    0.213    0.470  122.249  157.033
  321.000    4.036    0.197    0.479  132.972  159.046
  321.250    3.532    0.190    0.476  132.786  161.868
