~VERSION INFORMATION
 VERS.                 2.0:   CWLS LOG ASCII STANDARD -VERSION 2.0
 WRAP.                  NO:   ONE LINE PER DEPTH STEP
~WELL INFORMATION BLOCK
#MNEM.UNIT           DATA                    DESCRIPTION OF MNEMONIC
#---------    -------------------            -------------------------------
# Generated from Intellog Unique Number	CW_73_75/WELL/549
WELL.         AMOCO 59 MARTEN HILLS 06-21    : Well_name    - WELL
LOC .         00/06-21-075-25W4/0            : Location     - LOCATION
UWI .         00/06-21-075-25W4/0            : Uwi          - UNIQUE WELL ID
ENTR.         JAYE                           : Entered      - ENTERED BY
SRVC.         SCHLUMBERGER                   : Scn          - SERVICE COMPANY
DATE.         27 JAN 75                      : Date         - LOG DATE
STRT.M        445.008                        : top_depth    - START DEPTH
STOP.M        647.508                        : bot_depth    - STOP DEPTH
STEP.M        0.25                           : increment    - STEP LENGTH
 NULL. -999.2500:NULL Value
~CURVE INFORMATION BLOCK
#MNEM UNIT       ERCB CURVE CODE    CURVE DESCRIPTION
#-----------   ------------------   ----------------------------------
DEPT.M        00 001 00 00         : DEPTH        - DEPTH
ILD .OHMM     00 120 00 00         : RESD         - DEEP RESISTIVITY (DIL)
NPHI.V/V      00 330 00 00         : PHIN         - NEUTRON POROSITY (SANDSTONE)
DPHI.V/V      00 890 00 00         : PHID         - DENSITY POROSITY (SANDSTONE)
GR  .API      00 310 00 00         : GR           - GAMMA RAY
CALI.MM       00 280 01 00         : CAL          - CALIPER
~PARAMETER INFORMATION
#MNEM.UNIT           DATA             DESCRIPTION OF MNEMONIC
#---------         -----------     ------------------------------
GL  .M        724.51               : gl           - GROUND LEVEL ELEVATION
EREF.M        728.624              : kb           - ELEVATION OF DEPTH REFERENCE
DATM.M        724.51               : datum        - DATUM ELEVATION
TDD .M        647.7                : tdd          - TOTAL DEPTH DRILLER
RUN .         ONE                  : Run          - RUN NUMBER
MATR.         SANDSTONE            : Logunit      - NEUTRON MATRIX
TMAX.C        27.7778              : BHT          - MAXIMUM RECORDED TEMPERATURE
BHTD.M        648.005              : BHTDEP       - MAXIMUM RECORDED TEMPERATURE
RMT .C        17.2222              : MDTP         - TEMPERATURE OF MUD
MUDD.KG/M     0                    : MWT          - MUD DENSITY
NEUT.         1                    : NEUTRON      - NEUTRON TYPE
RESI.         0                    : RESIST       - RESISTIVITY TYPE
RM  .OHMM     4.33                 : RM           - RESISTIVITY OF MUD
RMC .OHMM     0                    : RMC          - RESISTIVITY OF MUD CAKE
RMF .OHMM     5.22                 : RMF          - RESISTIVITY OF MUD FILTRATE
SUFT.C        -17.7778             : SUFT         - SURFACE TEMPERATURE
~A  DEPTH     RESD     PHIN     PHID       GR      CAL
# ...
  591.008   26.647    0.375    0.190   55.996  220.695
  591.258   27.643    0.394    0.181   56.354  220.486
  591.508   28.570    0.397    0.174   56.652  220.071
  591.758   29.583    0.387    0.174   57.131  220.064
  592.008   29.855    0.388    0.187   57.791  220.059
  592.258   28.517    0.396    0.204   59.476  219.849
  592.508   26.792    0.393    0.216   60.438  219.127
  592.758   25.265    0.398    0.230   63.751  219.122
  593.008   23.912    0.425    0.227   63.989  218.912
  593.258   22.756    0.441    0.241   61.814  218.701
  593.508   21.976    0.430    0.230   62.534  218.593
  593.758   21.458    0.422    0.227   63.616  218.178
  594.008   21.301    0.421    0.227   64.457  217.865
  594.258   21.497    0.423    0.224   63.247  217.552
  594.508   21.975    0.417    0.223   61.133  217.548
  594.758   22.423    0.406    0.216   59.621  217.847
  595.008   23.260    0.399    0.212   58.471  218.250
  595.258   24.441    0.404    0.217   57.745  218.959
  595.508   25.776    0.406    0.201   56.836  219.974
  595.758   27.484    0.368    0.182   55.928  220.786
  596.008   28.933    0.348    0.154   55.141  221.698
  596.258   30.234    0.360    0.129   54.352  221.998
  596.508   30.681    0.388    0.141   54.470  222.197
  596.758   29.793    0.394    0.170   55.311  222.191
  597.008   28.719    0.397    0.180   57.901  222.185
  597.258   27.786    0.404    0.188   61.214  221.975
  597.508   27.281    0.406    0.199   61.934  221.969
  597.758   27.331    0.402    0.209   61.207  221.962
  598.008   27.582    0.397    0.210   59.213  222.058
  598.258   28.144    0.397    0.204   57.520  222.053
  598.508   29.142    0.404    0.215   57.216  222.046
  598.758   30.397    0.394    0.215   57.393  222.041
  599.008   31.073    0.382    0.213   57.872  221.932
  599.258   31.474    0.379    0.212   58.532  221.620
  599.508   31.072    0.393    0.212   60.337  221.307
  599.758   29.354    0.405    0.256   63.048  221.302
  600.008   27.782    0.411    0.267   64.673  220.989
  600.258   25.722    0.425    0.268   65.212  220.881
  600.508   23.296    0.459    0.270   65.570  220.568
  600.758   21.060    0.450    0.278   65.808  220.563
  601.008   19.250    0.440    0.269   66.468  220.455
  601.258   18.727    0.448    0.279   68.395  220.040
  601.508   19.714    0.467    0.253   69.476  219.830
  601.758   21.253    0.421    0.240   67.422  219.619
  602.008   23.509    0.401    0.229   64.463  219.509
  602.258   26.004    0.374    0.180   64.219  219.198
  602.508   27.074    0.347    0.149   64.275  218.680
  602.758   26.051    0.374    0.150   63.849  218.471
  603.008   24.883    0.401    0.186   62.700  218.158
  603.258   24.341    0.406    0.212   61.490  218.051
  603.508   24.163    0.399    0.215   60.944  218.556
  603.758   24.474    0.384    0.200   60.760  218.856
  604.008   25.019    0.371    0.163   60.997  219.360
  604.258   25.858    0.351    0.109   61.416  219.456
  604.508   26.385    0.327    0.121   61.774  219.553
  604.758   26.336    0.350    0.161   62.132  219.955
  605.008   25.715    0.373    0.160   61.344  219.949
  605.258   25.063    0.397    0.163   61.221  220.146
  605.508   24.472    0.370    0.176   62.182  220.141
  605.758   23.764    0.351    0.132   62.842  220.238
  606.008   22.782    0.337    0.110   62.295  220.130
  606.258   21.522    0.333    0.101   63.136  220.428
  606.508   20.332    0.351    0.128   65.726  220.627
  606.758   19.456    0.388    0.181   67.894  221.030
  607.008   18.790    0.393    0.182   67.528  221.330
  607.258   18.146    0.380    0.161   67.464  221.631
  607.508   17.333    0.383    0.172   69.149  222.033
  607.758   15.612    0.390    0.163   71.197  222.232
  608.008   13.985    0.400    0.179   73.002  222.634
  608.258   12.413    0.405    0.192   74.929  223.138
  608.508   11.038    0.399    0.191   77.036  223.337
  608.758    9.601    0.393    0.185   78.601  223.330
  609.008    8.776    0.388    0.175   79.622  223.325
  609.258    8.291    0.393    0.177   80.584  222.706
  609.508    8.007    0.398    0.160   82.088  221.066
  609.758    7.919    0.394    0.138   84.316  219.324
  610.008    7.904    0.400    0.116   84.976  217.786
  610.258    7.875    0.397    0.153   82.922  219.618
  610.508    7.861    0.383    0.128   83.763  223.288
  610.758    7.803    0.388    0.110   87.197  225.325
  611.008    7.689    0.400    0.129   90.209  226.851
  611.258    7.494    0.413    0.160   91.954  227.254
  611.508    7.426    0.420    0.155   92.916  227.451
  611.758    7.344    0.415    0.139   93.817  227.446
  612.008    7.304    0.408    0.133   94.476  227.336
  612.258    7.453    0.422    0.147   94.473  227.433
  612.508    7.874    0.403    0.136   93.926  227.223
  612.758    8.599    0.382    0.124   92.898  226.707
  613.008    9.219    0.354    0.134   90.663  226.088
  613.258   10.012    0.337    0.109   88.970  225.264
  613.508   10.954    0.356    0.123   88.726  224.645
  613.758   11.745    0.367    0.146   88.481  224.333
  614.008   12.094    0.364    0.137   87.693  224.429
  614.258   12.005    0.358    0.144   85.699  224.628
  614.508   11.787    0.350    0.136   84.429  224.622
  614.758   11.363    0.365    0.125   82.918  224.309
  615.008   10.893    0.373    0.161   82.190  224.303
  615.258   10.481    0.363    0.158   83.091  224.297
  615.508   10.253    0.363    0.152   84.596  224.291
  615.758   10.178    0.358    0.149   86.643  224.796
  616.008   10.122    0.344    0.144   88.026  225.300
  616.258    9.919    0.344    0.147   89.290  225.805
  616.508    9.371    0.348    0.153   91.578  226.616
  616.758    8.885    0.355    0.152   94.228  228.244
  617.008    8.708    0.370    0.153   96.939  230.382
  617.258    9.116    0.383    0.154   95.850  230.173
  617.508   10.065    0.372    0.138   92.287  225.673
  617.758   11.699    0.347    0.114   87.760  222.909
  618.008   13.698    0.320    0.093   81.907  221.984
  618.258   15.404    0.284    0.062   72.374  221.569
  618.508   15.546    0.262    0.042   65.615  221.460
  618.758   14.079    0.238    0.044   63.259  221.659
  619.008   12.497    0.221    0.027   67.055  222.367
  619.258   11.215    0.279    0.011   79.657  223.076
  619.508   10.064    0.318    0.037   86.047  223.684
  619.758    8.316    0.361    0.112   87.671  224.392
  620.008    8.150    0.389    0.129   88.633  224.693
  620.258    8.835    0.390    0.125   88.810  224.891
  620.508    9.335    0.403    0.118   88.082  225.190
  620.758    9.881    0.405    0.142   87.657  225.390
  621.008   10.478    0.394    0.133   87.231  225.587
  621.258   10.731    0.370    0.114   86.564  225.683
  621.508   10.287    0.357    0.106   86.199  225.780
  621.758    9.683    0.365    0.110   86.376  225.774
  622.008    9.181    0.353    0.080   88.243  225.767
  622.258    8.899    0.373    0.118   90.893  225.762
  622.508    8.516    0.404    0.154   91.793  225.858
  622.758    8.269    0.413    0.147   91.127  226.056
  623.008    8.030    0.393    0.124   89.073  226.458
  623.258    7.798    0.382    0.114   90.516  227.270
  623.508    7.670    0.378    0.138   93.649  227.672
  623.758    7.544    0.386    0.153   96.360  227.870
  624.008    7.407    0.392    0.143   96.235  227.967
  624.258    7.326    0.404    0.145   93.035  228.163
  624.508    7.232    0.401    0.137   92.188  228.159
  624.758    7.153    0.391    0.119   95.863  227.847
  625.008    7.114    0.396    0.144   99.538  227.330
  625.258    7.140    0.389    0.153  102.671  226.404
  625.508    7.205    0.382    0.106   99.953  225.990
  625.758    7.074    0.378    0.058   95.185  225.983
  626.008    6.696    0.373    0.036   90.598  226.488
  626.258    5.760    0.366    0.102   86.614  227.300
  626.508    4.580    0.357    0.119   89.807  228.519
  626.758    3.662    0.367    0.128   94.085  229.432
  627.008    3.168    0.388    0.148   97.158  229.937
  627.258    2.906    0.408    0.159  100.049  229.828
