~VERSION INFORMATION
 VERS.                 2.0:   CWLS LOG ASCII STANDARD -VERSION 2.0
 WRAP.                  NO:   ONE LINE PER DEPTH STEP
~WELL INFORMATION BLOCK
#MNEM.UNIT           DATA                    DESCRIPTION OF MNEMONIC
#---------    -------------------            -------------------------------
# Generated from Intellog Unique Number	CS_73_76/WELL/957
WELL.         DOME PETROLEUM LIMITED         : Well_name    - WELL
LOC .         00/03-14-075-16W4/0            : Location     - LOCATION
UWI .         00/03-14-075-16W4/0            : Uwi          - UNIQUE WELL ID
ENTR.         SP                             : Entered      - ENTERED BY
SRVC.         SCHLUMBERGER                   : Scn          - SERVICE COMPANY
STRT.M        350                            : top_depth    - START DEPTH
STOP.M        555                            : bot_depth    - STOP DEPTH
STEP.M        0.25                           : increment    - STEP LENGTH
 NULL. -999.2500:NULL Value
~CURVE INFORMATION BLOCK
#MNEM UNIT       ERCB CURVE CODE    CURVE DESCRIPTION
#-----------   ------------------   ----------------------------------
DEPT.M        00 001 00 00         : DEPTH        - DEPTH
GR  .API      00 310 00 00         : GR           - GAMMA RAY
NPHI.V/V      00 330 00 00         : PHIN         - NEUTRON POROSITY (LIMESTONE)
DPHI.V/V      00 890 00 00         : PHID         - DENSITY POROSITY (LIMESTONE)
ILD .OHMM     00 120 00 00         : RESD         - DEEP RESISTIVITY (DIL)
~PARAMETER INFORMATION
#MNEM.UNIT           DATA             DESCRIPTION OF MNEMONIC
#---------         -----------     ------------------------------
GL  .M        715.4                : gl           - GROUND LEVEL ELEVATION
EREF.M        719.4                : kb           - ELEVATION OF DEPTH REFERENCE
DATM.M        715.4                : datum        - DATUM ELEVATION
TDD .M        555                  : tdd          - TOTAL DEPTH DRILLER
RUN .         ONE                  : Run          - RUN NUMBER
ENG .         BILL                 : Engineer     - RECORDING ENGINEER
WIT .         JIM                  : Witness      - WITNESSED BY
MUD .         GEL                  : Mud_type     - MUD TYPE
MATR.         LIMESTONE            : Logunit      - NEUTRON MATRIX
TMAX.C        24                   : BHT          - MAXIMUM RECORDED TEMPERATURE
BHTD.M        555                  : BHTDEP       - MAXIMUM RECORDED TEMPERATURE
MATR.         1                    : LOGUNIT      - NEUTRON MATRIX
RMT .C        25                   : MDTP         - TEMPERATURE OF MUD
NEUT.         1                    : NEUTRON      - NEUTRON TYPE
RESI.         0                    : RESIST       - RESISTIVITY TYPE
RMC .OHMM     0.25                 : RMC          - RESISTIVITY OF MUD CAKE
RMF .OHMM     0.25                 : RMF          - RESISTIVITY OF MUD FILTRATE
SUFT.C        15                   : SUFT         - SURFACE TEMPERATURE
~A  DEPTH       GR     PHIN     PHID     RESD
# ...
  393.500   64.023    0.490    0.336    8.134
  393.750   67.668    0.480    0.323    7.840
  394.000   72.528    0.459    0.305    7.019
  394.250   75.566    0.450    0.299    6.401
  394.500   79.211    0.463    0.278    5.731
  394.750   81.034    0.473    0.294    5.324
  395.000   81.643    0.479    0.281    5.131
  395.250   81.645    0.458    0.275    5.131
  395.500   82.861    0.451    0.293    5.131
  395.750   85.899    0.453    0.293    5.324
  396.000   89.544    0.452    0.278    5.626
  396.250   93.189    0.452    0.273    5.731
  396.500   94.405    0.446    0.292    6.056
  396.750   93.192    0.440    0.298    6.283
  397.000   91.372    0.434    0.294    6.400
  397.250   89.551    0.428    0.276    6.400
  397.500   90.160    0.428    0.254    6.399
  397.750   92.591    0.447    0.242    6.399
  398.000   95.629    0.459    0.240    6.399
  398.250   96.237    0.464    0.259    6.639
  398.500   93.809    0.459    0.294    6.639
  398.750   86.524    0.458    0.315    6.639
  399.000   81.060    0.445    0.325    6.518
  399.250   80.454    0.446    0.284    6.282
  399.500   91.386    0.453    0.243    6.282
  399.750   96.246    0.467    0.243    6.281
  400.000   98.069    0.474    0.242    6.638
  400.250   82.889    0.475    0.254    7.146
  400.500   71.959    0.473    0.283    7.414
  400.750   65.888    0.458    0.287    7.980
  401.000   56.780    0.429    0.299    8.128
  401.250   52.530    0.413    0.319    8.590
  401.500   51.317    0.411    0.325    8.750
  401.750   51.319    0.405    0.311    8.912
  402.000   51.320    0.399    0.304    8.912
  402.250   51.322    0.397    0.312    8.912
  402.500   51.931    0.400    0.312    8.911
  402.750   52.539    0.412    0.312    8.911
  403.000   53.755    0.410    0.316    8.911
  403.250   54.972    0.406    0.322    8.748
  403.500   54.973    0.403    0.330    8.748
  403.750   54.974    0.397    0.330    8.748
  404.000   54.369    0.418    0.325    8.748
  404.250   54.370    0.412    0.328    8.747
  404.500   54.371    0.405    0.342    8.747
  404.750   54.981    0.417    0.339    8.747
  405.000   54.982    0.424    0.335    8.747
  405.250   54.376    0.428    0.330    8.747
  405.500   52.556    0.432    0.340    8.746
  405.750   50.127    0.423    0.343    8.909
  406.000   52.559    0.407    0.334    8.909
  406.250   54.382    0.395    0.330    8.908
  406.500   56.205    0.389    0.317    8.908
  406.750   57.421    0.381    0.312    8.908
  407.000   55.601    0.375    0.335    8.908
  407.250   50.744    0.382    0.331    8.908
  407.500   48.316    0.395    0.330    9.073
  407.750   49.532    0.407    0.331    9.073
  408.000   51.963    0.422    0.333    9.073
  408.250   53.179    0.433    0.348    9.072
  408.500   54.395    0.423    0.335    9.072
  408.750   53.789    0.403    0.319    9.072
  409.000   53.183    0.401    0.317    9.072
  409.250   53.185    0.410    0.341    9.072
  409.500   54.401    0.406    0.343    9.071
  409.750   55.617    0.394    0.328    9.240
  410.000   57.441    0.392    0.335    9.240
  410.250   57.442    0.398    0.345    9.240
  410.500   55.621    0.384    0.335    9.239
  410.750   53.194    0.401    0.322    9.239
  411.000   52.588    0.413    0.343    9.070
  411.250   56.841    0.425    0.353    9.070
  411.500   57.449    0.419    0.361    9.070
  411.750   59.880    0.409    0.370    9.070
  412.000   59.275    0.423    0.380    9.069
  412.250   58.668    0.434    0.359    9.069
  412.500   58.670    0.433    0.345    8.904
  412.750   58.671    0.428    0.338    8.903
  413.000   59.888    0.428    0.340    8.741
  413.250   61.104    0.447    0.354    8.740
  413.500   61.105    0.456    0.365    8.740
  413.750   61.714    0.469    0.382    8.580
  414.000   62.929    0.477    0.386    8.424
  414.250   64.754    0.453    0.376    8.424
  414.500   65.362    0.452    0.380    8.423
  414.750   65.970    0.446    0.367    8.423
  415.000   63.543    0.435    0.363    8.423
  415.250   62.937    0.439    0.364    8.423
  415.500   61.117    0.437    0.352    8.423
  415.750   56.867    0.441    0.343    8.422
  416.000   53.225    0.450    0.344    8.422
  416.250   51.404    0.439    0.357    8.738
  416.500   56.872    0.431    0.369    8.738
  416.750   58.695    0.434    0.364    8.900
  417.000   61.126    0.443    0.338    9.065
  417.250   60.520    0.451    0.330    9.234
  417.500   57.485    0.443    0.334    9.233
  417.750   54.450    0.434    0.348    9.233
  418.000   53.236    0.435    0.353    9.233
  418.250   53.238    0.425    0.346    9.233
  418.500   53.240    0.425    0.336    9.404
  418.750   52.634    0.431    0.335    9.404
  419.000   52.636    0.441    0.346    9.404
  419.250   48.993    0.443    0.357    9.579
  419.500   47.780    0.434    0.350    9.578
  419.750   47.174    0.419    0.335    9.578
  420.000   48.997    0.428    0.340    9.403
  420.250   50.821    0.433    0.347    9.403
  420.500   50.823    0.423    0.337    9.403
  420.750   49.609    0.427    0.334    9.231
  421.000   47.181    0.437    0.352    9.231
  421.250   45.362    0.441    0.352    9.230
  421.500   45.363    0.442    0.354    9.230
  421.750   44.757    0.435    0.354    9.230
  422.000   45.366    0.434    0.341    9.401
  422.250   45.975    0.434    0.325    9.576
  422.500   44.761    0.419    0.285   10.308
  422.750   42.941    0.283    0.224   10.695
  423.000   40.513    0.297    0.272   11.096
  423.250   39.908    0.348    0.319   11.302
  423.500   40.516    0.395    0.342   10.307
  423.750   42.339    0.410    0.337    9.934
  424.000   44.163    0.426    0.352    9.400
  424.250   45.986    0.454    0.346    9.060
  424.500   47.203    0.463    0.344    8.732
  424.750   47.811    0.469    0.348    8.572
  425.000   45.383    0.463    0.361    8.572
  425.250   44.170    0.457    0.364    8.572
  425.500   45.386    0.461    0.369    8.571
  425.750   46.602    0.452    0.364    8.415
  426.000   47.211    0.424    0.358    8.415
  426.250   45.998    0.407    0.354    8.261
  426.500   46.607    0.404    0.340    8.110
  426.750   47.823    0.418    0.352    8.110
  427.000   46.610    0.436    0.358    7.962
  427.250   46.004    0.432    0.354    7.961
  427.500   46.005    0.424    0.353    7.961
  427.750   46.614    0.419    0.342    7.961
  428.000   46.615    0.434    0.349    7.816
  428.250   47.225    0.442    0.354    7.815
  428.500   47.226    0.429    0.371    7.815
  428.750   47.227    0.419    0.350    7.672
  429.000   47.836    0.436    0.338    7.672
  429.250   47.230    0.442    0.355    7.672
  429.500   46.017    0.440    0.360    7.672
  429.750   43.590    0.438    0.365    7.672
  430.000   44.806    0.431    0.361    7.671
  430.250   45.415    0.422    0.366    7.671
  430.500   44.809    0.413    0.371    7.671
  430.750   45.417    0.414    0.355    7.671
  431.000   46.633    0.424    0.355    7.671
  431.250   47.242    0.435    0.360    7.671
  431.500   47.851    0.441    0.361    7.671
  431.750   50.281    0.447    0.360    7.813
  432.000   52.712    0.457    0.364    7.958
  432.250   55.143    0.466    0.367    7.958
  432.500   56.359    0.475    0.374    7.958
  432.750   57.575    0.460    0.381    8.105
  433.000   58.184    0.461    0.366    8.256
  433.250   57.578    0.464    0.361    8.256
  433.500   57.580    0.449    0.356    8.409
  433.750   58.796    0.446    0.373    8.409
  434.000   60.619    0.451    0.378    8.565
  434.250   63.657    0.458    0.380    8.565
  434.500   66.695    0.471    0.374    8.565
  434.750   68.518    0.476    0.364    8.564
  435.000   68.519    0.482    0.355    8.564
  435.250   69.736    0.471    0.354    8.564
  435.500   71.559    0.467    0.347    8.408
  435.750   71.560    0.470    0.337    7.955
  436.000   72.169    0.490    0.332    7.390
  436.250   74.600    0.498    0.338    7.123
  436.500   76.423    0.481    0.335    6.865
  436.750   77.032    0.453    0.315    6.865
