~VERSION INFORMATION
 VERS.                 2.0:   CWLS LOG ASCII STANDARD -VERSION 2.0
 WRAP.                  NO:   ONE LINE PER DEPTH STEP
~WELL INFORMATION BLOCK
#MNEM.UNIT           DATA                    DESCRIPTION OF MNEMONIC
#---------    -------------------            -------------------------------
# Generated from Intellog Unique Number	CW_73_75/WELL/288
WELL.         CALGAS ET AL MITSUE 02-06      : Well_name    - WELL
LOC .         00/02-06-074-04W5/0            : Location     - LOCATION
UWI .         00/02-06-074-04W5/0            : Uwi          - UNIQUE WELL ID
ENTR.         JAYE                           : Entered      - ENTERED BY
SRVC.         SCHLUMBERGER                   : Scn          - SERVICE COMPANY
DATE.         6 SEP 88                       : Date         - LOG DATE
STRT.M        365                            : top_depth    - START DEPTH
STOP.M        620                            : bot_depth    - STOP DEPTH
STEP.M        0.25                           : increment    - STEP LENGTH
 NULL. -999.2500:NULL Value
~CURVE INFORMATION BLOCK
#MNEM UNIT       ERCB CURVE CODE    CURVE DESCRIPTION
#-----------   ------------------   ----------------------------------
DEPT.M        00 001 00 00         : DEPTH        - DEPTH
ILD .OHMM     00 120 00 00         : RESD         - DEEP RESISTIVITY (DIL)
DPHI.V/V      00 890 00 00         : PHID         - DENSITY POROSITY (SANDSTONE)
NPHI.V/V      00 330 00 00         : PHIN         - NEUTRON POROSITY (SANDSTONE)
GR  .API      00 310 00 00         : GR           - GAMMA RAY
CALI.MM       00 280 01 00         : CAL          - CALIPER
~PARAMETER INFORMATION
#MNEM.UNIT           DATA             DESCRIPTION OF MNEMONIC
#---------         -----------     ------------------------------
GL  .M        596.5                : gl           - GROUND LEVEL ELEVATION
EREF.M        596.5                : kb           - ELEVATION OF DEPTH REFERENCE
DATM.M        596.5                : datum        - DATUM ELEVATION
TDD .M        1650                 : tdd          - TOTAL DEPTH DRILLER
RUN .         ONE                  : Run          - RUN NUMBER
ENG .         ASHTOM               : Engineer     - RECORDING ENGINEER
WIT .         WORK                 : Witness      - WITNESSED BY
BASE.         SLAVE LAKE           : Branch       - HOME BASE OF LOGGING UNIT
MUD .         GEL CHEM             : Mud_type     - MUD TYPE
MATR.         SANDSTONE            : Logunit      - NEUTRON MATRIX
TMAX.C        47                   : BHT          - MAXIMUM RECORDED TEMPERATURE
BHTD.M        1652.8               : BHTDEP       - MAXIMUM RECORDED TEMPERATURE
RMT .C        29                   : MDTP         - TEMPERATURE OF MUD
MUDD.KG/M     1150                 : MWT          - MUD DENSITY
NEUT.         1                    : NEUTRON      - NEUTRON TYPE
RESI.         0                    : RESIST       - RESISTIVITY TYPE
RM  .OHMM     0.73                 : RM           - RESISTIVITY OF MUD
RMC .OHMM     0                    : RMC          - RESISTIVITY OF MUD CAKE
RMF .OHMM     0.74                 : RMF          - RESISTIVITY OF MUD FILTRATE
SUFT.C        0                    : SUFT         - SURFACE TEMPERATURE
~A  DEPTH     RESD     PHID     PHIN       GR      CAL
# ...
  474.500    5.046    0.232    1.013   59.671  266.696
  474.750    4.925    0.216    1.007   60.355  270.490
  475.000    4.666    0.201    1.037   61.282  268.567
  475.250    4.579    0.219    1.048   63.007  263.787
  475.500    4.706    0.231    1.029   64.120  262.069
  475.750    4.927    0.224    1.008   66.333  266.168
  476.000    4.925    0.222    0.985   68.059  269.347
  476.250    4.650    0.216    1.004   68.251  274.264
  476.500    4.285    0.201    1.016   67.159  276.627
  476.750    4.339    0.208    0.997   65.271  271.540
  477.000    4.509    0.226    0.997   60.138  268.088
  477.250    4.669    0.240    1.015   60.148  264.431
  477.500    4.728    0.247    1.012   63.342  261.794
  477.750    4.727    0.257    0.992   64.516  263.750
  478.000    4.613    0.253    1.005   64.097  266.318
  478.250    4.469    0.218    1.021   63.495  267.049
  478.500    4.361    0.221    1.035   64.669  267.067
  478.750    4.256    0.238    1.034   67.004  266.777
  479.000    4.100    0.230    1.029   64.749  266.794
  479.250    3.965    0.213    1.030   65.004  267.116
  479.500    3.862    0.204    1.030   67.035  266.418
  479.750    3.804    0.207    1.037   67.841  265.006
  480.000    3.740    0.214    1.041   68.218  261.248
  480.250    4.071    0.224    1.052   68.778  257.387
  480.500    5.194    0.236    1.040   65.361  244.138
  480.750    6.505    0.259    1.020   56.799  243.032
  481.000    7.795    0.281    1.002   53.748  242.642
  481.250    8.343    0.272    0.985   52.595  243.271
  481.500    8.188    0.270    0.975   52.544  244.513
  481.750    7.859    0.271    1.006   52.431  246.059
  482.000    7.460    0.282    1.017   50.849  247.707
  482.250    6.749    0.296    1.015   51.226  249.051
  482.500    6.106    0.288    1.002   53.012  250.190
  482.750    5.679    0.274    0.990   56.267  250.207
  483.000    5.491    0.266    0.991   59.338  250.022
  483.250    5.409    0.261    1.027   61.858  250.036
  483.500    5.468    0.258    1.025   60.950  250.563
  483.750    5.557    0.256    1.016   59.675  251.293
  484.000    5.765    0.253    1.017   58.276  251.618
  484.250    6.069    0.252    1.023   53.694  251.839
  484.500    6.330    0.253    1.010   53.643  252.060
  484.750    6.470    0.261    0.996   55.551  252.483
  485.000    6.552    0.275    1.005   54.520  253.418
  485.250    6.598    0.291    1.021   52.694  254.352
  485.500    6.633    0.297    1.012   53.560  254.880
  485.750    6.582    0.295    0.998   54.734  254.897
  486.000    6.531    0.287    1.024   53.275  254.915
  486.250    6.492    0.285    1.021   52.489  255.035
  486.500    6.479    0.285    1.031   53.233  255.152
  486.750    6.393    0.282    1.036   53.060  255.269
  487.000    6.227    0.278    1.025   50.805  255.595
  487.250    6.112    0.275    1.018   51.549  255.304
  487.500    5.986    0.273    1.030   52.784  255.321
  487.750    5.886    0.275    1.037   55.732  255.440
  488.000    5.787    0.288    1.028   58.191  255.354
  488.250    5.763    0.294    1.012   59.243  255.166
  488.500    5.730    0.282    0.997   58.395  254.980
  488.750    5.759    0.268    0.991   56.691  255.096
  489.000    5.768    0.277    1.002   52.538  255.521
  489.250    5.874    0.292    0.993   46.731  256.456
  489.500    5.883    0.301    0.986   48.026  256.883
  489.750    5.794    0.295    0.997   48.221  256.696
  490.000    5.750    0.286    1.001   45.537  256.303
  490.250    5.726    0.288    0.997   44.261  255.810
  490.500    5.724    0.294    1.002   47.945  255.418
  490.750    5.628    0.294    1.010   49.057  254.517
  491.000    5.544    0.291    1.015   48.332  254.024
  491.250    5.552    0.290    1.007   49.995  254.141
  491.500    5.633    0.292    1.025   51.780  254.566
  491.750    5.704    0.294    1.033   49.219  254.787
  492.000    5.671    0.292    1.016   45.066  254.600
  492.250    5.565    0.291    0.995   44.648  254.106
  492.500    5.461    0.290    0.999   48.208  253.816
  492.750    5.203    0.295    1.009   45.831  252.914
  493.000    5.022    0.306    1.019   45.779  250.686
  493.250    4.974    0.311    1.029   47.748  248.766
  493.500    5.545    0.309    1.031   48.432  247.354
  493.750    6.583    0.298    1.018   46.667  246.247
  494.000    7.602    0.273    0.996   43.554  244.734
  494.250    8.475    0.255    0.896   40.748  242.708
  494.500    8.922    0.248    0.853   42.839  240.889
  494.750    8.532    0.267    0.840   44.992  239.885
  495.000    8.099    0.281    0.915   47.329  239.801
  495.250    7.477    0.295    0.995   47.155  239.817
  495.500    6.942    0.302    1.004   45.451  239.425
  495.750    6.386    0.303    1.005   45.706  238.526
  496.000    5.929    0.301    1.010   44.798  237.214
  496.250    5.669    0.293    1.009   45.419  235.393
  496.500    5.543    0.285    0.996   48.002  233.472
  496.750    5.430    0.280    0.986   47.337  232.468
  497.000    5.368    0.282    0.982   46.062  231.872
  497.250    5.317    0.283    0.986   48.154  231.278
  497.500    5.315    0.277    1.020   47.307  230.785
  497.750    5.373    0.277    1.044   46.276  230.596
  498.000    5.391    0.282    1.044   47.388  230.715
  498.250    5.300    0.286    1.029   48.990  231.243
  498.500    5.172    0.290    1.016   49.489  231.461
  498.750    5.038    0.292    1.005   50.418  230.560
  499.000    4.872    0.296    0.997   50.611  229.047
  499.250    4.737    0.304    1.002   48.663  227.636
  499.500    4.538    0.315    1.027   49.039  226.938
  499.750    4.380    0.315    1.038   47.825  226.546
  500.000    4.259    0.314    1.029   46.672  225.746
  500.250    4.257    0.314    1.017   49.375  224.844
  500.500    4.272    0.312    1.022   49.141  224.554
  500.750    4.399    0.316    1.029   45.907  224.572
  501.000    4.430    0.327    1.030   46.038  224.587
  501.250    4.244    0.328    1.021   47.456  225.015
  501.500    4.051    0.326    1.015   48.385  225.135
  501.750    3.888    0.326    1.025   48.395  225.049
  502.000    3.705    0.326    1.052   48.527  224.963
  502.250    3.536    0.324    1.043   48.599  224.672
  502.500    3.413    0.323    1.018   48.976  224.688
  502.750    3.456    0.322    1.006   49.904  224.604
  503.000    3.605    0.318    1.017   52.057  224.314
  503.250    3.781    0.327    1.016   51.332  223.923
  503.500    3.995    0.345    1.008   49.506  223.329
  503.750    4.175    0.347    1.001   50.618  223.139
  504.000    4.331    0.343    1.001   49.710  222.953
  504.250    4.476    0.333    1.009   49.475  222.866
  504.500    4.558    0.325    1.002   49.117  223.088
  504.750    4.624    0.316    0.991   47.352  223.414
  505.000    4.614    0.311    0.999   47.546  223.429
  505.250    4.520    0.311    1.013   50.250  223.547
  505.500    4.443    0.314    1.018   53.075  223.768
  505.750    4.369    0.327    1.017   52.412  224.090
  506.000    4.335    0.332    1.015   51.565  224.309
  506.250    4.302    0.323    1.018   53.045  224.634
  506.500    4.229    0.318    1.030   53.850  224.754
  506.750    4.197    0.322    1.053   54.474  224.975
  507.000    4.195    0.324    1.026   54.851  225.192
  507.250    4.249    0.315    1.005   54.493  225.619
  507.500    4.247    0.306    1.033   53.891  225.840
  507.750    4.114    0.301    1.062   53.411  226.058
  508.000    3.898    0.301    1.053   53.972  225.974
  508.250    3.992    0.300    1.031   55.575  225.992
  508.500    4.164    0.298    1.031   58.461  226.007
  508.750    4.392    0.294    1.037   59.757  226.025
  509.000    4.753    0.290    1.033   60.440  226.448
  509.250    5.135    0.289    1.049   64.614  226.466
  509.500    5.376    0.287    1.054   68.971  226.483
  509.750    5.103    0.252    1.025   70.083  226.092
  510.000    4.935    0.142    0.891   62.684  225.802
  510.250    5.044    0.103    0.882   49.103  225.511
  510.500    5.261    0.197    0.920   51.317  225.532
  510.750    5.437    0.248    1.020   57.939  225.545
