~VERSION INFORMATION
 VERS.                 2.0:   CWLS LOG ASCII STANDARD -VERSION 2.0
 WRAP.                  NO:   ONE LINE PER DEPTH STEP
~WELL INFORMATION BLOCK
#MNEM.UNIT           DATA                    DESCRIPTION OF MNEMONIC
#---------    -------------------            -------------------------------
# Generated from Intellog Unique Number	CW_82_90/WELL/3069
WELL.         GULF LIVOCK EV                 : Well_name    - WELL
LOC .         00/08-05-086-22W4/0            : Location     - LOCATION
UWI .         00/08-05-086-22W4/0            : Uwi          - UNIQUE WELL ID
ENTR.         MAX                            : Entered      - ENTERED BY
SRVC.         SCHLUMBERGER                   : Scn          - SERVICE COMPANY
STRT.M        167.64                         : top_depth    - START DEPTH
STOP.M        371.89                         : bot_depth    - STOP DEPTH
STEP.M        0.25                           : increment    - STEP LENGTH
 NULL. -999.2500:NULL Value
~CURVE INFORMATION BLOCK
#MNEM UNIT       ERCB CURVE CODE    CURVE DESCRIPTION
#-----------   ------------------   ----------------------------------
DEPT.M        00 001 00 00         : DEPTH        - DEPTH
ILD .OHMM     00 120 00 00         : RESD         - DEEP RESISTIVITY (DIL)
NPHI.V/V      00 330 00 00         : PHIN         - NEUTRON POROSITY (SANDSTONE)
DPHI.V/V      00 890 00 00         : PHID         - DENSITY POROSITY (SANDSTONE)
CALI.MM       00 280 01 00         : CAL          - CALIPER
GR  .API      00 310 00 00         : GR           - GAMMA RAY
~PARAMETER INFORMATION
#MNEM.UNIT           DATA             DESCRIPTION OF MNEMONIC
#---------         -----------     ------------------------------
GL  .M        575.767              : gl           - GROUND LEVEL ELEVATION
EREF.M        577.291              : kb           - ELEVATION OF DEPTH REFERENCE
DATM.M        575.767              : datum        - DATUM ELEVATION
TDD .M        374.904              : tdd          - TOTAL DEPTH DRILLER
RUN .         ONE                  : Run          - RUN NUMBER
ENG .         BILL                 : Engineer     - RECORDING ENGINEER
WIT .         JIM                  : Witness      - WITNESSED BY
MUD .         GEL                  : Mud_type     - MUD TYPE
MATR.         SANDSTONE            : Logunit      - NEUTRON MATRIX
TMAX.C        21.1111              : BHT          - MAXIMUM RECORDED TEMPERATURE
BHTD.M        374.904              : BHTDEP       - MAXIMUM RECORDED TEMPERATURE
MATR.         1                    : LOGUNIT      - NEUTRON MATRIX
RMT .C        16.6667              : MDTP         - TEMPERATURE OF MUD
NEUT.         1                    : NEUTRON      - NEUTRON TYPE
RESI.         0                    : RESIST       - RESISTIVITY TYPE
RMC .OHMM     6.2                  : RMC          - RESISTIVITY OF MUD CAKE
RMF .OHMM     6.2                  : RMF          - RESISTIVITY OF MUD FILTRATE
SUFT.C        -23.3333             : SUFT         - SURFACE TEMPERATURE
~A  DEPTH     RESD     PHIN     PHID      CAL       GR
# ...
  277.140   11.280    0.420    0.222  163.108   89.437
  277.390   10.967    0.428    0.219  163.516   90.547
  277.640   10.755    0.441    0.219  163.406   91.066
  277.890   10.553    0.456    0.220  163.295   92.177
  278.140   10.443    0.468    0.218  163.691   90.066
  278.390   10.432    0.484    0.216  163.580   89.723
  278.640   10.701    0.489    0.217  163.469   90.235
  278.890   11.083    0.481    0.219  163.878   90.476
  279.140   12.002    0.475    0.213  164.781   90.119
  279.390   14.221    0.479    0.198  165.647   85.087
  279.640   17.003    0.454    0.187  166.068   81.823
  279.890   20.328    0.407    0.172  166.452   75.915
  280.140   21.817    0.304    0.143  166.341   71.461
  280.390   19.736    0.287    0.047  165.265   70.242
  280.640   16.767    0.320    0.072  164.635   70.176
  280.890   14.898    0.352    0.098  164.549   70.410
  281.140   13.476    0.391    0.126  164.945   70.921
  281.390   12.868    0.474    0.235  164.364   73.799
  281.640   12.967    0.493    0.244  162.770   78.707
  281.890   12.380    0.488    0.222  162.659   76.020
  282.140   11.613    0.473    0.199  162.548   72.741
  282.390    9.865    0.450    0.176  162.474   70.631
  282.640    8.379    0.438    0.162  162.339   69.105
  282.890    7.247    0.473    0.142  162.253   70.222
  283.140    6.382    0.519    0.157  162.166   73.071
  283.390    5.671    0.572    0.239  162.068   75.656
  283.640    5.130    0.579    0.234  161.957   81.732
  283.890    5.361    0.561    0.223  162.341   84.595
  284.140    5.962    0.565    0.205  162.725   88.335
  284.390    6.399    0.551    0.194  163.121   85.063
  284.640    7.513    0.546    0.182  163.505   83.829
  284.890    8.065    0.557    0.166  163.913   83.187
  285.140    9.556    0.522    0.143  164.804   81.668
  285.390   10.443    0.488    0.109  165.200   79.843
  285.640   10.910    0.491    0.110  165.596   83.005
  285.890   10.898    0.502    0.186  165.992   86.460
  286.140   10.883    0.508    0.181  165.882   86.978
  286.390   11.066    0.506    0.178  165.783   86.906
  286.640   11.353    0.483    0.189  166.155   88.900
  286.890   11.861    0.468    0.197  168.059   94.691
  287.140   12.505    0.482    0.211  172.413   99.884
  287.390   13.541    0.448    0.224  170.323   97.781
  287.640   14.403    0.419    0.225  167.257   91.296
  287.890   15.321    0.427    0.219  164.178   88.309
  288.140   16.153    0.448    0.203  163.090   83.577
  288.390   17.646    0.449    0.202  162.497   83.811
  288.640   18.773    0.388    0.197  162.387   81.402
  288.890   20.883    0.361    0.183  162.300   77.846
  289.140   23.873    0.329    0.160  162.697   73.106
  289.390   32.958    0.303    0.127  163.575   66.322
  289.640   38.012    0.269    0.094  163.971   57.785
  289.890   45.856    0.267    0.018  164.367   53.630
  290.140   44.582    0.263    0.020  163.762   54.149
  290.390   33.082    0.255    0.020  163.169   54.675
  290.640   29.672    0.250    0.026  162.563   56.362
  290.890   26.363    0.282    0.064  161.958   63.030
  291.140   23.638    0.352    0.125  161.872   65.608
  291.390   21.380    0.404    0.204  161.773   69.048
  291.640   19.698    0.387    0.173  161.662   68.114
  291.890   17.819    0.398    0.145  161.576   70.400
  292.140   16.121    0.442    0.118  161.453   74.716
  292.390   14.715    0.445    0.161  160.848   80.215
  292.640   13.675    0.468    0.192  160.774   86.299
  292.890   13.057    0.473    0.199  160.651   91.492
  293.140   12.811    0.486    0.198  160.564   92.025
  293.390   12.795    0.484    0.187  160.454   88.162
  293.640   13.012    0.478    0.178  160.367   83.130
  293.890   13.350    0.470    0.172  160.764   79.275
  294.140   14.070    0.443    0.181  160.653   78.618
  294.390   15.102    0.416    0.167  161.037   77.683
  294.640   15.922    0.401    0.129  161.433   76.157
  294.890   17.089    0.363    0.105  161.322   74.938
  295.140   18.341    0.367    0.105  161.223   73.412
  295.390   20.218    0.367    0.110  161.137   71.893
  295.640   21.316    0.368    0.115  161.026   70.075
  295.890   19.989    0.374    0.120  161.410   69.440
  296.140   18.744    0.372    0.120  162.301   70.835
  296.390   17.739    0.373    0.134  162.710   73.698
  296.640   17.404    0.443    0.183  163.093   79.482
  296.890   17.071    0.495    0.188  163.007   80.308
  297.140   17.204    0.474    0.165  163.354   75.853
  297.390   17.808    0.430    0.139  163.775   74.320
  297.640   18.443    0.391    0.123  164.666   72.816
  297.890   20.511    0.368    0.110  165.074   70.413
  298.140   21.625    0.324    0.085  164.976   66.843
  298.390   21.217    0.315    0.071  164.840   64.163
  298.640   19.193    0.431    0.096  165.261   74.329
  298.890   17.363    0.440    0.146  165.645   78.367
  299.140   16.140    0.448    0.190  166.053   81.800
  299.390   16.264    0.452    0.168  166.919   80.581
  299.640   16.689    0.438    0.154  166.821   79.646
  299.890   17.122    0.417    0.139  165.745   79.288
  300.140   17.730    0.402    0.130  163.656   79.230
  300.390   18.688    0.395    0.117  162.556   79.158
  300.640   18.163    0.406    0.112  161.468   79.976
  300.890   17.506    0.478    0.118  161.382   81.093
  301.140   16.564    0.516    0.178  161.259   82.773
  301.390   15.673    0.544    0.190  161.173   83.898
  301.640   15.514    0.557    0.194  161.074   84.716
  301.890   15.496    0.553    0.192  161.470   85.534
  302.140   15.617    0.542    0.186  161.854   86.345
  302.390   15.879    0.523    0.181  162.238   86.879
  302.640   15.716    0.499    0.177  162.634   86.521
  302.890   15.419    0.476    0.167  163.030   85.879
  303.140   15.263    0.502    0.145  163.909   85.813
  303.390   14.971    0.503    0.163  164.305   86.639
  303.640   14.819    0.489    0.182  164.689   90.378
  303.890   14.667    0.479    0.180  164.615   91.781
  304.140   14.647    0.480    0.181  164.987   90.824
  304.390   14.629    0.487    0.191  164.900   89.612
  304.640   14.746    0.489    0.188  165.296   88.378
  304.890   13.898    0.490    0.179  167.045   88.761
  305.140   13.878    0.473    0.157  166.977   83.743
  305.390   14.239    0.471    0.139  166.397   84.005
  305.640   15.007    0.469    0.173  166.338   84.549
  305.890   16.399    0.431    0.166  166.755   80.709
  306.140   16.977    0.426    0.144  166.687   78.036
  306.390   16.064    0.486    0.140  166.619   80.915
  306.640   15.059    0.524    0.153  167.531   85.550
  306.890   14.767    0.519    0.134  168.451   86.668
  307.140   13.721    0.523    0.118  167.386   86.330
  307.390   13.455    0.522    0.132  166.330   88.630
  307.640   13.314    0.505    0.153  166.261   91.212
  307.890   13.539    0.463    0.189  166.688   94.680
  308.140   13.643    0.463    0.184  167.105   96.965
  308.390   13.502    0.452    0.173  168.026   96.351
  308.640   13.119    0.449    0.187  168.955   92.219
  308.890   12.754    0.444    0.180  168.870   94.217
  309.140   12.173    0.465    0.175  168.810   96.804
  309.390   12.154    0.472    0.160  168.742   97.060
  309.640   12.249    0.450    0.145  168.162   93.513
  309.890   12.453    0.417    0.136  167.609   90.261
  310.140   13.365    0.389    0.154  166.058   87.886
  310.390   14.608    0.393    0.184  163.501   86.960
  310.640   16.395    0.399    0.197  163.442   88.968
  310.890   16.225    0.403    0.196  164.362   90.096
  311.140   16.352    0.407    0.187  164.788   91.515
  311.390   17.234    0.390    0.175  165.700   91.761
  311.640   18.166    0.376    0.154  166.612   89.381
  311.890   18.974    0.349    0.128  168.027   84.962
  312.140   19.295    0.345    0.077  168.444   82.587
  312.390   18.583    0.405    0.100  168.376   86.336
  312.640   18.223    0.428    0.173  168.317   89.794
  312.890   16.041    0.423    0.191  168.232   90.051
  313.140   15.037    0.422    0.184  167.678   89.130
  313.390   15.711    0.431    0.180  167.107   88.803
