~VERSION INFORMATION
 VERS.                 2.0:   CWLS LOG ASCII STANDARD -VERSION 2.0
 WRAP.                  NO:   ONE LINE PER DEPTH STEP
~WELL INFORMATION BLOCK
#MNEM.UNIT           DATA                    DESCRIPTION OF MNEMONIC
#---------    -------------------            -------------------------------
# Generated from Intellog Unique Number	CS_73_76/WELL/2167
WELL.         BOW VALLEY INDUSTRIES LTD.     : Well_name    - WELL
LOC .         00/06-23-074-17W4/0            : Location     - LOCATION
UWI .         00/06-23-074-17W4/0            : Uwi          - UNIQUE WELL ID
ENTR.         SP                             : Entered      - ENTERED BY
SRVC.         SCHLUMBERGER                   : Scn          - SERVICE COMPANY
STRT.M        240.792                        : top_depth    - START DEPTH
STOP.M        426.542                        : bot_depth    - STOP DEPTH
STEP.M        0.25                           : increment    - STEP LENGTH
 NULL. -999.2500:NULL Value
~CURVE INFORMATION BLOCK
#MNEM UNIT       ERCB CURVE CODE    CURVE DESCRIPTION
#-----------   ------------------   ----------------------------------
DEPT.M        00 001 00 00         : DEPTH        - DEPTH
GR  .API      00 310 00 00         : GR           - GAMMA RAY
DPHI.V/V      00 890 00 00         : PHID         - DENSITY POROSITY (SANDSTONE)
NPHI.V/V      00 330 00 00         : PHIN         - NEUTRON POROSITY (SANDSTONE)
ILD .OHMM     00 120 00 00         : RESD         - DEEP RESISTIVITY (DIL)
~PARAMETER INFORMATION
#MNEM.UNIT           DATA             DESCRIPTION OF MNEMONIC
#---------         -----------     ------------------------------
GL  .M        590.398              : gl           - GROUND LEVEL ELEVATION
EREF.M        592.836              : kb           - ELEVATION OF DEPTH REFERENCE
DATM.M        590.398              : datum        - DATUM ELEVATION
TDD .M        429.768              : tdd          - TOTAL DEPTH DRILLER
RUN .         ONE                  : Run          - RUN NUMBER
ENG .         BILL                 : Engineer     - RECORDING ENGINEER
WIT .         JIM                  : Witness      - WITNESSED BY
MUD .         GEL                  : Mud_type     - MUD TYPE
MATR.         SANDSTONE            : Logunit      - NEUTRON MATRIX
TMAX.C        20.5556              : BHT          - MAXIMUM RECORDED TEMPERATURE
BHTD.M        429.158              : BHTDEP       - MAXIMUM RECORDED TEMPERATURE
MATR.         1                    : LOGUNIT      - NEUTRON MATRIX
RMT .C        25                   : MDTP         - TEMPERATURE OF MUD
NEUT.         1                    : NEUTRON      - NEUTRON TYPE
RESI.         0                    : RESIST       - RESISTIVITY TYPE
RMC .OHMM     0.25                 : RMC          - RESISTIVITY OF MUD CAKE
RMF .OHMM     0.25                 : RMF          - RESISTIVITY OF MUD FILTRATE
SUFT.C        15                   : SUFT         - SURFACE TEMPERATURE
~A  DEPTH       GR     PHID     PHIN     RESD
# ...
  371.292   97.132    0.237    0.485    8.136
  371.542   95.198    0.234    0.475    8.278
  371.792   88.334    0.237    0.460    8.438
  372.042   83.129    0.260    0.449    8.758
  372.292   79.580    0.252    0.433    8.752
  372.542   79.254    0.234    0.426    8.767
  372.792   82.054    0.219    0.404    8.584
  373.042   86.101    0.174    0.414    8.459
  373.292   83.994    0.191    0.441    8.725
  373.542   79.331    0.237    0.467    9.084
  373.792   72.377    0.276    0.459   10.040
  374.042   67.927    0.293    0.450   11.917
  374.292   63.387    0.294    0.456   13.534
  374.542   58.433    0.285    0.450   16.280
  374.792   54.536    0.231    0.395   20.124
  375.042   49.128    0.148    0.246   22.259
  375.292   46.497    0.164    0.256   22.167
  375.542   49.510    0.161    0.310   20.970
  375.792   53.862    0.258    0.421   17.746
  376.042   58.966    0.301    0.459   14.935
  376.292   61.025    0.338    0.484   13.280
  376.542   62.805    0.340    0.500   12.499
  376.792   60.390    0.338    0.506   12.011
  377.042   59.154    0.330    0.508   11.504
  377.292   60.616    0.339    0.506   11.178
  377.542   62.182    0.315    0.488   10.581
  377.792   64.539    0.285    0.462    9.779
  378.042   66.542    0.258    0.427    9.089
  378.292   67.763    0.272    0.437    8.675
  378.542   67.237    0.306    0.457    8.229
  378.792   65.295    0.315    0.480    8.386
  379.042   62.626    0.326    0.488    7.950
  379.292   60.967    0.343    0.495    7.945
  379.542   63.627    0.336    0.489    7.888
  379.792   65.857    0.327    0.487    7.797
  380.042   65.826    0.331    0.503    7.659
  380.292   65.844    0.341    0.515    7.465
  380.542   65.858    0.336    0.497    7.251
  380.792   66.198    0.338    0.484    6.882
  381.042   67.308    0.328    0.475    6.856
  381.292   69.390    0.307    0.490    6.843
  381.542   70.941    0.293    0.470    6.977
  381.792   74.063    0.273    0.439    7.121
  382.042   80.928    0.253    0.404    7.002
  382.292   91.642    0.217    0.426    6.791
  382.542   97.882    0.219    0.480    6.586
  382.792   98.948    0.229    0.507    6.480
  383.042  100.174    0.235    0.495    6.302
  383.292  101.938    0.245    0.498    6.240
  383.542   99.705    0.253    0.493    6.114
  383.792   98.065    0.248    0.472    6.095
  384.042   96.599    0.244    0.476    6.011
  384.292   96.133    0.252    0.493    6.014
  384.542   93.117    0.261    0.498    6.032
  384.792   90.178    0.270    0.492    6.119
  385.042   88.820    0.267    0.489    6.293
  385.292   87.519    0.248    0.483    6.477
  385.542   86.637    0.244    0.485    6.887
  385.792   84.043    0.252    0.484    7.190
  386.042   82.169    0.237    0.462    7.496
  386.292   81.189    0.218    0.451    7.817
  386.542   81.299    0.199    0.431    8.284
  386.792   84.000    0.176    0.437    8.363
  387.042   86.401    0.206    0.460    8.278
  387.292   87.782    0.256    0.463    8.021
  387.542   88.782    0.262    0.454    7.782
  387.792   91.103    0.259    0.462    7.614
  388.042   91.621    0.258    0.472    7.635
  388.292   89.045    0.250    0.462    7.893
  388.542   88.266    0.247    0.467    7.964
  388.792   88.347    0.262    0.465    8.037
  389.042   90.934    0.260    0.454    7.907
  389.292   92.378    0.261    0.448    7.702
  389.542   92.486    0.257    0.444    7.474
  389.792   89.835    0.251    0.446    7.394
  390.042   88.769    0.248    0.447    7.164
  390.292   91.173    0.254    0.460    6.949
  390.542   94.868    0.243    0.466    6.724
  390.792   96.966    0.235    0.473    6.650
  391.042   96.864    0.245    0.480    6.338
  391.292   97.620    0.243    0.481    6.108
  391.542  100.048    0.238    0.479    5.748
  391.792  103.672    0.229    0.477    5.592
  392.042  105.710    0.210    0.471    5.307
  392.292  107.722    0.206    0.479    5.158
  392.542  111.601    0.191    0.500    5.296
  392.792  115.648    0.181    0.510    5.695
  393.042  104.742    0.171    0.513    6.313
  393.292   88.393    0.164    0.496    7.307
  393.542   74.637    0.162    0.477    8.353
  393.792   65.397    0.098    0.344   10.270
  394.042   60.972    0.057    0.239   12.161
  394.292   58.939    0.017    0.195   14.993
  394.542   60.436    0.058    0.192   16.440
  394.792   66.953    0.137    0.287   15.584
  395.042   75.267    0.185    0.390   14.370
  395.292   86.475    0.221    0.435   12.312
  395.542   88.049    0.152    0.460   11.357
  395.792   75.059    0.108    0.447   10.759
  396.042   68.915    0.090    0.288   10.212
  396.292   78.555    0.106    0.312   10.158
  396.542   88.815    0.167    0.366    9.646
  396.792   90.973    0.176    0.460    9.066
  397.042   94.627    0.189    0.466    8.397
  397.292   89.985    0.197    0.478    8.037
  397.542   90.983    0.183    0.478    7.692
  397.792   91.845    0.165    0.455    7.717
  398.042   89.833    0.169    0.460    7.720
  398.292   90.236    0.175    0.468    7.765
  398.542   91.611    0.185    0.459    8.013
  398.792   92.880    0.181    0.466    8.360
  399.042   96.170    0.198    0.458    8.878
  399.292   90.424    0.180    0.442    9.615
  399.542   89.101    0.166    0.442   11.137
  399.792   88.256    0.163    0.442   12.820
  400.042   71.948    0.153    0.402   14.842
  400.292   67.786    0.119    0.294   17.265
  400.542   70.330    0.097    0.273   19.222
  400.792   76.096    0.086    0.309   19.508
  401.042   83.505    0.085    0.329   17.558
  401.292   87.923    0.112    0.347   14.724
  401.542   94.503    0.147    0.377   12.294
  401.792   98.482    0.173    0.431   10.423
  402.042  100.077    0.186    0.457    9.407
  402.292   98.637    0.184    0.452    8.231
  402.542   98.779    0.181    0.459    7.974
  402.792  100.730    0.173    0.467    8.119
  403.042  100.010    0.167    0.471    8.709
  403.292  101.967    0.148    0.442    8.920
  403.542  102.444    0.135    0.426    9.067
  403.792  105.621    0.160    0.434    9.180
  404.042  112.466    0.182    0.436    9.070
  404.292  112.214    0.188    0.425    8.811
  404.542  111.768    0.197    0.414    8.470
  404.792  108.986    0.189    0.414    7.959
  405.042  105.341    0.187    0.417    7.714
  405.292  104.264    0.193    0.409    7.680
  405.542  101.982    0.200    0.422    7.826
  405.792   97.760    0.197    0.438    7.968
  406.042   93.763    0.179    0.426    8.184
  406.292   95.545    0.153    0.396    8.000
  406.542  102.491    0.150    0.406    6.803
  406.792  103.051    0.172    0.426    5.815
  407.042  100.455    0.181    0.429    4.666
  407.292   99.572    0.194    0.425    4.064
  407.542  100.343    0.206    0.438    3.546
  407.792  100.449    0.219    0.488    3.117
  408.042   99.728    0.240    0.573    2.869
  408.292  106.548    0.253    0.544    2.680
  408.542  113.564    0.235    0.539    2.554
  408.792  115.615    0.216    0.553    2.500
  409.042  114.186    0.212    0.551    2.585
  409.292  109.138    0.238    0.566    2.720
  409.542  105.555    0.230    0.584    3.103
  409.792   99.105    0.207    0.571    4.098
  410.042  100.010    0.195    0.560    5.119
  410.292   95.144    0.172    0.504    6.413
  410.542   98.066    0.150    0.354    7.084
  410.792  105.986    0.166    0.379    7.599
  411.042  110.837    0.178    0.406    7.964
  411.292  114.371    0.149    0.428    8.314
  411.542  111.211    0.132    0.421    8.591
  411.792   98.512    0.108    0.333    9.038
  412.042   98.858    0.134    0.331    9.305
  412.292   98.035    0.161    0.365    9.557
  412.542   96.230    0.141    0.399    9.548
  412.792  100.412    0.117    0.411    9.261
  413.042  105.560    0.094    0.422    8.957
  413.292  100.324    0.135    0.445    8.691
  413.542   92.680    0.097    0.439    8.695
  413.792   97.320    0.086    0.374    8.690
  414.042  101.800    0.074    0.377    8.857
  414.292   98.337    0.168    0.401    8.511
  414.542   94.310    0.161    0.424    8.373
