~VERSION INFORMATION
 VERS.                 2.0:   CWLS LOG ASCII STANDARD -VERSION 2.0
 WRAP.                  NO:   ONE LINE PER DEPTH STEP
~WELL INFORMATION BLOCK
#MNEM.UNIT           DATA                    DESCRIPTION OF MNEMONIC
#---------    -------------------            -------------------------------
# Generated from Intellog Unique Number	CS_67_68/WELL/2171
WELL.         06-17-067-06W4                 : Well_name    - WELL
LOC .         00/06-17-067-06W4/0            : Location     - LOCATION
UWI .         00/06-17-067-06W4/0            : Uwi          - UNIQUE WELL ID
ENTR.         SP                             : Entered      - ENTERED BY
SRVC.         SCHLUMBERGER                   : Scn          - SERVICE COMPANY
STRT.M        330                            : top_depth    - START DEPTH
STOP.M        535                            : bot_depth    - STOP DEPTH
STEP.M        0.25                           : increment    - STEP LENGTH
 NULL. -999.2500:NULL Value
~CURVE INFORMATION BLOCK
#MNEM UNIT       ERCB CURVE CODE    CURVE DESCRIPTION
#-----------   ------------------   ----------------------------------
DEPT.M        00 001 00 00         : DEPTH        - DEPTH
ILD .OHMM     00 120 00 00         : RESD         - DEEP RESISTIVITY (DIL)
DPHI.V/V      00 890 00 00         : PHID         - DENSITY POROSITY (LIMESTONE)
NPHI.V/V      00 330 00 00         : PHIN         - NEUTRON POROSITY (LIMESTONE)
GR  .API      00 310 00 00         : GR           - GAMMA RAY
CALI.MM       00 280 01 00         : CAL          - CALIPER
~PARAMETER INFORMATION
#MNEM.UNIT           DATA             DESCRIPTION OF MNEMONIC
#---------         -----------     ------------------------------
GL  .M        653.87               : gl           - GROUND LEVEL ELEVATION
EREF.M        656.96               : kb           - ELEVATION OF DEPTH REFERENCE
DATM.M        656.96               : datum        - DATUM ELEVATION
TDD .M        545                  : tdd          - TOTAL DEPTH DRILLER
RUN .         ONE                  : Run          - RUN NUMBER
ENG .         BILL                 : Engineer     - RECORDING ENGINEER
WIT .         JIM                  : Witness      - WITNESSED BY
MUD .         GEL                  : Mud_type     - MUD TYPE
MATR.         LIMESTONE            : Logunit      - NEUTRON MATRIX
TMAX.C        21                   : BHT          - MAXIMUM RECORDED TEMPERATURE
BHTD.M        545.5                : BHTDEP       - MAXIMUM RECORDED TEMPERATURE
MATR.         1                    : LOGUNIT      - NEUTRON MATRIX
RMT .C        25                   : MDTP         - TEMPERATURE OF MUD
NEUT.         1                    : NEUTRON      - NEUTRON TYPE
RESI.         0                    : RESIST       - RESISTIVITY TYPE
RMC .OHMM     0.25                 : RMC          - RESISTIVITY OF MUD CAKE
RMF .OHMM     0.25                 : RMF          - RESISTIVITY OF MUD FILTRATE
SUFT.C        15                   : SUFT         - SURFACE TEMPERATURE
~A  DEPTH     RESD     PHID     PHIN       GR      CAL
# ...
  476.000    4.237    0.278    0.531   80.577  161.565
  476.250    4.797    0.303    0.541   73.767  160.581
  476.500    5.291    0.322    0.520   67.994  159.999
  476.750    5.890    0.334    0.469   66.183  159.728
  477.000    6.411    0.326    0.448   68.029  159.648
  477.250    6.835    0.320    0.435   67.498  159.882
  477.500    7.178    0.314    0.431   65.200  160.323
  477.750    7.496    0.310    0.416   63.574  160.860
  478.000    7.427    0.303    0.394   64.809  161.497
  478.250    6.838    0.298    0.382   66.838  161.727
  478.500    6.155    0.290    0.389   65.698  161.960
  478.750    5.447    0.300    0.410   66.141  161.791
  479.000    4.931    0.307    0.414   67.623  161.413
  479.250    4.464    0.297    0.415   72.275  161.643
  479.500    3.950    0.289    0.431   77.476  161.774
  479.750    3.563    0.294    0.432   79.197  162.419
  480.000    3.280    0.272    0.417   84.030  163.153
  480.250    3.054    0.255    0.445   91.058  164.199
  480.500    2.854    0.249    0.466   94.366  165.853
  480.750    2.703    0.248    0.475   96.275  167.813
  481.000    2.623    0.249    0.476   95.744  169.370
  481.250    2.551    0.250    0.474   96.858  169.905
  481.500    2.527    0.252    0.484   96.754  169.526
  481.750    2.570    0.256    0.490   95.798  169.456
  482.000    2.669    0.261    0.508   96.180  169.383
  482.250    2.751    0.258    0.529   95.282  169.312
  482.500    2.777    0.249    0.517   92.194  169.340
  482.750    2.772    0.251    0.520   90.992  169.675
  483.000    2.747    0.256    0.508   90.887  170.212
  483.250    2.789    0.244    0.512   93.891  171.664
  483.500    2.863    0.226    0.495   94.336  170.272
  483.750    2.968    0.217    0.456   93.318  168.167
  484.000    3.065    0.238    0.437   94.375  165.862
  484.250    3.165    0.237    0.436   92.865  164.165
  484.500    3.195    0.232    0.476   88.737  163.688
  484.750    3.130    0.236    0.494   94.058  164.225
  485.000    2.975    0.204    0.507   99.441  165.578
  485.250    2.914    0.188    0.480  101.652  166.417
  485.500    2.965    0.177    0.455   95.819  167.562
  485.750    3.044    0.191    0.457   96.811  169.317
  486.000    3.108    0.201    0.475   99.756  171.380
  486.250    3.289    0.210    0.486  101.845  170.191
  486.500    3.506    0.210    0.445   98.510  167.681
  486.750    4.520    0.212    0.429   80.607  165.678
  487.000    5.274    0.217    0.407   76.054  164.286
  487.250    6.414    0.000    0.356   71.134  163.300
  487.500    7.208    0.000    0.296   66.580  164.141
  487.750    7.556    0.000    0.306   67.939  164.069
  488.000    7.759    0.044    0.374   76.369  163.897
  488.250    7.760    0.178    0.420   81.201  163.111
  488.500    7.293    0.211    0.417   72.929  161.213
  488.750    7.078    0.234    0.407   70.814  159.212
  489.000    7.146    0.267    0.395   75.708  158.224
  489.250    7.309    0.283    0.406   84.381  157.744
  489.500    7.435    0.279    0.414   94.275  157.774
  489.750    6.832    0.276    0.410   90.819  157.607
  490.000    6.386    0.277    0.409   86.567  157.528
  490.250    6.013    0.279    0.413   81.769  157.567
  490.500    5.526    0.273    0.405   78.741  157.488
  490.750    5.088    0.271    0.394   75.223  157.418
  491.000    4.782    0.282    0.390   71.033  157.341
  491.250    4.520    0.289    0.388   71.966  157.576
  491.500    4.411    0.295    0.380   99.962  157.912
  491.750    4.504    0.258    0.372  106.807  158.753
  492.000    4.590    0.246    0.376  108.227  159.389
  492.250    4.704    0.240    0.386  112.756  160.029
  492.500    4.669    0.226    0.393  118.321  160.770
  492.750    4.430    0.208    0.399  121.568  161.611
  493.000    4.398    0.210    0.382  114.758  162.558
  493.250    4.448    0.221    0.366  110.631  163.093
  493.500    4.619    0.213    0.354  109.004  164.037
  493.750    4.824    0.214    0.415  104.998  164.067
  494.000    5.037    0.214    0.437   99.896  162.571
  494.250    5.330    0.212    0.405   98.512  159.663
  494.500    5.588    0.208    0.366   96.456  158.162
  494.750    5.824    0.206    0.348   92.025  158.500
  495.000    6.025    0.198    0.339   94.786  159.951
  495.250    6.117    0.193    0.348  100.654  161.402
  495.500    6.153    0.187    0.359  105.183  162.546
  495.750    6.223    0.176    0.370  108.431  163.999
  496.000    6.402    0.214    0.393   77.605  164.639
  496.250    6.573    0.236    0.416   64.761  163.041
  496.500    6.813    0.253    0.410   54.722  158.704
  496.750    6.983    0.219    0.354   61.323  156.395
  497.000    7.265    0.193    0.317   71.155  156.324
  497.250    6.651    0.174    0.306   79.523  156.864
  497.500    5.886    0.177    0.307   86.734  157.907
  497.750    5.460    0.186    0.333   78.828  158.443
  498.000    5.279    0.219    0.355   70.556  158.779
  498.250    5.240    0.240    0.351   67.282  158.610
  498.500    5.380    0.245    0.342   71.262  158.536
  498.750    5.361    0.246    0.334   75.608  158.162
  499.000    4.926    0.249    0.329   72.760  158.186
  499.250    4.683    0.249    0.341   69.547  158.624
  499.500    4.544    0.240    0.350   70.478  159.362
  499.750    4.536    0.233    0.356   73.605  160.105
  500.000    4.554    0.233    0.360   74.110  160.641
  500.250    4.615    0.236    0.368   75.712  161.077
  500.500    4.624    0.238    0.376   77.803  161.105
  500.750    4.547    0.236    0.370   77.883  160.832
  501.000    4.454    0.229    0.364   76.254  160.658
  501.250    4.380    0.225    0.361   79.260  159.875
  501.500    4.275    0.219    0.358   82.084  159.701
  501.750    4.203    0.214    0.354   82.951  158.918
  502.000    4.204    0.209    0.351   84.554  158.949
  502.250    4.236    0.204    0.358   88.594  159.079
  502.500    4.292    0.203    0.367   93.122  159.111
  502.750    4.449    0.208    0.373   97.224  158.940
  503.000    4.681    0.214    0.378   98.585  159.066
  503.250    4.880    0.220    0.380   86.471  158.690
  503.500    5.029    0.227    0.374   72.225  158.717
  503.750    4.817    0.264    0.362   59.442  159.155
  504.000    4.184    0.285    0.347   46.294  159.799
  504.250    3.634    0.296    0.333   40.155  160.738
  504.500    3.103    0.301    0.327   35.479  161.477
  504.750    2.868    0.305    0.322   30.743  162.327
  505.000    2.705    0.309    0.318   33.383  162.856
  505.250    2.630    0.305    0.322   38.217  163.292
  505.500    2.543    0.304    0.333   42.561  162.918
  505.750    2.572    0.300    0.346   47.088  162.640
  506.000    2.661    0.289    0.357   52.592  161.455
  506.250    2.864    0.273    0.365   59.132  161.277
  506.500    3.013    0.260    0.349   74.816  161.104
  506.750    3.189    0.228    0.334   80.441  160.829
  507.000    3.368    0.213    0.319   80.765  160.860
  507.250    3.557    0.232    0.323   75.234  160.382
  507.500    3.785    0.239    0.332   87.323  159.905
  507.750    3.998    0.223    0.339   93.374  159.532
  508.000    4.159    0.211    0.341   98.389  159.657
  508.250    4.303    0.204    0.336  103.527  159.688
  508.500    4.385    0.206    0.348  107.202  159.815
  508.750    4.460    0.208    0.358  109.415  160.556
  509.000    4.546    0.212    0.363  108.640  162.620
  509.250    4.703    0.204    0.373  106.402  163.359
  509.500    4.801    0.198    0.369  106.483  164.507
  509.750    4.811    0.192    0.352  108.571  164.637
  510.000    4.793    0.188    0.337  109.929  163.455
  510.250    4.608    0.197    0.335  106.960  162.766
  510.500    4.267    0.210    0.343  101.493  161.272
  510.750    3.943    0.226    0.349   93.952  160.086
  511.000    3.713    0.238    0.351   86.353  159.400
  511.250    3.536    0.246    0.352   81.980  159.024
  511.500    3.464    0.256    0.353   76.328  158.952
  511.750    3.413    0.260    0.356   78.784  158.778
  512.000    3.517    0.251    0.360   84.958  158.606
  512.250    3.743    0.241    0.365   95.462  158.329
