~VERSION INFORMATION
 VERS.                 2.0:   CWLS LOG ASCII STANDARD -VERSION 2.0
 WRAP.                  NO:   ONE LINE PER DEPTH STEP
~WELL INFORMATION BLOCK
#MNEM.UNIT           DATA                    DESCRIPTION OF MNEMONIC
#---------    -------------------            -------------------------------
# Generated from Intellog Unique Number	CS_67_68/WELL/2172
WELL.         MANNVILLE ET AL ATMORE         : Well_name    - WELL
LOC .         00/06-31-067-15W4/0            : Location     - LOCATION
UWI .         00/06-31-067-15W4/0            : Uwi          - UNIQUE WELL ID
ENTR.         SP                             : Entered      - ENTERED BY
SRVC.         SCHLUMBERGER                   : Scn          - SERVICE COMPANY
STRT.M        359.664                        : top_depth    - START DEPTH
STOP.M        536.914                        : bot_depth    - STOP DEPTH
STEP.M        0.25                           : increment    - STEP LENGTH
 NULL. -999.2500:NULL Value
~CURVE INFORMATION BLOCK
#MNEM UNIT       ERCB CURVE CODE    CURVE DESCRIPTION
#-----------   ------------------   ----------------------------------
DEPT.M        00 001 00 00         : DEPTH        - DEPTH
CALI.MM       00 280 01 00         : CAL          - CALIPER
GR  .API      00 310 00 00         : GR           - GAMMA RAY
DPHI.V/V      00 890 00 00         : PHID         - DENSITY POROSITY (SANDSTONE)
NPHI.V/V      00 330 00 00         : PHIN         - NEUTRON POROSITY (SANDSTONE)
ILD .OHMM     00 120 00 00         : RESD         - DEEP RESISTIVITY (DIL)
~PARAMETER INFORMATION
#MNEM.UNIT           DATA             DESCRIPTION OF MNEMONIC
#---------         -----------     ------------------------------
GL  .M        606.095              : gl           - GROUND LEVEL ELEVATION
EREF.M        607.162              : kb           - ELEVATION OF DEPTH REFERENCE
DATM.M        607.162              : datum        - DATUM ELEVATION
TDD .M        539.496              : tdd          - TOTAL DEPTH DRILLER
RUN .         ONE                  : Run          - RUN NUMBER
ENG .         BILL                 : Engineer     - RECORDING ENGINEER
WIT .         JIM                  : Witness      - WITNESSED BY
MUD .         GEL                  : Mud_type     - MUD TYPE
MATR.         SANDSTONE            : Logunit      - NEUTRON MATRIX
TMAX.C        17.7778              : BHT          - MAXIMUM RECORDED TEMPERATURE
BHTD.M        539.496              : BHTDEP       - MAXIMUM RECORDED TEMPERATURE
MATR.         1                    : LOGUNIT      - NEUTRON MATRIX
RMT .C        25                   : MDTP         - TEMPERATURE OF MUD
NEUT.         1                    : NEUTRON      - NEUTRON TYPE
RESI.         0                    : RESIST       - RESISTIVITY TYPE
RMC .OHMM     0.25                 : RMC          - RESISTIVITY OF MUD CAKE
RMF .OHMM     0.25                 : RMF          - RESISTIVITY OF MUD FILTRATE
SUFT.C        15                   : SUFT         - SURFACE TEMPERATURE
~A  DEPTH      CAL       GR     PHID     PHIN     RESD
  359.664  188.424  117.529    0.185    0.498    2.697
  359.914  187.966  120.870    0.180    0.504    2.741
  360.164  188.640  122.378    0.162    0.513    2.571
  360.414  190.746  122.109    0.182    0.523    2.453
  360.664  192.421  120.713    0.176    0.523    2.413
  360.914  194.676  118.312    0.182    0.537    2.378
  361.164  195.912  115.567    0.195    0.536    2.345
  361.414  194.972  112.521    0.176    0.515    2.344
  361.664  190.177  109.788    0.179    0.484    2.336
  361.914  188.987  107.981    0.175    0.494    2.517
  362.164  193.180  106.386    0.186    0.508    2.506
  362.414  194.121  105.491    0.200    0.495    2.426
  362.664  189.412  107.971    0.192    0.477    2.437
  362.914  178.026  108.925    0.195    0.482    2.628
  363.164  187.230  106.272    0.202    0.492    2.823
  363.414  184.504  103.144    0.214    0.451    2.948
  363.664  174.150  102.149    0.195    0.402    3.092
  363.914  162.895  102.895    0.191    0.389    3.159
  364.164  161.425  103.194    0.286    0.380    3.160
  364.414  162.085  101.519    0.306    0.418    3.106
  364.664  161.217  101.162    0.318    0.463    2.994
  364.914  160.533  101.855    0.260    0.478    2.911
  365.164  159.565  103.964    0.242    0.461    2.844
  365.414  159.188  106.369    0.249    0.436    2.785
  365.664  159.094  109.898    0.259    0.419    2.747
  365.914  158.940  113.374    0.252    0.408    2.778
  366.164  158.903  117.000    0.230    0.403    3.158
  366.414  159.143  121.136    0.211    0.411    3.396
  366.664  159.572  120.784    0.206    0.418    3.332
  366.914  160.295  113.172    0.201    0.423    3.023
  367.164  160.578  102.427    0.217    0.426    2.727
  367.414  160.315   85.815    0.245    0.418    2.470
  367.664  159.587   73.244    0.275    0.402    2.419
  367.914  158.702   66.200    0.289    0.383    2.355
  368.164  157.143   61.495    0.283    0.368    2.412
  368.414  156.672   66.502    0.277    0.365    2.580
  368.664  157.797   69.261    0.244    0.378    2.780
  368.914  159.743   71.628    0.231    0.394    3.003
  369.164  160.956   75.158    0.231    0.407    3.227
  369.414  161.977   80.328    0.240    0.418    3.430
  369.664  161.405   83.350    0.226    0.421    3.618
  369.914  159.701   87.104    0.236    0.423    3.391
  370.164  157.806   89.485    0.234    0.424    3.467
  370.414  156.569   92.043    0.222    0.428    3.294
  370.664  156.558   90.947    0.232    0.426    2.915
  370.914  157.995   88.353    0.239    0.433    2.589
  371.164  159.825   87.205    0.247    0.428    2.301
  371.414  159.781   86.305    0.248    0.418    2.165
  371.664  157.833   84.300    0.256    0.413    2.021
  371.914  159.925   79.779    0.250    0.410    2.093
  372.164  162.028   79.152    0.245    0.411    2.206
  372.414  162.865   82.576    0.251    0.419    2.525
  372.664  163.194   86.444    0.237    0.411    2.900
  372.914  164.662   90.456    0.220    0.400    3.268
  373.164  166.830   93.688    0.204    0.389    3.656
  373.414  168.628   95.472    0.242    0.446    4.026
  373.664  170.112   95.976    0.286    0.509    4.144
  373.914  171.328   92.233    0.367    0.551    3.984
  374.164  166.495   84.555    0.358    0.572    3.497
  374.414  162.035   77.373    0.314    0.514    3.128
  374.664  160.921   74.921    0.301    0.476    2.830
  374.914  160.287   73.811    0.300    0.440    2.662
  375.164  159.930   76.183    0.293    0.434    2.501
  375.414  159.747   78.468    0.292    0.438    2.342
  375.664  159.839   80.136    0.295    0.444    2.238
  375.914  161.040   83.046    0.303    0.443    2.111
  376.164  162.696   84.728    0.277    0.433    2.038
  376.414  163.901   85.959    0.270    0.430    2.097
  376.664  163.747   85.534    0.279    0.437    2.106
  376.914  163.130   83.103    0.278    0.442    2.097
  377.164  162.326   83.416    0.268    0.448    2.150
  377.414  160.610   84.855    0.252    0.450    2.182
  377.664  158.472   85.133    0.251    0.445    2.209
  377.914  157.468   84.929    0.261    0.444    2.247
  378.164  157.999   85.718    0.269    0.435    2.310
  378.414  158.957   88.322    0.272    0.435    2.411
  378.664  159.530   91.872    0.274    0.428    2.517
  378.914  159.977   93.351    0.274    0.422    2.622
  379.164  160.116   95.452    0.233    0.427    2.696
  379.414  161.249   97.632    0.214    0.432    2.710
  379.664  162.850   97.951    0.200    0.444    2.631
  379.914  164.181   94.485    0.211    0.452    2.563
  380.164  163.545   89.373    0.240    0.446    2.556
  380.414  162.620   86.702    0.251    0.428    2.930
  380.664  162.765   85.619    0.232    0.421    3.689
  380.914  163.918   82.682    0.125    0.298    4.303
  381.164  164.621   76.933    0.103    0.274    4.827
  381.414  165.236   72.237    0.126    0.278    5.386
  381.664  165.333   71.379    0.163    0.348    5.838
  381.914  164.256   77.115    0.192    0.395    4.063
  382.164  161.927   81.081    0.200    0.422    3.308
  382.414  160.443   84.688    0.226    0.423    3.006
  382.664  160.888   87.683    0.255    0.432    2.829
  382.914  161.735   90.218    0.259    0.434    2.627
  383.164  163.081   89.966    0.247    0.431    2.427
  383.414  163.676   90.728    0.234    0.430    2.384
  383.664  162.374   94.824    0.226    0.447    2.398
  383.914  159.430   98.897    0.219    0.458    2.559
  384.164  157.302  103.364    0.219    0.455    2.785
  384.414  155.466  107.387    0.195    0.444    2.966
  384.664  157.479  111.164    0.161    0.450    2.921
  384.914  167.381  116.107    0.148    0.458    2.894
  385.164  177.485  122.747    0.172    0.461    2.928
  385.414  187.808  127.872    0.184    0.461    2.996
  385.664  192.171  133.975    0.198    0.447    3.156
  385.914  183.065  139.212    0.207    0.436    3.348
  386.164  175.014  141.603    0.196    0.421    3.550
  386.414  169.028  136.654    0.191    0.409    3.730
  386.664  164.408  132.608    0.188    0.410    3.890
  386.914  161.083  127.400    0.193    0.419    4.008
  387.164  159.690  121.383    0.179    0.412    4.104
  387.414  159.575  116.446    0.192    0.407    4.239
  387.664  162.045  112.923    0.200    0.403    4.250
  387.914  163.863  110.101    0.206    0.402    4.039
  388.164  162.509  109.782    0.216    0.408    3.840
  388.414  161.469  112.907    0.204    0.412    3.693
  388.664  161.146  115.390    0.205    0.406    3.550
  388.914  161.138  115.142    0.222    0.408    3.438
  389.164  160.947  113.223    0.231    0.424    3.329
  389.414  161.166  117.055    0.234    0.442    3.238
  389.664  161.906  120.709    0.224    0.462    3.222
  389.914  165.677  122.044    0.250    0.468    3.350
  390.164  168.330  122.125    0.216    0.448    3.449
  390.414  169.028  120.450    0.206    0.449    3.467
  390.664  169.650  119.387    0.214    0.462    3.423
  390.914  169.297  119.198    0.228    0.471    3.372
  391.164  167.533  120.503    0.222    0.444    3.328
  391.414  164.768  121.812    0.202    0.427    3.366
  391.664  164.426  123.454    0.179    0.422    3.494
  391.914  165.986  125.104    0.168    0.420    3.633
  392.164  168.410  126.720    0.172    0.418    3.736
  392.414  169.984  129.459    0.167    0.409    3.710
  392.664  171.553  131.194    0.176    0.403    3.831
  392.914  172.175  132.462    0.188    0.397    3.809
  393.164  172.802  132.990    0.179    0.390    3.705
  393.414  175.429  133.699    0.179    0.422    3.504
  393.664  182.049  133.033    0.208    0.440    3.272
  393.914  188.551  130.199    0.225    0.453    3.178
  394.164  189.935  127.881    0.220    0.458    3.165
  394.414  179.058  129.886    0.196    0.464    3.172
  394.664  175.920  133.015    0.194    0.475    3.092
  394.914  174.590  134.139    0.187    0.482    2.937
  395.164  172.740  114.103    0.193    0.472    2.703
  395.414  167.441  106.261    0.208    0.459    2.568
  395.664  163.816  106.439    0.195    0.465    2.557
  395.914  163.284  105.234    0.225    0.468    2.580
