~VERSION INFORMATION
 VERS.                 2.0:   CWLS LOG ASCII STANDARD -VERSION 2.0
 WRAP.                  NO:   ONE LINE PER DEPTH STEP
~WELL INFORMATION BLOCK
#MNEM.UNIT           DATA                    DESCRIPTION OF MNEMONIC
#---------    -------------------            -------------------------------
# Generated from Intellog Unique Number	CX_WELLS/WELL/4007
WELL.         PRECAM THORNBURY               : Well_name    - WELL
LOC .         00/04-30-078-13W4/0            : Location     - LOCATION
UWI .         00/04-30-078-13W4/0            : Uwi          - UNIQUE WELL ID
ENTR.         T                              : Entered      - ENTERED BY
SRVC.         SCHLUMBERGER                   : Scn          - SERVICE COMPANY
DATE.         03/06/92                       : Date         - LOG DATE
STRT.M        275                            : top_depth    - START DEPTH
STOP.M        505                            : bot_depth    - STOP DEPTH
STEP.M        0.25                           : increment    - STEP LENGTH
 NULL. -999.2500:NULL Value
~CURVE INFORMATION BLOCK
#MNEM UNIT       ERCB CURVE CODE    CURVE DESCRIPTION
#-----------   ------------------   ----------------------------------
DEPT.M        00 001 00 00         : DEPTH        - DEPTH
GR  .API      00 310 00 00         : GR           - GAMMA RAY
NPHI.V/V      00 330 00 00         : PHIN         - NEUTRON POROSITY (SANDSTONE)
DPHI.V/V      00 890 00 00         : PHID         - DENSITY POROSITY (SANDSTONE)
ILD .OHMM     00 120 00 00         : RESD         - DEEP RESISTIVITY (DIL)
~PARAMETER INFORMATION
#MNEM.UNIT           DATA             DESCRIPTION OF MNEMONIC
#---------         -----------     ------------------------------
GL  .M        675                  : gl           - GROUND LEVEL ELEVATION
EREF.M        679                  : kb           - ELEVATION OF DEPTH REFERENCE
DATM.M        679                  : datum        - DATUM ELEVATION
TDD .M        508                  : tdd          - TOTAL DEPTH DRILLER
RUN .         ONE                  : Run          - RUN NUMBER
ENG .         JO                   : Engineer     - RECORDING ENGINEER
WIT .         TIM                  : Witness      - WITNESSED BY
MUD .         GEL                  : Mud_type     - MUD TYPE
MATR.         SANDSTONE            : Logunit      - NEUTRON MATRIX
TMAX.C        19                   : BHT          - MAXIMUM RECORDED TEMPERATURE
BHTD.M        508                  : BHTDEP       - MAXIMUM RECORDED TEMPERATURE
RMT .C        19                   : MDTP         - TEMPERATURE OF MUD
MUDD.KG/M     1170                 : MWT          - MUD DENSITY
NEUT.         1                    : NEUTRON      - NEUTRON TYPE
RESI.         7.5                  : RESIST       - RESISTIVITY TYPE
RM  .OHMM     7.78                 : RM           - RESISTIVITY OF MUD
RMC .OHMM     7.78                 : RMC          - RESISTIVITY OF MUD CAKE
RMF .OHMM     7.78                 : RMF          - RESISTIVITY OF MUD FILTRATE
SUFT.C        4                    : SUFT         - SURFACE TEMPERATURE
~A  DEPTH       GR     PHIN     PHID     RESD
# ...
  362.000   71.168    0.436    0.285    9.353
  362.250   71.233    0.451    0.295    8.541
  362.500   74.406    0.464    0.286    7.372
  362.750   77.546    0.469    0.275    6.249
  363.000   83.792    0.467    0.276    5.916
  363.250   82.020    0.463    0.278    5.203
  363.500   80.850    0.474    0.279    4.663
  363.750   84.006    0.498    0.276    4.104
  364.000   89.634    0.520    0.273    3.677
  364.250   96.499    0.545    0.273    3.486
  364.500  100.273    0.565    0.273    3.429
  364.750  100.957    0.571    0.274    3.572
  365.000  101.657    0.545    0.276    3.862
  365.250  101.723    0.524    0.278    4.253
  365.500  101.805    0.502    0.284    4.684
  365.750  100.618    0.508    0.288    5.458
  366.000   93.267    0.512    0.289    6.989
  366.250   87.786    0.514    0.284    8.298
  366.500   85.981    0.514    0.274    9.145
  366.750   86.681    0.511    0.263   10.080
  367.000   87.349    0.501    0.251   10.495
  367.250   88.033    0.475    0.251   10.322
  367.500   88.716    0.460    0.252   10.173
  367.750   88.782    0.458    0.255   10.006
  368.000   87.010    0.462    0.256    9.485
  368.250   84.603    0.471    0.254    9.162
  368.500   85.271    0.484    0.251    8.850
  368.750   86.606    0.493    0.248    8.710
  369.000   87.289    0.493    0.247    8.579
  369.250   86.737    0.490    0.244    8.450
  369.500   86.185    0.498    0.244    8.004
  369.750   86.234    0.506    0.249    7.588
  370.000   87.552    0.514    0.251    7.060
  370.250   88.220    0.528    0.254    6.693
  370.500   89.538    0.542    0.260    6.592
  370.750   89.620    0.515    0.263    6.478
  371.000   89.068    0.500    0.268    6.620
  371.250   86.645    0.488    0.274    6.764
  371.500   82.384    0.486    0.278    7.043
  371.750   76.903    0.484    0.283    7.477
  372.000   77.570    0.480    0.285    7.943
  372.250   83.817    0.477    0.289    7.954
  372.500   89.462    0.483    0.291    7.406
  372.750   93.854    0.510    0.292    6.513
  373.000   97.010    0.516    0.292    6.056
  373.250   97.727    0.520    0.292    5.529
  373.500   97.776    0.513    0.289    5.049
  373.750   98.460    0.508    0.287    4.783
  374.000   99.144    0.515    0.283    4.210
  374.250  100.446    0.542    0.282    3.770
  374.500  101.748    0.548    0.278    3.378
  374.750  103.684    0.548    0.275    3.029
  375.000  105.604    0.548    0.280    2.870
  375.250  106.288    0.573    0.285    2.526
  375.500  105.719    0.583    0.285    2.263
  375.750  103.313    0.596    0.280    2.067
  376.000  101.524    0.598    0.277    1.889
  376.250  101.623    0.577    0.276    1.756
  376.500   99.834    0.569    0.278    1.727
  376.750   99.265    0.564    0.284    1.832
  377.000  101.202    0.558    0.291    1.980
  377.250  101.267    0.571    0.296    2.141
  377.500  101.317    0.584    0.294    2.404
  377.750  100.764    0.597    0.293    2.753
  378.000  101.464    0.611    0.290    2.916
  378.250  102.783    0.605    0.289    3.098
  378.500  103.450    0.598    0.288    3.163
  378.750   99.206    0.590    0.285    3.294
  379.000   96.799    0.572    0.283    3.429
  379.250   96.848    0.538    0.277    3.638
  379.500   97.565    0.523    0.271    4.322
  379.750   97.013    0.518    0.267    5.039
  380.000   96.427    0.518    0.261    5.758
  380.250   94.021    0.514    0.266    6.846
  380.500   89.142    0.502    0.275    7.395
  380.750   84.881    0.488    0.297    7.993
  381.000   78.766    0.477    0.308    8.653
  381.250   71.398    0.466    0.314    8.842
  381.500   60.338    0.441    0.318    8.702
  381.750   60.404    0.421    0.320    8.733
  382.000   62.324    0.420    0.327    8.589
  382.250   64.277    0.452    0.336    8.607
  382.500   61.870    0.462    0.321    8.477
  382.750   63.172    0.461    0.304    8.508
  383.000   65.727    0.454    0.288    8.526
  383.250   67.614    0.440    0.275    8.391
  383.500   71.421    0.434    0.275    8.421
  383.750   73.324    0.430    0.276    8.445
  384.000   74.008    0.428    0.273    8.469
  384.250   74.692    0.427    0.270    8.487
  384.500   74.758    0.432    0.262    8.511
  384.750   75.474    0.444    0.257    8.541
  385.000   76.125    0.455    0.256    8.566
  385.250   76.809    0.456    0.254    8.590
  385.500   79.380    0.454    0.255    8.614
  385.750   80.665    0.452    0.258    8.645
  386.000   83.822    0.446    0.260    8.663
  386.250   86.376    0.437    0.265    8.533
  386.500   87.076    0.428    0.267    8.557
  386.750   87.760    0.424    0.264    8.422
  387.000   85.353    0.422    0.263    8.440
  387.250   82.329    0.423    0.264    8.318
  387.500   83.631    0.424    0.268    8.336
  387.750   84.314    0.425    0.270    8.210
  388.000   82.526    0.427    0.272    8.222
  388.250   81.339    0.431    0.273    8.098
  388.500   78.965    0.434    0.277    8.127
  388.750   77.778    0.439    0.279    7.993
  389.000   76.624    0.450    0.280    8.027
  389.250   76.657    0.470    0.275    7.889
  389.500   78.577    0.468    0.273    7.770
  389.750   82.384    0.466    0.269    7.366
  390.000   85.540    0.472    0.264    6.848
  390.250   88.696    0.502    0.262    6.023
  390.500   89.397    0.508    0.261    5.301
  390.750   88.811    0.512    0.262    5.316
  391.000   89.544    0.508    0.263    5.543
  391.250   89.594    0.498    0.263    5.656
  391.500   90.261    0.490    0.262    5.884
  391.750   90.961    0.486    0.258    6.242
  392.000   91.011    0.484    0.255    6.885
  392.250   91.093    0.479    0.259    7.031
  392.500   90.540    0.475    0.265    7.189
  392.750   89.972    0.471    0.269    7.204
  393.000   88.801    0.471    0.275    7.225
  393.250   84.557    0.471    0.274    7.245
  393.500   81.532    0.470    0.270    7.271
  393.750   82.834    0.469    0.260    7.161
  394.000   86.608    0.470    0.251    7.053
  394.250   90.399    0.470    0.246    6.937
  394.500   92.319    0.466    0.246    6.832
  394.750   93.621    0.460    0.245    6.842
  395.000   91.832    0.460    0.245    6.867
  395.250   90.044    0.466    0.243    6.881
  395.500   88.890    0.472    0.252    6.901
  395.750   88.955    0.474    0.258    6.925
  396.000   89.021    0.470    0.268    6.945
  396.250   88.485    0.469    0.278    7.102
  396.500   87.900    0.470    0.286    7.117
  396.750   84.875    0.467    0.289    7.277
  397.000   83.103    0.466    0.280    7.431
  397.250   82.534    0.462    0.272    7.604
  397.500   83.234    0.457    0.267    7.759
  397.750   83.918    0.452    0.260    7.928
  398.000   84.586    0.450    0.255    8.107
  398.250   85.920    0.445    0.253    8.147
  398.500   86.588    0.439    0.253    8.164
  398.750   86.670    0.432    0.254    8.176
  399.000   85.499    0.426    0.253    8.199
  399.250   83.711    0.424    0.257    8.234
  399.500   81.304    0.429    0.265    8.246
  399.750   80.117    0.430    0.290    8.281
  400.000   76.491    0.431    0.293    8.293
  400.250   77.175    0.433    0.298    8.322
  400.500   78.460    0.438    0.307    8.191
  400.750   80.380    0.441    0.315    8.220
  401.000   77.388    0.447    0.321    8.090
  401.250   73.095    0.449    0.331    8.113
  401.500   63.889    0.457    0.337    8.131
  401.750   57.156    0.468    0.344    8.002
  402.000   54.131    0.472    0.346    8.025
  402.250   53.579    0.470    0.346    7.904
  402.500   52.425    0.464    0.344    7.932
  402.750   51.872    0.455    0.342    7.943
  403.000   51.922    0.452    0.341    7.823
  403.250   51.987    0.443    0.339    7.851
  403.500   52.053    0.433    0.339    7.851
  403.750   52.135    0.427    0.339    8.842
  404.000   52.217    0.439    0.339    8.529
  404.250   52.267    0.448    0.339    8.400
  404.500   52.332    0.454    0.337    8.274
  404.750   52.414    0.454    0.336    8.137
  405.000   53.115    0.448    0.336    8.015
  405.250   53.766    0.443    0.335    8.032
