~VERSION INFORMATION
 VERS.                 2.0:   CWLS LOG ASCII STANDARD -VERSION 2.0
 WRAP.                  NO:   ONE LINE PER DEPTH STEP
~WELL INFORMATION BLOCK
#MNEM.UNIT           DATA                    DESCRIPTION OF MNEMONIC
#---------    -------------------            -------------------------------
# Generated from Intellog Unique Number	CW_70_72/WELL/2904
NULL.         -999.25                        : NULL_VALUE
COMP .        CALMARK RESOURCES LTD          :  COMPANY
WELL.         CALMARK ET AL MISTAHAE         : Well_name    - WELL              
LOC .         09-25-079-01W5                 : Location     - LOCATION          
UWI .         00/09-25-079-01W5/0            : Uwi          - UNIQUE WELL ID    
ENTR.         MAX                            : Entered      - ENTERED BY        
SRVC.         COMPUTALOG                     : Scn          - SERVICE COMPANY   
DATE.         25 FEB 89                      : Date         - LOG DATE
STRT.M        245                            : top_depth    - START DEPTH       
STOP.M        500                            : bot_depth    - STOP DEPTH        
STEP.M        0.25                           : increment    - STEP LENGTH       
~CURVE INFORMATION BLOCK
#MNEM UNIT       ERCB CURVE CODE    CURVE DESCRIPTION
#-----------   ------------------   ----------------------------------
DEPT.M        00 001 00 00         : DEPTH        - DEPTH                       
ILD .OHMM     00 120 00 00         : RESD         - DEEP RESISTIVITY (DIL)      
NPHI.V/V      00 330 00 00         : PHIN         - NEUTRON POROSITY (SANDSTONE)
DPHI.V/V      00 890 00 00         : PHID         - DENSITY POROSITY (SANDSTONE)
CALI.MM       00 280 01 00         : CAL          - CALIPER                     
GR  .API      00 310 00 00         : GR           - GAMMA RAY                   
~PARAMETER INFORMATION       
#MNEM.UNIT           DATA             DESCRIPTION OF MNEMONIC
#---------         -----------     ------------------------------
GL  .M        570.5                : gl           - GROUND LEVEL ELEVATION      
EREF.M        574.14               : kb           - ELEVATION OF DEPTH REFERENCE
DATM.M        570.5                : datum        - DATUM ELEVATION             
TDD .M        521                  : tdd          - TOTAL DEPTH DRILLER         
RUN .         ONE                  : Run          - RUN NUMBER                  
ENG .         BILL                 : Engineer     - RECORDING ENGINEER          
WIT .         JIM                  : Witness      - WITNESSED BY                
MUD .         GEL                  : Mud_type     - MUD TYPE                    
MATR.         SANDSTONE            : Logunit      - NEUTRON MATRIX              
TMAX.C        21                   : BHT          - MAXIMUM RECORDED TEMPERATURE
BHTD.M        521                  : BHTDEP       - MAXIMUM RECORDED TEMPERATURE
RMT .C        14.4                 : MDTP         - TEMPERATURE OF MUD          
MUDD.KG/M     950                  : MWT          - MUD DENSITY                 
NEUT.         1                    : NEUTRON      - NEUTRON TYPE                
RESI.         0                    : RESIST       - RESISTIVITY TYPE            
RM  .OHMM     2.2                  : RM           - RESISTIVITY OF MUD          
RMC .OHMM     1.9                  : RMC          - RESISTIVITY OF MUD CAKE     
RMF .OHMM     2                    : RMF          - RESISTIVITY OF MUD FILTRATE 
SUFT.C        -20                  : SUFT         - SURFACE TEMPERATURE         
~A  DEPTH     RESD     PHIN     PHID      CAL       GR
# ...
  391.000   18.106    0.272    0.004  160.787   70.480
  391.250   16.975    0.373    0.064  161.251   81.318
  391.500   15.624    0.391    0.156  162.193   83.650
  391.750   15.055    0.398    0.173  162.164   82.166
  392.000   15.326    0.411    0.178  161.650   81.561
  392.250   16.480    0.412    0.184  161.132   83.596
  392.500   17.888    0.398    0.190  160.611   80.938
  392.750   19.237    0.374    0.174  160.582   73.876
  393.000   19.405    0.368    0.153  160.557   72.098
  393.250   19.394    0.372    0.146  161.014   72.083
  393.500   19.384    0.378    0.150  161.960   77.054
  393.750   19.198    0.398    0.178  161.445   80.265
  394.000   18.499    0.429    0.190  158.971   79.661
  394.250   17.827    0.439    0.193  156.005   72.890
  394.500   17.336    0.411    0.186  158.914   77.864
  394.750   17.013    0.404    0.185  164.754   83.128
  395.000   16.543    0.431    0.198  165.700   79.003
  395.250   16.086    0.444    0.211  165.182   79.570
  395.500   15.221    0.406    0.211  165.635   85.717
  395.750   14.666    0.406    0.203  166.096   87.752
  396.000   14.393    0.422    0.198  166.556   85.094
  396.250   14.254    0.424    0.203  166.527   83.318
  396.500   14.248    0.408    0.208  166.017   82.712
  396.750   14.112    0.404    0.214  165.984   85.042
  397.000   14.105    0.411    0.213  165.955   84.438
  397.250   13.841    0.417    0.220  165.923   82.071
  397.500   13.584    0.415    0.219  165.898   82.054
  397.750   13.453    0.410    0.214  165.869   86.440
  398.000   13.083    0.392    0.213  165.841   91.118
  398.250   12.956    0.395    0.210  165.812   89.927
  398.500   12.950    0.412    0.213  166.272   85.506
  398.750   12.944    0.428    0.217  166.240   86.954
  399.000   12.936    0.438    0.218  165.704   89.871
  399.250   12.696    0.436    0.220  165.693   91.910
  399.500   12.347    0.428    0.224  165.665   93.067
  399.750   11.896    0.433    0.224  165.629   91.874
  400.000   11.676    0.443    0.213  165.607   91.858
  400.250   11.563    0.449    0.209  165.575   91.841
  400.500   11.664    0.446    0.200  165.575   90.944
  400.750   11.874    0.429    0.179  165.010   89.457
  401.000   12.311    0.433    0.170  165.003   86.208
  401.250   12.531    0.430    0.172  165.953   85.899
  401.500   12.526    0.434    0.166  166.406   87.643
  401.750   12.406    0.422    0.165  166.381   90.264
  402.000   12.399    0.404    0.173  166.348   89.662
  402.250   12.507    0.397    0.185  166.809   87.884
  402.500   12.501    0.401    0.193  166.776   85.813
  402.750   12.494    0.405    0.194  167.244   84.913
  403.000   12.375    0.422    0.196  167.212   86.365
  403.250   12.256    0.432    0.195  167.668   88.400
  403.500   12.137    0.439    0.189  167.643   88.972
  403.750   11.912    0.435    0.190  168.100   88.659
  404.000   11.583    0.423    0.188  168.564   88.351
  404.250   11.162    0.424    0.180  168.532   89.507
  404.500   10.855    0.422    0.186  168.996   90.075
  404.750   10.653    0.428    0.192  169.456   88.884
  405.000   10.844    0.428    0.194  169.427   90.331
  405.250   11.039    0.404    0.190  169.395   91.197
  405.500   11.871    0.384    0.181  169.359   89.710
  405.750   12.766    0.359    0.160  169.337   86.174
  406.000   12.877    0.349    0.119  169.305   78.819
  406.250   12.871    0.374    0.111  170.254   79.682
  406.500   12.515    0.395    0.146  171.207   83.772
  406.750   12.170    0.411    0.167  172.157   90.504
  407.000   11.515    0.426    0.191  172.614   98.997
  407.250   10.994    0.434    0.177  172.588  101.618
  407.500   10.692    0.441    0.174  173.045   98.082
  407.750   10.687    0.414    0.176  173.506   94.835
  408.000   10.779    0.389    0.172  173.966   96.282
  408.250   10.973    0.380    0.164  174.423   96.561
  408.500   11.068    0.384    0.162  174.423   93.311
  408.750   10.763    0.388    0.163  174.369   93.005
  409.000   10.276    0.396    0.161  174.822   94.455
  409.250    9.812    0.400    0.155  175.779   99.133
  409.500    9.629    0.410    0.167  177.699  104.397
  409.750    9.713    0.405    0.181  177.670  106.725
  410.000   10.069    0.387    0.143  172.265   99.961
  410.250   10.732    0.379    0.125  168.810   94.956
  410.500   12.192    0.374    0.146  168.292   95.819
  410.750   14.108    0.359    0.164  168.263   98.147
  411.000   16.779    0.346    0.153  167.738   86.684
  411.250   21.667    0.322    0.119  166.731   75.225
  411.500   26.729    0.297    0.106  166.196   76.085
  411.750   32.081    0.273    0.119  165.696   74.601
  412.000   36.782    0.274    0.094  165.667   70.476
  412.250   42.557    0.279    0.078  165.149   65.466
  412.500   47.472    0.286    0.056  165.617   64.277
  412.750   51.525    0.289    0.074  165.585   64.262
  413.000   57.476    0.286    0.079  166.045   62.482
  413.250   61.803    0.279    0.067  166.013   58.355
  413.500   63.495    0.264    0.045  166.476   57.459
  413.750   63.464    0.258    0.037  166.448   58.614
  414.000   61.150    0.266    0.044  166.415   59.185
  414.250   57.335    0.269    0.044  166.390   59.753
  414.500   51.348    0.264    0.037  166.362   63.552
  414.750   41.580    0.268    0.025  166.333   81.141
  415.000   32.761    0.298    0.043  166.297   94.915
  415.250   27.269    0.374    0.104  166.261   94.018
  415.500   24.199    0.428    0.155  166.240   88.425
  415.750   21.872    0.422    0.203  166.700   85.178
  416.000   19.768    0.404    0.208  167.653   85.159
  416.250   17.865    0.401    0.183  169.091   84.848
  416.500   16.443    0.412    0.152  170.037   81.897
  416.750   15.845    0.410    0.169  170.008   78.947
  417.000   15.549    0.404    0.177  169.976   80.102
  417.250   15.401    0.403    0.167  170.436   82.138
  417.500   15.115    0.400    0.163  170.897   84.469
  417.750   14.832    0.399    0.170  170.872   85.625
  418.000   14.692    0.406    0.183  170.843   86.781
  418.250   14.418    0.418    0.191  170.811   85.004
  418.500   14.279    0.418    0.199  170.785   80.878
  418.750   14.271    0.403    0.200  170.757   80.568
  419.000   14.266    0.397    0.197  170.724   83.481
  419.250   13.999    0.416    0.184  170.696   84.933
  419.500   13.865    0.423    0.164  170.663   83.740
  419.750   13.482    0.420    0.159  170.635   81.962
  420.000   12.991    0.415    0.176  170.606   83.705
  420.250   12.749    0.433    0.186  170.574   86.624
  420.500   12.627    0.440    0.172  170.552   93.943
  420.750   12.737    0.404    0.169  170.509   97.740
  421.000   12.847    0.390    0.184  170.487   89.211
  421.250   12.960    0.382    0.190  170.437   86.555
  421.500   13.072    0.382    0.174  170.919   83.602
  421.750   13.185    0.395    0.152  170.894   82.998
  422.000   13.059    0.409    0.121  170.862   88.555
  422.250   12.935    0.406    0.155  170.833   92.057
  422.500   12.464    0.401    0.152  171.293   89.988
  422.750   12.009    0.404    0.152  171.261   87.913
  423.000   11.572    0.398    0.158  171.236   86.433
  423.250   10.847    0.389    0.154  171.236   87.587
  423.500   10.454    0.393    0.159  170.679   90.504
  423.750   10.165    0.425    0.162  170.172   90.489
  424.000   10.067    0.438    0.159  170.172   91.054
  424.250   10.062    0.432    0.158  169.611   90.448
  424.500   10.057    0.422    0.156  169.593   88.088
  424.750   10.145    0.427    0.150  169.564   85.723
  425.000   10.141    0.437    0.155  169.532   88.933
  425.250   10.141    0.437    0.172  169.507   92.731
  425.500   10.221    0.428    0.174  169.471   90.657
  425.750   10.313    0.426    0.164  169.449   86.823
  426.000   10.308    0.429    0.158  169.420   87.978
  426.250   10.208    0.418    0.159  169.388   90.312
  426.500   10.203    0.416    0.154  169.845   90.882
  426.750   10.292    0.424    0.145  169.820   90.569
  427.000   10.670    0.410    0.145  169.302   91.141
  427.250   11.686    0.398    0.171  168.781   90.535
