~VERSION INFORMATION
 VERS.                 2.0:   CWLS LOG ASCII STANDARD -VERSION 2.0
 WRAP.                  NO:   ONE LINE PER DEPTH STEP
~WELL INFORMATION BLOCK
#MNEM.UNIT           DATA                    DESCRIPTION OF MNEMONIC
#---------    -------------------            -------------------------------
# Generated from Intellog Unique Number	CW_70_72/WELL/995
NULL.         -999.25                        : NULL_VALUE
WELL.         CHEVRON MCSU 1 MITSUE 09-27    : Well_name    - WELL              
LOC .         09-27-072-05W5                 : Location     - LOCATION          
UWI .         00/09-27-072-05W5/0            : Uwi          - UNIQUE WELL ID    
ENTR.         JAYE                           : Entered      - ENTERED BY        
SRVC.         WESTERN ATLAS                  : Scn          - SERVICE COMPANY   
DATE.         3 MAR 86                       : Date         - LOG DATE          
STRT.M        390                            : top_depth    - START DEPTH       
STOP.M        625                            : bot_depth    - STOP DEPTH        
STEP.M        0.25                           : increment    - STEP LENGTH       
~CURVE INFORMATION BLOCK
#MNEM UNIT       ERCB CURVE CODE    CURVE DESCRIPTION
#-----------   ------------------   ----------------------------------
DEPT.M        00 001 00 00         : DEPTH        - DEPTH                       
DPHI.V/V      00 890 00 00         : PHID         - DENSITY POROSITY (SANDSTONE)
NPHI.V/V      00 330 00 00         : PHIN         - NEUTRON POROSITY (SANDSTONE)
GR  .API      00 310 00 00         : GR           - GAMMA RAY                   
CALI.MM       00 280 01 00         : CAL          - CALIPER                     
ILD .OHMM     00 120 00 00         : RESD         - DEEP RESISTIVITY (DIL)      
~PARAMETER INFORMATION       
#MNEM.UNIT           DATA             DESCRIPTION OF MNEMONIC
#---------         -----------     ------------------------------
GL  .M        585.42               : gl           - GROUND LEVEL ELEVATION      
EREF.M        591                  : kb           - ELEVATION OF DEPTH REFERENCE
DATM.M        585.42               : datum        - DATUM ELEVATION             
TDD .M        1700                 : tdd          - TOTAL DEPTH DRILLER         
RUN .         ONE                  : Run          - RUN NUMBER                  
ENG .         SENTSEN              : Engineer     - RECORDING ENGINEER          
WIT .         SUO                  : Witness      - WITNESSED BY                
BASE.         LEDUC                : Branch       - HOME BASE OF LOGGING UNIT   
MUD .         GEL-CHEM             : Mud_type     - MUD TYPE                    
MATR.         SANDSTONE            : Logunit      - NEUTRON MATRIX              
TMAX.C        51                   : BHT          - MAXIMUM RECORDED TEMPERATURE
BHTD.M        1701.25              : BHTDEP       - MAXIMUM RECORDED TEMPERATURE
RMT .C        25                   : MDTP         - TEMPERATURE OF MUD          
MUDD.KG/M     1370                 : MWT          - MUD DENSITY                 
NEUT.         1                    : NEUTRON      - NEUTRON TYPE                
RESI.         0                    : RESIST       - RESISTIVITY TYPE            
RM  .OHMM     0.76                 : RM           - RESISTIVITY OF MUD          
RMC .OHMM     1.19                 : RMC          - RESISTIVITY OF MUD CAKE     
RMF .OHMM     0.7                  : RMF          - RESISTIVITY OF MUD FILTRATE 
SUFT.C        32                   : SUFT         - SURFACE TEMPERATURE         
~A  DEPTH     PHID     PHIN       GR      CAL     RESD
  390.000    0.388    0.768   60.916  291.638    1.891
  390.250    0.374    0.763   61.439  289.271    1.940
  390.500    0.338    0.788   62.146  289.930    1.979
  390.750    0.294    0.705   57.971  285.272    2.026
  391.000    0.310    0.649   63.062  285.203    2.067
  391.250    0.341    0.673   64.273  287.840    2.112
  391.500    0.361    0.951   53.086  292.255    2.139
  391.750    0.393    0.779   49.977  297.400    2.165
  392.000    0.419    0.644   55.005  309.328    2.205
  392.250    0.417    0.975   52.269  344.736    2.313
  392.500    0.402    0.880   51.725  318.370    2.391
  392.750    0.394    0.758   51.998  320.176    2.417
  393.000    0.389    0.649   48.260  325.534    2.392
  393.250    0.384    0.569   60.174  307.201    2.354
  393.500    0.426    0.514   63.200  294.816    2.313
  393.750    0.440    0.893   58.336  299.131    2.251
  394.000    0.410    0.792   49.904  310.429    2.216
  394.250    0.391    0.707   49.923  305.559    2.186
  394.500    0.456    0.746   58.522  307.157    2.147
  394.750    0.502    0.750   56.915  330.251    2.126
  395.000    0.466    0.647   53.615  274.355    2.080
  395.250    0.407    0.550   56.702  246.529    2.036
  395.500    0.431    0.997   51.401  248.441    1.963
  395.750    0.502    0.990   36.145  313.898    1.872
  396.000    0.467    0.870   33.849  287.322    1.774
  396.250    0.395    0.756   41.194  262.210    1.654
  396.500    0.344    1.000   46.036  252.643    1.589
  396.750    0.375    1.005   49.560  307.666    1.630
  397.000    0.433    0.891   37.872  349.749    1.723
  397.250    0.465    0.832   31.884  369.920    1.863
  397.500    0.297    0.734   35.345  270.410    2.026
  397.750    0.253    0.475   49.514  235.592    2.296
  398.000    0.272    0.391   40.957  233.958    2.502
  398.250    0.287    0.401   30.396  232.844    2.788
  398.500    0.300    0.410   36.990  233.396    3.026
  398.750    0.300    0.398   37.699  233.119    3.052
  399.000    0.288    0.383   46.297  232.944    2.987
  399.250    0.287    0.378   44.689  232.975    2.973
  399.500    0.291    0.379   41.453  233.218    2.993
  399.750    0.293    0.377   35.400  233.358    2.992
  400.000    0.298    0.382   34.231  233.601    2.995
  400.250    0.313    0.404   37.444  234.050    2.998
  400.500    0.313    0.384   32.894  235.020    3.002
  400.750    0.296    0.393   30.784  236.932    2.988
  401.000    0.289    0.374   37.503  239.156    2.985
  401.250    0.281    0.375   31.702  239.714    2.983
  401.500    0.273    0.383   39.608  239.017    2.987
  401.750    0.276    0.393   35.999  238.317    3.001
  402.000    0.282    0.405   34.328  237.832    3.033
  402.250    0.288    0.399   39.483  237.970    3.094
  402.500    0.297    0.394   45.825  238.627    3.133
  402.750    0.316    0.395   37.330  239.075    3.154
  403.000    0.279    0.380   32.028  238.801    3.140
  403.250    0.267    0.377   38.060  238.102    3.131
  403.500    0.262    0.401   38.141  237.301    3.129
  403.750    0.259    0.417   36.912  236.187    3.115
  404.000    0.255    0.403   40.434  235.380    3.118
  404.250    0.264    0.377   33.383  234.794    3.139
  404.500    0.277    0.389   28.517  234.623    3.191
  404.750    0.269    0.383   35.925  234.659    3.273
  405.000    0.246    0.374   35.881  234.678    3.364
  405.250    0.259    0.366   33.900  234.503    3.458
  405.500    0.292    0.359   35.358  234.333    3.527
  405.750    0.292    0.361   37.946  234.152    3.518
  406.000    0.272    0.379   39.718  234.498    3.386
  406.250    0.283    0.408   31.914  237.037    3.126
  406.500    0.308    0.403   26.672  250.635    2.876
  406.750    0.378    0.484   33.581  268.405    2.676
  407.000    0.390    0.715   44.245  280.020    2.745
  407.250    0.332    0.637   54.029  299.775    2.897
  407.500    0.303    0.449   54.362  276.019    3.179
  407.750    0.282    0.394   47.433  240.472    3.457
  408.000    0.265    0.398   40.757  236.121    3.309
  408.250    0.317    0.496   36.517  250.764    3.066
  408.500    0.385    0.972   33.969  281.576    2.859
  408.750    0.539    0.550   34.806  312.704    2.630
  409.000    0.363    0.392   37.704  282.165    2.723
  409.250    0.306    0.365   37.099  230.443    2.890
  409.500    0.322    0.454   37.868  238.933    3.107
  409.750    0.333    0.485   48.531  242.719    3.449
  410.000    0.311    0.437   41.666  238.479    3.723
  410.250    0.305    0.389   33.983  232.772    3.650
  410.500    0.314    0.385   28.807  229.566    3.641
  410.750    0.298    0.397   32.209  230.229    3.806
  411.000    0.276    0.416   28.910  231.094    3.964
  411.250    0.262    0.398   36.380  232.490    4.036
  411.500    0.242    0.380   49.171  234.088    4.033
  411.750    0.223    0.366   51.071  238.706    3.992
  412.000    0.198    0.363   55.347  246.046    3.937
  412.250    0.209    0.375   55.993  249.521    3.860
  412.500    0.207    0.374   64.778  250.182    3.743
  412.750    0.225    0.370   60.479  241.657    3.575
  413.000    0.266    0.359   46.100  235.742    3.402
  413.250    0.307    0.348   31.722  233.170    3.219
  413.500    0.297    0.341   25.292  232.054    3.006
  413.750    0.290    0.328   21.116  231.669    2.845
  414.000    0.284    0.323   22.451  231.705    2.779
  414.250    0.258    0.328   30.297  232.048    2.927
  414.500    0.239    0.346   49.787  232.501    3.183
  414.750    0.265    0.400   49.180  232.638    3.540
  415.000    0.256    0.375   40.375  234.132    3.990
  415.250    0.228    0.373   38.141  236.982    4.179
  415.500    0.291    0.974   51.870  245.361    3.808
  415.750    0.445    1.012   62.408  269.080    3.256
  416.000    0.543    0.690   51.097  308.451    2.601
  416.250    0.537    0.612   47.359  305.667    2.750
  416.500    0.312    0.505   46.565  285.353    2.979
  416.750    0.265    0.445   48.840  232.590    3.264
  417.000    0.252    0.400   51.490  237.738    3.755
  417.250    0.265    0.389   60.211  249.350    4.377
  417.500    0.228    0.364   52.657  255.646    4.482
  417.750    0.186    0.327   51.739  253.696    4.354
  418.000    0.166    0.345   58.142  256.441    4.238
  418.250    0.223    0.370   59.603  246.980    4.140
  418.500    0.257    0.367   53.802  240.021    4.060
  418.750    0.274    0.359   46.933  239.324    3.997
  419.000    0.293    0.352   37.374  238.732    3.934
  419.250    0.284    0.349   28.693  238.251    3.893
  419.500    0.270    0.349   42.735  237.649    3.906
  419.750    0.256    0.373   46.829  236.644    3.940
  420.000    0.247    0.360   47.099  235.219    4.049
  420.250    0.238    0.353   48.430  234.418    4.115
  420.500    0.217    0.367   45.759  235.179    4.198
  420.750    0.195    0.382   45.965  239.590    4.266
  421.000    0.158    0.393   50.619  246.511    4.255
  421.250    0.257    0.424   55.334  255.312    3.951
  421.500    0.306    0.445   57.295  265.985    3.429
  421.750    0.340    0.882   61.071  274.785    2.954
  422.000    0.558    0.832   51.950  284.628    2.564
  422.250    0.563    0.999   54.662  244.798    2.139
  422.500    0.553    1.001   63.886  248.174    2.178
  422.750    0.510    0.931   59.462  247.370    2.737
  423.000    0.314    0.402   48.900  241.454    3.294
  423.250    0.257    0.388   51.238  232.622    4.265
  423.500    0.266    0.413   58.520  231.923    4.963
  423.750    0.273    0.400   57.603  232.268    5.377
  424.000    0.270    0.414   49.418  232.930    5.194
  424.250    0.260    0.440   44.679  234.329    4.850
  424.500    0.250    0.437   55.657  234.987    4.624
  424.750    0.240    0.450   57.178  235.741    4.467
  425.000    0.227    0.461   58.952  237.132    4.348
  425.250    0.211    0.436   59.787  238.943    4.232
  425.500    0.195    0.423   64.438  240.536    4.035
  425.750    0.194    0.416   51.999  241.507    3.754
  426.000    0.286    0.481   54.337  240.500    3.599
  426.250    0.360    0.561   58.425  239.383    3.463
