~VERSION INFORMATION
 VERS.                 2.0:   CWLS LOG ASCII STANDARD -VERSION 2.0
 WRAP.                  NO:   ONE LINE PER DEPTH STEP
~WELL INFORMATION BLOCK
#MNEM.UNIT           DATA                    DESCRIPTION OF MNEMONIC
#---------    -------------------            -------------------------------
# Generated from Intellog Unique Number	CS_77_79/WELL/911
WELL.         HOME LEISMER                   : Well_name    - WELL
LOC .         00/07-29-078-07W4/0            : Location     - LOCATION
UWI .         00/07-29-078-07W4/0            : Uwi          - UNIQUE WELL ID
ENTR.         JHS                            : Entered      - ENTERED BY
SRVC.         SCHLUMBERGER                   : Scn          - SERVICE COMPANY
STRT.M        129.845                        : top_depth    - START DEPTH
STOP.M        344.095                        : bot_depth    - STOP DEPTH
STEP.M        0.25                           : increment    - STEP LENGTH
 NULL. -999.2500:NULL Value
~CURVE INFORMATION BLOCK
#MNEM UNIT       ERCB CURVE CODE    CURVE DESCRIPTION
#-----------   ------------------   ----------------------------------
DEPT.M        00 001 00 00         : DEPTH        - DEPTH
RHOB.KG/M3    00 350 00 00         : DENS         - BULK DENSITY
GR  .API      00 310 00 00         : GR           - GAMMA RAY
DPHI.V/V      00 890 00 00         : PHID         - DENSITY POROSITY (SANDSTONE)
NPHI.V/V      00 330 00 00         : PHIN         - NEUTRON POROSITY (SANDSTONE)
ILD .OHMM     00 120 00 00         : RESD         - DEEP RESISTIVITY (DIL)
~PARAMETER INFORMATION
#MNEM.UNIT           DATA             DESCRIPTION OF MNEMONIC
#---------         -----------     ------------------------------
GL  .M        545.592              : gl           - GROUND LEVEL ELEVATION
EREF.M        549.432              : kb           - ELEVATION OF DEPTH REFERENCE
DATM.M        549.432              : datum        - DATUM ELEVATION
TDD .M        446.227              : tdd          - TOTAL DEPTH DRILLER
RUN .         ONE                  : Run          - RUN NUMBER
ENG .         BILL                 : Engineer     - RECORDING ENGINEER
WIT .         JIM                  : Witness      - WITNESSED BY
MUD .         GEL                  : Mud_type     - MUD TYPE
MATR.         SANDSTONE            : Logunit      - NEUTRON MATRIX
TMAX.C        21.6667              : BHT          - MAXIMUM RECORDED TEMPERATURE
BHTD.M        446.227              : BHTDEP       - MAXIMUM RECORDED TEMPERATURE
MATR.         1                    : LOGUNIT      - NEUTRON MATRIX
RMT .C        25                   : MDTP         - TEMPERATURE OF MUD
NEUT.         1                    : NEUTRON      - NEUTRON TYPE
RESI.         0                    : RESIST       - RESISTIVITY TYPE
RMC .OHMM     0.25                 : RMC          - RESISTIVITY OF MUD CAKE
RMF .OHMM     0.25                 : RMF          - RESISTIVITY OF MUD FILTRATE
SUFT.C        15                   : SUFT         - SURFACE TEMPERATURE
~A  DEPTH     DENS       GR     PHID     PHIN     RESD
# ...
  239.345    0.000   71.789    0.311    0.473    7.085
  239.595    0.000   71.344    0.331    0.468    7.951
  239.845   -0.000   72.931    0.327    0.448    9.069
  240.095   -0.000   73.013    0.295    0.430   10.940
  240.345   -0.000   73.732    0.270    0.419   12.182
  240.595    0.000   76.698    0.303    0.431   13.556
  240.845    0.000   76.790    0.306    0.455   12.573
  241.095   -0.000   75.011    0.280    0.472   11.963
  241.345   -0.000   70.256    0.302    0.463   11.040
  241.595   -0.000   70.203    0.309    0.433   10.445
  241.845    0.000   70.225    0.331    0.441   10.162
  242.095    0.000   67.662    0.324    0.468   10.029
  242.345    0.000   64.267    0.290    0.459   10.387
  242.595   -0.000   61.471    0.179    0.381   11.267
  242.845   -0.000   68.667    0.161    0.362   11.572
  243.095   -0.000   76.534    0.186    0.418   10.505
  243.345    0.000   80.425    0.308    0.486    9.895
  243.595    0.000   79.879    0.310    0.482    9.196
  243.845    0.000   79.318    0.311    0.481    8.966
  244.095   -0.000   77.507    0.293    0.487    8.708
  244.345   -0.000   76.141    0.281    0.495    8.485
  244.595    0.000   75.665    0.292    0.487    8.506
  244.845    0.000   76.068    0.303    0.477    8.504
  245.095    0.000   74.965    0.279    0.489    8.740
  245.345   -0.000   74.979    0.266    0.482    9.322
  245.595   -0.000   76.975    0.253    0.480    9.575
  245.845   -0.000   78.967    0.248    0.500    9.352
  246.095    0.000   81.459    0.275    0.511    8.649
  246.345    0.000   84.759    0.277    0.519    8.300
  246.595    0.000   87.442    0.260    0.525    7.796
  246.845   -0.000   87.954    0.260    0.502    7.340
  247.095   -0.000   89.735    0.275    0.491    6.914
  247.345    0.000   91.081    0.279    0.495    6.506
  247.595    0.000   91.424    0.282    0.494    6.517
  247.845    0.000   90.339    0.276    0.496    6.544
  248.095   -0.000   89.920    0.286    0.509    6.642
  248.345   -0.000   90.274    0.278    0.516    6.836
  248.595   -0.000   90.607    0.277    0.508    7.218
  248.845    0.000   91.721    0.288    0.498    7.295
  249.095    0.000   91.707    0.272    0.496    7.611
  249.345    0.000   88.524    0.254    0.491    7.932
  249.595   -0.000   84.023    0.266    0.487    8.048
  249.845   -0.000   80.693    0.281    0.503    8.237
  250.095   -0.000   79.662    0.289    0.507    8.230
  250.345    0.000   80.271    0.320    0.516    8.245
  250.595    0.000   83.879    0.324    0.525    8.006
  250.845   -0.000   85.128    0.311    0.510    7.666
  251.095   -0.000   86.470    0.291    0.519    7.359
  251.345   -0.000   87.226    0.291    0.528    7.065
  251.595    0.000   88.055    0.280    0.514    6.877
  251.845    0.000   90.883    0.267    0.519    6.547
  252.095    0.000   91.332    0.268    0.525    6.371
  252.345   -0.005   90.817    0.274    0.493    6.193
  252.595   -0.072   89.216    0.271    0.485    5.844
  252.845   -0.138   88.312    0.265    0.516    5.502
  253.095    4.321   86.908    0.265    0.550    5.015
  253.345   43.051   84.740    0.288    0.575    4.725
  253.595  -17.677   81.707    0.286    0.574    4.679
  253.845 2328.150   78.110    0.327    0.541    4.811
  254.095 2122.610   74.335    0.353    0.525    5.194
  254.345 2125.480   70.379    0.341    0.519    5.825
  254.595 2120.510   70.713    0.345    0.503    6.364
  254.845 2115.350   74.577    0.348    0.498    6.619
  255.095 2160.560   75.103    0.321    0.511    7.054
  255.345 2177.080   75.839    0.312    0.518    7.457
  255.595 2167.740   77.487    0.317    0.499    7.689
  255.845 2189.240   76.418    0.305    0.491    7.813
  256.095 2166.820   76.394    0.318    0.485    7.993
  256.345 2186.210   75.726    0.306    0.479    7.986
  256.595 2192.570   77.389    0.303    0.485    8.010
  256.845 2178.670   81.922    0.311    0.508    7.848
  257.095 2169.580   84.837    0.316    0.527    7.725
  257.345 2180.060   87.140    0.310    0.507    7.741
  257.595 2189.690   90.048    0.304    0.497    7.562
  257.845 2185.570   90.977    0.307    0.486    7.215
  258.095 2201.820   88.485    0.297    0.490    6.977
  258.345 2207.520   82.898    0.294    0.541    6.146
  258.595 2200.320   83.891    0.298    0.557    5.634
  258.845 2231.610   87.808    0.280    0.563    5.275
  259.095 2165.450   88.656    0.318    0.525    4.965
  259.345 2190.650   87.150    0.304    0.507    4.977
  259.595 2213.510   85.490    0.290    0.505    5.179
  259.845 2265.360   82.636    0.260    0.513    5.473
  260.095 2361.000   78.583    0.204    0.485    6.112
  260.345 2385.530   76.781    0.190    0.468    6.213
  260.595 2294.480   80.225    0.243    0.473    6.142
  260.845 2223.890   77.994    0.284    0.496    6.139
  261.095 2224.310   76.497    0.284    0.505    6.291
  261.345 2253.460   76.203    0.267    0.519    6.597
  261.595 2302.720   73.470    0.238    0.502    7.055
  261.845 2339.220   73.082    0.217    0.499    7.916
  262.095 2338.450   77.265    0.217    0.495    8.544
  262.345 2226.080   78.488    0.283    0.514    8.821
  262.595 2199.540   79.198    0.299    0.523    8.824
  262.845 2183.970   83.510    0.308    0.528    8.424
  263.095 2184.210   85.028    0.307    0.515    7.799
  263.345 2195.350   83.433    0.301    0.505    7.363
  263.595 2199.210   83.844    0.299    0.511    7.022
  263.845 2205.350   85.335    0.295    0.505    6.491
  264.095 2251.200   90.616    0.268    0.491    5.939
  264.345 2278.610   91.699    0.252    0.501    5.019
  264.595 2186.870   92.747    0.306    0.526    4.240
  264.845 2215.530   95.921    0.289    0.563    3.641
  265.095 2216.420   97.199    0.289    0.603    3.200
  265.345 2226.950   97.551    0.282    0.606    3.265
  265.595 2204.570   97.591    0.296    0.561    3.358
  265.845 2175.390   96.374    0.313    0.533    3.644
  266.095 2181.490   93.328    0.309    0.546    3.868
  266.345 2137.680   89.248    0.335    0.569    4.303
  266.595 2099.010   90.158    0.357    0.584    4.751
  266.845 2163.020   96.126    0.320    0.584    5.511
  267.095 2241.510  100.006    0.274    0.503    5.892
  267.345 2278.400   99.295    0.252    0.471    6.255
  267.595 2284.670   92.954    0.249    0.475    6.686
  267.845 2269.610   92.822    0.258    0.474    6.698
  268.095 2238.380   92.733    0.276    0.457    6.542
  268.345 2213.310   90.702    0.290    0.465    5.994
  268.595 2247.380   87.492    0.271    0.490    5.135
  268.845 2256.160   82.438    0.265    0.513    4.436
  269.095 2217.550   82.580    0.288    0.545    3.876
  269.345 2171.740   82.765    0.315    0.559    3.283
  269.595 2194.340   82.549    0.302    0.576    2.868
  269.845 2193.650   83.468    0.302    0.598    2.438
  270.095 2149.100   81.460    0.328    0.613    2.178
  270.345 2178.910   84.943    0.311    0.615    2.056
  270.595 2204.030   82.077    0.296    0.601    2.012
  270.845 2195.570   80.080    0.301    0.609    2.020
  271.095 2186.690   79.971    0.306    0.624    2.058
  271.345 2167.990   81.814    0.317    0.628    2.076
  271.595 2155.280   85.946    0.324    0.626    2.100
  271.845 2197.820   88.068    0.300    0.605    2.143
  272.095 2210.560   88.163    0.292    0.565    2.151
  272.345 2216.120   88.184    0.289    0.546    2.270
  272.595 2229.080   89.099    0.281    0.539    2.408
  272.845 2274.340   91.788    0.255    0.537    2.717
  273.095 2252.970   94.871    0.267    0.528    3.055
  273.345 2244.600   93.651    0.272    0.512    3.456
  273.595 2275.150   91.779    0.254    0.504    3.925
  273.845 2297.840   89.740    0.241    0.490    4.435
  274.095 2275.720   87.686    0.254    0.469    5.103
  274.345 2310.990   85.667    0.233    0.467    5.728
  274.595 2378.970   84.505    0.194    0.475    5.919
  274.845 2435.560   91.124    0.160    0.452    5.731
  275.095 2437.460   96.203    0.159    0.454    5.505
  275.345 2260.700   97.091    0.263    0.516    5.098
  275.595 2246.850   97.884    0.271    0.549    4.605
