~VERSION INFORMATION
 VERS.                 2.0:   CWLS LOG ASCII STANDARD -VERSION 2.0
 WRAP.                  NO:   ONE LINE PER DEPTH STEP
~WELL INFORMATION BLOCK
#MNEM.UNIT           DATA                    DESCRIPTION OF MNEMONIC
#---------    -------------------            -------------------------------
# Generated from Intellog Unique Number	CN_94_101/WELL/2765
WELL.         PARAMOUNT LTD.                 : Well_name    - WELL
LOC .         00/07-15-094-21W4/0            : Location     - LOCATION
UWI .         00/07-15-094-21W4/0            : Uwi          - UNIQUE WELL ID
ENTR.         JOETTE                         : Entered      - ENTERED BY
SRVC.         COMPUTALOG                     : Scn          - SERVICE COMPANY
DATE.         07\03\92                       : Date         - LOG DATE
STRT.M        210                            : top_depth    - START DEPTH
STOP.M        380                            : bot_depth    - STOP DEPTH
STEP.M        0.25                           : increment    - STEP LENGTH
 NULL. -999.2500:NULL Value
~CURVE INFORMATION BLOCK
#MNEM UNIT       ERCB CURVE CODE    CURVE DESCRIPTION
#-----------   ------------------   ----------------------------------
DEPT.M        00 001 00 00         : DEPTH        - DEPTH
CALI.MM       00 280 01 00         : CAL          - CALIPER
GR  .API      00 310 00 00         : GR           - GAMMA RAY
NPHI.V/V      00 330 00 00         : PHIN         - NEUTRON POROSITY (SANDSTONE)
DPHI.V/V      00 890 00 00         : PHID         - DENSITY POROSITY (SANDSTONE)
ILD .OHMM     00 120 00 00         : RESD         - DEEP RESISTIVITY (DIL)
~PARAMETER INFORMATION
#MNEM.UNIT           DATA             DESCRIPTION OF MNEMONIC
#---------         -----------     ------------------------------
GL  .M        690.4                : gl           - GROUND LEVEL ELEVATION
EREF.M        693.5                : kb           - ELEVATION OF DEPTH REFERENCE
DATM.M        693.5                : datum        - DATUM ELEVATION
TDD .M        383.5                : tdd          - TOTAL DEPTH DRILLER
RUN .         ONE                  : Run          - RUN NUMBER
ENG .         JO                   : Engineer     - RECORDING ENGINEER
WIT .         TIM                  : Witness      - WITNESSED BY
MUD .         GEL                  : Mud_type     - MUD TYPE
MATR.         SANDSTONE            : Logunit      - NEUTRON MATRIX
TMAX.C        35                   : BHT          - MAXIMUM RECORDED TEMPERATURE
BHTD.M        383.5                : BHTDEP       - MAXIMUM RECORDED TEMPERATURE
RMT .C        13                   : MDTP         - TEMPERATURE OF MUD
MUDD.KG/M     1070                 : MWT          - MUD DENSITY
NEUT.         1                    : NEUTRON      - NEUTRON TYPE
RESI.         0                    : RESIST       - RESISTIVITY TYPE
RM  .OHMM     2.6                  : RM           - RESISTIVITY OF MUD
RMC .OHMM     2.6                  : RMC          - RESISTIVITY OF MUD CAKE
RMF .OHMM     3.7                  : RMF          - RESISTIVITY OF MUD FILTRATE
SUFT.C        4                    : SUFT         - SURFACE TEMPERATURE
~A  DEPTH      CAL       GR     PHIN     PHID     RESD
# ...
  246.500  169.275  107.436    0.499    0.219    4.793
  246.750  170.343  106.275    0.495    0.211    4.796
  247.000  171.447  109.358    0.502    0.210    4.799
  247.250  172.534  111.834    0.497    0.215    4.892
  247.500  172.607  111.877    0.487    0.213    4.895
  247.750  171.685  110.694    0.480    0.222    4.807
  248.000  167.705  106.483    0.480    0.219    4.720
  248.250  163.726  100.459    0.485    0.205    4.550
  248.500  161.754  100.503    0.491    0.215    4.385
  248.750  161.827  104.194    0.500    0.244    4.072
  249.000  163.926  107.874    0.516    0.257    3.853
  249.250  167.039  113.411    0.522    0.256    3.713
  249.500  166.099  112.239    0.511    0.250    3.646
  249.750  163.132  109.840    0.502    0.244    3.581
  250.000  162.229  112.326    0.508    0.246    3.517
  250.250  163.278  116.625    0.511    0.247    3.866
  250.500  167.440  113.630    0.496    0.245    4.013
  250.750  169.503  110.623    0.491    0.240    4.579
  251.000  171.602  104.588    0.498    0.229    4.936
  251.250  172.689  104.024    0.507    0.220    5.845
  251.500  172.780  102.852    0.513    0.211    8.346
  251.750  169.832   96.209    0.499    0.178    8.670
  252.000  165.834   90.771    0.464    0.103    9.004
  252.250  161.854   85.355    0.445    0.084    9.353
  252.500  159.919   90.870    0.413    0.050    9.899
  252.750  160.987   95.776    0.405    0.211    9.724
  253.000  162.073  103.115    0.408    0.219    9.372
  253.250  164.173  107.425    0.407    0.233    9.032
  253.500  165.259  102.595    0.407    0.249    8.870
  253.750  166.345  100.207    0.413    0.247    9.043
  254.000  169.457  103.290    0.420    0.235    9.219
  254.250  163.470  104.561    0.406    0.230    9.576
  254.500  157.446  100.946    0.382    0.234   10.521
  254.750  152.471   94.911    0.362    0.226   11.136
  255.000  150.500   89.495    0.358    0.212   12.238
  255.250  147.551   86.510    0.367    0.180   12.954
  255.500  148.619   87.151    0.377    0.155   12.958
  255.750  153.758   92.047    0.385    0.251   12.968
  256.000  157.884   98.191    0.391    0.259   12.974
  256.250  159.983   97.616    0.395    0.260   12.984
  256.500  159.043   95.229    0.402    0.254   12.515
  256.750  157.108   93.460    0.414    0.244   12.291
  257.000  157.162   94.111    0.421    0.240   12.068
  257.250  162.338   96.587    0.414    0.239   11.632
  257.500  166.463   96.631    0.407    0.233   11.424
  257.750  167.568   94.851    0.393    0.227   11.011
  258.000  166.591   92.452    0.383    0.235   10.227
  258.250  161.598   96.154    0.386    0.248    9.673
  258.500  156.624  102.277    0.401    0.255    8.650
  258.750  155.665  102.918    0.415    0.259    7.046
  259.000  151.722   99.314    0.428    0.250    5.739
  259.250  150.764  101.181    0.460    0.239    4.945
  259.500  149.806  107.315    0.483    0.232    4.423
  259.750  151.923  108.586    0.497    0.231    4.108
  260.000  156.049  106.795    0.508    0.232    4.109
  260.250  159.143  101.976    0.508    0.238    4.600
  260.500  162.274  101.411    0.454    0.246    7.076
  260.750  163.360   97.808    0.431    0.258    8.072
  261.000  160.393   92.989    0.435    0.276    8.868
  261.250  153.374   87.550    0.450    0.293   10.503
  261.500  149.395   82.731    0.456    0.299   10.709
  261.750  148.455   82.775    0.446    0.300   10.713
  262.000  148.528   84.653    0.415    0.299   10.327
  262.250  150.609   87.129    0.407    0.297   10.142
  262.500  153.739   88.996    0.417    0.295    9.777
  262.750  152.817   88.432    0.448    0.289    9.600
  263.000  151.859   84.221    0.452    0.278    9.429
  263.250  150.937   80.009    0.443    0.267    9.259
  263.500  150.992   77.622    0.429    0.251    9.092
  263.750  152.096   80.108    0.418    0.235    8.443
  264.000  154.214   83.788    0.422    0.212    8.136
  264.250  155.264   87.479    0.431    0.200    7.011
  264.500  158.376   93.602    0.429    0.205    5.928
  264.750  159.462   97.901    0.423    0.235    5.203
  265.000  161.561   96.143    0.430    0.247    4.568
  265.250  158.613   94.352    0.452    0.242    4.403
  265.500  158.686   97.435    0.449    0.236    4.407
  265.750  163.825  101.745    0.453    0.236    4.751
  266.000  166.937   99.954    0.469    0.239    5.123
  266.250  168.024   93.311    0.472    0.245    7.177
  266.500  168.115   89.111    0.461    0.245   10.248
  266.750  167.175   87.320    0.436    0.246   10.847
  267.000  165.221   83.109    0.424    0.257   11.268
  267.250  160.247   81.937    0.416    0.265   11.273
  267.500  157.244   83.804    0.414    0.269   10.867
  267.750  153.264   83.848    0.399    0.268   10.473
  268.000  151.311   82.068    0.399    0.264    9.725
  268.250  152.434   86.367    0.403    0.257    9.374
  268.500  152.507   92.501    0.401    0.248    9.205
  268.750  152.543   86.455    0.392    0.221    9.929
  269.000  153.629   71.909    0.370    0.190   10.705
  269.250  153.721   73.799    0.373    0.167   11.328
  269.500  154.789   76.860    0.423    0.114   11.336
  269.750  154.862   81.159    0.442    0.176   10.527
  270.000  154.971   86.077    0.455    0.214   10.144
  270.250  154.013   87.933    0.453    0.275    9.075
  270.500  154.086   92.254    0.440    0.291    8.425
  270.750  154.159   96.543    0.428    0.283    7.397
  271.000  156.276   94.155    0.417    0.275    6.995
  271.250  157.344   89.943    0.389    0.261    6.376
  271.500  158.430   90.595    0.399    0.252    6.381
  271.750  158.522   90.639    0.409    0.247    6.383
  272.000  157.563   87.035    0.423    0.256    6.269
  272.250  155.646   85.255    0.435    0.256    5.820
  272.500  155.701   90.162    0.428    0.257    5.109
  272.750  155.774   96.285    0.425    0.272    4.569
  273.000  155.847   96.937    0.432    0.263    4.323
  273.250  155.902   93.333    0.456    0.250    4.839
  273.500  155.975   91.553    0.482    0.241    5.731
  273.750  156.084   87.342    0.489    0.244    6.297
  274.000  156.121   80.091    0.457    0.232    6.302
  274.250  155.217   78.919    0.454    0.211    6.073
  274.500  155.272   85.042    0.464    0.235    5.639
  274.750  155.327   89.960    0.478    0.254    5.138
  275.000  155.418   90.622    0.491    0.264    4.596
  275.250  156.504   90.666    0.492    0.270    4.267
  275.500  156.595   91.915    0.485    0.268    4.191
  275.750  157.682   94.401    0.465    0.266    4.435
  276.000  158.786   96.269    0.453    0.262    4.522
  276.250  159.836   96.323    0.456    0.262    4.524
  276.500  161.953   96.345    0.479    0.261    4.280
  276.750  163.039   98.213    0.494    0.257    4.125
  277.000  165.139  104.335    0.497    0.251    4.051
  277.250  166.225  103.163    0.497    0.244    4.053
  277.500  167.311  103.218    0.491    0.247    4.133
  277.750  167.384  107.528    0.478    0.245    4.293
  278.000  167.439  106.345    0.467    0.240    4.543
  278.250  166.499  100.918    0.469    0.242    4.992
  278.500  165.577   97.922    0.475    0.249    5.185
  278.750  164.618   94.927    0.483    0.249    5.189
  279.000  163.678   93.147    0.475    0.237    5.096
  279.250  161.743   91.367    0.466    0.232    4.731
  279.500  161.816   95.058    0.467    0.237    4.476
  279.750  161.907  101.789    0.467    0.240    4.314
  280.000  161.962  104.275    0.461    0.232    4.238
  280.250  163.085  103.711    0.445    0.224    4.320
  280.500  163.121  104.970    0.434    0.222    4.404
  280.750  163.194  110.474    0.445    0.221    4.575
  281.000  163.286  114.784    0.467    0.213    4.664
  281.250  163.377  111.192    0.482    0.201    4.755
  281.500  163.432  108.793    0.499    0.197    4.848
  281.750  162.491  109.445    0.515    0.196    4.851
  282.000  162.546  110.726    0.518    0.198    4.764
  282.250  161.606  111.356    0.509    0.200    4.766
  282.500  161.697  112.008    0.499    0.198    4.595
  282.750  161.770  112.062    0.487    0.199    4.512
