~VERSION INFORMATION
 VERS.                 2.0:   CWLS LOG ASCII STANDARD -VERSION 2.0
 WRAP.                  NO:   ONE LINE PER DEPTH STEP
~WELL INFORMATION BLOCK
#MNEM.UNIT           DATA                    DESCRIPTION OF MNEMONIC
#---------    -------------------            -------------------------------
# Generated from Intellog Unique Number	CS_73_76/WELL/623
WELL.         PEX PHILLIPS AEC WIAU          : Well_name    - WELL
LOC .         00/06-10-073-07W4/0            : Location     - LOCATION
UWI .         00/06-10-073-07W4/0            : Uwi          - UNIQUE WELL ID
ENTR.         SP                             : Entered      - ENTERED BY
SRVC.         SCHLUMBERGER                   : Scn          - SERVICE COMPANY
STRT.M        350                            : top_depth    - START DEPTH
STOP.M        575                            : bot_depth    - STOP DEPTH
STEP.M        0.25                           : increment    - STEP LENGTH
 NULL. -999.2500:NULL Value
~CURVE INFORMATION BLOCK
#MNEM UNIT       ERCB CURVE CODE    CURVE DESCRIPTION
#-----------   ------------------   ----------------------------------
DEPT.M        00 001 00 00         : DEPTH        - DEPTH
ILD .OHMM     00 120 00 00         : RESD         - DEEP RESISTIVITY (DIL)
DPHI.V/V      00 890 00 00         : PHID         - DENSITY POROSITY (LIMESTONE)
NPHI.V/V      00 330 00 00         : PHIN         - NEUTRON POROSITY (LIMESTONE)
GR  .API      00 310 00 00         : GR           - GAMMA RAY
~PARAMETER INFORMATION
#MNEM.UNIT           DATA             DESCRIPTION OF MNEMONIC
#---------         -----------     ------------------------------
GL  .M        728.6                : gl           - GROUND LEVEL ELEVATION
EREF.M        733                  : kb           - ELEVATION OF DEPTH REFERENCE
DATM.M        728.6                : datum        - DATUM ELEVATION
TDD .M        581                  : tdd          - TOTAL DEPTH DRILLER
RUN .         ONE                  : Run          - RUN NUMBER
ENG .         BILL                 : Engineer     - RECORDING ENGINEER
WIT .         JIM                  : Witness      - WITNESSED BY
MUD .         GEL                  : Mud_type     - MUD TYPE
MATR.         LIMESTONE            : Logunit      - NEUTRON MATRIX
TMAX.C        14                   : BHT          - MAXIMUM RECORDED TEMPERATURE
BHTD.M        581                  : BHTDEP       - MAXIMUM RECORDED TEMPERATURE
MATR.         1                    : LOGUNIT      - NEUTRON MATRIX
RMT .C        25                   : MDTP         - TEMPERATURE OF MUD
NEUT.         1                    : NEUTRON      - NEUTRON TYPE
RESI.         0                    : RESIST       - RESISTIVITY TYPE
RMC .OHMM     0.25                 : RMC          - RESISTIVITY OF MUD CAKE
RMF .OHMM     0.25                 : RMF          - RESISTIVITY OF MUD FILTRATE
SUFT.C        15                   : SUFT         - SURFACE TEMPERATURE
~A  DEPTH     RESD     PHID     PHIN       GR
  350.000    3.655    0.289    0.589   31.935
  350.250    3.655    0.277    0.606   42.793
  350.500    3.723    0.277    0.616   80.768
  350.750    3.792    0.284    0.604   79.582
  351.000    4.008    0.258    0.547   80.202
  351.250    4.082    0.261    0.565   82.025
  351.500    4.158    0.261    0.571   83.248
  351.750    4.157    0.254    0.576   82.070
  352.000    4.157    0.248    0.567   82.081
  352.250    4.156    0.239    0.558   83.908
  352.500    4.079    0.236    0.553   84.523
  352.750    4.004    0.238    0.541   82.136
  353.000    3.930    0.253    0.526   85.167
  353.250    3.929    0.254    0.556   86.991
  353.500    3.929    0.259    0.572   88.212
  353.750    4.002    0.261    0.581   88.835
  354.000    4.076    0.257    0.549   89.449
  354.250    4.151    0.248    0.567   91.882
  354.500    4.229    0.229    0.568   93.704
  354.750    4.307    0.220    0.560   93.122
  355.000    4.469    0.221    0.541   90.726
  355.250    4.552    0.228    0.532   87.732
  355.500    4.723    0.238    0.529   87.150
  355.750    4.811    0.210    0.555   88.372
  356.000    4.810    0.220    0.562   88.395
  356.250    4.809    0.220    0.540   87.200
  356.500    5.083    0.194    0.522   82.404
  356.750    5.575    0.171    0.505   80.612
  357.000    6.115    0.195    0.511   83.644
  357.250    6.114    0.217    0.522   84.862
  357.500    6.001    0.216    0.521   85.483
  357.750    5.782    0.228    0.530   83.094
  358.000    5.469    0.246    0.562   85.516
  358.250    5.270    0.258    0.570   87.952
  358.500    4.892    0.242    0.572   88.565
  358.750    4.802    0.243    0.573   89.194
  359.000    4.801    0.251    0.560   88.604
  359.250    4.891    0.253    0.549   88.618
  359.500    5.074    0.253    0.541   88.041
  359.750    5.363    0.269    0.550   88.051
  360.000    5.463    0.270    0.562   88.071
  360.250    5.362    0.264    0.568   86.883
  360.500    4.978    0.258    0.553   85.092
  360.750    4.622    0.250    0.546   82.099
  361.000    4.708    0.265    0.533   79.108
  361.250    4.976    0.268    0.508   75.514
  361.500    7.206    0.255    0.483   70.109
  361.750   10.243    0.239    0.432   66.507
  362.000   14.833    0.249    0.333   60.501
  362.250   19.580    0.330    0.361   55.098
  362.500   23.999    0.354    0.374   52.099
  362.750   24.446    0.349    0.381   50.311
  363.000   23.992    0.343    0.391   50.933
  363.250   23.550    0.331    0.395   56.971
  363.500   21.464    0.323    0.416   70.849
  363.750   19.562    0.320    0.443   78.096
  364.000   18.849    0.310    0.460   82.931
  364.250   17.500    0.287    0.443   88.370
  364.500   16.552    0.271    0.425   90.805
  364.750   16.247    0.267    0.410   91.418
  365.000   15.946    0.268    0.421   88.425
  365.250   15.651    0.271    0.439   80.613
  365.500   15.941    0.286    0.453   74.004
  365.750   16.237    0.299    0.465   66.796
  366.000   17.162    0.309    0.470   61.990
  366.250   17.807    0.299    0.433   56.583
  366.500   18.477    0.294    0.433   54.192
  366.750   19.893    0.288    0.441   53.016
  367.000   20.264    0.294    0.447   51.825
  367.250   20.639    0.313    0.431   50.633
  367.500   20.258    0.312    0.428   48.840
  367.750   19.883    0.308    0.428   48.256
  368.000   19.157    0.299    0.426   50.688
  368.250   19.154    0.294    0.426   53.116
  368.500   18.800    0.284    0.440   56.148
  368.750   18.453    0.282    0.447   57.363
  369.000   18.112    0.293    0.438   62.207
  369.250   16.507    0.324    0.432   64.630
  369.500   14.769    0.278    0.427   68.263
  369.750   13.461    0.279    0.417   73.104
  370.000   12.044    0.266    0.413   77.336
  370.250   11.182    0.242    0.418   80.363
  370.500   10.774    0.227    0.419   83.392
  370.750   11.179    0.226    0.434   85.820
  371.000   12.262    0.237    0.420   86.441
  371.250   13.450    0.251    0.414   79.837
  371.500   14.481    0.245    0.426   78.046
  371.750   15.026    0.262    0.445   76.859
  372.000   15.882    0.286    0.438   76.882
  372.250   16.479    0.278    0.426   77.494
  372.500   16.476    0.279    0.422   79.320
  372.750   16.474    0.284    0.432   78.131
  373.000   15.581    0.296    0.421   75.142
  373.250   15.013    0.309    0.432   73.347
  373.500   13.683    0.300    0.437   72.162
  373.750   12.705    0.292    0.451   72.780
  374.000   12.470    0.274    0.474   72.797
  374.250   14.459    0.226    0.440   67.999
  374.500   16.156    0.215    0.414   63.194
  374.750   18.051    0.223    0.400   55.383
  375.000   19.080    0.242    0.401   49.377
  375.250   19.798    0.256    0.404   46.985
  375.500   19.795    0.278    0.400   49.408
  375.750   17.385    0.296    0.412   53.046
  376.000   14.989    0.292    0.404   55.472
  376.250   12.923    0.287    0.404   60.918
  376.500   10.937    0.266    0.406   63.342
  376.750    9.606    0.241    0.414   65.767
  377.000    9.086    0.220    0.434   66.985
  377.250    7.548    0.190    0.461   84.476
  377.500    7.008    0.168    0.479   88.107
  377.750    6.507    0.154    0.476   91.749
  378.000    6.155    0.144    0.496   94.173
  378.250    5.610    0.197    0.506   95.992
  378.500    5.019    0.220    0.505  100.230
  378.750    4.490    0.210    0.512  102.656
  379.000    4.327    0.179    0.533  103.280
  379.250    4.017    0.192    0.556  103.301
  379.500    3.871    0.207    0.562  102.109
  379.750    3.661    0.215    0.530  100.924
  380.000    4.091    0.227    0.524   99.733
  380.250    4.922    0.243    0.521   90.116
  380.500    7.397    0.255    0.543   82.900
  380.750   11.115    0.278    0.540   71.469
  381.000   14.139    0.304    0.429   58.233
  381.250   16.394    0.314    0.427   49.818
  381.500   18.660    0.325    0.435   45.619
  381.750   19.006    0.343    0.437   42.025
  382.000   18.655    0.355    0.434   41.434
  382.250   18.309    0.341    0.431   44.466
  382.500   17.970    0.328    0.423   48.100
  382.750   17.638    0.317    0.427   49.923
  383.000   17.636    0.304    0.427   48.741
  383.250   16.681    0.306    0.423   48.155
  383.500   15.203    0.310    0.440   48.774
  383.750   14.380    0.297    0.429   54.819
  384.000   13.106    0.276    0.418   59.655
  384.250   11.945    0.259    0.406   65.701
  384.500   10.887    0.249    0.399   68.728
  384.750   10.297    0.243    0.421   72.365
  385.000    9.740    0.245    0.439   74.788
  385.250   10.294    0.248    0.455   71.791
  385.500   10.486    0.255    0.469   70.603
  385.750   10.880    0.264    0.481   72.437
  386.000   11.082    0.288    0.494   73.054
  386.250   11.080    0.295    0.461   72.468
  386.500   10.874    0.283    0.460   71.882
  386.750   10.673    0.271    0.458   71.301
  387.000   10.672    0.260    0.447   71.315
  387.250   10.475    0.252    0.442   71.934
  387.500   10.473    0.248    0.439   68.942
  387.750   10.668    0.251    0.437   67.749
  388.000   11.275    0.254    0.435   67.769
  388.250   11.700    0.239    0.424   71.405
  388.500   12.139    0.224    0.433   73.227
  388.750   13.315    0.218    0.436   69.640
  389.000   15.155    0.225    0.430   69.047
  389.250   16.319    0.254    0.442   70.268
  389.500   16.932    0.290    0.462   71.489
  389.750   17.896    0.293    0.458   72.711
  390.000   18.229    0.296    0.470   66.710
  390.250   18.914    0.276    0.429   58.896
  390.500   19.623    0.253    0.397   54.696
  390.750   19.621    0.240    0.384   49.894
  391.000   19.619    0.241    0.385   46.898
  391.250   19.256    0.256    0.386   46.913
  391.500   18.552    0.264    0.388   48.134
  391.750   18.210    0.263    0.395   50.565
  392.000   17.873    0.248    0.404   54.194
  392.250   17.543    0.232    0.416   60.240
  392.500   17.219    0.222    0.404   63.268
  392.750   17.215    0.234    0.386   63.887
  393.000   17.212    0.253    0.383   60.901
  393.250   17.211    0.243    0.383   59.103
