~VERSION INFORMATION
 VERS.                 2.0:   CWLS LOG ASCII STANDARD -VERSION 2.0
 WRAP.                  NO:   ONE LINE PER DEPTH STEP
~WELL INFORMATION BLOCK
#MNEM.UNIT           DATA                    DESCRIPTION OF MNEMONIC
#---------    -------------------            -------------------------------
# Generated from Intellog Unique Number	CW_73_75/WELL/502
WELL.         MANNVILLE ET AL MARTENH 05-36  : Well_name    - WELL
LOC .         00/05-36-074-23W4/0            : Location     - LOCATION
UWI .         00/05-36-074-23W4/0            : Uwi          - UNIQUE WELL ID
ENTR.         JAYE                           : Entered      - ENTERED BY
SRVC.         SCHLUMBERGER                   : Scn          - SERVICE COMPANY
DATE.         29 MAR 81                      : Date         - LOG DATE
STRT.M        455                            : top_depth    - START DEPTH
STOP.M        660                            : bot_depth    - STOP DEPTH
STEP.M        0.25                           : increment    - STEP LENGTH
 NULL. -999.2500:NULL Value
~CURVE INFORMATION BLOCK
#MNEM UNIT       ERCB CURVE CODE    CURVE DESCRIPTION
#-----------   ------------------   ----------------------------------
DEPT.M        00 001 00 00         : DEPTH        - DEPTH
ILD .OHMM     00 120 00 00         : RESD         - DEEP RESISTIVITY (DIL)
NPHI.V/V      00 330 00 00         : PHIN         - NEUTRON POROSITY (SANDSTONE)
DPHI.V/V      00 890 00 00         : PHID         - DENSITY POROSITY (SANDSTONE)
CALI.MM       00 280 01 00         : CAL          - CALIPER
GR  .API      00 310 00 00         : GR           - GAMMA RAY
~PARAMETER INFORMATION
#MNEM.UNIT           DATA             DESCRIPTION OF MNEMONIC
#---------         -----------     ------------------------------
GL  .M        723.3                : gl           - GROUND LEVEL ELEVATION
EREF.M        726.2                : kb           - ELEVATION OF DEPTH REFERENCE
DATM.M        723.3                : datum        - DATUM ELEVATION
TDD .M        691                  : tdd          - TOTAL DEPTH DRILLER
RUN .         ONE                  : Run          - RUN NUMBER
ENG .         ASHTON               : Engineer     - RECORDING ENGINEER
WIT .         SANOIA               : Witness      - WITNESSED BY
BASE.         EDM                  : Branch       - HOME BASE OF LOGGING UNIT
MUD .         GEL CHEM             : Mud_type     - MUD TYPE
MATR.         SANDSTONE            : Logunit      - NEUTRON MATRIX
TMAX.C        27.2                 : BHT          - MAXIMUM RECORDED TEMPERATURE
BHTD.M        691                  : BHTDEP       - MAXIMUM RECORDED TEMPERATURE
RMT .C        27.2                 : MDTP         - TEMPERATURE OF MUD
MUDD.KG/M     1095                 : MWT          - MUD DENSITY
NEUT.         1                    : NEUTRON      - NEUTRON TYPE
RESI.         0                    : RESIST       - RESISTIVITY TYPE
RM  .OHMM     2.784                : RM           - RESISTIVITY OF MUD
RMC .OHMM     0                    : RMC          - RESISTIVITY OF MUD CAKE
RMF .OHMM     4.4                  : RMF          - RESISTIVITY OF MUD FILTRATE
SUFT.C        0                    : SUFT         - SURFACE TEMPERATURE
~A  DEPTH     RESD     PHIN     PHID      CAL       GR
  455.000    2.928    0.515    0.192  181.220  130.668
  455.250    2.829    0.506    0.192  181.621  127.941
  455.500    2.739    0.517    0.191  182.136  128.247
  455.750    2.743    0.530    0.197  182.444  132.101
  456.000    2.826    0.520    0.199  182.435  132.285
  456.250    2.978    0.531    0.201  181.889  135.882
  456.500    3.063    0.554    0.208  180.940  138.852
  456.750    3.097    0.555    0.219  180.396  140.045
  457.000    3.113    0.537    0.227  179.964  135.796
  457.250    3.077    0.540    0.210  179.945  131.929
  457.500    2.928    0.517    0.204  180.774  132.746
  457.750    2.797    0.529    0.213  181.404  131.221
  458.000    2.785    0.547    0.222  181.806  129.126
  458.250    2.908    0.540    0.219  183.378  125.132
  458.500    2.990    0.517    0.213  182.419  118.163
  458.750    3.001    0.505    0.210  179.974  112.016
  459.000    2.840    0.523    0.216  173.953  106.568
  459.250    2.627    0.545    0.231  169.830  111.370
  459.500    2.430    0.570    0.246  170.132  126.990
  459.750    2.429    0.602    0.275  170.961  126.419
  460.000    2.589    0.580    0.295  168.737  121.347
  460.250    2.839    0.484    0.299  165.453  111.593
  460.500    3.264    0.449    0.282  161.651   93.171
  460.750    4.017    0.442    0.273  159.634   83.546
  461.000    5.057    0.466    0.297  158.251   78.478
  461.250    5.431    0.491    0.317  157.178   73.472
  461.500    5.575    0.495    0.333  155.587   69.733
  461.750    5.733    0.473    0.342  154.943   67.002
  462.000    5.796    0.449    0.342  155.041   67.374
  462.250    5.761    0.441    0.339  155.129   69.645
  462.500    5.609    0.440    0.338  155.014   74.387
  462.750    5.159    0.439    0.310  154.899   83.044
  463.000    4.854    0.438    0.289  154.981   83.987
  463.250    4.752    0.447    0.288  154.767   78.857
  463.500    4.878    0.464    0.300  155.378   73.784
  463.750    5.054    0.469    0.305  156.427   62.514
  464.000    5.129    0.426    0.276  157.785   62.569
  464.250    5.206    0.431    0.275  159.036   68.894
  464.500    5.373    0.440    0.305  159.762   71.666
  464.750    5.402    0.436    0.328  160.595   74.950
  465.000    5.369    0.436    0.329  160.478   80.826
  465.250    5.307    0.468    0.316  159.932   85.568
  465.500    5.225    0.470    0.306  159.716   84.737
  465.750    4.963    0.451    0.292  159.919   86.689
  466.000    4.617    0.458    0.262  160.849   90.732
  466.250    4.090    0.457    0.244  163.048   92.435
  466.500    3.629    0.450    0.226  165.259  114.699
  466.750    3.520    0.470    0.210  166.612  133.485
  467.000    3.661    0.525    0.218  166.703  141.956
  467.250    4.052    0.515    0.240  165.216  129.926
  467.500    4.469    0.423    0.262  162.882  108.660
  467.750    4.855    0.412    0.278  161.814   99.285
  468.000    5.107    0.430    0.291  161.073  106.619
  468.250    5.312    0.471    0.274  160.956  110.789
  468.500    5.577    0.483    0.254  160.639  104.009
  468.750    5.801    0.448    0.240  160.189   88.373
  469.000    5.988    0.432    0.244  159.760   85.205
  469.250    6.181    0.419    0.253  159.542   94.496
  469.500    6.356    0.417    0.258  159.199  108.283
  469.750    6.342    0.420    0.248  158.974  113.337
  470.000    6.093    0.416    0.234  159.180  117.696
  470.250    5.820    0.417    0.227  159.484  122.690
  470.500    5.592    0.424    0.206  160.521  128.882
  470.750    5.291    0.440    0.196  166.424  136.468
  471.000    4.776    0.454    0.196  170.940  140.700
  471.250    4.597    0.481    0.189  176.938  143.478
  471.500    4.736    0.495    0.197  180.086  137.837
  471.750    5.204    0.497    0.214  181.444  112.519
  472.000    5.793    0.459    0.238  173.103   79.610
  472.250    6.499    0.411    0.249  163.810   72.197
  472.500    6.696    0.421    0.228  159.790   69.912
  472.750    6.718    0.444    0.228  158.721   74.968
  473.000    6.615    0.436    0.244  158.299   87.172
  473.250    6.452    0.409    0.256  157.866   92.802
  473.500    6.094    0.393    0.247  157.631   98.360
  473.750    5.659    0.408    0.222  157.310  112.903
  474.000    5.255    0.426    0.222  157.188  123.336
  474.250    5.135    0.442    0.230  157.389  121.561
  474.500    5.241    0.431    0.240  157.475  121.553
  474.750    5.502    0.416    0.248  157.364  115.663
  475.000    5.766    0.409    0.250  157.242  104.957
  475.250    5.986    0.407    0.247  156.816   92.990
  475.500    6.075    0.409    0.244  156.689   86.530
  475.750    6.165    0.427    0.258  156.585   84.180
  476.000    6.210    0.428    0.279  156.772   83.541
  476.250    6.184    0.423    0.287  156.547   87.772
  476.500    6.181    0.416    0.275  156.640  105.549
  476.750    6.285    0.409    0.241  157.048  115.286
  477.000    6.475    0.394    0.210  159.151  124.640
  477.250    6.672    0.383    0.194  163.034  128.433
  477.500    6.913    0.389    0.195  169.141  123.867
  477.750    7.042    0.404    0.201  168.604  120.884
  478.000    7.079    0.391    0.208  164.481  115.754
  478.250    7.103    0.393    0.223  160.362  104.419
  478.500    6.902    0.387    0.239  158.446   92.261
  478.750    6.337    0.389    0.264  156.422   71.247
  479.000    5.851    0.403    0.293  155.044   54.408
  479.250    5.579    0.384    0.324  154.308   50.350
  479.500    5.349    0.380    0.304  154.179   51.612
  479.750    5.168    0.391    0.307  154.167   48.690
  480.000    5.051    0.369    0.323  154.042   45.520
  480.250    4.982    0.359    0.326  153.611   44.184
  480.500    4.990    0.360    0.315  153.714   48.231
  480.750    5.016    0.376    0.316  153.179   55.498
  481.000    5.071    0.398    0.307  153.052   62.829
  481.250    5.137    0.428    0.291  153.038   61.682
  481.500    5.135    0.369    0.299  152.813   55.790
  481.750    5.085    0.377    0.296  152.590   58.629
  482.000    5.054    0.408    0.313  152.365   56.726
  482.250    4.995    0.384    0.327  152.453   50.958
  482.500    4.974    0.395    0.317  152.547   46.145
  482.750    5.029    0.386    0.318  152.965   47.969
  483.000    5.084    0.386    0.281  153.689   71.945
  483.250    5.140    0.407    0.228  155.684   99.398
  483.500    5.316    0.427    0.215  157.675  121.665
  483.750    5.571    0.423    0.212  158.815  123.492
  484.000    5.838    0.410    0.206  159.445  121.143
  484.250    6.084    0.418    0.198  159.845  117.719
  484.500    6.198    0.416    0.205  160.049  111.830
  484.750    6.172    0.401    0.202  160.878  109.103
  485.000    5.952    0.396    0.194  163.295  123.519
  485.250    5.475    0.415    0.195  166.761  134.648
  485.500    4.669    0.441    0.205  170.223  140.337
  485.750    3.835    0.520    0.193  173.162  142.927
  486.000    3.203    0.551    0.172  175.371  146.143
  486.250    2.880    0.534    0.176  175.888  152.716
  486.500    2.767    0.545    0.175  175.876  159.860
  486.750    2.787    0.558    0.165  175.653  161.626
  487.000    2.791    0.541    0.180  175.542  161.935
  487.250    2.764    0.533    0.189  175.727  160.534
  487.500    2.763    0.540    0.178  175.507  156.162
  487.750    2.788    0.530    0.151  175.492  152.484
  488.000    2.829    0.532    0.152  177.167  161.271
  488.250    2.943    0.530    0.177  179.481  167.842
  488.500    3.155    0.504    0.200  181.900  167.394
  488.750    3.613    0.496    0.201  183.462  150.618
  489.000    4.201    0.500    0.210  184.825  143.587
  489.250    4.695    0.481    0.201  185.752  144.338
  489.500    5.024    0.456    0.201  186.068  145.787
  489.750    5.127    0.457    0.200  185.096  144.894
  490.000    5.058    0.454    0.176  181.605  148.367
  490.250    4.952    0.443    0.161  181.274  152.852
  490.500    4.848    0.438    0.159  181.372  153.224
  490.750    4.801    0.441    0.181  180.095  147.458
  491.000    4.844    0.443    0.206  176.919  138.401
  491.250    5.019    0.437    0.214  171.943  132.637
