~VERSION INFORMATION
 VERS.                 2.0:   CWLS LOG ASCII STANDARD -VERSION 2.0
 WRAP.                  NO:   ONE LINE PER DEPTH STEP
~WELL INFORMATION BLOCK
#MNEM.UNIT           DATA                    DESCRIPTION OF MNEMONIC
#---------    -------------------            -------------------------------
# Generated from Intellog Unique Number	CS_69_70/WELL/623
NULL.         -999.25                        : NULL_VALUE
WELL.         BVI HEART LAKE                 : Well_name    - WELL              
LOC .         00/04-11-070-10W4/0            : Location     - LOCATION          
UWI .         00/04-11-070-10W4/0            : Uwi          - UNIQUE WELL ID    
ENTR.         SP                             : Entered      - ENTERED BY        
SRVC.         SCHLUMBERGER                   : Scn          - SERVICE COMPANY   
STRT.M        275                            : top_depth    - START DEPTH       
STOP.M        495                            : bot_depth    - STOP DEPTH        
STEP.M        0.25                           : increment    - STEP LENGTH       
~CURVE INFORMATION BLOCK
#MNEM UNIT       ERCB CURVE CODE    CURVE DESCRIPTION
#-----------   ------------------   ----------------------------------
DEPT.M        00 001 00 00         : DEPTH        - DEPTH                       
ILD .OHMM     00 120 00 00         : RESD         - DEEP RESISTIVITY (DIL)      
DPHI.V/V      00 890 00 00         : PHID         - DENSITY POROSITY (LIMESTONE)
NPHI.V/V      00 330 00 00         : PHIN         - NEUTRON POROSITY (LIMESTONE)
GR  .API      00 310 00 00         : GR           - GAMMA RAY                   
~PARAMETER INFORMATION       
#MNEM.UNIT           DATA             DESCRIPTION OF MNEMONIC
#---------         -----------     ------------------------------
GL  .M        614.6                : gl           - GROUND LEVEL ELEVATION      
EREF.M        617.8                : kb           - ELEVATION OF DEPTH REFERENCE
DATM.M        614.6                : datum        - DATUM ELEVATION             
TDD .M        520                  : tdd          - TOTAL DEPTH DRILLER         
RUN .         ONE                  : Run          - RUN NUMBER                  
ENG .         BILL                 : Engineer     - RECORDING ENGINEER          
WIT .         JIM                  : Witness      - WITNESSED BY                
MUD .         GEL                  : Mud_type     - MUD TYPE                    
MATR.         LIMESTONE            : Logunit      - NEUTRON MATRIX              
TMAX.C        23                   : BHT          - MAXIMUM RECORDED TEMPERATURE
BHTD.M        520                  : BHTDEP       - MAXIMUM RECORDED TEMPERATURE
MATR.         1                    : LOGUNIT      - NEUTRON MATRIX              
RMT .C        25                   : MDTP         - TEMPERATURE OF MUD          
NEUT.         1                    : NEUTRON      - NEUTRON TYPE                
RESI.         0                    : RESIST       - RESISTIVITY TYPE            
RMC .OHMM     0.25                 : RMC          - RESISTIVITY OF MUD CAKE     
RMF .OHMM     0.25                 : RMF          - RESISTIVITY OF MUD FILTRATE 
SUFT.C        15                   : SUFT         - SURFACE TEMPERATURE         
~A  DEPTH     RESD     PHID     PHIN       GR
# ...
  449.000    9.112    0.233    0.385   91.604
  449.250    9.213    0.233    0.392   93.296
  449.500    9.125    0.240    0.391   91.261
  449.750    8.901    0.243    0.386   90.753
  450.000    8.733    0.239    0.381   94.527
  450.250    8.535    0.232    0.375  106.189
  450.500    8.501    0.229    0.380  116.015
  450.750    8.808    0.226    0.383  117.219
  451.000    9.127    0.217    0.368  106.990
  451.250    9.298    0.199    0.351   80.556
  451.500    9.122    0.217    0.340   70.693
  451.750    8.782    0.238    0.329   73.610
  452.000    8.392    0.255    0.335   77.077
  452.250    7.928    0.264    0.354   75.041
  452.500    7.633    0.260    0.358   80.770
  452.750    7.631    0.251    0.347   90.904
  453.000    7.774    0.238    0.340   94.370
  453.250    7.890    0.229    0.336   87.382
  453.500    8.022    0.222    0.329   67.796
  453.750    8.005    0.213    0.317   70.529
  454.000    7.973    0.202    0.307   81.396
  454.250    7.941    0.195    0.303   94.952
  454.500    7.954    0.194    0.317  104.535
  454.750    8.133    0.193    0.329  108.489
  455.000    8.427    0.191    0.331  101.807
  455.250    8.899    0.194    0.316   86.808
  455.500    9.720    0.202    0.310   82.265
  455.750   10.942    0.197    0.307   82.370
  456.000   12.133    0.195    0.309   80.823
  456.250   14.506    0.200    0.318   56.834
  456.500   14.892    0.234    0.335   52.476
  456.750   16.701    0.262    0.352   68.906
  457.000   17.869    0.273    0.355   82.707
  457.250   18.974    0.266    0.347   87.519
  457.500   18.579    0.261    0.354   82.790
  457.750   19.360    0.266    0.365   75.681
  458.000   21.305    0.271    0.373   67.959
  458.250   22.926    0.275    0.363   66.043
  458.500   28.569    0.283    0.353   67.797
  458.750   29.887    0.289    0.344   68.454
  459.000   33.205    0.293    0.339   63.666
  459.250   35.193    0.286    0.334   57.778
  459.500   31.959    0.280    0.333   55.742
  459.750   25.009    0.277    0.335   59.511
  460.000   18.459    0.274    0.341   60.965
  460.250   14.256    0.273    0.343   61.006
  460.500   11.283    0.266    0.341   62.026
  460.750    9.325    0.254    0.336   65.250
  461.000    7.707    0.237    0.335   78.013
  461.250    6.134    0.160    0.337  112.358
  461.500    5.234    0.118    0.347  121.941
  461.750    5.078    0.091    0.374  121.923
  462.000    5.392    0.087    0.397  117.987
  462.250    6.303    0.131    0.411  117.668
  462.500    7.368    0.184    0.383  102.852
  462.750    8.694    0.226    0.371   91.521
  463.000    9.443    0.237    0.362   81.047
  463.250   10.412    0.244    0.359   77.911
  463.500   11.394    0.244    0.358   78.380
  463.750   11.675    0.246    0.354   78.364
  464.000   12.028    0.240    0.350   82.013
  464.250   11.979    0.225    0.344   85.786
  464.500   11.383    0.218    0.345   89.251
  464.750   10.068    0.211    0.344   91.132
  465.000    8.972    0.207    0.331   89.400
  465.250    7.847    0.204    0.327   85.527
  465.500    7.289    0.210    0.327   83.799
  465.750    7.031    0.217    0.329   85.493
  466.000    6.871    0.216    0.330   89.940
  466.250    6.805    0.207    0.329   95.606
  466.500    6.790    0.190    0.329  100.053
  466.750    6.827    0.177    0.330  105.842
  467.000    6.864    0.165    0.338  110.289
  467.250    6.901    0.154    0.346  113.146
  467.500    6.991    0.146    0.348  116.185
  467.750    7.162    0.164    0.339  121.362
  468.000    7.690    0.180    0.335  123.487
  468.250    7.791    0.196    0.337  113.378
  468.500    8.028    0.212    0.341   95.139
  468.750    8.349    0.228    0.336   82.403
  469.000    8.522    0.231    0.328   80.242
  469.250    8.568    0.205    0.323   77.902
  469.500    8.534    0.184    0.322   74.888
  469.750    7.972    0.194    0.324   71.017
  470.000    7.475    0.207    0.326   70.814
  470.250    7.115    0.205    0.327   82.966
  470.500    6.811    0.183    0.324   96.889
  470.750    6.708    0.164    0.323  106.532
  471.000    6.644    0.151    0.323  107.613
  471.250    6.372    0.145    0.325  106.495
  471.500    5.987    0.140    0.322  102.686
  471.750    5.488    0.140    0.318   93.923
  472.000    5.059    0.149    0.320   84.857
  472.250    4.726    0.204    0.331   74.260
  472.500    4.474    0.229    0.341   60.483
  472.750    4.275    0.248    0.334   58.570
  473.000    4.085    0.248    0.327   59.774
  473.250    3.962    0.245    0.323   61.345
  473.500    3.873    0.243    0.326   59.736
  473.750    3.749    0.255    0.328   55.988
  474.000    3.679    0.262    0.330   53.218
  474.250    3.636    0.262    0.332   53.140
  474.500    3.601    0.263    0.333   57.398
  474.750    3.620    0.266    0.332   59.218
  475.000    3.674    0.273    0.329   60.667
  475.250    3.708    0.272    0.328   60.589
  475.500    3.806    0.263    0.326   57.085
  475.750    3.900    0.257    0.324   53.642
  476.000    4.026    0.251    0.322   50.869
  476.250    4.093    0.245    0.323   52.383
  476.500    4.257    0.244    0.327   56.218
  476.750    4.394    0.242    0.328   60.297
  477.000    4.528    0.240    0.321   63.639
  477.250    4.578    0.235    0.313   65.580
  477.500    4.594    0.231    0.306   66.541
  477.750    4.550    0.229    0.307   64.627
  478.000    4.523    0.237    0.312   62.895
  478.250    4.599    0.247    0.321   60.490
  478.500    4.538    0.255    0.330   62.188
  478.750    4.452    0.260    0.336   63.943
  479.000    4.310    0.257    0.337   59.339
  479.250    3.951    0.254    0.338   54.059
  479.500    3.840    0.254    0.339   49.395
  479.750    3.520    0.257    0.342   44.853
  480.000    3.320    0.286    0.350   39.516
  480.250    3.090    0.310    0.357   35.950
  480.500    2.875    0.314    0.356   38.683
  480.750    2.779    0.305    0.353   41.662
  481.000    2.794    0.291    0.349   43.843
  481.250    2.830    0.287    0.348   44.132
  481.500    2.910    0.278    0.347   42.952
  481.750    2.926    0.273    0.339   41.158
  482.000    2.981    0.278    0.335   39.676
  482.250    3.003    0.294    0.331   35.867
  482.500    3.002    0.300    0.340   36.766
  482.750    3.018    0.302    0.349   40.231
  483.000    3.051    0.298    0.345   42.475
  483.250    3.126    0.297    0.335   45.026
  483.500    3.161    0.295    0.333   48.061
  483.750    3.172    0.291    0.345   50.059
  484.000    3.142    0.289    0.350   50.232
  484.250    2.974    0.290    0.355   47.583
  484.500    2.815    0.304    0.352   42.489
  484.750    2.649    0.336    0.352   35.073
  485.000    2.522    0.351    0.352   29.674
  485.250    2.456    0.353    0.353   25.865
  485.500    2.409    0.351    0.355   26.458
  485.750    2.395    0.345    0.355   26.256
  486.000    2.376    0.340    0.356   25.994
  486.250    2.358    0.335    0.348   27.505
  486.500    2.326    0.333    0.344   27.972
  486.750    2.451    0.329    0.348   27.526
  487.000    2.446    0.325    0.353   27.020
  487.250    2.437    0.322    0.348   26.879
  487.500    2.436    0.319    0.341   26.680
  487.750    2.454    0.317    0.337   24.643
  488.000    2.453    0.316    0.343   22.729
  488.250    2.434    0.316    0.351   21.915
  488.500    2.433    0.318    0.355   22.447
  488.750    2.460    0.313    0.358   22.798
  489.000    2.692    0.306    0.354   23.817
  489.250    3.124    0.295    0.326   26.552
  489.500    3.952    0.272    0.304   33.621
  489.750    5.836    0.231    0.289   36.789
  490.000   10.210    0.118    0.270   38.728
  490.250   15.894    0.010    0.226   33.083
  490.500   21.000   -0.004    0.209   28.112
  490.750   24.968   -0.006    0.193   23.627
  491.000   26.915   -0.008    0.180   21.288
  491.250   27.730    0.001    0.159   19.986
  491.500   28.092    0.012    0.155   19.291
  491.750   28.137    0.033    0.159   19.090
  492.000   27.553    0.041    0.167   18.825
  492.250   26.427    0.045    0.176   18.874
