~VERSION INFORMATION
 VERS.                 2.0:   CWLS LOG ASCII STANDARD -VERSION 2.0
 WRAP.                  NO:   ONE LINE PER DEPTH STEP
~WELL INFORMATION BLOCK
#MNEM.UNIT           DATA                    DESCRIPTION OF MNEMONIC
#---------    -------------------            -------------------------------
# Generated from Intellog Unique Number	CW_73_75/WELL/773
WELL.         CHEVRON ER AL ROCK 07-26       : Well_name    - WELL
LOC .         00/07-26-075-22W4/0            : Location     - LOCATION
UWI .         00/07-26-075-22W4/0            : Uwi          - UNIQUE WELL ID
ENTR.         JAYE                           : Entered      - ENTERED BY
SRVC.         WESTERN ATLAS                  : Scn          - SERVICE COMPANY
DATE.         6 JAN 74                       : Date         - LOG DATE
STRT.M        387.096                        : top_depth    - START DEPTH
STOP.M        612.596                        : bot_depth    - STOP DEPTH
STEP.M        0.25                           : increment    - STEP LENGTH
 NULL. -999.2500:NULL Value
~CURVE INFORMATION BLOCK
#MNEM UNIT       ERCB CURVE CODE    CURVE DESCRIPTION
#-----------   ------------------   ----------------------------------
DEPT.M        00 001 00 00         : DEPTH        - DEPTH
ILD .OHMM     00 120 00 00         : RESD         - DEEP RESISTIVITY (DIL)
NPHI.V/V      00 330 00 00         : PHIN         - NEUTRON POROSITY (SANDSTONE)
DPHI.V/V      00 890 00 00         : PHID         - DENSITY POROSITY (SANDSTONE)
GR  .API      00 310 00 00         : GR           - GAMMA RAY
CALI.MM       00 280 01 00         : CAL          - CALIPER
~PARAMETER INFORMATION
#MNEM.UNIT           DATA             DESCRIPTION OF MNEMONIC
#---------         -----------     ------------------------------
GL  .M        682.539              : gl           - GROUND LEVEL ELEVATION
EREF.M        685.648              : kb           - ELEVATION OF DEPTH REFERENCE
DATM.M        682.539              : datum        - DATUM ELEVATION
TDD .M        611.124              : tdd          - TOTAL DEPTH DRILLER
RUN .         ONE                  : Run          - RUN NUMBER
ENG .         SIMPSON              : Engineer     - RECORDING ENGINEER
WIT .         WONG/GOLL            : Witness      - WITNESSED BY
BASE.         EDM                  : Branch       - HOME BASE OF LOGGING UNIT
MUD .         FRESH GEL            : Mud_type     - MUD TYPE
MATR.         SANDSTONE            : Logunit      - NEUTRON MATRIX
TMAX.C        30.5556              : BHT          - MAXIMUM RECORDED TEMPERATURE
BHTD.M        612.648              : BHTDEP       - MAXIMUM RECORDED TEMPERATURE
RMT .C        18.8889              : MDTP         - TEMPERATURE OF MUD
MUDD.KG/M     1140                 : MWT          - MUD DENSITY
NEUT.         1                    : NEUTRON      - NEUTRON TYPE
RESI.         0                    : RESIST       - RESISTIVITY TYPE
RM  .OHMM     5.6                  : RM           - RESISTIVITY OF MUD
RMC .OHMM     5.2                  : RMC          - RESISTIVITY OF MUD CAKE
RMF .OHMM     4.57                 : RMF          - RESISTIVITY OF MUD FILTRATE
SUFT.C        -17.7778             : SUFT         - SURFACE TEMPERATURE
~A  DEPTH     RESD     PHIN     PHID       GR      CAL
# ...
  533.096    7.009    0.435    0.151   90.938  204.799
  533.346    7.028    0.429    0.169   93.614  204.800
  533.596    6.919    0.432    0.191   94.527  205.007
  533.846    6.900    0.452    0.217   94.162  205.317
  534.096    7.334    0.447    0.184   87.718  205.524
  534.346    8.414    0.432    0.146   82.003  205.731
  534.596    9.428    0.404    0.112   74.160  205.835
  534.846    9.016    0.347    0.092   74.708  205.939
  535.096    8.163    0.375    0.065   83.160  205.940
  535.346    7.350    0.422    0.081   88.147  206.044
  535.596    6.704    0.439    0.107   89.242  206.354
  535.846    6.318    0.452    0.172   90.398  206.355
  536.096    6.042    0.457    0.167   92.770  206.459
  536.346    5.862    0.450    0.158   95.811  206.357
  536.596    5.835    0.448    0.158   97.027  206.049
  536.846    5.904    0.453    0.172   96.663  205.948
  537.096    5.952    0.460    0.187   95.630  205.537
  537.346    6.011    0.466    0.168   95.752  205.332
  537.596    6.005    0.458    0.149   96.665  205.127
  537.846    5.988    0.492    0.149   99.159  205.026
  538.096    6.015    0.495    0.156  102.017  204.924
  538.346    6.164    0.485    0.152   98.552  204.822
  538.596    6.136    0.477    0.162   98.796  204.617
  538.846    6.119    0.470    0.156   99.830  204.618
  539.096    6.146    0.466    0.156   98.189  204.619
  539.346    6.128    0.468    0.163   96.426  204.414
  539.596    6.012    0.492    0.162   94.725  204.003
  539.846    5.952    0.472    0.146   92.536  203.799
  540.096    5.978    0.473    0.122   91.078  203.491
  540.346    6.071    0.484    0.124   89.558  203.389
  540.596    5.880    0.479    0.141   88.829  203.390
  540.846    5.582    0.464    0.159   89.012  203.288
  541.096    5.406    0.437    0.160   89.925  203.289
  541.346    5.362    0.457    0.154   92.054  203.393
  541.596    5.406    0.463    0.141   96.007  203.395
  541.846    5.449    0.460    0.157   94.365  203.602
  542.096    5.544    0.459    0.183   93.576  203.911
  542.346    5.629    0.469    0.183   94.914  204.325
  542.596    5.728    0.487    0.170   94.246  204.635
  542.846    5.880    0.481    0.162   90.598  204.635
  543.096    6.005    0.451    0.171   90.173  204.842
  543.346    6.020    0.467    0.174   91.755  204.637
  543.596    6.015    0.486    0.167   94.248  204.536
  543.846    6.007    0.486    0.162   96.681  204.331
  544.096    6.013    0.475    0.158   97.776  204.126
  544.346    6.040    0.471    0.153   97.473  203.921
  544.596    6.123    0.466    0.139   93.400  203.923
  544.846    6.240    0.449    0.133   87.077  203.820
  545.096    6.407    0.415    0.160   86.226  203.925
  545.346    6.662    0.406    0.176   88.477  204.029
  545.596    6.964    0.399    0.187   87.079  204.339
  545.846    7.203    0.390    0.200   85.195  204.546
  546.096    7.382    0.380    0.187   83.006  204.753
  546.346    7.469    0.397    0.176   81.183  205.063
  546.596    7.556    0.406    0.160   79.116  205.372
  546.846    7.455    0.394    0.177   81.610  205.683
  547.096    7.313    0.390    0.165   87.751  205.787
  547.346    6.706    0.405    0.136   92.677  205.994
  547.596    6.320    0.420    0.163   96.569  205.995
  547.846    6.110    0.437    0.181   97.847  205.996
  548.096    6.037    0.466    0.190   97.543  205.688
  548.346    6.042    0.477    0.161   96.693  205.174
  548.596    6.125    0.461    0.182   95.234  204.867
  548.846    6.412    0.421    0.190   91.891  204.661
  549.096    6.791    0.400    0.174   89.824  204.354
  549.346    6.997    0.393    0.156   90.554  204.046
  549.596    6.976    0.386    0.165   94.629  203.944
  549.846    6.894    0.394    0.167   93.657  204.049
  550.096    6.700    0.414    0.179   91.407  204.152
  550.346    6.559    0.421    0.176   91.651  204.153
  550.596    6.576    0.413    0.165   92.990  204.051
  550.846    6.714    0.417    0.156   94.085  203.950
  551.096    6.856    0.408    0.159   94.329  203.848
  551.346    7.117    0.418    0.148   89.951  203.849
  551.596    7.388    0.389    0.116   86.730  203.541
  551.846    7.681    0.377    0.088   89.102  202.925
  552.096    7.829    0.392    0.090   93.054  202.822
  552.346    8.171    0.402    0.114   89.285  202.412
  552.596    8.961    0.364    0.131   83.449  202.516
  552.846   10.457    0.339    0.134   79.680  202.620
  553.096   12.070    0.308    0.108   74.086  203.239
  553.346   12.831    0.285    0.079   67.946  203.549
  553.596   11.590    0.274    0.043   72.081  204.168
  553.846    9.589    0.327    0.034   83.269  204.375
  554.096    7.963    0.435    0.113   86.493  204.582
  554.346    6.909    0.456    0.159   86.554  204.686
  554.596    6.368    0.444    0.163   87.224  204.687
  554.846    6.087    0.431    0.143   88.501  204.997
  555.096    6.070    0.437    0.125   90.995  204.998
  555.346    6.117    0.449    0.143   93.671  204.896
  555.596    6.211    0.441    0.137   97.137  204.691
  555.846    6.378    0.425    0.126   93.550  204.486
  556.096    6.513    0.435    0.122   91.970  204.385
  556.346    6.601    0.437    0.153   91.606  204.386
  556.596    6.559    0.422    0.160   91.485  204.387
  556.846    6.457    0.412    0.153   88.445  203.976
  557.096    6.390    0.412    0.143   89.480  203.874
  557.346    6.372    0.415    0.142   92.278  203.566
  557.596    6.342    0.421    0.163   93.494  203.464
  557.846    6.347    0.438    0.132   94.346  203.156
  558.096    6.351    0.442    0.115   96.718  202.746
  558.346    6.438    0.430    0.119   98.725  202.644
  558.596    6.609    0.424    0.126   99.759  202.748
  558.846    6.785    0.417    0.113   96.416  202.749
  559.096    6.729    0.408    0.104   92.100  202.853
  559.346    6.386    0.404    0.098   93.195  202.957
  559.596    5.896    0.420    0.115   95.141  203.061
  559.846    5.658    0.417    0.144   94.838  202.960
  560.096    5.683    0.407    0.164   91.920  202.961
  560.346    5.760    0.404    0.170   87.786  202.859
  560.596    5.913    0.402    0.159   84.686  202.860
  560.846    6.149    0.389    0.149   81.585  202.964
  561.096    6.188    0.370    0.134   86.997  203.068
  561.346    5.756    0.386    0.118   91.619  203.275
  561.596    4.940    0.400    0.186   95.876  203.173
  561.846    3.962    0.417    0.197   93.019  203.071
  562.096    2.954    0.487    0.207   91.742  202.969
  562.346    2.206    0.583    0.231   92.594  202.867
  562.596    1.931    0.611    0.250   93.446  202.868
  562.846    1.810    0.593    0.252   93.325  202.664
  563.096    1.781    0.578    0.233   92.840  202.562
  563.346    1.832    0.562    0.221   91.624  202.769
  563.596    2.035    0.541    0.229   90.895  202.873
  563.846    2.336    0.501    0.243   89.558  202.874
  564.096    2.853    0.475    0.232   84.755  202.669
  564.346    3.518    0.446    0.196   85.850  202.568
  564.596    4.449    0.423    0.180   88.466  202.465
  564.846    5.616    0.410    0.152   92.114  202.569
  565.096    6.204    0.401    0.138   90.656  202.468
  565.346    6.107    0.421    0.110   88.832  202.366
  565.596    5.722    0.431    0.085   89.319  202.161
  565.846    5.421    0.423    0.140   90.232  201.956
  566.096    5.354    0.403    0.149   87.071  201.854
  566.346    5.458    0.388    0.134   86.524  201.855
  566.596    5.791    0.387    0.131   90.477  201.651
  566.846    6.202    0.413    0.137   93.457  201.651
  567.096    6.750    0.418    0.123   86.891  201.859
  567.346    7.175    0.397    0.078   78.501  201.860
  567.596    7.422    0.374    0.051   74.671  201.861
  567.846    8.212    0.389    0.080   77.834  201.759
  568.096    9.105    0.408    0.152   76.740  201.554
  568.346   10.568    0.432    0.143   66.951  201.452
  568.596   13.712    0.434    0.190   56.858  201.247
  568.846   17.089    0.410    0.227   49.016  201.043
  569.096   17.513    0.384    0.241   51.327  200.632
  569.346   17.115    0.374    0.254   57.712  200.427
