~VERSION INFORMATION
 VERS.                 2.0:   CWLS LOG ASCII STANDARD -VERSION 2.0
 WRAP.                  NO:   ONE LINE PER DEPTH STEP
~WELL INFORMATION BLOCK
#MNEM.UNIT           DATA                    DESCRIPTION OF MNEMONIC
#---------    -------------------            -------------------------------
# Generated from Intellog Unique Number	CS_71_72/WELL/770
WELL.         SULPETRO LIMITED               : Well_name    - WELL
LOC .         00/06-19-071-10W4/0            : Location     - LOCATION
UWI .         00/06-19-071-10W4/0            : Uwi          - UNIQUE WELL ID
ENTR.         SP                             : Entered      - ENTERED BY
SRVC.         SCHLUMBERGER                   : Scn          - SERVICE COMPANY
STRT.M        300                            : top_depth    - START DEPTH
STOP.M        525                            : bot_depth    - STOP DEPTH
STEP.M        0.25                           : increment    - STEP LENGTH
 NULL. -999.2500:NULL Value
~CURVE INFORMATION BLOCK
#MNEM UNIT       ERCB CURVE CODE    CURVE DESCRIPTION
#-----------   ------------------   ----------------------------------
DEPT.M        00 001 00 00         : DEPTH        - DEPTH
ILD .OHMM     00 120 00 00         : RESD         - DEEP RESISTIVITY (DIL)
DPHI.V/V      00 890 00 00         : PHID         - DENSITY POROSITY (LIMESTONE)
NPHI.V/V      00 330 00 00         : PHIN         - NEUTRON POROSITY (LIMESTONE)
GR  .API      00 310 00 00         : GR           - GAMMA RAY
~PARAMETER INFORMATION
#MNEM.UNIT           DATA             DESCRIPTION OF MNEMONIC
#---------         -----------     ------------------------------
GL  .M        648.81               : gl           - GROUND LEVEL ELEVATION
EREF.M        651.64               : kb           - ELEVATION OF DEPTH REFERENCE
DATM.M        648.81               : datum        - DATUM ELEVATION
TDD .M        538                  : tdd          - TOTAL DEPTH DRILLER
RUN .         ONE                  : Run          - RUN NUMBER
ENG .         BILL                 : Engineer     - RECORDING ENGINEER
WIT .         JIM                  : Witness      - WITNESSED BY
MUD .         GEL                  : Mud_type     - MUD TYPE
MATR.         LIMESTONE            : Logunit      - NEUTRON MATRIX
TMAX.C        24                   : BHT          - MAXIMUM RECORDED TEMPERATURE
BHTD.M        538                  : BHTDEP       - MAXIMUM RECORDED TEMPERATURE
MATR.         1                    : LOGUNIT      - NEUTRON MATRIX
RMT .C        25                   : MDTP         - TEMPERATURE OF MUD
NEUT.         1                    : NEUTRON      - NEUTRON TYPE
RESI.         0                    : RESIST       - RESISTIVITY TYPE
RMC .OHMM     0.25                 : RMC          - RESISTIVITY OF MUD CAKE
RMF .OHMM     0.25                 : RMF          - RESISTIVITY OF MUD FILTRATE
SUFT.C        15                   : SUFT         - SURFACE TEMPERATURE
~A  DEPTH     RESD     PHID     PHIN       GR
# ...
  430.500    5.560    0.232    0.419   82.442
  430.750    5.478    0.233    0.443   80.372
  431.000    5.298    0.244    0.463   78.667
  431.250    4.898    0.257    0.472   74.168
  431.500    4.589    0.232    0.510   71.126
  431.750    4.496    0.085    0.561   68.207
  432.000    4.676    0.061    0.170   59.457
  432.250    4.955    0.072    0.162   53.986
  432.500    5.211    0.127    0.308   62.969
  432.750    5.461    0.171    0.380   75.595
  433.000    5.574    0.206    0.422   86.764
  433.250    5.606    0.227    0.452   89.856
  433.500    5.311    0.224    0.441   88.939
  433.750    5.003    0.224    0.445   88.388
  434.000    4.893    0.233    0.454   84.072
  434.250    4.911    0.228    0.427   77.083
  434.500    4.958    0.222    0.405   77.321
  434.750    4.977    0.224    0.425   82.659
  435.000    4.986    0.223    0.437   86.906
  435.250    4.959    0.217    0.430   90.483
  435.500    4.876    0.214    0.439   89.021
  435.750    4.769    0.215    0.443   86.162
  436.000    4.654    0.219    0.444   88.950
  436.250    4.535    0.227    0.449   86.394
  436.500    4.476    0.233    0.440   83.291
  436.750    4.443    0.230    0.422   81.708
  437.000    4.443    0.226    0.409   81.704
  437.250    4.502    0.229    0.415   84.370
  437.500    4.622    0.229    0.414   83.514
  437.750    4.753    0.224    0.428   79.987
  438.000    4.898    0.226    0.417   76.520
  438.250    4.990    0.232    0.403   74.695
  438.500    5.037    0.237    0.398   72.200
  438.750    5.047    0.241    0.368   73.287
  439.000    5.001    0.235    0.353   82.209
  439.250    4.899    0.228    0.347   87.002
  439.500    4.764    0.222    0.354   85.539
  439.750    4.642    0.218    0.370   83.531
  440.000    4.356    0.211    0.361   85.226
  440.250    3.976    0.213    0.351   87.711
  440.500    3.581    0.228    0.393   84.244
  440.750    3.166    0.239    0.470   86.364
  441.000    2.826    0.258    0.534   90.003
  441.250    2.593    0.250    0.558   86.294
  441.500    2.407    0.237    0.491   89.932
  441.750    2.272    0.245    0.494   93.206
  442.000    2.272    0.238    0.516   94.902
  442.250    2.541    0.227    0.536   94.653
  442.500    2.869    0.232    0.464   89.548
  442.750    3.282    0.247    0.420   78.490
  443.000    3.665    0.255    0.394   70.773
  443.250    3.840    0.244    0.384   76.172
  443.500    3.935    0.248    0.429   79.507
  443.750    3.950    0.266    0.469   76.101
  444.000    3.950    0.265    0.468   75.793
  444.250    3.921    0.254    0.430   80.281
  444.500    3.951    0.250    0.403   84.041
  444.750    4.140    0.253    0.402   86.830
  445.000    4.469    0.246    0.411   87.554
  445.250    4.807    0.237    0.429   84.998
  445.500    5.056    0.228    0.407   79.588
  445.750    5.200    0.207    0.287   70.292
  446.000    5.229    0.101    0.234   66.401
  446.250    5.143    0.119    0.378   71.314
  446.500    5.001    0.172    0.431   80.540
  446.750    4.764    0.209    0.391   85.090
  447.000    4.530    0.223    0.349   85.267
  447.250    4.365    0.209    0.325   80.039
  447.500    4.349    0.212    0.342   80.519
  447.750    4.414    0.218    0.372   80.818
  448.000    4.574    0.218    0.358   80.509
  448.250    4.722    0.216    0.347   79.411
  448.500    4.802    0.217    0.355   76.673
  448.750    4.829    0.222    0.380   78.551
  449.000    4.857    0.224    0.401   79.153
  449.250    4.884    0.219    0.415   76.537
  449.500    4.949    0.214    0.420   80.358
  449.750    5.061    0.216    0.410   85.089
  450.000    5.138    0.219    0.401   88.667
  450.250    5.138    0.217    0.395   85.686
  450.500    5.062    0.218    0.399   81.977
  450.750    4.859    0.228    0.401   81.972
  451.000    4.716    0.236    0.376   85.002
  451.250    4.586    0.237    0.355   85.727
  451.500    4.570    0.230    0.341   86.572
  451.750    4.578    0.226    0.334   91.486
  452.000    4.735    0.224    0.368   92.817
  452.250    4.897    0.223    0.393   88.015
  452.500    5.037    0.221    0.411   89.588
  452.750    5.084    0.217    0.406   92.618
  453.000    5.009    0.215    0.391   93.829
  453.250    4.917    0.211    0.382   92.124
  453.500    4.862    0.207    0.386   86.228
  453.750    4.863    0.206    0.383   83.248
  454.000    4.927    0.204    0.402   85.793
  454.250    5.011    0.203    0.423   91.192
  454.500    5.163    0.211    0.388   94.406
  454.750    5.261    0.219    0.356   90.332
  455.000    5.301    0.217    0.331   85.711
  455.250    5.242    0.201    0.332   89.169
  455.500    5.145    0.189    0.339   96.026
  455.750    5.069    0.184    0.358   95.656
  456.000    4.930    0.180    0.380   89.578
  456.250    4.839    0.178    0.398   89.452
  456.500    4.714    0.176    0.414   95.763
  456.750    4.483    0.175    0.420   98.976
  457.000    4.008    0.186    0.414   93.262
  457.250    3.452    0.204    0.437   86.213
  457.500    2.935    0.219    0.455   80.500
  457.750    2.600    0.232    0.473   77.458
  458.000    2.346    0.237    0.471   79.154
  458.250    2.190    0.231    0.454   84.432
  458.500    2.074    0.239    0.414   87.463
  458.750    2.040    0.246    0.379   86.972
  459.000    2.090    0.249    0.407   88.303
  459.250    2.252    0.256    0.443   87.691
  459.500    2.572    0.257    0.465   82.584
  459.750    2.685    0.251    0.466   79.300
  460.000    2.898    0.252    0.467   76.684
  460.250    3.135    0.257    0.447   74.250
  460.500    3.291    0.238    0.421   76.310
  460.750    3.335    0.224    0.402   81.102
  461.000    3.304    0.228    0.396   84.558
  461.250    3.261    0.237    0.411   81.517
  461.500    3.304    0.220    0.409   83.577
  461.750    3.373    0.214    0.382   85.879
  462.000    3.535    0.226    0.433   83.080
  462.250    3.809    0.230    0.498   78.095
  462.500    4.066    0.091    0.265   73.719
  462.750    4.357    0.064    0.238   68.916
  463.000    4.575    0.068    0.235   65.207
  463.250    4.731    0.149    0.316   69.209
  463.500    4.767    0.216    0.358   77.221
  463.750    4.653    0.242    0.378   76.061
  464.000    4.359    0.262    0.371   73.871
  464.250    4.076    0.254    0.366   71.922
  464.500    3.861    0.243    0.360   76.290
  464.750    3.727    0.238    0.356   81.871
  465.000    3.645    0.230    0.352   83.506
  465.250    3.544    0.221    0.369   82.104
  465.500    3.395    0.213    0.382   81.127
  465.750    3.211    0.206    0.400   84.827
  466.000    2.969    0.210    0.427   89.437
  466.250    2.771    0.208    0.422   91.314
  466.500    2.576    0.200    0.401   94.528
  466.750    2.432    0.195    0.379   97.680
  467.000    2.418    0.193    0.387   98.222
  467.250    2.459    0.194    0.448   91.841
  467.500    2.520    0.196    0.482   93.415
  467.750    2.568    0.199    0.506   97.965
  468.000    2.646    0.201    0.458   94.316
  468.250    2.676    0.205    0.403   92.185
  468.500    2.549    0.210    0.386   93.091
  468.750    2.465    0.215    0.380   95.636
  469.000    2.442    0.217    0.415  100.975
  469.250    2.465    0.216    0.443  104.735
  469.500    2.593    0.216    0.465  100.904
  469.750    2.737    0.221    0.456   95.494
  470.000    2.836    0.214    0.409   89.295
  470.250    2.922    0.201    0.393   85.100
  470.500    2.950    0.205    0.393   89.893
  470.750    2.879    0.224    0.402   94.564
  471.000    2.687    0.229    0.418  101.846
  471.250    2.513    0.221    0.432  100.930
  471.500    2.399    0.217    0.451   98.434
  471.750    2.376    0.235    0.451  102.559
  472.000    2.453    0.225    0.420  107.170
  472.250    2.580    0.215    0.391  110.991
  472.500    2.796    0.211    0.400  108.921
  472.750    3.151    0.218    0.434  103.997
  473.000    3.383    0.222    0.400   98.648
  473.250    3.805    0.217    0.372   91.841
  473.500    4.116    0.207    0.363   86.249
  473.750    4.477    0.203    0.389   79.746
