~VERSION INFORMATION
 VERS.                 2.0:   CWLS LOG ASCII STANDARD -VERSION 2.0
 WRAP.                  NO:   ONE LINE PER DEPTH STEP
~WELL INFORMATION BLOCK
#MNEM.UNIT           DATA                    DESCRIPTION OF MNEMONIC
#---------    -------------------            -------------------------------
# Generated from Intellog Unique Number	CW_70_72/WELL/502
NULL.         -999.25                        : NULL_VALUE
WELL.         NORCEN ET AL VICTOR 05-07      : Well_name    - WELL              
LOC .         05-07-071-01W5                 : Location     - LOCATION          
UWI .         00/05-07-071-01W5/0            : Uwi          - UNIQUE WELL ID    
ENTR.         JAYE                           : Entered      - ENTERED BY        
SRVC.         COMPUTALOG                     : Scn          - SERVICE COMPANY   
DATE.         16 MAR 82                      : Date         - LOG DATE          
STRT.M        390                            : top_depth    - START DEPTH       
STOP.M        626                            : bot_depth    - STOP DEPTH        
STEP.M        0.25                           : increment    - STEP LENGTH       
~CURVE INFORMATION BLOCK
#MNEM UNIT       ERCB CURVE CODE    CURVE DESCRIPTION
#-----------   ------------------   ----------------------------------
DEPT.M        00 001 00 00         : DEPTH        - DEPTH                       
DPHI.V/V      00 890 00 00         : PHID         - DENSITY POROSITY (SANDSTONE)
NPHI.V/V      00 330 00 00         : PHIN         - NEUTRON POROSITY (SANDSTONE)
GR  .API      00 310 00 00         : GR           - GAMMA RAY                   
CALI.MM       00 280 01 00         : CAL          - CALIPER                     
ILD .OHMM     00 120 00 00         : RESD         - DEEP RESISTIVITY (DIL)      
~PARAMETER INFORMATION       
#MNEM.UNIT           DATA             DESCRIPTION OF MNEMONIC
#---------         -----------     ------------------------------
GL  .M        591.23               : gl           - GROUND LEVEL ELEVATION      
EREF.M        595.33               : kb           - ELEVATION OF DEPTH REFERENCE
DATM.M        591.23               : datum        - DATUM ELEVATION             
TDD .M        642                  : tdd          - TOTAL DEPTH DRILLER         
RUN .         ONE                  : Run          - RUN NUMBER                  
ENG .         DROMLEWICZ/MURRAY    : Engineer     - RECORDING ENGINEER          
WIT .         BOGNER               : Witness      - WITNESSED BY                
BASE.         EDM                  : Branch       - HOME BASE OF LOGGING UNIT   
MUD .         GEL CHEM             : Mud_type     - MUD TYPE                    
MATR.         SANDSTONE            : Logunit      - NEUTRON MATRIX              
TMAX.C        30                   : BHT          - MAXIMUM RECORDED TEMPERATURE
BHTD.M        643                  : BHTDEP       - MAXIMUM RECORDED TEMPERATURE
RMT .C        10                   : MDTP         - TEMPERATURE OF MUD          
MUDD.KG/M     1140                 : MWT          - MUD DENSITY                 
NEUT.         1                    : NEUTRON      - NEUTRON TYPE                
RESI.         0                    : RESIST       - RESISTIVITY TYPE            
RM  .OHMM     3.2                  : RM           - RESISTIVITY OF MUD          
RMC .OHMM     2.2                  : RMC          - RESISTIVITY OF MUD CAKE     
RMF .OHMM     1.8                  : RMF          - RESISTIVITY OF MUD FILTRATE 
SUFT.C        0                    : SUFT         - SURFACE TEMPERATURE         
~A  DEPTH     PHID     PHIN       GR      CAL     RESD
  390.000    0.211    0.427  104.324  202.859    7.665
  390.250    0.207    0.458  105.483  203.033    2.034
  390.500    0.197    0.408  108.074  202.889    2.108
  390.750    0.181    0.349  112.344  202.652    2.161
  391.000    0.170    0.309  115.933  202.195    2.215
  391.250    0.160    0.335  120.701  202.161    2.292
  391.500    0.155    0.364  116.512  201.918    2.319
  391.750    0.154    0.390  112.945  201.882    2.354
  392.000    0.159    0.410  111.182  202.782    2.386
  392.250    0.161    0.425  110.350  204.300    2.400
  392.500    0.161    0.403  110.142  205.305    2.409
  392.750    0.172    0.382  111.117  206.409    2.396
  393.000    0.181    0.377  111.840  207.098    2.365
  393.250    0.192    0.361  112.256  206.023    2.347
  393.500    0.190    0.378  112.980  204.531    2.334
  393.750    0.183    0.422  113.515  203.562    2.343
  394.000    0.183    0.445  113.869  202.601    2.357
  394.250    0.186    0.470  114.284  201.423    2.362
  394.500    0.188    0.416  114.387  200.972    2.358
  394.750    0.190    0.389  115.792  200.622    2.362
  395.000    0.192    0.402  117.143  200.481    2.399
  395.250    0.192    0.383  116.312  200.132    2.436
  395.500    0.192    0.321  113.803  200.001    2.464
  395.750    0.187    0.340  111.293  199.650    2.492
  396.000    0.188    0.370  109.468  199.203    2.521
  396.250    0.195    0.403  105.153  198.955    2.574
  396.500    0.195    0.443  103.328  198.714    2.648
  396.750    0.176    0.404  102.436  198.059    2.766
  397.000    0.150    0.261   87.235  196.154    3.117
  397.250    0.132    0.271   69.733  193.838    3.681
  397.500    0.160    0.301   60.442  191.934    4.155
  397.750    0.178    0.326   68.384  191.175    4.533
  398.000    0.193    0.294   84.100  191.241    4.726
  398.250    0.172    0.309   93.782  192.342    4.673
  398.500    0.158    0.332   97.122  194.592    4.221
  398.750    0.162    0.378  101.703  197.668    3.870
  399.000    0.166    0.416  100.997  203.955    3.534
  399.250    0.171    0.388  102.842  208.892    3.384
  399.500    0.180    0.364  108.855  208.445    3.463
  399.750    0.205    0.337  116.050  205.505    3.707
  400.000    0.228    0.319  110.180  202.983    4.044
  400.250    0.243    0.301   99.832  200.664    4.556
  400.500    0.260    0.288   89.981  197.207    5.191
  400.750    0.266    0.270   90.582  194.265    5.718
  401.000    0.268    0.266   96.408  194.129    6.381
  401.250    0.263    0.266   89.916  195.124    6.896
  401.500    0.255    0.266   85.043  195.817    7.453
  401.750    0.246    0.270   82.968  197.024    7.918
  402.000    0.220    0.282   84.686  198.027    8.132
  402.250    0.204    0.292   86.658  199.027    8.071
  402.500    0.197    0.304   86.760  199.512    7.951
  402.750    0.186    0.313   88.108  199.987    7.789
  403.000    0.178    0.318   91.942  200.263    7.402
  403.250    0.175    0.333   94.161  200.441    6.929
  403.500    0.178    0.348   93.081  200.086    6.523
  403.750    0.179    0.378   91.692  200.056    6.200
  404.000    0.172    0.387   93.101  199.816    5.925
  404.250    0.163    0.357   98.927  199.672    5.621
  404.500    0.163    0.328  103.571  199.431    5.454
  404.750    0.177    0.310   98.698  199.184    5.363
  405.000    0.192    0.273   92.269  199.568    5.323
  405.250    0.222    0.214   84.903  200.359    5.314
  405.500    0.248    0.184   79.223  200.428    5.571
  405.750    0.287    0.156   71.053  200.289    6.605
  406.000    0.329    0.140   54.234  199.010    9.532
  406.250    0.356    0.119   37.728  197.519   17.129
  406.500    0.370    0.096   29.742  196.651   32.575
  406.750    0.367    0.082   27.296  195.997   39.283
  407.000    0.354    0.074   32.312  195.548   46.310
  407.250    0.340    0.074   33.659  194.783   50.143
  407.500    0.344    0.076   32.704  194.021   47.296
  407.750    0.359    0.074   28.951  193.575   48.662
  408.000    0.361    0.073   31.107  193.642   50.448
  408.250    0.355    0.073   33.324  194.120   51.030
  408.500    0.352    0.077   34.174  194.399   50.652
  408.750    0.353    0.084   37.201  194.566   50.182
  409.000    0.353    0.089   38.174  194.637   49.156
  409.250    0.347    0.084   35.291  194.705   47.608
  409.500    0.337    0.082   31.039  194.771   45.160
  409.750    0.338    0.085   30.456  194.842   42.274
  410.000    0.344    0.092   31.867  194.805   39.127
  410.250    0.355    0.099   34.209  195.081   34.608
  410.500    0.362    0.094   36.552  195.766   29.475
  410.750    0.369    0.088   37.772  196.142   26.269
  411.000    0.377    0.083   37.629  196.419   22.628
  411.250    0.368    0.083   36.300  196.593   19.163
  411.500    0.345    0.098   33.292  197.077   16.259
  411.750    0.297    0.189   31.592  197.767   13.035
  412.000    0.276    0.272   29.454  199.387   10.159
  412.250    0.274    0.292   27.190  199.874    7.887
  412.500    0.278    0.313   27.296  198.490    6.008
  412.750    0.277    0.330   29.327  195.133    4.577
  413.000    0.278    0.319   31.360  192.092    3.203
  413.250    0.283    0.321   32.394  189.149    2.529
  413.500    0.296    0.310   29.762  187.250    2.463
  413.750    0.301    0.298   27.065  186.072    2.698
  414.000    0.296    0.305   29.031  186.037    3.091
  414.250    0.291    0.304   29.820  188.902    3.549
  414.500    0.292    0.300   28.057  192.292    4.106
  414.750    0.287    0.296   26.667  196.403    4.404
  415.000    0.258    0.277   31.124  199.478    4.421
  415.250    0.225    0.263   39.751  200.271    4.225
  415.500    0.181    0.275   77.552  199.507    4.108
  415.750    0.147    0.301  106.645  200.715    3.978
  416.000    0.144    0.273  109.795  204.105    3.919
  416.250    0.154    0.315  110.210  207.072    3.810
  416.500    0.158    0.373  112.490  207.557    3.621
  416.750    0.140    0.394  118.627  206.480    3.435
  417.000    0.164    0.420  116.801  205.100    3.167
  417.250    0.183    0.448  118.024  203.298    2.807
  417.500    0.203    0.368  126.339  202.125    2.497
  417.750    0.219    0.346  125.072  201.054    2.293
  418.000    0.230    0.353  116.965  216.259    2.204
  418.250    0.240    0.333  104.563  209.379    2.423
  418.500    0.252    0.330   91.976  209.966    2.745
  418.750    0.265    0.298   78.890  200.288    3.267
  419.000    0.274    0.320   68.355  188.845    3.780
  419.250    0.268    0.324   67.585  186.009    4.194
  419.500    0.228    0.330   68.124  188.152    4.541
  419.750    0.206    0.298   67.668  193.399    4.602
  420.000    0.203    0.309   70.507  197.100    4.416
  420.250    0.230    0.325   75.277  199.969    4.064
  420.500    0.269    0.307   80.232  204.910    3.712
  420.750    0.290    0.284   75.418  218.765    3.755
  421.000    0.314    0.256   67.746  211.782    4.019
  421.250    0.330    0.258   58.890  201.792    4.494
  421.500    0.291    0.268   61.794  192.115    5.063
  421.750    0.248    0.277   68.365  184.200    5.369
  422.000    0.228    0.288   71.269  184.993    5.401
  422.250    0.254    0.301   74.606  185.890    5.123
  422.500    0.272    0.292   78.318  186.575    4.742
  422.750    0.285    0.296   77.176  186.953    4.698
  423.000    0.290    0.305   72.613  187.336    5.193
  423.250    0.281    0.320   67.240  187.299    5.752
  423.500    0.280    0.281   64.295  187.578    6.228
  423.750    0.274    0.292   68.256  187.952    6.630
  424.000    0.277    0.297   89.261  188.334    6.834
  424.250    0.274    0.293   95.025  188.609    6.707
  424.500    0.271    0.287   87.661  188.574    6.595
  424.750    0.268    0.287   80.176  187.914    6.546
  425.000    0.252    0.307   72.751  188.811    6.412
  425.250    0.231    0.324   66.882  189.500    6.245
  425.500    0.221    0.318   66.485  189.779    6.141
  425.750    0.210    0.308   64.910  190.054    6.084
  426.000    0.204    0.298   61.033  190.327    6.050
  426.250    0.209    0.308   61.135  189.564    6.167
