~VERSION INFORMATION
 VERS.                 2.0:   CWLS LOG ASCII STANDARD -VERSION 2.0
 WRAP.                  NO:   ONE LINE PER DEPTH STEP
~WELL INFORMATION BLOCK
#MNEM.UNIT           DATA                    DESCRIPTION OF MNEMONIC
#---------    -------------------            -------------------------------
# Generated from Intellog Unique Number	CX_WELLS/WELL/3134
WELL.         UNEX RES CANOXY WATCHUK        : Well_name    - WELL
LOC .         00/06-18-083-03W4/0            : Location     - LOCATION
UWI .         00/06-18-083-03W400            : Uwi          - UNIQUE WELL ID
ENTR.         TIM                            : Entered      - ENTERED BY
SRVC.         SCHLUMBERGER                   : Scn          - SERVICE COMPANY
STRT.F        350                            : top_depth    - START DEPTH
STOP.F        1029.95                        : bot_depth    - STOP DEPTH
STEP.F        0.82                           : increment    - STEP LENGTH
 NULL. -999.2500:NULL Value
~CURVE INFORMATION BLOCK
#MNEM UNIT       ERCB CURVE CODE    CURVE DESCRIPTION
#-----------   ------------------   ----------------------------------
DEPT.F        00 001 00 00         : DEPTH        - DEPTH
GR  .API      00 310 00 00         : GR           - GAMMA RAY
NPHI.V/V      00 330 00 00         : PHIN         - NEUTRON POROSITY (SANDSTONE)
DPHI.V/V      00 890 00 00         : PHID         - DENSITY POROSITY (SANDSTONE)
ILD .OHMM     00 120 00 00         : RESD         - DEEP RESISTIVITY (OTHER)
~PARAMETER INFORMATION
#MNEM.UNIT           DATA             DESCRIPTION OF MNEMONIC
#---------         -----------     ------------------------------
GL  .F        1569                 : gl           - GROUND LEVEL ELEVATION
EREF.F        1581                 : kb           - ELEVATION OF DEPTH REFERENCE
DATM.F        1581                 : datum        - DATUM ELEVATION
TDD .F        1080                 : tdd          - TOTAL DEPTH DRILLER
RUN .         ONE                  : Run          - RUN NUMBER
ENG .         BILL                 : Engineer     - RECORDING ENGINEER
WIT .         JIM                  : Witness      - WITNESSED BY
MUD .         GEL                  : Mud_type     - MUD TYPE
MATR.         SANDSTONE            : Logunit      - NEUTRON MATRIX
TMAX.F        71.6                 : BHT          - MAXIMUM RECORDED TEMPERATURE
BHTD.F        1080                 : BHTDEP       - MAXIMUM RECORDED TEMPERATURE
MATR.         1                    : LOGUNIT      - NEUTRON MATRIX
RMT .F        77                   : MDTP         - TEMPERATURE OF MUD
NEUT.         1                    : NEUTRON      - NEUTRON TYPE
RESI.         5.1                  : RESIST       - RESISTIVITY TYPE
RMC .OHMM     6                    : RMC          - RESISTIVITY OF MUD CAKE
RMF .OHMM     6                    : RMF          - RESISTIVITY OF MUD FILTRATE
SUFT.F        32                   : SUFT         - SURFACE TEMPERATURE
~A  DEPTH       GR     PHIN     PHID     RESD
  350.000   61.133    0.451    0.277   13.453
  350.820   60.047    0.448    0.269   13.716
  351.640   57.782    0.448    0.264   14.019
  352.461   58.457    0.450    0.261   14.039
  353.281   58.488    0.454    0.256   14.080
  354.101   59.713    0.453    0.258   14.094
  354.921   60.357    0.455    0.330   14.121
  355.741   62.777    0.457    0.329   14.149
  356.562   63.987    0.459    0.321   13.918
  357.382   66.376    0.458    0.312   13.447
  358.202   69.347    0.463    0.299   12.986
  359.022   71.154    0.472    0.291   12.774
  359.843   72.993    0.464    0.283   12.330
  360.663   73.636    0.453    0.287   12.128
  361.483   73.683    0.454    0.289   11.713
  362.303   73.745    0.469    0.284   11.311
  363.123   74.404    0.473    0.283   11.132
  363.944   75.063    0.465    0.290   11.159
  364.764   75.109    0.459    0.292   10.971
  365.584   75.753    0.466    0.293   11.003
  366.404   74.652    0.477    0.294   11.019
  367.224   72.984    0.478    0.295   10.844
  368.045   71.867    0.477    0.298   10.860
  368.865   69.617    0.475    0.303   10.892
  369.685   67.918    0.475    0.309   11.105
  370.505   66.250    0.473    0.314   11.555
  371.325   65.730    0.464    0.310   11.787
  372.146   65.808    0.456    0.303   11.804
  372.966   65.885    0.459    0.269   11.833
  373.786   65.350    0.459    0.252   11.867
  374.606   62.503    0.446    0.228   11.885
  375.427   59.059    0.431    0.209   11.902
  376.247   52.736    0.399    0.203   11.719
  377.067   54.544    0.361    0.253   11.736
  377.887   57.514    0.394    0.320   11.753
  378.707   59.322    0.452    0.329   12.006
  379.528   60.547    0.448    0.327   12.030
  380.348   61.788    0.443    0.321   12.053
  381.168   62.432    0.441    0.318   12.071
  381.988   63.091    0.454    0.312   12.100
  382.808   63.735    0.465    0.308   11.896
  383.629   63.200    0.466    0.302   11.290
  384.449   59.786    0.462    0.309   11.100
  385.269   59.848    0.462    0.323   10.924
  386.089   60.508    0.465    0.328   10.945
  386.909   59.988    0.461    0.330   11.165
  387.730   58.871    0.457    0.329   11.395
  388.550   58.335    0.460    0.326   11.646
  389.370   58.428    0.463    0.324   11.663
  390.190   59.072    0.466    0.324   11.257
  391.010   60.879    0.462    0.325   10.877
  391.831   62.702    0.457    0.326   10.694
  392.651   63.315    0.458    0.330   10.529
  393.471   64.571    0.463    0.330   10.540
  394.291   64.051    0.469    0.333   10.377
  395.112   64.098    0.468    0.332   10.393
  395.932   63.609    0.466    0.332   10.223
  396.752   63.074    0.460    0.331   10.056
  397.572   63.151    0.458    0.330   10.080
  398.392   62.616    0.458    0.328   10.095
  399.213   63.275    0.458    0.326   10.307
  400.033   63.903    0.456    0.322   10.327
  400.853   64.562    0.456    0.322   10.348
  401.673   65.206    0.461    0.327   10.178
  402.493   65.268    0.464    0.328   10.198
  403.314   64.748    0.466    0.329   10.032
  404.134   64.810    0.475    0.326   10.056
  404.954   64.321    0.460    0.318   10.080
  405.774   64.383    0.460    0.318    9.911
  406.594   65.578    0.468    0.322    9.571
  407.415   66.803    0.469    0.324    9.247
  408.235   67.447    0.452    0.330    8.926
  409.055   64.600    0.455    0.335    8.471
  409.875   63.545    0.465    0.338    8.324
  410.696   65.918    0.477    0.339    8.188
  411.516   65.398    0.486    0.339    8.212
  412.336   62.567    0.486    0.340    8.381
  413.156   61.450    0.485    0.341    8.708
  413.976   60.348    0.483    0.347    9.397
  414.797   59.828    0.483    0.363    9.585
  415.617   59.309    0.487    0.360   10.159
  416.437   58.804    0.483    0.359   10.368
  417.257   58.269    0.476    0.357   10.581
  418.077   57.780    0.465    0.354   10.597
  418.898   57.245    0.466    0.344   10.820
  419.718   57.307    0.462    0.334   11.042
  420.538   57.384    0.456    0.326   11.075
  421.358   57.415    0.449    0.316   11.085
  422.178   57.508    0.448    0.307   11.107
  422.999   57.554    0.451    0.296   11.134
  423.819   58.811    0.463    0.305   10.952
  424.639   60.021    0.476    0.322   10.973
  425.459   60.649    0.474    0.327   10.799
  426.280   61.308    0.481    0.326   10.429
  427.100   61.370    0.487    0.320   10.076
  427.920   60.866    0.488    0.315    9.912
  428.740   60.928    0.484    0.313    9.740
  429.560   61.572    0.479    0.310    9.759
  430.381   63.976    0.477    0.306    9.783
  431.201   65.217    0.471    0.305    9.802
  432.021   65.830    0.466    0.304    9.826
  432.841   66.489    0.462    0.304    9.665
  433.661   67.148    0.466    0.302    9.679
  434.482   67.195    0.473    0.302    9.526
  435.302   67.885    0.479    0.302    9.366
  436.122   68.513    0.482    0.301    9.221
  436.942   68.560    0.476    0.299    9.239
  437.762   68.606    0.471    0.299    9.262
  438.583   68.684    0.458    0.299    9.271
  439.403   67.000    0.465    0.299    9.293
  440.223   65.317    0.478    0.305    9.316
  441.043   64.797    0.479    0.331    9.334
  441.864   63.114    0.468    0.343    9.352
  442.684   59.685    0.455    0.350    9.204
  443.504   54.495    0.432    0.352    9.049
  444.324   47.576    0.432    0.341    8.739
  445.144   44.163    0.440    0.335    8.285
  445.965   44.806    0.449    0.335    7.571
  446.785   50.686    0.454    0.324    6.544
  447.605   56.581    0.487    0.314    5.066
  448.425   72.933    0.537    0.307    4.462
  449.245   73.608    0.549    0.306    7.491
  450.066   71.893    0.513    0.310    9.023
  450.886   67.317    0.494    0.313   11.081
  451.706   62.709    0.478    0.317   11.727
  452.526   55.789    0.473    0.323   13.129
  453.346   50.615    0.473    0.326   13.393
  454.167   50.095    0.472    0.329   13.432
  454.987   50.157    0.471    0.331   13.458
  455.807   50.250    0.470    0.333   13.238
  456.627   51.491    0.469    0.335   13.028
  457.448   52.686    0.468    0.338   13.041
  458.268   53.911    0.474    0.336   12.600
  459.088   53.407    0.495    0.331   12.618
  459.908   52.305    0.458    0.323   12.655
  460.728   51.801    0.462    0.316   11.998
  461.549   51.281    0.467    0.312   11.796
  462.369   50.179    0.472    0.312   12.050
  463.189   52.569    0.468    0.325   12.062
  464.009   54.376    0.464    0.320   12.322
  464.829   56.780    0.459    0.304   12.569
  465.650   57.440    0.456    0.301   12.834
  466.470   57.471    0.454    0.305   12.853
  467.290   57.532    0.453    0.309   13.117
  468.110   57.610    0.450    0.312   13.642
  468.930   57.672    0.449    0.312   13.923
  469.751   57.167    0.449    0.312   13.950
  470.571   57.230    0.458    0.314   13.990
  471.391   56.710    0.471    0.314   14.011
  472.211   55.042    0.480    0.315   13.782
  473.031   53.925    0.484    0.317   13.563
  473.852   51.660    0.488    0.318   13.335
  474.672   51.140    0.484    0.321   13.368
  475.492   52.381    0.475    0.324   13.387
  476.312   52.427    0.472    0.325   13.420
  477.133   52.489    0.472    0.326   13.446
  477.953   52.000    0.467    0.327   13.465
  478.773   51.449    0.461    0.327   13.498
  479.593   51.511    0.456    0.328   13.524
  480.413   52.170    0.456    0.328   13.550
  481.234   53.993    0.464    0.325   13.329
  482.054   55.203    0.464    0.321   13.355
  482.874   56.444    0.464    0.314   13.387
  483.694   57.088    0.462    0.319   13.413
  484.514   57.165    0.461    0.319   13.446
  485.335   57.196    0.456    0.310   13.466
  486.155   57.274    0.442    0.301   13.498
  486.975   57.367    0.428    0.288   13.531
  487.795   57.398    0.417    0.258   13.803
  488.615   57.475    0.390    0.214   14.879
  489.436   57.537    0.198    0.037   18.264
  490.256   57.002    0.196    0.028   20.084
  491.076   55.318    0.201    0.037   19.737
  491.896   53.635    0.240    0.055   17.715
