~VERSION INFORMATION
 VERS.                 2.0:   CWLS LOG ASCII STANDARD -VERSION 2.0
 WRAP.                  NO:   ONE LINE PER DEPTH STEP
~WELL INFORMATION BLOCK
#MNEM.UNIT           DATA                    DESCRIPTION OF MNEMONIC
#---------    -------------------            -------------------------------
# Generated from Intellog Unique Number	CC_80_83/WELL/1046
LOC .         00/03-03-081-10W4/0            : Location     - LOCATION
UWI .         00/03-03-081-10W400            : Uwi          - UNIQUE WELL ID
ENTR.         DW                             : Entered      - ENTERED BY
SRVC.         SCHLUMBERGER                   : Scn          - SERVICE COMPANY
STRT.M        250                            : top_depth    - START DEPTH
STOP.M        484.75                         : bot_depth    - STOP DEPTH
STEP.M        0.25                           : increment    - STEP LENGTH
 NULL. -999.2500:NULL Value
~CURVE INFORMATION BLOCK
#MNEM UNIT       ERCB CURVE CODE    CURVE DESCRIPTION
#-----------   ------------------   ----------------------------------
DEPT.M        00 001 00 00         : DEPTH        - DEPTH
GR  .API      00 310 00 00         : GR           - GAMMA RAY
DPHI.V/V      00 890 00 00         : PHID         - DENSITY POROSITY (SANDSTONE)
NPHI.V/V      00 330 00 00         : PHIN         - NEUTRON POROSITY (SANDSTONE)
ILD .OHMM     00 120 00 00         : RESD         - DEEP RESISTIVITY (DIL)
~PARAMETER INFORMATION
#MNEM.UNIT           DATA             DESCRIPTION OF MNEMONIC
#---------         -----------     ------------------------------
GL  .M        695                  : gl           - GROUND LEVEL ELEVATION
EREF.M        698.2                : kb           - ELEVATION OF DEPTH REFERENCE
DATM.M        698.2                : datum        - DATUM ELEVATION
TDD .M        492                  : tdd          - TOTAL DEPTH DRILLER
RUN .         ONE                  : Run          - RUN NUMBER
ENG .         BILL                 : Engineer     - RECORDING ENGINEER
WIT .         JIM                  : Witness      - WITNESSED BY
MUD .         GEL                  : Mud_type     - MUD TYPE
MATR.         SANDSTONE            : Logunit      - NEUTRON MATRIX
TMAX.C        27                   : BHT          - MAXIMUM RECORDED TEMPERATURE
BHTD.M        492                  : BHTDEP       - MAXIMUM RECORDED TEMPERATURE
MATR.         1                    : LOGUNIT      - NEUTRON MATRIX
RMT .C        25                   : MDTP         - TEMPERATURE OF MUD
NEUT.         1                    : NEUTRON      - NEUTRON TYPE
RESI.         0                    : RESIST       - RESISTIVITY TYPE
RMC .OHMM     0.25                 : RMC          - RESISTIVITY OF MUD CAKE
RMF .OHMM     0.25                 : RMF          - RESISTIVITY OF MUD FILTRATE
SUFT.C        15                   : SUFT         - SURFACE TEMPERATURE
~A  DEPTH       GR     PHID     PHIN     RESD
# ...
  337.000   44.186    0.366    0.452   20.752
  337.250   44.666    0.367    0.459   20.737
  337.500   45.522    0.367    0.447   20.808
  337.750   47.415    0.362    0.436   20.558
  338.000   49.071    0.357    0.440   20.316
  338.250   49.226    0.356    0.445   20.391
  338.500   49.240    0.357    0.438   20.366
  338.750   49.765    0.358    0.443   20.020
  339.000   50.209    0.358    0.447   20.000
  339.250   51.216    0.355    0.441   19.787
  339.500   51.768    0.354    0.418   19.590
  339.750   50.860    0.356    0.423   19.554
  340.000   49.827    0.359    0.474   19.230
  340.250   49.769    0.365    0.449   19.493
  340.500   50.162    0.369    0.435   20.309
  340.750   51.127    0.365    0.440   21.693
  341.000   51.891    0.364    0.462   22.770
  341.250   50.503    0.313    0.482   22.863
  341.500   47.225    0.206    0.431   22.459
  341.750   46.781    0.256    0.329   21.792
  342.000   50.768    0.329    0.395   20.597
  342.250   53.245    0.356    0.463   19.021
  342.500   50.806    0.361    0.465   17.698
  342.750   48.522    0.365    0.475   17.060
  343.000   51.060    0.367    0.471   16.811
  343.250   52.308    0.367    0.456   16.123
  343.500   51.597    0.370    0.444   14.254
  343.750   50.384    0.374    0.439   11.833
  344.000   56.052    0.366    0.435    9.302
  344.250   63.652    0.347    0.442    7.296
  344.500   59.133    0.343    0.470    6.380
  344.750   54.605    0.353    0.487    5.424
  345.000   66.328    0.341    0.453    4.809
  345.250   77.075    0.317    0.438    4.583
  345.500   81.431    0.298    0.478    4.467
  345.750   84.092    0.288    0.519    4.593
  346.000   82.055    0.287    0.530    5.078
  346.250   79.588    0.288    0.541    5.251
  346.500   75.471    0.284    0.497    5.419
  346.750   77.666    0.279    0.474    5.506
  347.000   83.446    0.277    0.496    5.170
  347.250   86.458    0.283    0.515    4.589
  347.500   89.090    0.298    0.519    4.346
  347.750   91.303    0.316    0.518    4.529
  348.000   91.402    0.325    0.514    5.060
  348.250   83.861    0.325    0.513    5.545
  348.500   70.866    0.333    0.497    5.760
  348.750   65.020    0.343    0.460    5.829
  349.000   71.975    0.334    0.443    5.811
  349.250   77.518    0.324    0.479    5.466
  349.500   80.569    0.322    0.517    5.052
  349.750   82.019    0.317    0.523    5.040
  350.000   78.188    0.304    0.509    5.254
  350.250   73.502    0.291    0.501    5.257
  350.500   76.971    0.280    0.506    4.977
  350.750   81.184    0.267    0.508    4.519
  351.000   85.835    0.260    0.493    4.138
  351.250   90.451    0.265    0.474    3.879
  351.500   94.210    0.275    0.468    3.598
  351.750   97.149    0.286    0.477    3.245
  352.000   97.798    0.294    0.489    2.954
  352.250   93.904    0.298    0.506    2.806
  352.500   93.593    0.300    0.513    2.747
  352.750   96.789    0.294    0.565    2.735
  353.000  100.712    0.288    0.601    2.738
  353.250  103.105    0.288    0.579    2.739
  353.500  102.876    0.290    0.572    2.738
  353.750  102.897    0.290    0.565    2.730
  354.000  102.433    0.288    0.561    2.819
  354.250  102.139    0.285    0.571    2.844
  354.500  102.284    0.283    0.575    2.889
  354.750  102.116    0.286    0.563    3.052
  355.000  100.901    0.291    0.554    3.202
  355.250   98.278    0.299    0.542    3.371
  355.500   95.538    0.304    0.526    3.491
  355.750   93.008    0.311    0.536    4.203
  356.000   90.049    0.308    0.547    4.901
  356.250   86.971    0.287    0.533    5.176
  356.500   84.983    0.272    0.514    5.614
  356.750   83.891    0.274    0.481    5.628
  357.000   82.929    0.261    0.485    5.590
  357.250   81.750    0.246    0.494    5.670
  357.500   84.388    0.256    0.494    5.736
  357.750   90.618    0.277    0.496    5.713
  358.000   91.907    0.291    0.487    5.725
  358.250   86.603    0.311    0.467    5.914
  358.500   89.268    0.286    0.478    6.046
  358.750   92.524    0.268    0.499    6.077
  359.000   89.312    0.259    0.493    6.047
  359.250   83.984    0.240    0.475    5.904
  359.500   81.083    0.249    0.476    5.389
  359.750   79.327    0.296    0.476    4.403
  360.000   79.514    0.319    0.458    4.210
  360.250   80.519    0.312    0.430    4.343
  360.500   86.686    0.288    0.464    4.406
  360.750   96.957    0.268    0.521    4.593
  361.000   99.448    0.272    0.497    4.816
  361.250   92.564    0.274    0.485    4.833
  361.500   94.010    0.269    0.483    4.689
  361.750   96.296    0.266    0.509    4.576
  362.000   95.362    0.266    0.525    4.521
  362.250   93.801    0.267    0.506    4.433
  362.500   90.538    0.267    0.498    4.373
  362.750   89.091    0.265    0.498    4.516
  363.000   85.507    0.265    0.489    4.649
  363.250   83.454    0.267    0.490    4.921
  363.500   83.621    0.269    0.491    5.187
  363.750   83.518    0.270    0.478    5.358
  364.000   82.892    0.273    0.468    5.744
  364.250   80.850    0.274    0.464    6.328
  364.500   78.311    0.267    0.460    6.918
  364.750   77.992    0.259    0.460    7.296
  365.000   78.385    0.251    0.467    7.383
  365.250   76.574    0.241    0.476    7.398
  365.500   73.289    0.236    0.474    7.228
  365.750   70.596    0.250    0.465    6.019
  366.000   68.510    0.251    0.455    4.602
  366.250   68.929    0.247    0.449    3.872
  366.500   72.638    0.252    0.446    3.701
  366.750   76.348    0.257    0.442    3.576
  367.000   76.462    0.254    0.437    3.543
  367.250   75.285    0.255    0.433    4.004
  367.500   75.610    0.258    0.431    4.786
  367.750   75.772    0.253    0.440    5.631
  368.000   76.248    0.252    0.458    6.381
  368.250   77.098    0.258    0.465    6.942
  368.500   76.432    0.261    0.450    7.251
  368.750   76.399    0.262    0.437    7.272
  369.000   76.471    0.262    0.442    7.072
  369.250   76.239    0.264    0.450    6.845
  369.500   75.237    0.268    0.450    6.949
  369.750   74.543    0.261    0.458    7.323
  370.000   75.801    0.244    0.476    7.542
  370.250   77.005    0.244    0.461    7.407
  370.500   76.287    0.254    0.464    6.015
  370.750   74.953    0.266    0.472    4.823
  371.000   72.704    0.275    0.465    4.458
  371.250   74.688    0.278    0.454    4.387
  371.500   84.800    0.282    0.448    4.476
  371.750   89.033    0.290    0.450    4.696
  372.000   87.823    0.318    0.483    4.940
  372.250   86.846    0.327    0.517    5.144
  372.500   87.485    0.313    0.522    5.255
  372.750   88.779    0.294    0.510    5.189
  373.000   91.666    0.276    0.502    4.825
  373.250   95.374    0.288    0.495    4.223
  373.500   91.475    0.285    0.507    3.996
  373.750   83.518    0.272    0.506    3.979
  374.000   82.388    0.278    0.486    4.235
  374.250   88.334    0.298    0.489    4.917
  374.500   92.240    0.309    0.531    5.896
  374.750   94.139    0.316    0.558    7.753
  375.000   92.117    0.311    0.570   11.483
  375.250   89.256    0.303    0.539   12.628
  375.500   86.304    0.313    0.467   11.745
  375.750   83.426    0.284    0.421   10.744
  376.000   76.585    0.178    0.410    8.444
  376.250   57.493    0.143    0.317    7.113
  376.500   55.819    0.184    0.295    6.738
  376.750   64.261    0.249    0.357    6.780
  377.000   73.314    0.284    0.420    6.918
  377.250   82.361    0.282    0.442    7.008
  377.500   87.065    0.270    0.439    6.995
  377.750   87.678    0.249    0.443    6.887
  378.000   88.273    0.259    0.464    6.766
  378.250   92.795    0.259    0.484    6.689
  378.500   90.335    0.246    0.501    6.486
  378.750   83.486    0.240    0.508    6.177
  379.000   88.361    0.241    0.484    5.872
  379.250   91.328    0.266    0.462    5.246
  379.500   90.981    0.285    0.480    4.754
  379.750   91.008    0.282    0.487    4.205
  380.000   91.532    0.276    0.474    3.620
  380.250   92.415    0.281    0.470    3.109
