~VERSION INFORMATION
 VERS.                 2.0:   CWLS LOG ASCII STANDARD -VERSION 2.0
 WRAP.                  NO:   ONE LINE PER DEPTH STEP
~WELL INFORMATION BLOCK
#MNEM.UNIT           DATA                    DESCRIPTION OF MNEMONIC
#---------    -------------------            -------------------------------
# Generated from Intellog Unique Number	CW_79_81/WELL/2460
WELL.         GULF PELICAN                   : Well_name    - WELL
LOC .         00/07-21-081-21W4/0            : Location     - LOCATION
UWI .         00/07-21-081-21W4/0            : Uwi          - UNIQUE WELL ID
ENTR.         MAX                            : Entered      - ENTERED BY
SRVC.         SCHLUMBERGER                   : Scn          - SERVICE COMPANY
STRT.M        185                            : top_depth    - START DEPTH
STOP.M        429.75                         : bot_depth    - STOP DEPTH
STEP.M        0.25                           : increment    - STEP LENGTH
 NULL. -999.2500:NULL Value
~CURVE INFORMATION BLOCK
#MNEM UNIT       ERCB CURVE CODE    CURVE DESCRIPTION
#-----------   ------------------   ----------------------------------
DEPT.M        00 001 00 00         : DEPTH        - DEPTH
ILD .OHMM     00 120 00 00         : RESD         - DEEP RESISTIVITY (DIL)
NPHI.V/V      00 330 00 00         : PHIN         - NEUTRON POROSITY (SANDSTONE)
DPHI.V/V      00 890 00 00         : PHID         - DENSITY POROSITY (SANDSTONE)
GR  .API      00 310 00 00         : GR           - GAMMA RAY
CALI.MM       00 280 01 00         : CAL          - CALIPER
~PARAMETER INFORMATION
#MNEM.UNIT           DATA             DESCRIPTION OF MNEMONIC
#---------         -----------     ------------------------------
GL  .M        613.45               : gl           - GROUND LEVEL ELEVATION
EREF.M        616.75               : kb           - ELEVATION OF DEPTH REFERENCE
DATM.M        613.45               : datum        - DATUM ELEVATION
TDD .M        432                  : tdd          - TOTAL DEPTH DRILLER
RUN .         ONE                  : Run          - RUN NUMBER
ENG .         BILL                 : Engineer     - RECORDING ENGINEER
WIT .         JIM                  : Witness      - WITNESSED BY
MUD .         GEL                  : Mud_type     - MUD TYPE
MATR.         SANDSTONE            : Logunit      - NEUTRON MATRIX
TMAX.C        19.4                 : BHT          - MAXIMUM RECORDED TEMPERATURE
BHTD.M        432                  : BHTDEP       - MAXIMUM RECORDED TEMPERATURE
MATR.         1                    : LOGUNIT      - NEUTRON MATRIX
RMT .C        17.8                 : MDTP         - TEMPERATURE OF MUD
NEUT.         1                    : NEUTRON      - NEUTRON TYPE
RESI.         0                    : RESIST       - RESISTIVITY TYPE
RMC .OHMM     2.81                 : RMC          - RESISTIVITY OF MUD CAKE
RMF .OHMM     2.05                 : RMF          - RESISTIVITY OF MUD FILTRATE
SUFT.C        -20                  : SUFT         - SURFACE TEMPERATURE
~A  DEPTH     RESD     PHIN     PHID       GR      CAL
# ...
  294.500   11.798    0.443    0.292   64.536  220.042
  294.750   11.123    0.472    0.313   65.011  218.028
  295.000   10.726    0.491    0.347   64.764  216.914
  295.250   10.533    0.497    0.365   64.518  216.103
  295.500   10.418    0.490    0.364   64.573  215.393
  295.750   10.160    0.475    0.362   64.906  214.897
  296.000   10.007    0.462    0.356   65.399  214.469
  296.250    9.933    0.468    0.348   65.394  215.260
  296.500    9.860    0.472    0.347   66.109  216.051
  296.750    9.788    0.474    0.343   67.305  216.241
  297.000    9.716    0.474    0.337   68.140  215.931
  297.250    9.630    0.473    0.336   66.570  216.084
  297.500    9.557    0.469    0.340   63.559  216.908
  297.750    9.487    0.464    0.336   63.793  217.299
  298.000    9.469    0.456    0.332   64.388  217.388
  298.250    9.468    0.451    0.336   64.503  217.379
  298.500    9.468    0.454    0.346   64.256  217.369
  298.750    9.467    0.467    0.350   64.379  217.356
  299.000    9.467    0.471    0.360   62.620  217.346
  299.250    9.535    0.463    0.355   63.575  216.937
  299.500    9.552    0.459    0.348   63.629  216.526
  299.750    9.552    0.462    0.350   63.262  216.115
  300.000    9.551    0.468    0.361   62.895  215.805
  300.250    9.565    0.473    0.362   62.889  215.793
  300.500    9.638    0.477    0.362   62.882  215.782
  300.750    9.708    0.481    0.359   62.876  215.772
  301.000    9.725    0.486    0.355   62.690  215.761
  301.250    9.618    0.492    0.352   62.684  215.951
  301.500    9.529    0.498    0.349   62.438  216.242
  301.750    9.813    0.496    0.346   60.597  216.147
  302.000    9.812    0.494    0.351   59.840  215.719
  302.250    9.669    0.488    0.352   61.997  214.506
  302.500    9.423    0.482    0.342   62.532  214.195
  302.750    9.186    0.477    0.333   62.645  214.185
  303.000    8.986    0.470    0.328   63.000  214.175
  303.250    8.778    0.453    0.329   63.764  214.162
  303.500    8.711    0.448    0.329   64.008  214.153
  303.750    8.710    0.455    0.328   64.001  214.943
  304.000    8.710    0.463    0.328   63.455  215.134
  304.250    8.678    0.471    0.327   61.887  215.324
  304.500    8.630    0.477    0.324   59.897  215.614
  304.750    8.629    0.484    0.321   59.218  215.519
  305.000    8.629    0.493    0.316   59.463  215.089
  305.250    8.628    0.498    0.318   59.216  215.081
  305.500    8.628    0.501    0.324   58.429  214.771
  305.750    8.659    0.506    0.325   57.822  214.559
  306.000    8.831    0.505    0.321   57.576  214.549
  306.250    9.477    0.477    0.327   57.527  214.537
  306.500   10.075    0.465    0.350   58.522  214.528
  306.750   10.675    0.466    0.352   59.479  214.918
  307.000   11.195    0.461    0.350   61.697  215.008
  307.250   11.737    0.463    0.344   62.411  214.998
  307.500   12.333    0.472    0.333   61.383  215.188
  307.750   12.868    0.473    0.309   60.896  215.976
  308.000   12.770    0.463    0.278   60.888  215.965
  308.250   12.309    0.461    0.251   61.123  215.555
  308.500   12.132    0.479    0.276   59.736  215.446
  308.750   12.175    0.497    0.304   54.321  215.435
  309.000   12.463    0.495    0.316   47.344  215.424
  309.250   13.199    0.459    0.324   46.334  215.495
  309.500   13.608    0.450    0.325   47.330  215.901
  309.750   13.409    0.457    0.325   48.526  216.293
  310.000   12.779    0.471    0.325   49.902  216.383
  310.250   12.007    0.482    0.327   51.218  216.573
  310.500   11.223    0.488    0.327   52.895  216.362
  310.750   10.309    0.490    0.318   56.814  214.264
  311.000    9.703    0.478    0.298   60.814  213.837
  311.250    8.880    0.472    0.275   60.086  215.429
  311.500    8.177    0.465    0.289   61.523  215.819
  311.750    7.545    0.457    0.305   64.281  216.009
  312.000    6.824    0.448    0.302   68.302  216.800
  312.250    5.691    0.449    0.260   75.205  218.958
  312.500    4.935    0.492    0.227   79.705  219.782
  312.750    4.793    0.482    0.219   75.133  220.173
  313.000    4.915    0.466    0.211   70.018  219.061
  313.250    5.279    0.445    0.204   67.728  218.248
  313.500    6.222    0.434    0.207   68.264  218.338
  313.750    9.840    0.454    0.235   67.055  218.728
  314.000   10.624    0.452    0.243   61.038  218.718
  314.250   12.004    0.424    0.272   63.917  215.101
  314.500   13.647    0.433    0.296   68.598  213.289
  314.750   14.781    0.448    0.308   72.798  212.877
  315.000   14.999    0.453    0.310   75.316  213.066
  315.250   15.001    0.447    0.315   76.129  212.321
  315.500   15.584    0.441    0.316   76.625  210.642
  315.750   16.994    0.441    0.313   74.216  209.431
  316.000   16.913    0.433    0.305   74.510  209.120
  316.250   15.751    0.411    0.286   76.427  209.109
  316.500   13.750    0.382    0.249   79.546  209.799
  316.750   10.658    0.364    0.181   85.157  213.177
  317.000    8.844    0.365    0.175   90.409  216.088
  317.250    8.400    0.400    0.204   90.163  217.279
  317.500    8.160    0.428    0.215   90.998  217.569
  317.750    8.160    0.439    0.217   91.473  216.758
  318.000    8.355    0.436    0.215   90.806  215.245
  318.250    8.603    0.432    0.214   88.475  214.114
  318.500    8.603    0.426    0.220   86.464  214.521
  318.750    8.539    0.425    0.232   84.775  216.113
  319.000    8.617    0.437    0.239   82.907  218.006
  319.250    8.775    0.449    0.246   82.059  220.000
  319.500    8.985    0.453    0.255   82.594  221.492
  319.750    9.294    0.451    0.259   83.929  221.311
  320.000    9.508    0.451    0.258   83.423  220.468
  320.250    9.577    0.446    0.257   80.773  220.858
  320.500    9.805    0.449    0.249   80.465  221.850
  320.750    9.841    0.457    0.230   82.262  223.042
  321.000    9.628    0.466    0.211   85.501  224.334
  321.250    9.419    0.465    0.211   89.300  225.840
  321.500    9.419    0.463    0.217   90.294  225.411
  321.750    9.213    0.469    0.249   88.607  222.598
  322.000    9.013    0.468    0.256   85.656  220.084
  322.250    8.915    0.461    0.252   83.727  218.271
  322.500    8.898    0.450    0.247   83.721  217.160
  322.750    8.820    0.440    0.240   85.456  216.597
  323.000    8.752    0.432    0.236   86.952  217.838
  323.250    8.625    0.435    0.235   88.629  220.631
  323.500    8.499    0.439    0.236   89.945  222.223
  323.750    8.375    0.443    0.240   90.900  223.015
  324.000    8.269    0.445    0.239   91.374  223.506
  324.250    8.208    0.443    0.222   91.076  224.378
  324.500    8.208    0.456    0.227   90.819  224.786
  324.750    8.207    0.457    0.227   90.573  225.576
  325.000    8.342    0.448    0.235   83.883  222.913
  325.250    8.522    0.444    0.248   77.688  219.229
  325.500    8.609    0.448    0.262   74.668  216.461
  325.750    8.360    0.445    0.273   72.997  215.725
  326.000    8.051    0.458    0.266   71.760  214.073
  326.250    7.936    0.459    0.266   72.462  213.276
  326.500    7.908    0.460    0.262   74.760  212.772
  326.750    8.052    0.461    0.259   77.236  212.762
  327.000    8.353    0.460    0.257   78.765  213.049
  327.250    8.731    0.454    0.256   78.226  213.281
  327.500    9.071    0.446    0.260   76.742  214.501
  327.750    9.072    0.444    0.245   77.682  215.673
  328.000    8.777    0.447    0.239   77.203  215.368
  328.250    8.276    0.449    0.238   77.551  214.767
  328.500    7.743    0.449    0.233   78.844  214.559
  328.750    7.339    0.455    0.214   79.615  215.184
  329.000    7.230    0.459    0.237   82.317  216.405
  329.250    7.179    0.459    0.252   83.964  216.397
  329.500    7.324    0.460    0.263   84.372  216.385
  329.750    7.860    0.459    0.259   83.420  216.176
  330.000    8.992    0.448    0.229   81.523  216.068
  330.250   11.269    0.407    0.153   78.494  217.091
  330.500   12.843    0.347    0.112   72.824  218.311
  330.750   13.416    0.375    0.143   74.945  218.694
