~VERSION INFORMATION
 VERS.                 2.0:   CWLS LOG ASCII STANDARD -VERSION 2.0
 WRAP.                  NO:   ONE LINE PER DEPTH STEP
~WELL INFORMATION BLOCK
#MNEM.UNIT           DATA                    DESCRIPTION OF MNEMONIC
#---------    -------------------            -------------------------------
# Generated from Intellog Unique Number	CS_69_70/WELL/786
WELL.         SCEPTRE RESOURCES              : Well_name    - WELL
LOC .         00/06-34-069-14W4/0            : Location     - LOCATION
UWI .         00/06-34-069-14W4/0            : Uwi          - UNIQUE WELL ID
ENTR.         SP                             : Entered      - ENTERED BY
SRVC.         SCHLUMBERGER                   : Scn          - SERVICE COMPANY
STRT.M        280                            : top_depth    - START DEPTH
STOP.M        497                            : bot_depth    - STOP DEPTH
STEP.M        0.25                           : increment    - STEP LENGTH
 NULL. -999.2500:NULL Value
~CURVE INFORMATION BLOCK
#MNEM UNIT       ERCB CURVE CODE    CURVE DESCRIPTION
#-----------   ------------------   ----------------------------------
DEPT.M        00 001 00 00         : DEPTH        - DEPTH
ILD .OHMM     00 120 00 00         : RESD         - DEEP RESISTIVITY (DIL)
DPHI.V/V      00 890 00 00         : PHID         - DENSITY POROSITY (LIMESTONE)
NPHI.V/V      00 330 00 00         : PHIN         - NEUTRON POROSITY (LIMESTONE)
GR  .API      00 310 00 00         : GR           - GAMMA RAY
~PARAMETER INFORMATION
#MNEM.UNIT           DATA             DESCRIPTION OF MNEMONIC
#---------         -----------     ------------------------------
GL  .M        579.8                : gl           - GROUND LEVEL ELEVATION
EREF.M        583.24               : kb           - ELEVATION OF DEPTH REFERENCE
DATM.M        579.8                : datum        - DATUM ELEVATION
TDD .M        505                  : tdd          - TOTAL DEPTH DRILLER
RUN .         ONE                  : Run          - RUN NUMBER
ENG .         BILL                 : Engineer     - RECORDING ENGINEER
WIT .         JIM                  : Witness      - WITNESSED BY
MUD .         GEL                  : Mud_type     - MUD TYPE
MATR.         LIMESTONE            : Logunit      - NEUTRON MATRIX
TMAX.C        23                   : BHT          - MAXIMUM RECORDED TEMPERATURE
BHTD.M        505                  : BHTDEP       - MAXIMUM RECORDED TEMPERATURE
MATR.         1                    : LOGUNIT      - NEUTRON MATRIX
RMT .C        25                   : MDTP         - TEMPERATURE OF MUD
NEUT.         1                    : NEUTRON      - NEUTRON TYPE
RESI.         0                    : RESIST       - RESISTIVITY TYPE
RMC .OHMM     0.25                 : RMC          - RESISTIVITY OF MUD CAKE
RMF .OHMM     0.25                 : RMF          - RESISTIVITY OF MUD FILTRATE
SUFT.C        15                   : SUFT         - SURFACE TEMPERATURE
~A  DEPTH     RESD     PHID     PHIN       GR
  280.000    2.038    0.475    0.509   95.271
  280.250    2.040    0.496    0.554   95.277
  280.500    2.064    0.483    0.514   91.491
  280.750    2.093    0.422    0.474   87.582
  281.000    2.114    0.429    0.469   90.645
  281.250    2.140    0.461    0.482   96.092
  281.500    2.170    0.485    0.445   93.714
  281.750    2.204    0.470    0.456   96.960
  282.000    2.231    0.475    0.453  100.817
  282.250    2.279    0.465    0.439   97.459
  282.500    2.324    0.460    0.460   92.634
  282.750    2.357    0.475    0.446   89.337
  283.000    2.408    0.509    0.405   89.159
  283.250    2.474    0.527    0.408   95.156
  283.500    2.518    0.464    0.431   94.673
  283.750    2.592    0.398    0.443  100.793
  284.000    2.648    0.319    0.436  101.532
  284.250    2.710    0.320    0.441   98.235
  284.500    2.800    0.325    0.444  102.766
  284.750    2.866    0.175    0.437  105.340
  285.000    2.945    0.154    0.443  100.207
  285.250    2.997    0.215    0.447   93.242
  285.500    3.027    0.263    0.425   89.945
  285.750    3.013    0.290    0.411   92.152
  286.000    2.981    0.303    0.403  103.348
  286.250    2.933    0.307    0.429  102.435
  286.500    2.843    0.312    0.476  105.865
  286.750    2.756    0.324    0.509   99.816
  287.000    2.676    0.288    0.468   93.829
  287.250    2.608    0.283    0.456   96.831
  287.500    2.542    0.291    0.475  101.483
  287.750    2.493    0.307    0.455  106.258
  288.000    2.480    0.329    0.462  105.163
  288.250    2.491    0.334    0.469  106.453
  288.500    2.493    0.325    0.482  106.519
  288.750    2.500    0.343    0.453  103.650
  289.000    2.488    0.415    0.436   99.558
  289.250    2.499    0.429    0.452   94.305
  289.500    2.472    0.423    0.452   95.472
  289.750    2.438    0.430    0.436  101.837
  290.000    2.421    0.432    0.450   91.874
  290.250    2.365    0.395    0.467   82.768
  290.500    2.340    0.426    0.445   79.533
  290.750    2.315    0.460    0.437   86.693
  291.000    2.282    0.476    0.444   91.834
  291.250    2.250    0.470    0.441   93.858
  291.500    2.222    0.508    0.437   88.421
  291.750    2.228    0.533    0.417   75.156
  292.000    2.250    0.333    0.382   60.792
  292.250    2.269    0.344    0.339   55.416
  292.500    2.225    0.353    0.331   51.996
  292.750    2.172    0.366    0.340   52.063
  293.000    2.125    0.344    0.350   59.712
  293.250    2.151    0.336    0.366   68.157
  293.500    2.256    0.331    0.383   72.870
  293.750    2.503    0.316    0.327   79.112
  294.000    2.641    0.160    0.310   73.675
  294.250    2.806    0.073    0.310   58.026
  294.500    2.977    0.217    0.309   66.898
  294.750    3.134    0.275    0.323   76.014
  295.000    3.232    0.262    0.348   84.276
  295.250    3.308    0.253    0.359   88.256
  295.500    3.379    0.270    0.384   93.581
  295.750    3.511    0.293    0.384   99.579
  296.000    3.534    0.262    0.401  104.048
  296.250    3.299    0.260    0.389  102.158
  296.500    2.852    0.273    0.404  106.076
  296.750    2.530    0.283    0.393   97.520
  297.000    2.167    0.292    0.373   80.832
  297.250    1.933    0.315    0.345   72.093
  297.500    1.808    0.342    0.359   66.778
  297.750    1.733    0.361    0.357   60.669
  298.000    1.680    0.364    0.338   53.458
  298.250    1.659    0.355    0.323   48.571
  298.500    1.714    0.353    0.343   46.437
  298.750    1.832    0.342    0.363   53.230
  299.000    1.965    0.331    0.337   67.054
  299.250    2.189    0.319    0.332   83.814
  299.500    2.340    0.314    0.344   91.035
  299.750    2.572    0.315    0.381   97.156
  300.000    2.860    0.309    0.380   95.999
  300.250    3.039    0.305    0.365  103.404
  300.500    3.235    0.298    0.376   98.457
  300.750    3.349    0.282    0.378   95.709
  301.000    3.441    0.268    0.368   97.365
  301.250    3.502    0.258    0.360   92.663
  301.500    3.551    0.255    0.351   88.020
  301.750    3.568    0.268    0.356   82.950
  302.000    3.544    0.273    0.357   77.269
  302.250    3.533    0.286    0.358   79.537
  302.500    3.542    0.315    0.363   87.491
  302.750    3.544    0.315    0.370   95.079
  303.000    3.594    0.304    0.393   99.181
  303.250    3.651    0.285    0.414   98.025
  303.500    3.660    0.277    0.425   91.671
  303.750    3.609    0.298    0.400   86.111
  304.000    3.492    0.319    0.390   78.228
  304.250    3.302    0.333    0.395   70.467
  304.500    3.003    0.335    0.417   64.419
  304.750    2.586    0.349    0.411   59.593
  305.000    2.303    0.361    0.390   55.073
  305.250    2.094    0.368    0.378   52.816
  305.500    1.908    0.375    0.390   48.602
  305.750    1.791    0.381    0.382   44.633
  306.000    1.710    0.384    0.377   40.908
  306.250    1.667    0.385    0.384   37.978
  306.500    1.643    0.387    0.375   41.470
  306.750    1.632    0.396    0.362   41.596
  307.000    1.618    0.399    0.366   39.889
  307.250    1.616    0.399    0.375   41.179
  307.500    1.630    0.401    0.344   40.511
  307.750    1.640    0.405    0.324   38.315
  308.000    1.666    0.400    0.353   39.666
  308.250    1.699    0.396    0.390   42.729
  308.500    1.726    0.389    0.356   45.363
  308.750    1.780    0.383    0.367   44.696
  309.000    1.849    0.379    0.380   45.191
  309.250    1.973    0.366    0.382   48.437
  309.500    2.185    0.350    0.403   56.025
  309.750    2.438    0.333    0.367   62.389
  310.000    2.640    0.314    0.367   69.977
  310.250    2.897    0.302    0.389   78.482
  310.500    3.062    0.289    0.371   92.613
  310.750    3.242    0.277    0.359   84.424
  311.000    3.349    0.283    0.369   92.380
  311.250    3.390    0.296    0.384   98.010
  311.500    3.329    0.296    0.393   98.504
  311.750    3.370    0.293    0.374   95.207
  312.000    3.474    0.282    0.401   97.842
  312.250    3.672    0.274    0.422   97.542
  312.500    3.744    0.291    0.399   95.896
  312.750    3.796    0.303    0.382   94.801
  313.000    3.799    0.286    0.386  100.738
  313.250    3.780    0.287    0.392  103.433
  313.500    3.658    0.305    0.412   98.976
  313.750    3.546    0.315    0.418   95.557
  314.000    3.424    0.341    0.422   97.151
  314.250    3.331    0.367    0.455  100.581
  314.500    3.284    0.387    0.528   97.468
  314.750    3.238    0.399    0.504  104.689
  315.000    3.245    0.428    0.434  112.949
  315.250    3.303    0.517    0.398  120.658
  315.500    3.419    0.401    0.367  115.895
  315.750    3.559    0.360    0.358  121.953
  316.000    3.699    0.317    0.366  123.426
  316.250    3.786    0.285    0.376  117.561
  316.500    3.817    0.272    0.369  108.822
  316.750    3.590    0.291    0.379  104.608
  317.000    3.358    0.283    0.366  100.578
  317.250    3.200    0.281    0.374   97.036
  317.500    3.107    0.294    0.392   94.168
  317.750    3.007    0.308    0.380   94.845
  318.000    2.958    0.307    0.380   87.880
  318.250    2.933    0.299    0.370   81.342
  318.500    2.951    0.294    0.370   77.372
  318.750    2.982    0.311    0.381   81.352
  319.000    3.023    0.341    0.395   88.879
  319.250    3.095    0.334    0.409   99.524
  319.500    3.161    0.288    0.394  106.563
  319.750    3.236    0.286    0.378  109.196
  320.000    3.281    0.324    0.382  100.825
  320.250    3.271    0.343    0.400   88.600
  320.500    3.255    0.350    0.406   90.807
  320.750    3.233    0.344    0.410   96.743
  321.000    3.260    0.330    0.419   96.014
  321.250    3.324    0.305    0.409  100.178
  321.500    3.396    0.288    0.427  105.381
  321.750    3.496    0.267    0.380  108.444
  322.000    3.660    0.260    0.359  103.679
  322.250    3.803    0.276    0.354  107.720
  322.500    3.937    0.279    0.371  105.341
  322.750    3.991    0.254    0.385  103.145
  323.000    4.032    0.235    0.371  106.819
  323.250    3.989    0.240    0.370  113.062
