~VERSION INFORMATION
 VERS.                 2.0:   CWLS LOG ASCII STANDARD -VERSION 2.0
 WRAP.                  NO:   ONE LINE PER DEPTH STEP
~WELL INFORMATION BLOCK
#MNEM.UNIT           DATA                    DESCRIPTION OF MNEMONIC
#---------    -------------------            -------------------------------
# Generated from Intellog Unique Number	CS_67_68/WELL/770
WELL.         FISHER CREEK                   : Well_name    - WELL
LOC .         00/07-12-068-05W4/0            : Location     - LOCATION
UWI .         00/07-12-068-05W4/0            : Uwi          - UNIQUE WELL ID
ENTR.         SP                             : Entered      - ENTERED BY
SRVC.         SCHLUMBERGER                   : Scn          - SERVICE COMPANY
STRT.M        330                            : top_depth    - START DEPTH
STOP.M        560                            : bot_depth    - STOP DEPTH
STEP.M        0.25                           : increment    - STEP LENGTH
 NULL. -999.2500:NULL Value
~CURVE INFORMATION BLOCK
#MNEM UNIT       ERCB CURVE CODE    CURVE DESCRIPTION
#-----------   ------------------   ----------------------------------
DEPT.M        00 001 00 00         : DEPTH        - DEPTH
ILD .OHMM     00 120 00 00         : RESD         - DEEP RESISTIVITY (DIL)
DPHI.V/V      00 890 00 00         : PHID         - DENSITY POROSITY (LIMESTONE)
NPHI.V/V      00 330 00 00         : PHIN         - NEUTRON POROSITY (LIMESTONE)
GR  .API      00 310 00 00         : GR           - GAMMA RAY
~PARAMETER INFORMATION
#MNEM.UNIT           DATA             DESCRIPTION OF MNEMONIC
#---------         -----------     ------------------------------
GL  .M        683.1                : gl           - GROUND LEVEL ELEVATION
EREF.M        686.8                : kb           - ELEVATION OF DEPTH REFERENCE
DATM.M        683.1                : datum        - DATUM ELEVATION
TDD .M        565                  : tdd          - TOTAL DEPTH DRILLER
RUN .         ONE                  : Run          - RUN NUMBER
ENG .         BILL                 : Engineer     - RECORDING ENGINEER
WIT .         JIM                  : Witness      - WITNESSED BY
MUD .         GEL                  : Mud_type     - MUD TYPE
MATR.         LIMESTONE            : Logunit      - NEUTRON MATRIX
TMAX.C        26.6                 : BHT          - MAXIMUM RECORDED TEMPERATURE
BHTD.M        565                  : BHTDEP       - MAXIMUM RECORDED TEMPERATURE
MATR.         1                    : LOGUNIT      - NEUTRON MATRIX
RMT .C        25                   : MDTP         - TEMPERATURE OF MUD
NEUT.         1                    : NEUTRON      - NEUTRON TYPE
RESI.         0                    : RESIST       - RESISTIVITY TYPE
RMC .OHMM     0.25                 : RMC          - RESISTIVITY OF MUD CAKE
RMF .OHMM     0.25                 : RMF          - RESISTIVITY OF MUD FILTRATE
SUFT.C        15                   : SUFT         - SURFACE TEMPERATURE
~A  DEPTH     RESD     PHID     PHIN       GR
# ...
  460.500   21.179    0.333    0.481   60.568
  460.750   24.446    0.270    0.495   57.197
  461.000   29.233    0.063    0.177   52.785
  461.250   37.871    0.018    0.157   50.763
  461.500   44.452    0.005    0.144   44.508
  461.750   48.702    0.075    0.367   40.217
  462.000   52.082    0.222    0.426   46.545
  462.250   49.533    0.286    0.439   50.047
  462.500   34.907    0.323    0.448   53.550
  462.750   25.964    0.334    0.453   56.993
  463.000   19.786    0.334    0.461   60.313
  463.250   18.539    0.338    0.461   62.343
  463.500   18.645    0.336    0.447   64.864
  463.750   18.961    0.340    0.440   61.924
  464.000   19.284    0.342    0.434   62.727
  464.250   19.285    0.338    0.432   65.187
  464.500   18.966    0.336    0.436   61.694
  464.750   18.618    0.334    0.445   58.139
  465.000   18.073    0.343    0.459   59.003
  465.250   17.446    0.344    0.467   62.200
  465.500   16.685    0.336    0.464   65.580
  465.750   15.780    0.326    0.452   69.084
  466.000   14.621    0.320    0.446   68.782
  466.250   13.649    0.313    0.455   65.780
  466.500   13.225    0.314    0.450   65.172
  466.750   13.177    0.326    0.441   66.712
  467.000   13.401    0.322    0.435   67.944
  467.250   14.146    0.322    0.434   67.213
  467.500   15.614    0.325    0.435   64.517
  467.750   16.854    0.333    0.430   62.129
  468.000   17.626    0.336    0.440   61.029
  468.250   18.296    0.337    0.454   61.034
  468.500   18.746    0.335    0.462   62.267
  468.750   18.163    0.333    0.467   64.789
  469.000   17.082    0.331    0.467   63.996
  469.250   16.398    0.327    0.449   63.326
  469.500   15.889    0.323    0.435   67.013
  469.750   14.343    0.318    0.434   73.279
  470.000   10.849    0.308    0.464   78.746
  470.250    7.789    0.284    0.487   83.232
  470.500    6.207    0.267    0.493   83.545
  470.750    5.039    0.257    0.480   82.567
  471.000    4.532    0.252    0.474   82.020
  471.250    4.474    0.252    0.468   82.762
  471.500    4.584    0.242    0.464   84.179
  471.750    4.696    0.232    0.465   86.086
  472.000    4.893    0.252    0.489   87.687
  472.250    5.042    0.268    0.498   89.288
  472.500    5.253    0.282    0.487   86.285
  472.750    5.712    0.311    0.480   78.312
  473.000    6.643    0.310    0.477   71.075
  473.250    8.260    0.316    0.477   64.697
  473.500   10.761    0.325    0.475   60.528
  473.750   15.103    0.330    0.472   58.079
  474.000   20.729    0.332    0.465   55.015
  474.250   24.015    0.330    0.457   54.591
  474.500   26.068    0.329    0.465   59.998
  474.750   19.754    0.326    0.479   63.500
  475.000   15.537    0.320    0.493   67.311
  475.250   13.948    0.307    0.477   66.826
  475.500   13.045    0.241    0.449   66.033
  475.750   12.805    0.244    0.438   66.037
  476.000   13.317    0.274    0.456   67.884
  476.250   14.005    0.297    0.461   70.528
  476.500   14.811    0.316    0.450   72.743
  476.750   15.345    0.325    0.443   71.152
  477.000   14.841    0.320    0.435   69.132
  477.250   13.053    0.305    0.430   70.242
  477.500   11.827    0.296    0.442   75.281
  477.750   10.116    0.294    0.467   78.783
  478.000    8.258    0.284    0.491   82.103
  478.250    5.863    0.268    0.499   84.441
  478.500    3.527    0.256    0.482   85.611
  478.750    3.034    0.266    0.487   86.537
  479.000    2.744    0.295    0.515   85.192
  479.250    2.481    0.321    0.536   78.630
  479.500    2.274    0.317    0.543   75.260
  479.750    2.103    0.302    0.551   73.792
  480.000    1.992    0.290    0.535   74.044
  480.250    1.923    0.298    0.526   73.373
  480.500    1.892    0.304    0.527   72.211
  480.750    1.888    0.308    0.546   70.866
  481.000    1.895    0.307    0.560   73.389
  481.250    1.906    0.314    0.569   75.480
  481.500    1.917    0.308    0.572   76.037
  481.750    1.928    0.303    0.567   75.613
  482.000    1.939    0.307    0.551   76.846
  482.250    1.957    0.311    0.529   78.324
  482.500    1.983    0.302    0.516   79.434
  482.750    2.021    0.288    0.518   79.254
  483.000    2.062    0.291    0.515   79.751
  483.250    2.137    0.285    0.517   82.825
  483.500    2.235    0.273    0.530   85.837
  483.750    2.372    0.264    0.541   88.359
  484.000    2.462    0.256    0.531   90.082
  484.250    2.514    0.248    0.525   87.264
  484.500    2.533    0.255    0.554   85.183
  484.750    2.537    0.270    0.571   84.207
  485.000    2.547    0.280    0.574   83.843
  485.250    2.557    0.279    0.558   85.383
  485.500    2.571    0.273    0.547   84.283
  485.750    2.605    0.269    0.535   81.158
  486.000    2.674    0.279    0.527   84.662
  486.250    2.855    0.287    0.514   86.999
  486.500    3.116    0.277    0.501   89.275
  486.750    3.370    0.264    0.489   88.605
  487.000    3.644    0.257    0.476   82.902
  487.250    3.963    0.260    0.451   77.691
  487.500    4.137    0.197    0.422   73.583
  487.750    4.342    0.181    0.397   75.552
  488.000    4.575    0.211    0.414   83.598
  488.250    4.740    0.237    0.430   92.380
  488.500    4.821    0.178    0.452  100.302
  488.750    4.839    0.073    0.394  103.990
  489.000    4.967    0.069    0.385   97.121
  489.250    5.042    0.116    0.400  101.300
  489.500    4.435    0.180    0.441  104.927
  489.750    3.915    0.224    0.472  107.509
  490.000    3.450    0.263    0.495  109.049
  490.250    3.057    0.276    0.514  108.624
  490.500    2.678    0.268    0.538  105.131
  490.750    2.496    0.255    0.554  102.681
  491.000    2.427    0.244    0.542  102.932
  491.250    2.501    0.242    0.549  104.532
  491.500    2.730    0.247    0.562  106.256
  491.750    3.289    0.245    0.537   97.300
  492.000    4.112    0.240    0.475   81.102
  492.250    4.982    0.235    0.422   69.937
  492.500    6.218    0.222    0.433   65.216
  492.750    7.661    0.023    0.412   61.048
  493.000    8.535   -0.004    0.280   53.934
  493.250    8.520   -0.007    0.280   52.650
  493.500    8.148    0.057    0.338   60.941
  493.750    7.939    0.176    0.398   65.733
  494.000    8.303    0.232    0.430   57.760
  494.250    9.548    0.283    0.442   52.732
  494.500   10.738    0.304    0.425   55.315
  494.750   12.075    0.315    0.418   59.801
  495.000   13.706    0.315    0.412   61.831
  495.250   15.355    0.310    0.406   62.327
  495.500   16.606    0.312    0.414   64.051
  495.750   17.110    0.321    0.415   68.045
  496.000   16.702    0.331    0.423   75.600
  496.250   15.021    0.342    0.405   81.374
  496.500   12.658    0.326    0.399   84.509
  496.750   10.786    0.314    0.421   85.680
  497.000   10.050    0.306    0.427   81.328
  497.250    9.505    0.304    0.422   73.477
  497.500    9.090    0.306    0.416   69.493
  497.750    8.775    0.314    0.400   69.314
  498.000    8.361    0.319    0.394   73.923
  498.250    8.011    0.316    0.403   79.452
  498.500    7.272    0.301    0.417   83.385
  498.750    6.232    0.294    0.424   87.564
  499.000    5.763    0.289    0.416   90.391
  499.250    5.271    0.278    0.416   87.574
  499.500    5.786    0.267    0.404   73.094
  499.750    5.575    0.258    0.381   74.143
  500.000    5.392    0.251    0.381   79.426
  500.250    5.273    0.255    0.394   84.096
  500.500    5.215    0.258    0.388   87.354
  500.750    5.167    0.248    0.380   89.323
  501.000    5.225    0.243    0.381   90.679
  501.250    5.384    0.245    0.393   91.174
  501.500    5.568    0.251    0.402   83.201
  501.750    5.683    0.267    0.387   79.646
  502.000    5.780    0.273    0.349   80.388
  502.250    5.824    0.235    0.346   75.545
  502.500    5.835    0.254    0.365   66.160
  502.750    5.825    0.272    0.387   64.139
  503.000    5.803    0.283    0.400   67.336
  503.250    5.740    0.289    0.414   70.349
  503.500    5.676    0.273    0.427   71.458
  503.750    5.624    0.264    0.445   65.755
