~VERSION INFORMATION
 VERS.                 2.0:   CWLS LOG ASCII STANDARD -VERSION 2.0
 WRAP.                  NO:   ONE LINE PER DEPTH STEP
~WELL INFORMATION BLOCK
#MNEM.UNIT           DATA                    DESCRIPTION OF MNEMONIC
#---------    -------------------            -------------------------------
# Generated from Intellog Unique Number	CW_73_75/WELL/2723
WELL.         TRICENT ET AL MITSUE 02-26     : Well_name    - WELL
LOC .         00/02-26-073-05W5/0            : Location     - LOCATION
UWI .         00/02-26-073-05W5/0            : Uwi          - UNIQUE WELL ID
ENTR.         JAYE                           : Entered      - ENTERED BY
SRVC.         SCHLUMBERGER                   : Scn          - SERVICE COMPANY
DATE.         23 MAR 82                      : Date         - LOG DATE
STRT.M        350                            : top_depth    - START DEPTH
STOP.M        590                            : bot_depth    - STOP DEPTH
STEP.M        0.25                           : increment    - STEP LENGTH
 NULL. -999.2500:NULL Value
~CURVE INFORMATION BLOCK
#MNEM UNIT       ERCB CURVE CODE    CURVE DESCRIPTION
#-----------   ------------------   ----------------------------------
DEPT.M        00 001 00 00         : DEPTH        - DEPTH
DPHI.V/V      00 890 00 00         : PHID         - DENSITY POROSITY (SANDSTONE)
NPHI.V/V      00 330 00 00         : PHIN         - NEUTRON POROSITY (SANDSTONE)
GR  .API      00 310 00 00         : GR           - GAMMA RAY
CALI.MM       00 280 01 00         : CAL          - CALIPER
ILD .OHMM     00 120 00 00         : RESD         - DEEP RESISTIVITY (DIL)
~PARAMETER INFORMATION
#MNEM.UNIT           DATA             DESCRIPTION OF MNEMONIC
#---------         -----------     ------------------------------
GL  .M        576                  : gl           - GROUND LEVEL ELEVATION
EREF.M        583                  : kb           - ELEVATION OF DEPTH REFERENCE
DATM.M        576                  : datum        - DATUM ELEVATION
TDD .M        1695                 : tdd          - TOTAL DEPTH DRILLER
RUN .         ONE                  : Run          - RUN NUMBER
ENG .         HEATH                : Engineer     - RECORDING ENGINEER
WIT .         MACKASEY             : Witness      - WITNESSED BY
BASE.         EDM                  : Branch       - HOME BASE OF LOGGING UNIT
MUD .         GEL CHEM             : Mud_type     - MUD TYPE
MATR.         SANDSTONE            : Logunit      - NEUTRON MATRIX
TMAX.C        46.1                 : BHT          - MAXIMUM RECORDED TEMPERATURE
BHTD.M        1695.8               : BHTDEP       - MAXIMUM RECORDED TEMPERATURE
RMT .C        17.7                 : MDTP         - TEMPERATURE OF MUD
MUDD.KG/M     1090                 : MWT          - MUD DENSITY
NEUT.         1                    : NEUTRON      - NEUTRON TYPE
RESI.         0                    : RESIST       - RESISTIVITY TYPE
RM  .OHMM     1.08                 : RM           - RESISTIVITY OF MUD
RMC .OHMM     0                    : RMC          - RESISTIVITY OF MUD CAKE
RMF .OHMM     0.79                 : RMF          - RESISTIVITY OF MUD FILTRATE
SUFT.C        0                    : SUFT         - SURFACE TEMPERATURE
~A  DEPTH     PHID     PHIN       GR      CAL     RESD
# ...
  423.000    0.343    0.415   69.741  229.689    5.172
  423.250    0.351    0.432   62.438  228.961    5.276
  423.500    0.360    0.444   60.888  228.542    5.349
  423.750    0.363    0.454   61.255  228.021    5.373
  424.000    0.369    0.443   60.014  227.394    5.418
  424.250    0.372    0.415   58.032  227.080    5.546
  424.500    0.367    0.412   54.812  227.074    5.731
  424.750    0.364    0.420   54.065  227.068    5.867
  425.000    0.361    0.433   57.278  227.061    5.971
  425.250    0.357    0.434   61.480  227.055    5.998
  425.500    0.360    0.424   64.013  226.636    5.814
  425.750    0.367    0.438   62.957  226.322    5.657
  426.000    0.363    0.452   58.500  226.211    5.545
  426.250    0.356    0.444   55.466  226.308    5.507
  426.500    0.348    0.421   56.761  226.199    5.481
  426.750    0.345    0.416   59.417  226.090    5.433
  427.000    0.354    0.410   63.187  225.981    5.357
  427.250    0.358    0.404   63.616  226.181    5.281
  427.500    0.359    0.436   60.087  226.483    5.206
  427.750    0.356    0.458   55.877  226.788    5.065
  428.000    0.351    0.438   55.626  227.709    4.928
  428.250    0.363    0.436   58.714  229.352    4.839
  428.500    0.369    0.433   61.680  230.687    4.798
  428.750    0.365    0.424   58.584  230.370    4.847
  429.000    0.370    0.420   56.662  228.818    4.952
  429.250    0.377    0.417   60.307  226.544    5.069
  429.500    0.374    0.419   65.809  223.444    5.228
  429.750    0.371    0.450   66.919  222.202    5.291
  430.000    0.365    0.453   62.895  221.577    5.376
  430.250    0.357    0.435   57.819  221.467    5.391
  430.500    0.350    0.413   53.609  221.565    5.394
  430.750    0.344    0.410   55.090  221.764    5.398
  431.000    0.338    0.446   61.148  222.170    5.393
  431.250    0.346    0.449   65.351  222.681    5.346
  431.500    0.365    0.428   63.120  223.293    5.270
  431.750    0.359    0.421   61.137  223.698    5.294
  432.000    0.357    0.436   65.463  224.208    5.491
  432.250    0.352    0.429   67.067  225.026    5.717
  432.500    0.354    0.408   61.126  225.948    6.009
  432.750    0.435    0.572   51.163  229.963    6.013
  433.000    0.573    0.680   54.685  234.596    5.861
  433.250    0.531    0.485   69.218  242.528    5.596
  433.500    0.449    0.468   84.678  252.212    5.445
  433.750    0.289    0.461   85.601  245.195    5.479
  434.000    0.291    0.453   82.505  235.602    5.567
  434.250    0.319    0.438   79.780  228.895    5.550
  434.500    0.337    0.419   78.415  228.682    5.482
  434.750    0.343    0.433   80.144  228.985    5.435
  435.000    0.342    0.451   83.480  230.732    5.408
  435.250    0.341    0.452   86.631  233.097    5.352
  435.500    0.339    0.439   85.081  234.431    5.316
  435.750    0.334    0.446   81.861  235.250    5.280
  436.000    0.336    0.448   79.630  235.965    5.304
  436.250    0.337    0.434   77.400  236.267    5.378
  436.500    0.339    0.433   74.242  236.055    5.434
  436.750    0.344    0.451   76.588  236.152    5.489
  437.000    0.352    0.463   82.028  235.939    5.504
  437.250    0.349    0.453   88.890  235.211    5.477
  437.500    0.330    0.443   82.948  233.969    5.461
  437.750    0.316    0.428   76.944  232.519    5.444
  438.000    0.330    0.413   70.508  230.761    5.438
  438.250    0.341    0.414   72.050  228.795    5.432
  438.500    0.345    0.426   72.727  227.345    5.488
  438.750    0.344    0.427   72.290  226.617    5.757
  439.000    0.348    0.428   73.215  226.819    6.572
  439.250    0.350    0.447   74.386  228.152    7.807
  439.500    0.328    0.423   72.589  230.002    8.681
  439.750    0.170    0.250   68.874  231.748   10.007
  440.000    0.136    0.232   64.787  232.155   11.169
  440.250    0.111    0.204   61.753  231.736   12.584
  440.500    0.092    0.256   59.028  231.420   14.642
  440.750    0.119    0.282   63.168  231.826   16.592
  441.000    0.148    0.255   67.185  233.161   16.825
  441.250    0.129    0.227   70.027  236.145   15.183
  441.500    0.097    0.222   66.559  237.581   13.648
  441.750    0.097    0.237   62.040  236.441   11.726
  442.000    0.117    0.330   65.191  234.682    9.487
  442.250    0.301    0.412   69.641  233.130    8.136
  442.500    0.322    0.468   72.482  231.474    6.847
  442.750    0.347    0.466   71.922  230.332    6.006
  443.000    0.356    0.473   68.454  230.327    5.607
  443.250    0.353    0.464   70.925  230.217    5.465
  443.500    0.345    0.473   74.200  230.314    5.367
  443.750    0.354    0.496   78.835  230.412    5.261
  444.000    0.359    0.470   81.986  230.612    5.109
  444.250    0.349    0.449   81.240  230.606    5.028
  444.500    0.335    0.444   77.339  231.116    4.928
  444.750    0.325    0.440   76.408  232.139    4.831
  445.000    0.315    0.437   78.136  234.196    4.745
  445.250    0.310    0.419   82.153  237.694    4.704
  445.500    0.295    0.411   88.830  240.884    4.716
  445.750    0.270    0.431   90.620  239.022    4.782
  446.000    0.257    0.429   91.853  234.687    4.849
  446.250    0.263    0.417   93.829  238.288    4.927
  446.500    0.251    0.408   93.207  241.066    5.043
  446.750    0.254    0.405   91.718  243.740    5.173
  447.000    0.238    0.407   92.395  244.868    5.265
  447.250    0.225    0.399   93.628  245.687    5.319
  447.500    0.221    0.391   94.924  246.402    5.373
  447.750    0.220    0.392   97.456  247.014    5.470
  448.000    0.216    0.401   96.957  247.110    5.567
  448.250    0.209    0.413   94.974  247.105    5.634
  448.500    0.203    0.392   95.775  247.098    5.661
  448.750    0.208    0.399   96.018  247.299    5.633
  449.000    0.222    0.427   94.963  247.602    5.584
  449.250    0.223    0.422   91.186  247.802    5.548
  449.500    0.221    0.414   90.997  248.002    5.530
  449.750    0.232    0.412   94.272  248.099    5.555
  450.000    0.248    0.404   95.319  247.165    5.676
  450.250    0.270    0.421   89.996  240.354    5.832
  450.500    0.289    0.442   84.487  233.544    5.880
  450.750    0.301    0.434   79.597  233.641    5.852
  451.000    0.296    0.423   79.593  235.181    5.704
  451.250    0.260    0.417   85.280  238.061    5.477
  451.500    0.231    0.412   91.524  240.735    5.200
  451.750    0.212    0.407   96.035  242.894    4.808
  452.000    0.200    0.429  100.362  244.435    4.776
  452.250    0.212    0.431  101.409  245.459    4.852
  452.500    0.212    0.426   98.437  244.938    4.920
  452.750    0.207    0.434   96.268  244.107    5.008
  453.000    0.204    0.430   93.358  242.554    5.040
  453.250    0.204    0.416   93.106  241.105    5.044
  453.500    0.204    0.401   95.762  239.243    4.871
  453.750    0.207    0.413   96.439  238.103    4.555
  454.000    0.218    0.424   97.487  239.540    4.228
  454.250    0.218    0.421   99.401  240.359    4.098
  454.500    0.212    0.438   98.407  239.528    4.155
  454.750    0.205    0.464   88.816  236.428    4.318
  455.000    0.222    0.451   77.493  230.546    4.564
  455.250    0.284    0.418   70.500  225.180    5.153
  455.500    0.317    0.413   68.207  222.287    5.719
  455.750    0.326    0.406   63.193  222.898    6.194
  456.000    0.322    0.387   60.591  221.964    6.633
  456.250    0.319    0.387   62.320  222.165    6.032
  456.500    0.316    0.391   66.151  223.190    5.737
  456.750    0.313    0.383   71.158  224.008    5.519
  457.000    0.306    0.369   76.659  224.208    5.190
  457.250    0.288    0.376   84.573  224.614    4.900
  457.500    0.269    0.388   83.147  225.021    4.830
  457.750    0.267    0.402   80.174  224.808    4.798
  458.000    0.292    0.428   77.758  225.112    4.865
  458.250    0.308    0.455   75.960  226.136    5.075
  458.500    0.347    0.424   74.409  226.955    5.313
  458.750    0.332    0.420   73.293  228.185    5.470
  459.000    0.322    0.441   73.598  229.623    5.536
  459.250    0.308    0.428   74.832  230.956    5.552
