~VERSION INFORMATION
 VERS.                 2.0:   CWLS LOG ASCII STANDARD -VERSION 2.0
 WRAP.                  NO:   ONE LINE PER DEPTH STEP
~WELL INFORMATION BLOCK
#MNEM.UNIT           DATA                    DESCRIPTION OF MNEMONIC
#---------    -------------------            -------------------------------
# Generated from Intellog Unique Number	CW_79_81/WELL/2450
WELL.         06-08-081-22W4                 : Well_name    - WELL
LOC .         00/06-08-081-22W4/0            : Location     - LOCATION
UWI .         00/06-08-081-22W4/0            : Uwi          - UNIQUE WELL ID
ENTR.         MAX                            : Entered      - ENTERED BY
SRVC.         SCHLUMBERGER                   : Scn          - SERVICE COMPANY
STRT.M        225                            : top_depth    - START DEPTH
STOP.M        444.75                         : bot_depth    - STOP DEPTH
STEP.M        0.25                           : increment    - STEP LENGTH
 NULL. -999.2500:NULL Value
~CURVE INFORMATION BLOCK
#MNEM UNIT       ERCB CURVE CODE    CURVE DESCRIPTION
#-----------   ------------------   ----------------------------------
DEPT.M        00 001 00 00         : DEPTH        - DEPTH
ILD .OHMM     00 120 00 00         : RESD         - DEEP RESISTIVITY (DIL)
NPHI.V/V      00 330 00 00         : PHIN         - NEUTRON POROSITY (SANDSTONE)
DPHI.V/V      00 890 00 00         : PHID         - DENSITY POROSITY (SANDSTONE)
GR  .API      00 310 00 00         : GR           - GAMMA RAY
CALI.MM       00 280 01 00         : CAL          - CALIPER
~PARAMETER INFORMATION
#MNEM.UNIT           DATA             DESCRIPTION OF MNEMONIC
#---------         -----------     ------------------------------
GL  .M        597.6                : gl           - GROUND LEVEL ELEVATION
EREF.M        600.9                : kb           - ELEVATION OF DEPTH REFERENCE
DATM.M        597.6                : datum        - DATUM ELEVATION
TDD .M        450                  : tdd          - TOTAL DEPTH DRILLER
RUN .         ONE                  : Run          - RUN NUMBER
ENG .         BILL                 : Engineer     - RECORDING ENGINEER
WIT .         JIM                  : Witness      - WITNESSED BY
MUD .         GEL                  : Mud_type     - MUD TYPE
MATR.         SANDSTONE            : Logunit      - NEUTRON MATRIX
TMAX.C        24                   : BHT          - MAXIMUM RECORDED TEMPERATURE
BHTD.M        450                  : BHTDEP       - MAXIMUM RECORDED TEMPERATURE
MATR.         1                    : LOGUNIT      - NEUTRON MATRIX
RMT .C        16.1                 : MDTP         - TEMPERATURE OF MUD
NEUT.         1                    : NEUTRON      - NEUTRON TYPE
RESI.         0                    : RESIST       - RESISTIVITY TYPE
RMC .OHMM     3.66                 : RMC          - RESISTIVITY OF MUD CAKE
RMF .OHMM     5.1                  : RMF          - RESISTIVITY OF MUD FILTRATE
SUFT.C        -10                  : SUFT         - SURFACE TEMPERATURE
~A  DEPTH     RESD     PHIN     PHID       GR      CAL
# ...
  261.500   21.853    0.430    0.349   44.407  216.405
  261.750   21.764    0.427    0.352   43.325  216.590
  262.000   21.560    0.429    0.357   42.722  216.876
  262.250   21.809    0.436    0.364   43.439  216.777
  262.500   22.306    0.449    0.367   44.673  216.349
  262.750   22.462    0.452    0.366   46.094  216.336
  263.000   22.372    0.454    0.361   47.339  215.727
  263.250   22.365    0.458    0.357   48.405  215.117
  263.500   22.522    0.463    0.359   49.232  214.707
  263.750   22.747    0.461    0.359   49.650  214.208
  264.000   23.088    0.448    0.360   49.391  213.782
  264.250   23.080    0.443    0.362   48.430  212.972
  264.500   23.073    0.444    0.365   47.825  213.059
  264.750   22.811    0.446    0.363   47.699  213.444
  265.000   22.266    0.445    0.358   48.229  213.829
  265.250   21.484    0.444    0.358   49.998  214.293
  265.500   20.833    0.443    0.350   51.728  214.691
  265.750   20.372    0.442    0.344   52.198  214.283
  266.000   19.702    0.447    0.346   51.236  214.469
  266.250   19.129    0.454    0.348   49.796  214.853
  266.500   18.776    0.462    0.349   48.654  214.839
  266.750   18.631    0.465    0.355   48.407  213.628
  267.000   18.627    0.453    0.355   48.399  213.614
  267.250   18.620    0.452    0.351   48.630  213.603
  267.500   18.614    0.451    0.346   49.397  214.483
  267.750   18.607    0.452    0.346   49.866  215.065
  268.000   18.634    0.456    0.350   49.739  214.953
  268.250   18.765    0.459    0.354   49.300  214.539
  268.500   18.758    0.440    0.360   49.541  214.527
  268.750   18.751    0.429    0.360   52.397  214.514
  269.000   18.540    0.435    0.357   58.292  214.203
  269.250   18.399    0.446    0.356   63.890  213.791
  269.500   18.325    0.455    0.356   67.161  213.578
  269.750   17.939    0.459    0.357   67.042  213.961
  270.000   17.395    0.463    0.356   65.295  213.946
  270.250   17.137    0.465    0.355   62.902  213.931
  270.500   17.163    0.467    0.352   59.077  214.218
  270.750   17.282    0.468    0.345   55.013  214.404
  271.000   17.404    0.470    0.337   52.142  214.391
  271.250   17.498    0.472    0.337   52.334  214.293
  271.500   17.359    0.472    0.343   53.319  213.863
  271.750   17.226    0.471    0.355   52.595  213.451
  272.000   17.188    0.471    0.359   52.050  213.638
  272.250   17.120    0.472    0.361   51.684  214.022
  272.500   16.989    0.475    0.365   51.259  214.406
  272.750   16.858    0.476    0.369   50.096  214.954
  273.000   16.853    0.473    0.367   49.094  215.764
  273.250   16.847    0.469    0.369   48.608  215.753
  273.500   16.749    0.461    0.371   47.945  215.740
  273.750   16.621    0.456    0.367   47.579  215.728
  274.000   16.463    0.457    0.359   47.452  215.616
  274.250   16.143    0.466    0.357   47.065  215.700
  274.500   15.774    0.474    0.362   47.553  218.169
  274.750   15.425    0.476    0.361   46.351  217.362
  275.000   15.084    0.471    0.360   46.583  216.256
  275.250   14.696    0.471    0.358   47.531  216.043
  275.500   14.294    0.478    0.354   48.596  216.525
  275.750   14.063    0.484    0.360   49.401  215.948
  276.000   14.496    0.483    0.375   49.888  215.106
  276.250   14.704    0.476    0.380   50.597  215.092
  276.500   14.834    0.471    0.384   50.053  215.378
  276.750   14.884    0.465    0.385   49.806  215.762
  277.000   14.879    0.459    0.384   50.572  216.045
  277.250   14.850    0.459    0.375   52.430  216.112
  277.500   14.732    0.467    0.370   53.418  216.514
  277.750   14.512    0.471    0.367   54.602  216.899
  278.000   14.376    0.470    0.366   55.250  217.283
  278.250   14.319    0.459    0.365   56.554  217.865
  278.500   14.313    0.445    0.363   58.334  218.447
  278.750   14.307    0.445    0.362   59.191  218.265
  279.000   14.302    0.452    0.358   59.928  217.424
  279.250   14.297    0.457    0.355   60.158  217.014
  279.500   14.293    0.459    0.350   60.209  216.602
  279.750   14.287    0.459    0.344   60.200  216.389
  280.000   14.282    0.457    0.339   60.073  216.277
  280.250   14.277    0.449    0.335   58.892  215.782
  280.500   14.273    0.440    0.323   55.406  215.355
  280.750   14.163    0.433    0.321   49.194  214.546
  281.000   13.900    0.422    0.327   47.815  214.333
  281.250   13.995    0.409    0.329   48.880  214.320
  281.500   15.043    0.394    0.323   49.767  214.407
  281.750   19.335    0.365    0.301   47.114  215.118
  282.000   25.820    0.310    0.240   44.622  216.759
  282.250   28.560    0.235    0.216   44.851  217.543
  282.500   30.791    0.251    0.221   45.619  217.429
  282.750   31.720    0.308    0.240   46.923  216.223
  283.000   31.064    0.370    0.265   48.823  214.422
  283.250   27.510    0.429    0.291   51.685  213.130
  283.500   21.067    0.453    0.296   52.919  212.702
  283.750   17.734    0.464    0.268   53.151  212.292
  284.000   16.219    0.477    0.278   53.560  213.075
  284.250   15.179    0.483    0.309   54.149  214.056
  284.500   14.265    0.474    0.340   54.797  214.838
  284.750   13.510    0.445    0.348   55.314  216.030
  285.000   13.302    0.441    0.345   55.553  218.087
  285.250   13.296    0.455    0.351   55.546  220.061
  285.500   13.292    0.461    0.352   55.717  220.545
  285.750   13.577    0.460    0.354   55.470  219.538
  286.000   14.134    0.453    0.357   54.687  217.436
  286.250   14.506    0.443    0.358   53.325  214.704
  286.500   14.282    0.438    0.357   51.329  213.034
  286.750   12.965    0.433    0.357   51.561  213.420
  287.000   11.981    0.434    0.355   51.970  213.804
  287.250   11.601    0.442    0.352   52.201  214.387
  287.500   11.745    0.451    0.351   52.252  215.068
  287.750   12.090    0.455    0.354   52.531  215.532
  288.000   12.086    0.457    0.358   52.771  215.934
  288.250   11.994    0.467    0.356   53.478  217.114
  288.500   11.903    0.469    0.351   54.364  217.397
  288.750   11.768    0.472    0.344   55.549  217.383
  289.000   11.593    0.479    0.337   56.854  217.471
  289.250   11.420    0.487    0.339   57.698  218.019
  289.500   11.416    0.487    0.349   57.191  218.833
  289.750   11.496    0.476    0.356   56.230  218.819
  290.000   11.450    0.476    0.360   55.448  218.507
  290.250   11.363    0.486    0.360   55.083  218.493
  290.500   11.235    0.500    0.359   55.134  218.776
  290.750   10.919    0.503    0.358   55.264  218.679
  291.000   10.588    0.500    0.354   54.758  218.253
  291.250   10.429    0.488    0.356   54.510  217.444
  291.500   10.331    0.481    0.354   54.443  217.828
  291.750   10.290    0.474    0.345   54.436  218.213
  292.000   10.287    0.468    0.332   54.488  218.299
  292.250   10.282    0.474    0.329   54.765  218.846
  292.500   10.278    0.480    0.330   55.006  219.657
  292.750    9.904    0.477    0.336   55.236  220.441
  293.000    9.705    0.463    0.334   54.931  221.223
  293.250    9.631    0.451    0.333   54.685  222.005
  293.500    9.698    0.444    0.335   54.796  222.787
  293.750   10.058    0.441    0.336   55.264  223.564
  294.000   10.446    0.451    0.332   55.254  223.551
  294.250   10.597    0.454    0.318   55.008  222.743
  294.500   10.867    0.438    0.300   54.046  221.935
  294.750   11.306    0.403    0.274   53.203  221.525
  295.000   11.980    0.366    0.248   52.958  221.611
  295.250   13.087    0.362    0.236   53.773  222.241
  295.500   13.593    0.375    0.237   55.503  223.469
  295.750   13.292    0.407    0.265   56.212  223.058
  296.000   12.783    0.434    0.312   56.741  222.945
  296.250   12.230    0.450    0.345   57.090  222.931
  296.500   11.679    0.456    0.352   57.200  222.817
  296.750   10.991    0.464    0.350   57.201  222.322
  297.000   10.497    0.473    0.344   58.436  221.895
  297.250   10.266    0.463    0.337   60.813  221.084
  297.500   10.095    0.459    0.331   61.580  220.873
  297.750   10.018    0.456    0.329   60.498  220.861
