~VERSION INFORMATION
 VERS.                 2.0:   CWLS LOG ASCII STANDARD -VERSION 2.0
 WRAP.                  NO:   ONE LINE PER DEPTH STEP
~WELL INFORMATION BLOCK
#MNEM.UNIT           DATA                    DESCRIPTION OF MNEMONIC
#---------    -------------------            -------------------------------
# Generated from Intellog Unique Number	CS_71_72/WELL/820
WELL.         MAYNARD ET AL BEHAN            : Well_name    - WELL
LOC .         00/07-28-072-11W4/0            : Location     - LOCATION
UWI .         00/07-28-072-11W4/0            : Uwi          - UNIQUE WELL ID
ENTR.         SP                             : Entered      - ENTERED BY
SRVC.         SCHLUMBERGER                   : Scn          - SERVICE COMPANY
STRT.M        305                            : top_depth    - START DEPTH
STOP.M        536.25                         : bot_depth    - STOP DEPTH
STEP.M        0.25                           : increment    - STEP LENGTH
 NULL. -999.2500:NULL Value
~CURVE INFORMATION BLOCK
#MNEM UNIT       ERCB CURVE CODE    CURVE DESCRIPTION
#-----------   ------------------   ----------------------------------
DEPT.M        00 001 00 00         : DEPTH        - DEPTH
ILD .OHMM     00 120 00 00         : RESD         - DEEP RESISTIVITY (DIL)
DPHI.V/V      00 890 00 00         : PHID         - DENSITY POROSITY (LIMESTONE)
NPHI.V/V      00 330 00 00         : PHIN         - NEUTRON POROSITY (LIMESTONE)
GR  .API      00 310 00 00         : GR           - GAMMA RAY
~PARAMETER INFORMATION
#MNEM.UNIT           DATA             DESCRIPTION OF MNEMONIC
#---------         -----------     ------------------------------
GL  .M        657.48               : gl           - GROUND LEVEL ELEVATION
EREF.M        660.68               : kb           - ELEVATION OF DEPTH REFERENCE
DATM.M        657.48               : datum        - DATUM ELEVATION
TDD .M        545                  : tdd          - TOTAL DEPTH DRILLER
RUN .         ONE                  : Run          - RUN NUMBER
ENG .         BILL                 : Engineer     - RECORDING ENGINEER
WIT .         JIM                  : Witness      - WITNESSED BY
MUD .         GEL                  : Mud_type     - MUD TYPE
MATR.         LIMESTONE            : Logunit      - NEUTRON MATRIX
TMAX.C        23                   : BHT          - MAXIMUM RECORDED TEMPERATURE
BHTD.M        545                  : BHTDEP       - MAXIMUM RECORDED TEMPERATURE
MATR.         1                    : LOGUNIT      - NEUTRON MATRIX
RMT .C        25                   : MDTP         - TEMPERATURE OF MUD
NEUT.         1                    : NEUTRON      - NEUTRON TYPE
RESI.         0                    : RESIST       - RESISTIVITY TYPE
RMC .OHMM     0.25                 : RMC          - RESISTIVITY OF MUD CAKE
RMF .OHMM     0.25                 : RMF          - RESISTIVITY OF MUD FILTRATE
SUFT.C        15                   : SUFT         - SURFACE TEMPERATURE
~A  DEPTH     RESD     PHID     PHIN       GR
# ...
  392.000   18.607    0.342    0.412   54.864
  392.250   18.447    0.349    0.402   54.862
  392.500   18.285    0.338    0.399   53.643
  392.750   18.044    0.334    0.404   53.033
  393.000   17.721    0.329    0.405   52.424
  393.250   17.478    0.325    0.407   51.815
  393.500   17.317    0.327    0.411   53.025
  393.750   17.238    0.328    0.423   54.237
  394.000   17.159    0.339    0.431   56.663
  394.250   17.160    0.346    0.418   57.875
  394.500   17.243    0.350    0.414   57.265
  394.750   17.408    0.338    0.407   55.441
  395.000   17.572    0.333    0.422   54.223
  395.250   17.818    0.325    0.415   55.435
  395.500   17.982    0.324    0.416   57.859
  395.750   17.984    0.323    0.420   59.071
  396.000   17.742    0.328    0.422   59.676
  396.250   17.500    0.335    0.418   59.674
  396.500   17.096    0.344    0.415   59.672
  396.750   16.853    0.349    0.418   60.276
  397.000   16.449    0.346    0.428   62.702
  397.250   16.288    0.336    0.429   65.128
  397.500   16.208    0.329    0.434   66.947
  397.750   16.210    0.332    0.438   68.158
  398.000   16.212    0.334    0.443   68.155
  398.250   16.214    0.334    0.438   68.760
  398.500   16.216    0.332    0.430   68.757
  398.750   16.219    0.327    0.416   70.576
  399.000   16.139    0.324    0.411   71.788
  399.250   16.140    0.322    0.409   70.570
  399.500   16.061    0.321    0.417   68.746
  399.750   15.900    0.322    0.419   66.921
  400.000   15.577    0.322    0.416   66.309
  400.250   15.254    0.317    0.423   65.699
  400.500   15.092    0.316    0.432   65.698
  400.750   14.769    0.325    0.441   65.087
  401.000   14.446    0.334    0.430   64.478
  401.250   13.879    0.340    0.425   63.260
  401.500   13.230    0.339    0.441   63.257
  401.750   12.906    0.337    0.446   63.254
  402.000   12.339    0.334    0.443   65.680
  402.250   11.772    0.344    0.448   68.106
  402.500   11.123    0.343    0.457   69.319
  402.750   10.638    0.333    0.469   71.745
  403.000   10.395    0.324    0.450   73.564
  403.250   10.316    0.321    0.431   75.382
  403.500   11.131    0.321    0.427   76.595
  403.750   11.376    0.324    0.447   75.984
  404.000   11.947    0.327    0.458   71.122
  404.250   12.518    0.321    0.448   69.298
  404.500   12.764    0.310    0.448   66.866
  404.750   12.766    0.304    0.446   72.327
  405.000   12.523    0.306    0.439   74.754
  405.250   12.363    0.310    0.427   77.181
  405.500   12.853    0.316    0.415   80.821
  405.750   13.505    0.322    0.428   80.819
  406.000   14.401    0.321    0.437   79.601
  406.250   16.110    0.315    0.416   80.814
  406.500   17.331    0.311    0.397   75.953
  406.750   19.040    0.291    0.366   68.662
  407.000   19.286    0.264    0.328   63.193
  407.250   18.475    0.217    0.283   58.331
  407.500   16.526    0.078    0.218   56.508
  407.750   14.251    0.083    0.228   56.505
  408.000   11.733    0.037    0.168   61.968
  408.250    9.539    0.086    0.329   68.036
  408.500    8.321    0.152    0.364   69.249
  408.750    7.510    0.186    0.391   72.282
  409.000    7.025    0.233    0.419   74.102
  409.250    6.782    0.287    0.447   75.921
  409.500    6.784    0.315    0.435   78.953
  409.750    6.950    0.320    0.430   79.558
  410.000    7.113    0.317    0.426   78.341
  410.250    7.442    0.315    0.426   74.694
  410.500    7.524    0.313    0.425   72.869
  410.750    7.607    0.327    0.424   72.866
  411.000    7.771    0.325    0.430   72.864
  411.250    7.773    0.320    0.425   75.897
  411.500    7.531    0.318    0.420   79.537
  411.750    7.288    0.326    0.422   81.356
  412.000    6.965    0.316    0.441   80.747
  412.250    6.804    0.302    0.454   77.100
  412.500    6.725    0.291    0.449   77.098
  412.750    6.727    0.287    0.436   79.524
  413.000    6.648    0.295    0.437   81.949
  413.250    6.569    0.282    0.449   82.555
  413.500    6.489    0.272    0.454   83.159
  413.750    6.329    0.272    0.445   82.549
  414.000    6.248    0.281    0.441   81.939
  414.250    6.087    0.295    0.437   81.935
  414.500    5.846    0.315    0.435   82.539
  414.750    5.766    0.288    0.447   82.537
  415.000    5.686    0.273    0.457   83.142
  415.250    5.770    0.270    0.440   83.746
  415.500    6.016    0.272    0.427   84.351
  415.750    6.342    0.273    0.436   86.169
  416.000    6.995    0.252    0.424   87.381
  416.250    8.298    0.233    0.426   85.556
  416.500    9.600    0.203    0.431   78.266
  416.750   10.089    0.104    0.372   67.939
  417.000    9.766    0.044    0.217   62.471
  417.250    8.874    0.055    0.217   60.039
  417.500    8.063    0.114    0.223   66.716
  417.750    7.252    0.170    0.343   84.932
  418.000    6.684    0.225    0.445   90.394
  418.250    6.035    0.260    0.464   88.569
  418.500    5.550    0.268    0.461   87.959
  418.750    5.715    0.267    0.462   86.135
  419.000    5.797    0.267    0.466   84.310
  419.250    5.962    0.270    0.452   83.699
  419.500    6.126    0.276    0.446   84.911
  419.750    6.291    0.279    0.442   86.123
  420.000    6.374    0.283    0.450   87.941
  420.250    6.457    0.278    0.446   88.545
  420.500    6.458    0.277    0.444   89.150
  420.750    6.379    0.271    0.448   89.755
  421.000    6.218    0.264    0.469   89.752
  421.250    6.140    0.264    0.477   87.320
  421.500    6.060    0.265    0.479   84.888
  421.750    6.143    0.260    0.461   88.528
  422.000    6.227    0.251    0.453   90.348
  422.250    6.229    0.246    0.446   86.701
  422.500    6.231    0.242    0.450   84.876
  422.750    6.233    0.233    0.447   84.874
  423.000    6.153    0.228    0.435   89.728
  423.250    6.154    0.217    0.440   91.548
  423.500    6.074    0.208    0.468   93.974
  423.750    5.914    0.206    0.480   95.185
  424.000    5.672    0.205    0.474   95.183
  424.250    5.593    0.205    0.467   93.965
  424.500    5.595    0.218    0.452   93.963
  424.750    5.515    0.220    0.464   93.958
  425.000    5.517    0.226    0.483   93.957
  425.250    5.518    0.226    0.491   94.562
  425.500    5.601    0.224    0.478   93.344
  425.750    5.684    0.223    0.477   90.912
  426.000    5.524    0.215    0.491   95.766
  426.250    5.200    0.232    0.478   96.978
  426.500    4.633    0.245    0.469   98.191
  426.750    4.066    0.249    0.451   91.508
  427.000    3.580    0.234    0.445   92.112
  427.250    3.013    0.251    0.456   98.789
  427.500    2.445    0.269    0.474  101.822
  427.750    2.203    0.286    0.509   99.391
  428.000    1.961    0.275    0.536  101.816
  428.250    1.882    0.278    0.553  103.029
  428.500    2.127    0.281    0.545  101.204
  428.750    2.536    0.273    0.527   97.557
  429.000    2.863    0.267    0.507   95.733
  429.250    3.434    0.259    0.490   92.692
  429.500    3.761    0.255    0.468   91.476
  429.750    4.251    0.247    0.456   91.474
  430.000    4.578    0.239    0.445   93.899
  430.250    4.823    0.243    0.450   94.504
  430.500    4.988    0.258    0.444   93.893
  430.750    4.990    0.249    0.435   93.284
  431.000    4.991    0.244    0.444   91.459
  431.250    4.912    0.242    0.447   91.456
  431.500    4.995    0.239    0.444   89.631
  431.750    4.996    0.253    0.443   86.592
  432.000    5.162    0.252    0.454   89.018
  432.250    5.246    0.249    0.471   90.837
  432.500    5.328    0.247    0.467   90.834
  432.750    5.411    0.250    0.454   84.150
  433.000    5.494    0.259    0.449   81.112
  433.250    5.578    0.276    0.440   81.109
  433.500    5.660    0.266    0.450   82.928
  433.750    5.663    0.269    0.463   84.746
  434.000    5.745    0.271    0.466   85.352
  434.250    5.666    0.254    0.450   85.348
  434.500    5.667    0.242    0.440   82.917
  434.750    5.426    0.255    0.433   79.270
  435.000    5.346    0.270    0.421   76.837
  435.250    5.185    0.297    0.428   75.620
