~VERSION INFORMATION
 VERS.                 2.0:   CWLS LOG ASCII STANDARD -VERSION 2.0
 WRAP.                  NO:   ONE LINE PER DEPTH STEP
~WELL INFORMATION BLOCK
#MNEM.UNIT           DATA                    DESCRIPTION OF MNEMONIC
#---------    -------------------            -------------------------------
# Generated from Intellog Unique Number	CS_77_79/WELL/867
WELL.         ICGR GRAHAM                    : Well_name    - WELL
LOC .         00/06-05-079-05W4/0            : Location     - LOCATION
UWI .         00/06-05-079-05W4/0            : Uwi          - UNIQUE WELL ID
ENTR.         JHS                            : Entered      - ENTERED BY
SRVC.         SCHLUMBERGER                   : Scn          - SERVICE COMPANY
STRT.M        105                            : top_depth    - START DEPTH
STOP.M        365                            : bot_depth    - STOP DEPTH
STEP.M        0.25                           : increment    - STEP LENGTH
 NULL. -999.2500:NULL Value
~CURVE INFORMATION BLOCK
#MNEM UNIT       ERCB CURVE CODE    CURVE DESCRIPTION
#-----------   ------------------   ----------------------------------
DEPT.M        00 001 00 00         : DEPTH        - DEPTH
DPHI.V/V      00 890 00 00         : PHID         - DENSITY POROSITY (LIMESTONE)
NPHI.V/V      00 330 00 00         : PHIN         - NEUTRON POROSITY (LIMESTONE)
GR  .API      00 310 00 00         : GR           - GAMMA RAY
ILD .OHMM     00 120 00 00         : RESD         - DEEP RESISTIVITY (DIL)
RHOB.KG/M3    00 350 00 00         : DENS         - BULK DENSITY
~PARAMETER INFORMATION
#MNEM.UNIT           DATA             DESCRIPTION OF MNEMONIC
#---------         -----------     ------------------------------
GL  .M        529.39               : gl           - GROUND LEVEL ELEVATION
EREF.M        533.04               : kb           - ELEVATION OF DEPTH REFERENCE
DATM.M        533.04               : datum        - DATUM ELEVATION
TDD .M        374                  : tdd          - TOTAL DEPTH DRILLER
RUN .         ONE                  : Run          - RUN NUMBER
ENG .         BILL                 : Engineer     - RECORDING ENGINEER
WIT .         JIM                  : Witness      - WITNESSED BY
MUD .         GEL                  : Mud_type     - MUD TYPE
MATR.         LIMESTONE            : Logunit      - NEUTRON MATRIX
TMAX.C        20.4                 : BHT          - MAXIMUM RECORDED TEMPERATURE
BHTD.M        374                  : BHTDEP       - MAXIMUM RECORDED TEMPERATURE
MATR.         1                    : LOGUNIT      - NEUTRON MATRIX
RMT .C        25                   : MDTP         - TEMPERATURE OF MUD
NEUT.         1                    : NEUTRON      - NEUTRON TYPE
RESI.         0                    : RESIST       - RESISTIVITY TYPE
RMC .OHMM     0.25                 : RMC          - RESISTIVITY OF MUD CAKE
RMF .OHMM     0.25                 : RMF          - RESISTIVITY OF MUD FILTRATE
SUFT.C        15                   : SUFT         - SURFACE TEMPERATURE
~A  DEPTH     PHID     PHIN       GR     RESD     DENS
  105.000    0.343    0.574   91.389    2.516    0.000
  105.250    0.356    0.581   90.152    2.517    0.000
  105.500    0.330    0.548   89.546    2.520    0.000
  105.750    0.319    0.553   88.931    2.476    0.000
  106.000    0.331    0.592   88.955    2.478    0.000
  106.250    0.331    0.607   90.863    2.479    0.000
  106.500    0.328    0.589   94.041    2.676    0.000
  106.750    0.302    0.566   92.173    2.781    0.000
  107.000    0.283    0.575   89.671    2.783    0.000
  107.250    0.295    0.586   91.582    2.683    0.000
  107.500    0.309    0.590   90.974    2.636    0.000
  107.750    0.310    0.591   89.111    2.589    0.000
  108.000    0.300    0.581   92.907    2.640    0.000
  108.250    0.309    0.566   98.605    2.642    0.000
  108.500    0.315    0.563   99.252    2.746    0.000
  108.750    0.315    0.560   95.498    2.800    0.000
  109.000    0.294    0.540   95.514    3.022    0.000
  109.250    0.290    0.527  101.211    3.262    0.000
  109.500    0.277    0.516  101.862    3.520    0.000
  109.750    0.269    0.496   97.472    3.799    0.000
  110.000    0.266    0.508   94.344    3.874    0.000
  110.250    0.270    0.548   94.999    3.805    0.000
  110.500    0.281    0.565   96.913    3.668    0.000
  110.750    0.296    0.557   97.558    3.604    0.000
  111.000    0.297    0.521   94.434    3.607    0.000
  111.250    0.287    0.481   91.930    3.542    0.000
  111.500    0.288    0.491   90.059    3.612    0.000
  111.750    0.288    0.516   83.149    4.048    0.000
  112.000    0.256    0.451   67.413    4.798    0.000
  112.250    0.293    0.420   42.857    6.614    0.000
  112.500    0.335    0.453   39.729    8.456    0.000
  112.750    0.430    0.440   40.383   10.216    0.000
  113.000    0.421    0.420   43.556   11.666    0.000
  113.250    0.391    0.411   54.287   11.243    0.000
  113.500    0.367    0.454   75.738    5.010    0.000
  113.750    0.339    0.529   92.144    4.076    0.000
  114.000    0.310    0.498   99.731    3.856    0.000
  114.250    0.287    0.484  101.020    4.008    0.000
  114.500    0.273    0.495   98.515    3.792    0.000
  114.750    0.275    0.499   88.452    3.519    0.000
  115.000    0.275    0.458   72.715    5.036    0.000
  115.250    0.293    0.437   67.696    7.771    0.000
  115.500    0.304    0.427   74.022    9.390    0.000
  115.750    0.299    0.454   80.974   10.132    0.000
  116.000    0.302    0.517   83.518   10.934    0.000
  116.250    0.316    0.487   81.019   12.725    0.000
  116.500    0.325    0.443   72.217   14.531    0.000
  116.750    0.340    0.410   69.090   15.979    0.000
  117.000    0.343    0.398   71.001   16.921    0.000
  117.250    0.357    0.424   75.435   16.621    0.000
  117.500    0.357    0.447   82.396   16.018    0.000
  117.750    0.301    0.464   84.936   14.054    0.000
  118.000    0.282    0.477   88.104   11.653    0.000
  118.250    0.266    0.481   93.167   10.033    0.000
  118.500    0.257    0.489   95.714   10.043    0.000
  118.750    0.256    0.496   91.949   11.256    0.000
  119.000    0.287    0.473   81.891   12.609    0.000
  119.250    0.354    0.443   78.765   15.527    0.000
  119.500    0.360    0.446   77.527   17.396    0.000
  119.750    0.344    0.451   76.282   18.076    0.000
  120.000    0.334    0.440   71.894   18.102    0.000
  120.250    0.333    0.452   73.803   17.771    0.000
  120.500    0.328    0.463   82.020   14.464    0.000
  120.750    0.316    0.461   88.344   12.451    0.000
  121.000    0.290    0.472   92.776   10.924    0.000
  121.250    0.272    0.472   80.823   10.935    0.000
  121.500    0.285    0.429   63.198   12.024    0.000
  121.750    0.305    0.417   72.048   13.729    0.000
  122.000    0.296    0.409   65.130   15.679    0.000
  122.250    0.298    0.388   63.266   17.240    0.000
  122.500    0.302    0.387   72.743   18.605    0.000
  122.750    0.295    0.418   75.285   18.974    0.000
  123.000    0.282    0.439   75.308   18.294    0.000
  123.250    0.280    0.445   75.331   17.632    0.000
  123.500    0.287    0.431   77.244   16.997    0.000
  123.750    0.289    0.415   78.520   16.385    0.000
  124.000    0.259    0.408   80.431   16.395    0.000
  124.250    0.250    0.430   81.715   16.416    0.000
  124.500    0.267    0.483   88.037   16.427    0.000
  124.750    0.297    0.472   94.365   17.397    0.000
  125.000    0.302    0.467   90.604   19.129    0.000
  125.250    0.316    0.502   69.826   21.030    0.000
  125.500    0.330    0.471   40.857   24.470    0.000
  125.750    0.339    0.434   32.683   29.017    0.000
  126.000    0.334    0.410   28.299   30.725    0.000
  126.250    0.340    0.425   30.207   32.546    0.000
  126.500    0.356    0.437   37.791   33.203    0.000
  126.750    0.364    0.437   42.855   33.225    0.000
  127.000    0.366    0.425   46.034   32.637    0.000
  127.250    0.364    0.417   47.313   32.046    0.000
  127.500    0.350    0.408   44.814   30.324    0.000
  127.750    0.341    0.406   41.683   29.235    0.000
  128.000    0.334    0.419   36.660   29.250    0.000
  128.250    0.332    0.421   28.492   30.981    0.000
  128.500    0.340    0.400   26.622   32.196    0.000
  128.750    0.356    0.377   35.465   32.225    0.000
  129.000    0.377    0.362   41.790   31.061    0.000
  129.250    0.606    0.612   40.552   29.380    0.000
  129.500    0.612    0.613   34.901   27.794    0.000
  129.750    0.592    0.578   37.443   27.298    0.000
  130.000    0.425    0.536   43.771   28.372    0.000
  130.250    0.399    0.494   44.421   28.932    0.000
  130.500    0.384    0.443   38.772   31.233    0.000
  130.750    0.378    0.425   38.791   32.448    0.000
  131.000    0.380    0.451   43.229   33.734    0.000
  131.250    0.382    0.459   44.505   33.763    0.000
  131.500    0.369    0.432   42.010   34.432    0.000
  131.750    0.353    0.420   39.510   35.110    0.000
  132.000    0.350    0.406   38.272   35.815    0.000
  132.250    0.359    0.396   40.185   36.534    0.000
  132.500    0.371    0.396   41.463   37.255    0.000
  132.750    0.369    0.411   40.224   38.729    0.000
  133.000    0.368    0.416   42.769   38.752    0.000
  133.250    0.374    0.410   45.942   38.791    0.000
  133.500    0.361    0.407   44.072   38.099    0.000
  133.750    0.355    0.406   41.575   37.416    0.000
  134.000    0.355    0.411   39.079   36.075    0.000
  134.250    0.351    0.416   37.836   35.434    0.000
  134.500    0.346    0.447   35.335   34.801    0.000
  134.750    0.386    0.503   37.878   34.829    0.000
  135.000    0.412    0.464   46.727   34.866    0.000
  135.250    0.372    0.432   51.157   34.891    0.000
  135.500    0.337    0.404   52.445   34.270    0.000
  135.750    0.340    0.388   55.610   33.044    0.000
  136.000    0.336    0.367   66.977   31.846    0.000
  136.250    0.326    0.377   69.520   29.570    0.000
  136.500    0.324    0.435   65.135   28.496    0.000
  136.750    0.337    0.441   65.782   26.953    0.000
  137.000    0.345    0.439   68.956   25.991    0.000
  137.250    0.342    0.448   68.350   26.003    0.000
  137.500    0.352    0.454   65.857   26.036    0.000
  137.750    0.372    0.450   65.867   25.574    0.000
  138.000    0.357    0.446   67.788   25.588    0.000
  138.250    0.344    0.429   70.333   25.131    0.000
  138.500    0.351    0.418   70.350   24.224    0.000
  138.750    0.362    0.410   72.264   22.074    0.000
  139.000    0.342    0.415   77.952   19.005    0.000
  139.250    0.291    0.456   93.097   14.343    0.000
  139.500    0.258    0.476  113.288   10.423    0.000
  139.750    0.237    0.487  119.613    7.162    0.000
  140.000    0.236    0.488  122.791    6.524    0.000
  140.250    0.233    0.482  120.917    6.288    0.000
  140.500    0.177    0.491  114.635    6.295    0.000
  140.750    0.155    0.490  107.102    6.183    0.000
  141.000    0.158    0.497  107.116    5.958    0.000
  141.250    0.195    0.521  110.288    5.428    0.000
