~VERSION INFORMATION
 VERS.                 2.0:   CWLS LOG ASCII STANDARD -VERSION 2.0
 WRAP.                  NO:   ONE LINE PER DEPTH STEP
~WELL INFORMATION BLOCK
#MNEM.UNIT           DATA                    DESCRIPTION OF MNEMONIC
#---------    -------------------            -------------------------------
# Generated from Intellog Unique Number	CN_94_101/WELL/3409
WELL.         PARAMOUNT RESOURCES LTD.       : Well_name    - WELL
LOC .         00/07-04-095-18W4/0            : Location     - LOCATION
UWI .         00/07-04-095-18W400            : Uwi          - UNIQUE WELL ID
ENTR.         JOETTE                         : Entered      - ENTERED BY
SRVC.         SCHLUMBERGER                   : Scn          - SERVICE COMPANY
DATE.         07\27\92                       : Date         - LOG DATE
STRT.M        170                            : top_depth    - START DEPTH
STOP.M        325                            : bot_depth    - STOP DEPTH
STEP.M        0.25                           : increment    - STEP LENGTH
 NULL. -999.2500:NULL Value
~CURVE INFORMATION BLOCK
#MNEM UNIT       ERCB CURVE CODE    CURVE DESCRIPTION
#-----------   ------------------   ----------------------------------
DEPT.M        00 001 00 00         : DEPTH        - DEPTH
ILD .OHMM     00 120 00 00         : RESD         - DEEP RESISTIVITY (DIL)
GR  .API      00 310 00 00         : GR           - GAMMA RAY
NPHI.V/V      00 330 00 00         : PHIN         - NEUTRON POROSITY (SANDSTONE)
DPHI.V/V      00 890 00 00         : PHID         - DENSITY POROSITY (SANDSTONE)
~PARAMETER INFORMATION
#MNEM.UNIT           DATA             DESCRIPTION OF MNEMONIC
#---------         -----------     ------------------------------
GL  .M        598.5                : gl           - GROUND LEVEL ELEVATION
EREF.M        602                  : kb           - ELEVATION OF DEPTH REFERENCE
DATM.M        602                  : datum        - DATUM ELEVATION
TDD .M        156                  : tdd          - TOTAL DEPTH DRILLER
RUN .         ONE                  : Run          - RUN NUMBER
ENG .         JO                   : Engineer     - RECORDING ENGINEER
WIT .         TIM                  : Witness      - WITNESSED BY
MUD .         GEL                  : Mud_type     - MUD TYPE
MATR.         SANDSTONE            : Logunit      - NEUTRON MATRIX
TMAX.C        31                   : BHT          - MAXIMUM RECORDED TEMPERATURE
BHTD.M        156                  : BHTDEP       - MAXIMUM RECORDED TEMPERATURE
RMT .C        23                   : MDTP         - TEMPERATURE OF MUD
MUDD.KG/M     1070                 : MWT          - MUD DENSITY
NEUT.         1                    : NEUTRON      - NEUTRON TYPE
RESI.         0                    : RESIST       - RESISTIVITY TYPE
RM  .OHMM     4                    : RM           - RESISTIVITY OF MUD
RMC .OHMM     4                    : RMC          - RESISTIVITY OF MUD CAKE
RMF .OHMM     4.3                  : RMF          - RESISTIVITY OF MUD FILTRATE
SUFT.C        4                    : SUFT         - SURFACE TEMPERATURE
~A  DEPTH     RESD       GR     PHIN     PHID
# ...
  300.500    7.914  138.148    0.417    0.193
  300.750    7.461  133.202    0.419    0.201
  301.000    6.896  128.872    0.426    0.212
  301.250    6.374  127.006    0.435    0.214
  301.500    6.007  125.141    0.447    0.197
  301.750    5.774  120.811    0.450    0.168
  302.000    5.772  125.106    0.445    0.160
  302.250    6.238  128.165    0.442    0.174
  302.500    6.483  124.456    0.439    0.170
  302.750    6.232  118.278    0.447    0.146
  303.000    5.224  113.327    0.459    0.118
  303.250    4.643  119.475    0.470    0.088
  303.500    4.209  126.231    0.453    0.108
  303.750    4.207  125.602    0.454    0.146
  304.000    4.205  124.968    0.455    0.162
  304.250    4.286  125.567    0.440    0.168
  304.500    4.632  126.778    0.423    0.166
  304.750    5.206  127.381    0.429    0.166
  305.000    5.851  128.596    0.437    0.171
  305.250    5.962  129.811    0.439    0.183
  305.500    5.732  129.794    0.434    0.188
  305.750    5.297  127.312    0.409    0.157
  306.000    5.092  121.750    0.406    0.123
  306.250    4.616  116.184    0.398    0.112
  306.500    4.184  111.849    0.389    0.115
  306.750    4.020  114.301    0.394    0.124
  307.000    3.942  117.364    0.446    0.132
  307.250    3.940  118.579    0.480    0.175
  307.500    4.015  118.558    0.478    0.188
  307.750    4.340  118.545    0.465    0.167
  308.000    4.783  117.907    0.451    0.159
  308.250    4.876  118.506    0.444    0.154
  308.500    4.969  118.484    0.451    0.152
  308.750    5.165  117.244    0.455    0.146
  309.000    5.582  111.681    0.446    0.136
  309.250    6.273   89.485    0.435    0.128
  309.500    7.051   82.074    0.433    0.121
  309.750    8.241   75.276    0.418    0.130
  310.000   10.830   71.558    0.395    0.160
  310.250   16.641   67.844    0.376    0.288
  310.500   19.833   65.362    0.184    0.365
  310.750   24.103   62.885    0.162    0.408
  311.000   28.719   61.019    0.159    0.404
  311.250   31.660   60.382    0.167    0.397
  311.500   37.732   60.364    0.191    0.393
  311.750   44.097   60.963    0.222    0.384
  312.000   46.738   61.562    0.229    0.378
  312.250   43.196   64.005    0.233    0.375
  312.500   41.515   65.229    0.228    0.371
  312.750   41.505   67.055    0.222    0.369
  313.000   42.303   68.275    0.213    0.365
  313.250   43.112   69.485    0.226    0.354
  313.500   43.086   70.088    0.238    0.355
  313.750   43.075   73.763    0.250    0.358
  314.000   42.216   75.595    0.264    0.348
  314.250   40.582   74.345    0.276    0.341
  314.500   36.069   72.480    0.291    0.334
  314.750   32.057   71.230    0.307    0.329
  315.000   29.058   70.597    0.327    0.326
  315.250   26.859   70.571    0.335    0.323
  315.500   25.817   70.562    0.331    0.324
  315.750   30.176   70.541    0.282    0.331
  316.000   35.959   70.524    0.253    0.340
  316.250   38.112   71.123    0.254    0.344
  316.500   37.361   72.342    0.295    0.340
  316.750   33.861   66.780    0.367    0.334
  317.000   31.921   61.834    0.433    0.323
  317.250   30.088   52.575    0.402    0.296
  317.500   28.920   45.781    0.363    0.291
  317.750   27.798   43.915    0.360    0.277
  318.000   26.719   53.139    0.373    0.267
  318.250   27.230   56.810    0.407    0.259
  318.500   27.217   57.413    0.439    0.253
  318.750   27.203   58.628    0.460    0.252
  319.000   27.727   55.531    0.455    0.258
  319.250   27.710   50.580    0.446    0.265
  319.500   28.247   53.027    0.433    0.266
  319.750   28.783   56.702    0.424    0.260
  320.000   29.344   56.078    0.421    0.256
  320.250   29.909   54.208    0.424    0.245
  320.500   29.894   54.191    0.426    0.240
  320.750   31.681   58.490    0.431    0.242
  321.000   32.294   62.165    0.427    0.243
  321.250   34.224   61.536    0.423    0.240
  321.500   35.571   63.367    0.426    0.228
  321.750   35.554   71.359    0.429    0.187
  322.000   34.170   75.039    0.431    0.144
  322.250   33.500   62.700    0.433    0.107
  322.500   32.192   50.977    0.433    0.068
  322.750   32.184   39.254    0.429    0.040
  323.000   31.546   31.843    0.422    0.011
  323.250   31.527   20.732    0.433   -0.005
  323.500   32.133   20.715    0.439   -0.012
  323.750   32.121   24.390    0.443   -0.016
  324.000   32.732   27.457    0.444   -0.011
  324.250   32.720   30.516    0.439    0.006
  324.500   31.442   29.883    0.434    0.016
  324.750   30.826   29.866    0.424    0.015
  325.000   26.867   31.085    0.422    0.013
