~VERSION INFORMATION
 VERS.                 2.0:   CWLS LOG ASCII STANDARD -VERSION 2.0
 WRAP.                  NO:   ONE LINE PER DEPTH STEP
~WELL INFORMATION BLOCK
#MNEM.UNIT           DATA                    DESCRIPTION OF MNEMONIC
#---------    -------------------            -------------------------------
# Generated from Intellog Unique Number	CW_70_72/WELL/992
NULL.         -999.25                        : NULL_VALUE
WELL.         CNW FRANCIS SOUTH 07-34        : Well_name    - WELL              
LOC .         07-34-072-21W4                 : Location     - LOCATION          
UWI .         00/07-34-072-21W4/0            : Uwi          - UNIQUE WELL ID    
ENTR.         JAYE                           : Entered      - ENTERED BY        
SRVC.         COMPUTALOG                     : Scn          - SERVICE COMPANY   
DATE.         26 JULY 88                     : Date         - LOG DATE          
STRT.M        355                            : top_depth    - START DEPTH       
STOP.M        555                            : bot_depth    - STOP DEPTH        
STEP.M        0.25                           : increment    - STEP LENGTH       
~CURVE INFORMATION BLOCK
#MNEM UNIT       ERCB CURVE CODE    CURVE DESCRIPTION
#-----------   ------------------   ----------------------------------
DEPT.M        00 001 00 00         : DEPTH        - DEPTH                       
DPHI.V/V      00 890 00 00         : PHID         - DENSITY POROSITY (SANDSTONE)
NPHI.V/V      00 330 00 00         : PHIN         - NEUTRON POROSITY (SANDSTONE)
GR  .API      00 310 00 00         : GR           - GAMMA RAY                   
CALI.MM       00 280 01 00         : CAL          - CALIPER                     
ILD .OHMM     00 120 00 00         : RESD         - DEEP RESISTIVITY (DIL)      
~PARAMETER INFORMATION       
#MNEM.UNIT           DATA             DESCRIPTION OF MNEMONIC
#---------         -----------     ------------------------------
GL  .M        642                  : gl           - GROUND LEVEL ELEVATION      
EREF.M        645.4                : kb           - ELEVATION OF DEPTH REFERENCE
DATM.M        642                  : datum        - DATUM ELEVATION             
TDD .M        561                  : tdd          - TOTAL DEPTH DRILLER         
RUN .         ONE                  : Run          - RUN NUMBER                  
ENG .         GAIR/OSYPCHUK        : Engineer     - RECORDING ENGINEER          
WIT .         TOPIC                : Witness      - WITNESSED BY                
BASE.         R.D.                 : Branch       - HOME BASE OF LOGGING UNIT   
MUD .         GEL CHEM             : Mud_type     - MUD TYPE                    
MATR.         SANDSTONE            : Logunit      - NEUTRON MATRIX              
TMAX.C        25                   : BHT          - MAXIMUM RECORDED TEMPERATURE
BHTD.M        560.1                : BHTDEP       - MAXIMUM RECORDED TEMPERATURE
RMT .C        25                   : MDTP         - TEMPERATURE OF MUD          
MUDD.KG/M     1110                 : MWT          - MUD DENSITY                 
NEUT.         1                    : NEUTRON      - NEUTRON TYPE                
RESI.         0                    : RESIST       - RESISTIVITY TYPE            
RM  .OHMM     3.3                  : RM           - RESISTIVITY OF MUD          
RMC .OHMM     4                    : RMC          - RESISTIVITY OF MUD CAKE     
RMF .OHMM     3                    : RMF          - RESISTIVITY OF MUD FILTRATE 
SUFT.C        0                    : SUFT         - SURFACE TEMPERATURE         
~A  DEPTH     PHID     PHIN       GR      CAL     RESD
# ...
  464.500    0.203    0.502   93.576  197.691    4.708
  464.750    0.207    0.511   92.302  197.603    4.434
  465.000    0.211    0.525   89.806  197.212    4.200
  465.250    0.219    0.545   87.126  196.918    4.037
  465.500    0.221    0.543   86.829  196.523    3.887
  465.750    0.217    0.537   88.669  195.926    3.736
  466.000    0.220    0.534   90.204  195.534    3.578
  466.250    0.227    0.536   90.824  195.037    3.465
  466.500    0.233    0.538   87.168  194.543    3.417
  466.750    0.240    0.532   83.388  193.743    3.389
  467.000    0.243    0.521   81.503  192.637    3.405
  467.250    0.244    0.509   80.779  191.429    3.446
  467.500    0.241    0.499   79.505  190.221    3.506
  467.750    0.239    0.491   77.924  189.114    3.608
  468.000    0.250    0.480   74.818  188.008    3.774
  468.250    0.266    0.482   70.368  187.107    3.985
  468.500    0.281    0.480   68.299  186.407    4.192
  468.750    0.291    0.473   67.452  185.812    4.435
  469.000    0.303    0.467   67.155  185.416    4.657
  469.250    0.299    0.459   67.102  185.125    4.809
  469.500    0.292    0.443   67.538  184.934    4.903
  469.750    0.282    0.451   67.668  185.254    4.952
  470.000    0.271    0.465   67.371  185.880    5.003
  470.250    0.269    0.466   64.753  186.504    5.082
  470.500    0.271    0.455   66.044  187.943    5.153
  470.750    0.269    0.448   67.457  189.178    5.196
  471.000    0.262    0.448   68.260  189.700    5.210
  471.250    0.254    0.455   67.901  190.018    5.205
  471.500    0.248    0.452   69.131  190.338    5.181
  471.750    0.238    0.448   71.949  190.657    5.177
  472.000    0.243    0.445   75.011  191.080    5.181
  472.250    0.245    0.437   77.523  191.602    5.205
  472.500    0.242    0.438   80.525  192.021    5.200
  472.750    0.237    0.451   83.586  192.340    5.186
  473.000    0.232    0.459   81.640  192.356    5.172
  473.250    0.225    0.464   81.832  192.269    5.110
  473.500    0.215    0.477   82.817  192.385    4.994
  473.750    0.220    0.478   84.535  192.193    4.484
  474.000    0.231    0.469   87.537  192.309    3.816
  474.250    0.242    0.462   90.110  192.425    3.315
  474.500    0.252    0.480   92.439  192.438    2.971
  474.750    0.263    0.508   95.685  193.063    2.824
  475.000    0.293    0.547   98.746  193.279    2.755
  475.250    0.283    0.562  101.320  193.498    2.968
  475.500    0.265    0.531   99.557  193.509    3.263
  475.750    0.250    0.508   99.138  193.219    3.661
  476.000    0.239    0.485   92.794  193.131    4.116
  476.250    0.223    0.474   92.130  192.941    4.475
  476.500    0.207    0.469   93.299  192.853    4.563
  476.750    0.195    0.466   95.017  192.867    4.534
  477.000    0.191    0.463   96.676  192.881    4.471
  477.250    0.202    0.461   94.973  193.199    4.459
  477.500    0.202    0.461   91.989  193.112    4.521
  477.750    0.195    0.462   86.744  192.922    4.669
  478.000    0.189    0.465   87.608  192.223    4.921
  478.250    0.190    0.470   89.876  191.422    5.302
  478.500    0.193    0.464   87.623  190.519    5.702
  478.750    0.187    0.454   80.608  190.125    6.042
  479.000    0.163    0.450   77.868  189.833    6.206
  479.250    0.172    0.460   80.075  189.950    6.110
  479.500    0.194    0.466   81.610  190.167    6.004
  479.750    0.216    0.463   83.389  190.487    5.921
  480.000    0.226    0.460   84.986  190.805    5.916
  480.250    0.219    0.452   87.987  190.922    5.921
  480.500    0.222    0.439   86.162  190.834    5.905
  480.750    0.217    0.439   82.017  190.950    5.933
  481.000    0.206    0.442   80.865  191.165    5.949
  481.250    0.192    0.444   82.523  191.485    5.998
  481.500    0.199    0.447   86.195  191.804    6.060
  481.750    0.200    0.455   88.830  191.818    6.076
  482.000    0.199    0.459   89.816  191.834    6.116
  482.250    0.203    0.449   89.030  191.845    6.167
  482.500    0.205    0.455   89.038  191.860    6.207
  482.750    0.199    0.472   88.741  191.873    6.292
  483.000    0.195    0.488   86.612  192.192    6.415
  483.250    0.189    0.460   83.871  192.307    6.601
  483.500    0.182    0.416   78.810  192.323    6.943
  483.750    0.173    0.403   78.451  192.233    6.925
  484.000    0.160    0.397   79.072  192.247    6.693
  484.250    0.171    0.414   80.057  192.161    6.398
  484.500    0.199    0.432   81.347  192.273    6.183
  484.750    0.220    0.447   82.638  192.391    5.933
  485.000    0.227    0.456   84.540  192.608    5.776
  485.250    0.221    0.455   87.175  192.825    5.593
  485.500    0.222    0.451   88.465  193.142    5.445
  485.750    0.222    0.445   88.717  193.157    5.302
  486.000    0.222    0.454   88.482  193.374    5.249
  486.250    0.219    0.468   88.368  193.185    5.500
  486.500    0.213    0.457   87.948  192.689    6.070
  486.750    0.200    0.429   82.093  191.787    6.398
  487.000    0.180    0.413   72.878  190.579    6.392
  487.250    0.146    0.420   62.442  189.472    6.212
  487.500    0.173    0.437   67.704  188.366    5.883
  487.750    0.226    0.446   76.018  187.463    5.440
  488.000    0.242    0.441   81.646  186.562    4.921
  488.250    0.245    0.443   80.494  186.069    5.017
  488.500    0.248    0.452   75.799  185.571    5.619
  488.750    0.254    0.446   66.157  185.180    6.304
  489.000    0.235    0.427   58.591  184.989    7.325
  489.250    0.199    0.398   50.721  184.495    8.480
  489.500    0.169    0.370   48.347  184.202    9.602
  489.750    0.138    0.341   51.959  184.214   10.873
  490.000    0.129    0.321   54.837  184.431   11.650
  490.250    0.124    0.312   56.680  184.752   10.934
  490.500    0.124    0.319   57.115  184.767   10.036
  490.750    0.149    0.344   57.306  184.778    8.912
  491.000    0.185    0.368   57.252  185.199    7.943
  491.250    0.207    0.391   57.016  185.620    7.145
  491.500    0.220    0.408   57.147  186.246    6.369
  491.750    0.235    0.415   58.010  186.668    5.867
  492.000    0.248    0.418   59.790  187.089    5.415
  492.250    0.261    0.418   65.661  187.202    5.119
  492.500    0.270    0.420   67.441  187.419    4.805
  492.750    0.276    0.420   67.754  187.739    4.609
  493.000    0.274    0.419   67.581  188.159    4.455
  493.250    0.270    0.418   66.671  188.479    4.370
  493.500    0.269    0.418   64.053  188.899    4.333
  493.750    0.272    0.419   63.147  189.523    4.370
  494.000    0.276    0.422   63.031  190.149    4.605
  494.250    0.276    0.431   63.956  190.471    4.944
  494.500    0.257    0.429   64.270  190.891    5.376
  494.750    0.219    0.416   62.323  191.209    5.976
  495.000    0.183    0.391   58.118  191.630    6.855
  495.250    0.143    0.372   56.599  192.052    7.950
  495.500    0.120    0.362   56.668  192.370    8.394
  495.750    0.110    0.354   61.868  193.401    7.734
  496.000    0.149    0.377   69.877  194.636    7.034
  496.250    0.182    0.400   75.871  196.381    6.121
  496.500    0.210    0.420   81.315  198.023    5.445
  496.750    0.203    0.437   86.270  199.665    4.871
  497.000    0.199    0.466   88.295  200.899    4.455
  497.250    0.202    0.495   89.646  201.729    4.082
  497.500    0.206    0.495   91.121  202.150    3.795
  497.750    0.209    0.496   91.679  202.776    3.668
  498.000    0.213    0.511   93.152  202.888    3.845
  498.250    0.221    0.505   96.947  203.106    4.259
  498.500    0.233    0.490   94.757  202.917    4.743
  498.750    0.230    0.481   90.001  202.421    5.292
  499.000    0.216    0.470   86.100  201.723    5.830
  499.250    0.199    0.454   80.184  200.820    6.292
  499.500    0.177    0.434   75.489  199.510    6.607
  499.750    0.192    0.436   78.368  198.304    6.602
  500.000    0.213    0.442   81.858  198.010    6.535
  500.250    0.219    0.439   83.882  198.432    6.374
  500.500    0.215    0.444   84.684  198.853    5.971
  500.750    0.210    0.446   85.791  199.274    5.501
