~VERSION INFORMATION
 VERS.                 2.0:   CWLS LOG ASCII STANDARD -VERSION 2.0
 WRAP.                  NO:   ONE LINE PER DEPTH STEP
~WELL INFORMATION BLOCK
#MNEM.UNIT           DATA                    DESCRIPTION OF MNEMONIC
#---------    -------------------            -------------------------------
# Generated from Intellog Unique Number	CS_71_72/WELL/804
WELL.         BVX ET AL LYLE                 : Well_name    - WELL
LOC .         00/07-07-072-16W4/0            : Location     - LOCATION
UWI .         00/07-07-072-16W4/0            : Uwi          - UNIQUE WELL ID
ENTR.         SP                             : Entered      - ENTERED BY
SRVC.         SCHLUMBERGER                   : Scn          - SERVICE COMPANY
STRT.M        274.32                         : top_depth    - START DEPTH
STOP.M        450.82                         : bot_depth    - STOP DEPTH
STEP.M        0.25                           : increment    - STEP LENGTH
 NULL. -999.2500:NULL Value
~CURVE INFORMATION BLOCK
#MNEM UNIT       ERCB CURVE CODE    CURVE DESCRIPTION
#-----------   ------------------   ----------------------------------
DEPT.M        00 001 00 00         : DEPTH        - DEPTH
GR  .API      00 310 00 00         : GR           - GAMMA RAY
DPHI.V/V      00 890 00 00         : PHID         - DENSITY POROSITY (SANDSTONE)
NPHI.V/V      00 330 00 00         : PHIN         - NEUTRON POROSITY (SANDSTONE)
ILD .OHMM     00 120 00 00         : RESD         - DEEP RESISTIVITY (DIL)
~PARAMETER INFORMATION
#MNEM.UNIT           DATA             DESCRIPTION OF MNEMONIC
#---------         -----------     ------------------------------
GL  .M        594.36               : gl           - GROUND LEVEL ELEVATION
EREF.M        597.408              : kb           - ELEVATION OF DEPTH REFERENCE
DATM.M        594.36               : datum        - DATUM ELEVATION
TDD .M        454.152              : tdd          - TOTAL DEPTH DRILLER
RUN .         ONE                  : Run          - RUN NUMBER
ENG .         BILL                 : Engineer     - RECORDING ENGINEER
WIT .         JIM                  : Witness      - WITNESSED BY
MUD .         GEL                  : Mud_type     - MUD TYPE
MATR.         SANDSTONE            : Logunit      - NEUTRON MATRIX
TMAX.C        25.5556              : BHT          - MAXIMUM RECORDED TEMPERATURE
BHTD.M        454.152              : BHTDEP       - MAXIMUM RECORDED TEMPERATURE
MATR.         1                    : LOGUNIT      - NEUTRON MATRIX
RMT .C        25                   : MDTP         - TEMPERATURE OF MUD
NEUT.         1                    : NEUTRON      - NEUTRON TYPE
RESI.         0                    : RESIST       - RESISTIVITY TYPE
RMC .OHMM     0.25                 : RMC          - RESISTIVITY OF MUD CAKE
RMF .OHMM     0.25                 : RMF          - RESISTIVITY OF MUD FILTRATE
SUFT.C        15                   : SUFT         - SURFACE TEMPERATURE
~A  DEPTH       GR     PHID     PHIN     RESD
# ...
  361.320   61.578    0.296    0.519    4.829
  361.570   61.208    0.290    0.521    4.740
  361.820   62.402    0.286    0.538    4.751
  362.070   65.654    0.282    0.555    4.754
  362.320   70.803    0.288    0.559    4.751
  362.570   73.563    0.280    0.562    4.844
  362.820   74.981    0.268    0.518    4.983
  363.070   73.926    0.296    0.486    5.003
  363.320   65.316    0.306    0.479    5.008
  363.570   61.538    0.311    0.517    4.969
  363.820   57.114    0.322    0.524    4.854
  364.070   54.511    0.313    0.483    4.791
  364.320   59.348    0.320    0.498    4.696
  364.570   61.012    0.328    0.516    4.696
  364.820   59.930    0.324    0.507    4.628
  365.070   61.092    0.314    0.520    4.632
  365.320   61.670    0.310    0.531    4.636
  365.570   61.783    0.318    0.540    4.639
  365.820   59.944    0.316    0.507    4.641
  366.070   56.337    0.325    0.504    4.645
  366.320   56.044    0.328    0.501    4.563
  366.570   55.045    0.322    0.518    4.572
  366.820   53.466    0.317    0.516    4.576
  367.070   52.686    0.310    0.501    4.569
  367.320   54.319    0.314    0.548    4.665
  367.570   55.687    0.319    0.573    4.735
  367.820   57.353    0.326    0.565    4.778
  368.070   58.253    0.320    0.543    4.922
  368.320   57.373    0.339    0.512    4.993
  368.570   54.690    0.328    0.521    5.173
  368.820   52.806    0.322    0.510    5.492
  369.070   49.947    0.327    0.472    5.986
  369.320   48.732    0.331    0.449    6.451
  369.570   48.705    0.332    0.453    6.750
  369.820   50.224    0.322    0.476    7.069
  370.070   52.648    0.313    0.492    7.233
  370.320   55.174    0.300    0.508    7.311
  370.570   55.200    0.273    0.496    7.320
  370.820   55.981    0.249    0.450    7.197
  371.070   57.937    0.263    0.428    6.784
  371.320   60.917    0.296    0.464    6.558
  371.570   63.089    0.321    0.494    6.215
  371.820   63.675    0.327    0.516    6.081
  372.070   61.367    0.318    0.506    6.072
  372.320   62.517    0.321    0.504    6.072
  372.570   63.888    0.320    0.495    6.125
  372.820   65.047    0.318    0.488    6.267
  373.070   66.066    0.309    0.480    6.389
  373.320   65.817    0.306    0.478    6.815
  373.570   63.988    0.307    0.498    7.410
  373.820   63.545    0.298    0.506    8.100
  374.070   66.181    0.289    0.521    9.039
  374.320   68.052    0.267    0.532    9.487
  374.570   68.174    0.220    0.519    9.811
  374.820   63.904    0.153    0.456    9.009
  375.070   53.287    0.094    0.349    8.056
  375.320   51.045    0.091    0.209    7.122
  375.570   57.761    0.234    0.353    6.537
  375.820   61.364    0.304    0.438    6.040
  376.070   65.903    0.312    0.496    5.910
  376.320   67.662    0.303    0.545    5.912
  376.570   67.420    0.304    0.542    5.892
  376.820   68.968    0.309    0.551    6.020
  377.070   71.203    0.308    0.537    6.149
  377.320   72.661    0.305    0.524    6.275
  377.570   73.189    0.300    0.520    6.485
  377.820   72.137    0.293    0.539    6.789
  378.070   70.647    0.288    0.518    7.158
  378.320   70.643    0.283    0.508    7.441
  378.570   70.990    0.270    0.509    7.664
  378.820   69.203    0.229    0.487    7.552
  379.070   65.062    0.190    0.432    7.373
  379.320   63.946    0.158    0.328    6.889
  379.570   62.938    0.226    0.357    6.540
  379.820   64.072    0.265    0.452    6.269
  380.070   64.485    0.298    0.490    6.020
  380.320   65.130    0.310    0.504    5.900
  380.570   65.828    0.310    0.485    5.790
  380.820   66.767    0.323    0.469    5.449
  381.070   67.294    0.320    0.480    5.496
  381.320   67.640    0.312    0.473    5.391
  381.570   70.647    0.309    0.498    5.397
  381.820   72.550    0.304    0.499    5.399
  382.070   73.502    0.301    0.495    5.403
  382.320   73.099    0.308    0.508    5.399
  382.570   72.866    0.313    0.526    5.516
  382.820   71.197    0.307    0.531    5.571
  383.070   70.858    0.299    0.519    5.574
  383.320   70.691    0.295    0.509    5.578
  383.570   71.105    0.295    0.506    5.575
  383.820   72.719    0.299    0.495    5.671
  384.070   73.607    0.295    0.494    5.665
  384.320   73.140    0.288    0.534    5.669
  384.570   72.299    0.281    0.561    5.664
  384.820   73.019    0.277    0.580    5.757
  385.070   74.101    0.285    0.578    5.811
  385.320   73.405    0.281    0.542    5.809
  385.570   71.885    0.285    0.511    5.840
  385.820   69.121    0.296    0.485    5.844
  386.070   69.595    0.290    0.502    5.850
  386.320   68.377    0.283    0.521    5.851
  386.570   68.343    0.277    0.530    5.813
  386.820   68.442    0.281    0.535    5.776
  387.070   69.894    0.289    0.521    5.569
  387.320   72.368    0.297    0.504    5.368
  387.570   75.587    0.289    0.490    4.558
  387.820   76.453    0.286    0.488    3.907
  388.070   77.354    0.287    0.519    3.490
  388.320   77.273    0.278    0.540    3.099
  388.570   82.110    0.273    0.554    2.889
  388.820   87.333    0.254    0.588    2.923
  389.070   89.633    0.238    0.612    3.258
  389.320   92.047    0.242    0.636    3.504
  389.570   92.173    0.229    0.625    3.960
  389.820   92.223    0.231    0.638    4.501
  390.070   91.249    0.240    0.622    4.882
  390.320   91.017    0.248    0.599    5.459
  390.570   91.067    0.245    0.541    5.864
  390.820   90.221    0.237    0.520    6.021
  391.070   88.596    0.238    0.510    6.157
  391.320   88.479    0.247    0.524    6.324
  391.570   88.670    0.245    0.512    6.342
  391.820   88.114    0.240    0.511    6.397
  392.070   85.027    0.235    0.501    6.353
  392.320   85.584    0.234    0.498    6.332
  392.570   87.481    0.244    0.505    6.255
  392.820   88.758    0.234    0.512    6.263
  393.070   89.985    0.242    0.505    6.172
  393.320   91.129    0.249    0.498    6.121
  393.570   89.687    0.237    0.503    6.046
  393.820   87.455    0.234    0.500    5.686
  394.070   87.621    0.240    0.518    5.633
  394.320   86.633    0.254    0.517    5.630
  394.570   83.983    0.244    0.492    5.719
  394.820   83.678    0.233    0.496    5.664
  395.070   82.627    0.223    0.511    5.631
  395.320   82.230    0.221    0.511    5.878
  395.570   84.201    0.227    0.520    5.925
  395.820   86.643    0.238    0.530    6.071
  396.070   88.271    0.243    0.552    6.131
  396.320   83.713    0.263    0.563    6.256
  396.570   79.069    0.272    0.538    6.382
  396.820   75.598    0.272    0.505    6.388
  397.070   72.049    0.266    0.506    6.300
  397.320   69.762    0.258    0.515    6.219
  397.570   70.330    0.234    0.530    6.066
  397.820   73.281    0.218    0.551    6.097
  398.070   74.561    0.265    0.559    6.236
  398.320   75.601    0.275    0.546    6.550
  398.570   73.768    0.290    0.538    6.829
  398.820   70.156    0.289    0.499    7.257
  399.070   66.835    0.289    0.463    7.456
  399.320   64.311    0.286    0.444    7.425
  399.570   63.018    0.277    0.415    7.302
  399.820   60.545    0.288    0.429    7.121
  400.070   60.444    0.305    0.473    6.627
  400.320   62.050    0.294    0.498    6.091
  400.570   63.152    0.292    0.494    5.929
  400.820   65.161    0.291    0.504    5.796
  401.070   66.412    0.290    0.525    5.745
  401.320   63.439    0.292    0.552    5.721
  401.570   61.654    0.297    0.542    5.804
  401.820   61.287    0.309    0.535    5.849
  402.070   62.332    0.304    0.523    5.992
  402.320   63.337    0.296    0.512    6.104
  402.570   62.862    0.289    0.515    6.674
  402.820   61.672    0.267    0.514    7.049
  403.070   62.361    0.247    0.498    7.446
  403.320   60.744    0.213    0.433    7.695
  403.570   59.870    0.191    0.366    7.729
  403.820   60.969    0.201    0.395    7.105
  404.070   61.179    0.268    0.485    6.409
  404.320   62.861    0.287    0.554    5.921
  404.570   63.432    0.284    0.516    5.658
