~VERSION INFORMATION
 VERS.                 2.0:   CWLS LOG ASCII STANDARD -VERSION 2.0
 WRAP.                  NO:   ONE LINE PER DEPTH STEP
~WELL INFORMATION BLOCK
#MNEM.UNIT           DATA                    DESCRIPTION OF MNEMONIC
#---------    -------------------            -------------------------------
# Generated from Intellog Unique Number	CS_67_68/WELL/2400
WELL.         BVI ET AL TOUCHWOOD            : Well_name    - WELL
LOC .         00/06-27-067-10W4/0            : Location     - LOCATION
UWI .         00/06-27-067-10W4/0            : Uwi          - UNIQUE WELL ID
ENTR.         ANDERSEN                       : Entered      - ENTERED BY
SRVC.         COMPUTALOG                     : Scn          - SERVICE COMPANY
STRT.M        355                            : top_depth    - START DEPTH
STOP.M        570                            : bot_depth    - STOP DEPTH
STEP.M        0.25                           : increment    - STEP LENGTH
 NULL. -999.2500:NULL Value
~CURVE INFORMATION BLOCK
#MNEM UNIT       ERCB CURVE CODE    CURVE DESCRIPTION
#-----------   ------------------   ----------------------------------
DEPT.M        00 001 00 00         : DEPTH        - DEPTH
GR  .API      00 310 00 00         : GR           - GAMMA RAY
CALI.MM       00 280 01 00         : CAL          - CALIPER
NPHI.V/V      00 330 00 00         : PHIN         - NEUTRON POROSITY (SANDSTONE)
DPHI.V/V      00 890 00 00         : PHID         - DENSITY POROSITY (SANDSTONE)
ILD .OHMM     00 120 00 00         : RESD         - DEEP RESISTIVITY (DIL)
~PARAMETER INFORMATION
#MNEM.UNIT           DATA             DESCRIPTION OF MNEMONIC
#---------         -----------     ------------------------------
GL  .M        645                  : gl           - GROUND LEVEL ELEVATION
EREF.M        649.15               : kb           - ELEVATION OF DEPTH REFERENCE
DATM.M        649.15               : datum        - DATUM ELEVATION
TDD .M        583                  : tdd          - TOTAL DEPTH DRILLER
RUN .         ONE                  : Run          - RUN NUMBER
ENG .         BILL                 : Engineer     - RECORDING ENGINEER
WIT .         JIM                  : Witness      - WITNESSED BY
MUD .         GEL                  : Mud_type     - MUD TYPE
MATR.         SANDSTONE            : Logunit      - NEUTRON MATRIX
TMAX.C        28                   : BHT          - MAXIMUM RECORDED TEMPERATURE
BHTD.M        583                  : BHTDEP       - MAXIMUM RECORDED TEMPERATURE
MATR.         1                    : LOGUNIT      - NEUTRON MATRIX
RMT .C        18                   : MDTP         - TEMPERATURE OF MUD
NEUT.         1                    : NEUTRON      - NEUTRON TYPE
RESI.         0                    : RESIST       - RESISTIVITY TYPE
RMC .OHMM     3.2                  : RMC          - RESISTIVITY OF MUD CAKE
RMF .OHMM     2.8                  : RMF          - RESISTIVITY OF MUD FILTRATE
SUFT.C        15                   : SUFT         - SURFACE TEMPERATURE
~A  DEPTH       GR      CAL     PHIN     PHID     RESD
# ...
  464.500   66.786  180.071    0.320    0.213    2.837
  464.750   65.574  180.025    0.337    0.233    2.835
  465.000   69.690  179.979    0.382    0.206    2.887
  465.250   66.104  179.933    0.376    0.208    2.939
  465.500   64.301  180.873    0.374    0.210    3.221
  465.750   65.464  180.839    0.357    0.187    3.467
  466.000   68.395  180.793    0.337    0.183    3.871
  466.250   67.184  179.760    0.391    0.222    4.323
  466.500   69.524  179.714    0.401    0.237    4.320
  466.750   68.320  180.655    0.383    0.227    4.319
  467.000   73.619  181.595    0.377    0.217    3.934
  467.250   77.142  183.522    0.373    0.227    4.157
  467.500   78.890  183.476    0.373    0.240    4.473
  467.750   72.352  183.419    0.366    0.228    4.639
  468.000   65.222  183.373    0.390    0.202    4.552
  468.250   66.378  183.327    0.403    0.196    4.466
  468.500   68.718  184.255    0.394    0.186    4.302
  468.750   68.684  185.219    0.374    0.157    4.220
  469.000   68.064  185.173    0.344    0.153    4.142
  469.250   71.595  185.127    0.342    0.162    3.989
  469.500   69.792  185.081    0.336    0.135    3.988
  469.750   61.478  185.035    0.296    0.095    4.059
  470.000   54.341  184.989    0.270    0.059    4.133
  470.250   58.463  184.943    0.268    0.077    4.287
  470.500   64.946  184.908    0.348    0.096    4.364
  470.750   69.069  183.876    0.381    0.121    4.444
  471.000   75.552  181.857    0.391    0.203    4.524
  471.250   79.075  181.811    0.387    0.216    4.959
  471.500   76.088  181.765    0.374    0.213    5.436
  471.750   75.469  181.708    0.388    0.203    6.183
  472.000   74.257  181.662    0.397    0.203    7.164
  472.250   75.406  182.602    0.392    0.198    7.710
  472.500   84.856  182.556    0.381    0.197    7.157
  472.750   87.787  182.510    0.385    0.203    5.946
  473.000   83.617  182.464    0.393    0.197    4.940
  473.250   80.031  182.418    0.386    0.187    4.672
  473.500   85.337  183.347    0.386    0.181    4.337
  473.750   87.684  184.310    0.396    0.179    4.255
  474.000   83.513  184.276    0.397    0.184    4.175
  474.250   77.553  185.205    0.383    0.190    4.097
  474.500   80.492  186.145    0.399    0.189    4.094
  474.750   85.206  186.111    0.412    0.194    4.092
  475.000   89.906  188.026    0.427    0.205    4.090
  475.250   92.253  188.966    0.443    0.225    4.087
  475.500   92.817  188.920    0.443    0.234    4.086
  475.750   89.232  189.849    0.466    0.231    4.084
  476.000   88.020  189.826    0.516    0.227    4.007
  476.250   87.401  190.755    0.504    0.216    3.932
  476.500   88.557  190.721    0.495    0.214    3.582
  476.750   89.720  191.661    0.484    0.236    3.264
  477.000   92.652  191.604    0.506    0.245    3.145
  477.250   97.352  191.558    0.497    0.249    2.919
  477.500   94.964  191.512    0.500    0.251    2.710
  477.750   90.201  191.466    0.446    0.244    2.516
  478.000   84.255  191.420    0.444    0.233    2.335
  478.250   79.493  191.397    0.462    0.222    2.168
  478.500   87.159  191.328    0.454    0.210    2.012
  478.750   84.771  191.305    0.424    0.206    1.938
  479.000   85.927  191.247    0.404    0.208    1.867
  479.250   88.852  191.201    0.440    0.208    1.901
  479.500   88.825  191.167    0.442    0.206    1.971
  479.750   86.429  190.134    0.444    0.201    2.121
  480.000   83.449  188.104    0.434    0.194    2.283
  480.250   76.320  187.060    0.412    0.182    2.412
  480.500   73.333  187.037    0.401    0.172    2.455
  480.750   72.121  186.979    0.389    0.166    2.454
  481.000   70.311  186.945    0.395    0.169    2.453
  481.250   71.474  186.876    0.417    0.162    2.497
  481.500   77.950  186.853    0.403    0.165    2.638
  481.750   79.705  186.795    0.395    0.177    2.839
  482.000   81.453  186.749    0.403    0.184    3.055
  482.250   81.425  186.703    0.413    0.182    3.288
  482.500   81.398  186.669    0.424    0.176    3.538
  482.750   78.411  186.611    0.436    0.170    3.950
  483.000   74.825  186.565    0.424    0.165    4.251
  483.250   71.246  186.531    0.402    0.158    4.171
  483.500   68.858  186.462    0.392    0.165    4.092
  483.750   70.014  186.450    0.395    0.171    4.016
  484.000   71.171  186.404    0.384    0.168    3.941
  484.250   69.959  186.347    0.368    0.179    3.866
  484.500   75.258  186.312    0.374    0.185    3.864
  484.750   76.421  186.255    0.393    0.185    3.862
  485.000   76.387  186.209    0.369    0.176    3.860
  485.250   75.182  186.163    0.370    0.175    3.858
  485.500   73.379  186.128    0.368    0.168    3.928
  485.750   72.168  185.084    0.354    0.165    3.999
  486.000   68.589  185.038    0.353    0.156    4.071
  486.250   65.010  185.979    0.378    0.167    4.145
  486.500   80.371  185.944    0.393    0.171    4.143
  486.750   75.017  185.898    0.383    0.177    4.218
  487.000   74.390  184.866    0.381    0.170    4.294
  487.250   76.737  183.833    0.382    0.161    4.372
  487.500   74.934  183.787    0.384    0.166    4.450
  487.750   66.620  183.730    0.370    0.152    4.448
  488.000   60.674  183.672    0.350    0.145    4.530
  488.250   72.484  183.638    0.350    0.172    4.527
  488.500   76.007  183.615    0.386    0.183    4.525
  488.750   81.306  183.569    0.379    0.188    4.439
  489.000   80.088  183.523    0.378    0.195    4.356
  489.250   79.483  182.490    0.382    0.201    4.274
  489.500   78.271  181.458    0.384    0.197    4.351
  489.750   75.284  181.400    0.359    0.180    4.598
  490.000   61.637  181.354    0.333    0.142    4.595
  490.250   50.357  181.308    0.315    0.093    4.508
  490.500   50.336  181.251    0.270    0.080    4.343
  490.750   52.669  181.216    0.243    0.085    4.504
  491.000   53.240  183.143    0.263    0.092    5.316
  491.250   60.914  183.086    0.279    0.131    6.391
  491.500   69.764  183.051    0.321    0.217    7.405
  491.750   72.696  181.032    0.405    0.217    9.069
  492.000   67.342  180.000    0.393    0.194    9.941
  492.250   62.572  180.940    0.394    0.195    8.414
  492.500   70.246  181.892    0.390    0.215    6.493
  492.750   75.545  182.821    0.367    0.240    5.495
  493.000   79.069  182.775    0.355    0.231    4.826
  493.250   80.810  182.729    0.361    0.206    4.480
  493.500   78.421  181.720    0.370    0.193    4.395
  493.750   71.291  181.651    0.355    0.193    4.643
  494.000   65.345  180.641    0.350    0.176    4.641
  494.250   74.196  180.595    0.340    0.130    4.639
  494.500   77.127  180.549    0.348    0.149    4.551
  494.750   78.882  181.490    0.372    0.181    4.549
  495.000   76.487  181.444    0.371    0.197    4.464
  495.250   73.493  182.373    0.349    0.211    4.462
  495.500   71.690  182.327    0.355    0.234    4.459
  495.750   72.254  182.281    0.382    0.234    4.375
  496.000   74.002  182.234    0.413    0.233    4.137
  496.250   74.573  182.200    0.451    0.246    3.567
  496.500   73.954  182.154    0.469    0.262    3.133
  496.750   70.375  183.083    0.502    0.274    2.803
  497.000   73.307  183.048    0.479    0.264    2.372
  497.250   76.239  184.975    0.454    0.251    2.162
  497.500   74.436  185.916    0.464    0.237    1.934
  497.750   70.265  186.856    0.496    0.233    1.667
  498.000   67.870  186.810    0.467    0.218    1.577
  498.250   72.577  186.764    0.478    0.205    1.547
  498.500   68.400  186.718    0.452    0.208    1.575
  498.750   73.114  187.659    0.446    0.213    1.664
  499.000   81.971  190.572    0.441    0.220    1.790
  499.250   80.168  191.512    0.430    0.225    1.891
  499.500   83.100  191.466    0.440    0.231    2.035
  499.750   87.807  191.420    0.448    0.236    2.072
  500.000   90.140  191.374    0.453    0.235    2.071
  500.250   85.976  191.328    0.444    0.230    2.070
  500.500   78.254  191.282    0.414    0.215    2.069
  500.750   79.410  189.263    0.414    0.216    2.030
