~VERSION INFORMATION
 VERS.                 2.0:   CWLS LOG ASCII STANDARD -VERSION 2.0
 WRAP.                  NO:   ONE LINE PER DEPTH STEP
~WELL INFORMATION BLOCK
#MNEM.UNIT           DATA                    DESCRIPTION OF MNEMONIC
#---------    -------------------            -------------------------------
# Generated from Intellog Unique Number	CS_77_79/WELL/3270
WELL.         LOGAN RESOURCES LTD.           : Well_name    - WELL
LOC .         00/03-02-077-14W4/0            : Location     - LOCATION
UWI .         00/03-02-077-14W4/0            : Uwi          - UNIQUE WELL ID
ENTR.         JO                             : Entered      - ENTERED BY
SRVC.         SCHLUMBERGER                   : Scn          - SERVICE COMPANY
DATE.         05/22/92                       : Date         - LOG DATE
STRT.M        285                            : top_depth    - START DEPTH
STOP.M        515                            : bot_depth    - STOP DEPTH
STEP.M        0.25                           : increment    - STEP LENGTH
 NULL. -999.2500:NULL Value
~CURVE INFORMATION BLOCK
#MNEM UNIT       ERCB CURVE CODE    CURVE DESCRIPTION
#-----------   ------------------   ----------------------------------
DEPT.M        00 001 00 00         : DEPTH        - DEPTH
ILD .OHMM     00 120 00 00         : RESD         - DEEP RESISTIVITY (DIL)
DPHI.V/V      00 890 00 00         : PHID         - DENSITY POROSITY (SANDSTONE)
NPHI.V/V      00 330 00 00         : PHIN         - NEUTRON POROSITY (SANDSTONE)
GR  .API      00 310 00 00         : GR           - GAMMA RAY
~PARAMETER INFORMATION
#MNEM.UNIT           DATA             DESCRIPTION OF MNEMONIC
#---------         -----------     ------------------------------
GL  .M        671.9                : gl           - GROUND LEVEL ELEVATION
EREF.M        675.4                : kb           - ELEVATION OF DEPTH REFERENCE
DATM.M        675.4                : datum        - DATUM ELEVATION
TDD .M        522                  : tdd          - TOTAL DEPTH DRILLER
RUN .         ONE                  : Run          - RUN NUMBER
ENG .         BILL                 : Engineer     - RECORDING ENGINEER
WIT .         JIM                  : Witness      - WITNESSED BY
MUD .         GEL                  : Mud_type     - MUD TYPE
MATR.         SANDSTONE            : Logunit      - NEUTRON MATRIX
TMAX.C        30                   : BHT          - MAXIMUM RECORDED TEMPERATURE
BHTD.M        522.2                : BHTDEP       - MAXIMUM RECORDED TEMPERATURE
RMT .C        18                   : MDTP         - TEMPERATURE OF MUD
MUDD.KG/M     1160                 : MWT          - MUD DENSITY
NEUT.         1                    : NEUTRON      - NEUTRON TYPE
RESI.         0                    : RESIST       - RESISTIVITY TYPE
RM  .OHMM     2.8                  : RM           - RESISTIVITY OF MUD
RMC .OHMM     1.9                  : RMC          - RESISTIVITY OF MUD CAKE
RMF .OHMM     2.2                  : RMF          - RESISTIVITY OF MUD FILTRATE
SUFT.C        4                    : SUFT         - SURFACE TEMPERATURE
~A  DEPTH     RESD     PHID     PHIN       GR
# ...
  328.500   10.585    0.332    0.451   69.953
  328.750   10.577    0.321    0.456   68.751
  329.000   10.560    0.311    0.401   58.645
  329.250   10.750    0.293    0.380   46.758
  329.500   11.144    0.278    0.369   40.202
  329.750   11.766    0.284    0.374   39.000
  330.000   12.201    0.293    0.385   47.286
  330.250   12.420    0.295    0.392   47.859
  330.500   12.633    0.294    0.392   58.517
  330.750   12.623    0.305    0.403   63.243
  331.000   12.607    0.312    0.397   53.731
  331.250   12.597    0.317    0.391   51.930
  331.500   12.581    0.320    0.388   56.063
  331.750   12.565    0.311    0.393   45.957
  332.000   12.790    0.308    0.395   41.190
  332.250   13.016    0.312    0.393   39.380
  332.500   13.002    0.326    0.391   41.738
  332.750   13.235    0.328    0.383   41.718
  333.000   13.466    0.327    0.383   44.065
  333.250   13.455    0.328    0.394   48.796
  333.500   13.441    0.334    0.394   42.843
  333.750   13.441    0.338    0.399   42.823
  334.000   13.658    0.328    0.389   49.922
  334.250   13.647    0.314    0.401   49.308
  334.500   13.630    0.325    0.416   42.762
  334.750   13.871    0.336    0.417   43.330
  335.000   14.116    0.347    0.416   37.970
  335.250   14.365    0.344    0.410   43.289
  335.500   14.618    0.344    0.406   50.982
  335.750   14.877    0.342    0.401   45.622
  336.000   15.139    0.345    0.395   52.721
  336.250   15.403    0.349    0.406   47.361
  336.500   15.679    0.352    0.418   52.675
  336.750   15.655    0.343    0.409   53.253
  337.000   15.647    0.336    0.404   59.166
  337.250   15.631    0.334    0.408   57.366
  337.500   15.615    0.340    0.417   52.006
  337.750   15.595    0.345    0.420   49.019
  338.000   15.579    0.344    0.398   56.113
  338.250   15.281    0.341    0.402   54.906
  338.500   15.265    0.334    0.399   60.225
  338.750   14.966    0.335    0.380   61.392
  339.000   14.680    0.335    0.380   57.218
  339.250   14.392    0.332    0.401   52.452
  339.500   14.109    0.338    0.408   58.359
  339.750   13.582    0.350    0.397   57.157
  340.000   13.572    0.359    0.385   52.984
  340.250   13.309    0.350    0.382   55.930
  340.500   12.805    0.333    0.424   61.838
  340.750   12.563    0.335    0.442   59.449
  341.000   12.317    0.335    0.457   58.242
  341.250   12.078    0.326    0.441   60.595
  341.500   12.063    0.323    0.422   51.077
  341.750   11.829    0.336    0.392   48.091
  342.000   11.814    0.341    0.423   58.151
  342.250   11.805    0.335    0.413   53.390
  342.500   11.796    0.343    0.401   55.149
  342.750   11.796    0.363    0.417   58.095
  343.000   11.341    0.362    0.447   56.883
  343.250   12.665    0.354    0.408   54.490
  343.500   12.885    0.352    0.399   52.695
  343.750   13.109    0.353    0.440   53.263
  344.000   13.347    0.351    0.431   48.496
  344.250   14.898    0.280    0.400   46.097
  344.500   16.032    0.226    0.391   50.235
  344.750   16.931    0.189    0.373   48.430
  345.000   16.290    0.132    0.321   47.228
  345.250   15.107    0.060    0.282   41.868
  345.500   14.283    0.247    0.281   37.102
  345.750   12.999    0.293    0.379   48.947
  346.000   12.753    0.325    0.426   51.300
  346.250   12.277    0.342    0.412   58.399
  346.500   12.030    0.355    0.415   53.633
  346.750   12.021    0.357    0.413   45.894
  347.000   12.008    0.363    0.424   49.434
  347.250   12.220    0.364    0.423   41.701
  347.500   12.433    0.354    0.441   40.494
  347.750   12.659    0.359    0.428   45.220
  348.000   13.120    0.354    0.422   49.941
  348.250   13.602    0.354    0.433   53.485
  348.500   13.842    0.350    0.412   47.532
  348.750   13.831    0.343    0.402   38.607
  349.000   14.328    0.357    0.426   40.367
  349.250   14.320    0.352    0.429   43.313
  349.500   14.573    0.343    0.415   40.919
  349.750   14.831    0.339    0.422   45.052
  350.000   14.812    0.337    0.409   50.371
  350.250   15.073    0.345    0.403   44.418
  350.500   15.335    0.347    0.414   39.053
  350.750   15.328    0.344    0.387   43.191
  351.000   15.308    0.345    0.398   43.764
  351.250   15.288    0.346    0.427   42.557
  351.500   15.280    0.344    0.439   38.972
  351.750   15.257    0.341    0.410   34.799
  352.000   14.969    0.334    0.404   47.836
  352.250   14.950    0.334    0.401   43.064
  352.500   14.657    0.350    0.429   43.632
  352.750   14.638    0.354    0.419   41.244
  353.000   14.362    0.356    0.430   40.630
  353.250   14.080    0.351    0.421   44.169
  353.500   13.807    0.345    0.438   39.403
  353.750   13.288    0.348    0.429   35.224
  354.000   13.281    0.355    0.423   35.209
  354.250   13.024    0.356    0.407   44.088
  354.500   12.772    0.359    0.391   42.881
  354.750   12.521    0.359    0.425   44.641
  355.000   12.508    0.348    0.463   47.582
  355.250   12.263    0.342    0.442   39.256
  355.500   12.254    0.347    0.417   41.608
  355.750   12.235    0.352    0.418   42.775
  356.000   12.225    0.360    0.422   39.195
  356.250   12.210    0.369    0.397   36.801
  356.500   12.203    0.365    0.403   39.154
  356.750   12.188    0.356    0.418   41.502
  357.000   12.175    0.350    0.411   41.481
  357.250   12.163    0.345    0.406   39.681
  357.500   12.150    0.348    0.398   37.283
  357.750   12.135    0.350    0.401   34.296
  358.000   12.135    0.347    0.408   33.089
  358.250   12.339    0.356    0.419   38.413
  358.500   12.097    0.356    0.428   43.139
  358.750   12.308    0.351    0.415   40.746
  359.000   12.302    0.357    0.396   37.166
  359.250   12.286    0.355    0.401   36.552
  359.500   12.503    0.348    0.410   32.972
  359.750   12.490    0.344    0.406   41.258
  360.000   12.474    0.347    0.415   41.238
  360.250   12.461    0.357    0.428   47.150
  360.500   12.448    0.366    0.417   46.537
  360.750   12.439    0.373    0.423   46.511
  361.000   12.198    0.368    0.443   45.304
  361.250   12.182    0.362    0.439   45.279
  361.500   12.170    0.367    0.411   44.072
  361.750   12.154    0.366    0.419   40.497
  362.000   12.148    0.353    0.425   43.443
  362.250   12.133    0.360    0.410   42.830
  362.500   12.117    0.369    0.401   43.403
  362.750   12.111    0.374    0.404   43.382
  363.000   12.095    0.378    0.421   46.917
  363.250   12.080    0.383    0.444   49.868
  363.500   12.070    0.374    0.438   49.254
  363.750   12.058    0.367    0.440   47.444
  364.000   12.265    0.358    0.445   46.830
  364.250   12.485    0.358    0.454   46.810
  364.500   12.475    0.364    0.460   48.570
  364.750   12.695    0.370    0.442   50.928
  365.000   12.913    0.366    0.413   55.060
  365.250   12.666    0.332    0.444   50.294
  365.500   12.190    0.323    0.464   48.493
  365.750   11.516    0.366    0.472   51.435
  366.000   11.298    0.375    0.472   52.013
  366.250   11.287    0.362    0.446   55.552
  366.500   11.701    0.354    0.443   54.938
  366.750   12.824    0.354    0.443   60.258
  367.000   13.796    0.362    0.460   56.673
  367.250   15.399    0.372    0.454   57.246
  367.500   16.567    0.371    0.455   58.412
  367.750   17.487    0.359    0.463   67.291
  368.000   17.805    0.337    0.457   70.232
  368.250   16.520    0.325    0.428   73.183
  368.500   15.043    0.313    0.434   65.450
  368.750   13.694    0.274    0.463   60.090
  369.000   12.700    0.245    0.476   68.376
  369.250   12.000    0.251    0.462   68.356
  369.500   11.552    0.262    0.495   67.737
  369.750   10.913    0.296    0.470   69.502
  370.000   10.707    0.302    0.463   73.036
  370.250   10.696    0.315    0.455   68.269
  370.500   10.685    0.324    0.463   70.622
  370.750   10.672    0.336    0.458   71.788
  371.000   10.661    0.350    0.460   77.108
  371.250   10.647    0.352    0.484   76.494
  371.500   10.636    0.344    0.494   68.756
  371.750   10.628    0.340    0.484   72.300
