~VERSION INFORMATION
 VERS.                 2.0:   CWLS LOG ASCII STANDARD -VERSION 2.0
 WRAP.                  NO:   ONE LINE PER DEPTH STEP
~WELL INFORMATION BLOCK
#MNEM.UNIT           DATA                    DESCRIPTION OF MNEMONIC
#---------    -------------------            -------------------------------
# Generated from Intellog Unique Number	CW_70_72/WELL/2904
NULL.         -999.25                        : NULL_VALUE
COMP .        CALMARK RESOURCES LTD          :  COMPANY
WELL.         CALMARK ET AL MISTAHAE         : Well_name    - WELL              
LOC .         09-25-079-01W5                 : Location     - LOCATION          
UWI .         00/09-25-079-01W5/0            : Uwi          - UNIQUE WELL ID    
ENTR.         MAX                            : Entered      - ENTERED BY        
SRVC.         COMPUTALOG                     : Scn          - SERVICE COMPANY   
DATE.         25 FEB 89                      : Date         - LOG DATE
STRT.M        245                            : top_depth    - START DEPTH       
STOP.M        500                            : bot_depth    - STOP DEPTH        
STEP.M        0.25                           : increment    - STEP LENGTH       
~CURVE INFORMATION BLOCK
#MNEM UNIT       ERCB CURVE CODE    CURVE DESCRIPTION
#-----------   ------------------   ----------------------------------
DEPT.M        00 001 00 00         : DEPTH        - DEPTH                       
ILD .OHMM     00 120 00 00         : RESD         - DEEP RESISTIVITY (DIL)      
NPHI.V/V      00 330 00 00         : PHIN         - NEUTRON POROSITY (SANDSTONE)
DPHI.V/V      00 890 00 00         : PHID         - DENSITY POROSITY (SANDSTONE)
CALI.MM       00 280 01 00         : CAL          - CALIPER                     
GR  .API      00 310 00 00         : GR           - GAMMA RAY                   
~PARAMETER INFORMATION       
#MNEM.UNIT           DATA             DESCRIPTION OF MNEMONIC
#---------         -----------     ------------------------------
GL  .M        570.5                : gl           - GROUND LEVEL ELEVATION      
EREF.M        574.14               : kb           - ELEVATION OF DEPTH REFERENCE
DATM.M        570.5                : datum        - DATUM ELEVATION             
TDD .M        521                  : tdd          - TOTAL DEPTH DRILLER         
RUN .         ONE                  : Run          - RUN NUMBER                  
ENG .         BILL                 : Engineer     - RECORDING ENGINEER          
WIT .         JIM                  : Witness      - WITNESSED BY                
MUD .         GEL                  : Mud_type     - MUD TYPE                    
MATR.         SANDSTONE            : Logunit      - NEUTRON MATRIX              
TMAX.C        21                   : BHT          - MAXIMUM RECORDED TEMPERATURE
BHTD.M        521                  : BHTDEP       - MAXIMUM RECORDED TEMPERATURE
RMT .C        14.4                 : MDTP         - TEMPERATURE OF MUD          
MUDD.KG/M     950                  : MWT          - MUD DENSITY                 
NEUT.         1                    : NEUTRON      - NEUTRON TYPE                
RESI.         0                    : RESIST       - RESISTIVITY TYPE            
RM  .OHMM     2.2                  : RM           - RESISTIVITY OF MUD          
RMC .OHMM     1.9                  : RMC          - RESISTIVITY OF MUD CAKE     
RMF .OHMM     2                    : RMF          - RESISTIVITY OF MUD FILTRATE 
SUFT.C        -20                  : SUFT         - SURFACE TEMPERATURE         
~A  DEPTH     RESD     PHIN     PHID      CAL       GR
# ...
  464.000    9.217    0.355    0.229  158.618   85.615
  464.250    8.178    0.399    0.191  158.104   81.194
  464.500    8.250    0.460    0.232  158.075   81.173
  464.750    8.631    0.510    0.331  159.028   82.627
  465.000    9.031    0.530    0.361  160.952   84.955
  465.250    9.110    0.516    0.367  163.369   90.809
  465.500    8.940    0.476    0.356  165.293   90.791
  465.750    8.615    0.441    0.330  165.264   80.795
  466.000    8.452    0.442    0.229  164.261   81.950
  466.250    7.925    0.484    0.262  164.721   85.454
  466.500    7.362    0.512    0.326  166.156   88.369
  466.750    6.903    0.514    0.340  170.039   90.112
  467.000    6.354    0.502    0.369  202.781   92.447
  467.250    6.011    0.480    0.388  218.888   95.070
  467.500    5.740    0.471    0.367  208.103   98.279
  467.750    5.581    0.448    0.342  199.272   96.794
  468.000    5.681    0.423    0.248  172.341   93.845
  468.250    5.891    0.402    0.135  166.444   89.717
  468.500    6.452    0.386    0.101  163.970   84.418
  468.750    7.132    0.342    0.088  163.937   77.943
  469.000    7.740    0.408    0.131  169.288   80.863
  469.250    7.951    0.445    0.295  180.511   92.876
  469.500    7.948    0.468    0.281  176.074  100.488
  469.750    7.588    0.456    0.272  170.173   97.828
  470.000    7.179    0.433    0.262  169.166   97.519
  470.250    6.792    0.417    0.248  170.605   92.805
  470.500    6.485    0.400    0.250  170.094   90.440
  470.750    6.482    0.385    0.236  169.084   83.672
  471.000    6.783    0.373    0.221  168.566   83.066
  471.250    7.227    0.418    0.207  167.555   84.227
  471.500    7.562    0.444    0.222  169.483   91.543
  471.750    7.627    0.451    0.238  173.370  102.383
  472.000    7.624    0.454    0.250  172.853  104.715
  472.250    7.620    0.420    0.259  171.353  104.405
  472.500    7.686    0.362    0.264  169.372  100.864
  472.750    7.969    0.305    0.135  164.934   90.576
  473.000    8.415    0.238    0.078  162.457   65.322
  473.250    9.301    0.210    0.003  161.946   58.849
  473.500   11.062    0.208    0.013  162.406   65.581
  473.750   12.006    0.234    0.106  162.860   74.367
  474.000   15.222    0.276    0.132  162.838   77.281
  474.250   17.294    0.311    0.149  162.809   82.842
  474.500   16.512    0.327    0.168  164.733  106.888
  474.750   14.520    0.334    0.180  165.190  106.871
  475.000   11.975    0.341    0.193  164.672   89.832
  475.250   10.923    0.344    0.179  163.662   84.240
  475.500   10.429    0.350    0.167  163.640   80.699
  475.750   10.329    0.363    0.196  163.590   71.292
  476.000   10.515    0.360    0.227  164.557   67.460
  476.250   11.001    0.378    0.235  167.952   70.964
  476.500   11.617    0.406    0.231  169.394   81.509
  476.750   12.266    0.393    0.262  168.873   86.775
  477.000   12.259    0.368    0.237  167.866   87.638
  477.250   12.032    0.345    0.205  166.366   79.990
  477.500   11.807    0.297    0.118  163.892   63.540
  477.750   11.802    0.295    0.142  161.418   60.882
  478.000   12.349    0.316    0.167  159.926   69.961
  478.250   14.029    0.329    0.229  160.379   73.757
  478.500   14.949    0.347    0.204  161.818   71.977
  478.750   15.219    0.348    0.198  163.256   73.137
  479.000   14.665    0.330    0.200  164.202   77.522
  479.250   13.622    0.320    0.193  164.173   82.199
  479.500   12.312    0.327    0.183  164.144   85.116
  479.750   11.127    0.327    0.175  164.123   85.975
  480.000   10.149    0.330    0.167  164.123   84.487
  480.250    9.515    0.337    0.126  164.540   82.419
  480.500    8.920    0.350    0.105  164.515   81.815
  480.750    8.517    0.361    0.105  164.486   86.202
  481.000    7.985    0.372    0.129  164.465   93.227
  481.250    7.985    0.388    0.177  164.418   94.677
  481.500    7.548    0.414    0.245  164.407   96.712
  481.750    7.410    0.457    0.347  164.375   99.922
  482.000    7.272    0.416    0.311  164.343  103.722
  482.250    7.272    0.390    0.211  164.321  108.693
  482.500    7.197    0.365    0.183  164.289  113.077
  482.750    7.261    0.352    0.172  164.260  111.588
  483.000    7.324    0.347    0.162  164.228  104.822
  483.250    7.388    0.358    0.150  164.228   98.352
  483.500    7.384    0.356    0.136  164.645   93.639
  483.750    7.246    0.352    0.132  165.116   91.270
  484.000    6.671    0.349    0.120  165.584   90.668
  484.250    5.974    0.344    0.097  166.040   90.356
  484.500    5.350    0.336    0.105  166.501   90.634
  484.750    5.016    0.345    0.120  166.472   98.833
  485.000    4.878    0.385    0.155  166.436  104.391
  485.250    4.875    0.393    0.168  166.415  108.482
  485.500    5.195    0.393    0.162  166.415  109.634
  485.750    5.690    0.390    0.160  166.354  105.513
  486.000    6.405    0.396    0.159  166.814  101.681
  486.250    7.277    0.404    0.156  166.760   96.669
  486.500    8.044    0.422    0.151  166.746   96.656
  486.750    8.730    0.445    0.127  167.217   98.984
  487.000    9.218    0.458    0.082  167.217  101.903
  487.250    9.383    0.475    0.052  167.145   94.842
  487.500    8.638    0.486    0.051  167.613   91.012
  487.750    6.154    0.513    0.096  168.076   97.744
  488.000    5.314    0.520    0.164  168.048  106.236
  488.250    4.891    0.506    0.150  168.512  112.672
  488.500    4.502    0.493    0.085  168.961  104.732
  488.750    4.259    0.483    0.086  168.940  101.194
  489.000    4.219    0.477    0.112  168.940  104.404
  489.250    4.216    0.479    0.153  168.864  112.603
  489.500    4.292    0.474    0.161  168.854  114.933
  489.750    4.292    0.467    0.156  168.818  113.151
  490.000    4.406    0.461    0.155  168.796  112.549
  490.250    4.486    0.461    0.154  168.760  113.708
  490.500    4.526    0.476    0.155  168.735  116.623
  490.750    4.482    0.508    0.155  168.706  117.779
  491.000    4.359    0.504    0.153  168.678  116.882
  491.250    4.086    0.490    0.117  168.645  108.353
  491.500    3.937    0.490    0.086  168.131  103.934
  491.750    3.759    0.493    0.097  168.099  110.081
  492.000    3.757    0.475    0.134  168.066  114.757
  492.250    3.790    0.363    0.169  166.085  103.589
  492.500    3.966    0.315    0.295  161.651   78.923
  492.750    4.149    0.260    0.301  159.177   59.537
  493.000    4.341    0.245    0.288  158.660   20.196
  493.250    4.798    0.259    0.274  159.123   22.235
  493.500    5.304    0.283    0.224  160.562   33.953
  493.750    6.912    0.319    0.160  162.486   54.478
  494.000    7.925    0.385    0.150  164.902  109.337
  494.250    7.707    0.484    0.208  165.852  128.393
  494.500    7.358    0.471    0.271  164.841  138.646
  494.750    6.712    0.449    0.304  162.367  128.359
  495.000    6.235    0.354    0.287  158.919  111.614
  495.250    5.845    0.269    0.253  156.930   33.830
  495.500    5.789    0.241    0.198  157.394   30.587
  495.750    6.113    0.216    0.155  158.333   25.579
  496.000    7.541    0.193    0.131  158.311   21.452
  496.250    9.561    0.184    0.109  157.301   20.261
  496.500   11.372    0.179    0.087  156.787   20.244
  496.750   18.973    0.176    0.070  155.780   16.703
  497.000   27.346    0.175    0.056  155.258   16.397
  497.250   31.068    0.182    0.044  154.255   15.793
  497.500   33.411    0.216    0.047  154.219   14.889
  497.750   35.602    0.251    0.056  155.658   14.876
  498.000   37.595    0.287    0.270  157.589   16.326
  498.250   38.977    0.294    0.250  162.936   19.827
  498.500   39.316    0.279    0.215  164.867   21.866
  498.750   37.532    0.271    0.174  166.302   23.023
  499.000   34.868    0.278    0.153  167.741   24.473
  499.250   32.096    0.292    0.155  169.672   26.803
  499.500   31.499    0.295    0.166  174.526   23.558
  499.750   31.773    0.293    0.187  175.476   21.189
  500.000   32.343    0.280    0.182  176.921   20.291
