~VERSION INFORMATION
 VERS.                 2.0:   CWLS LOG ASCII STANDARD -VERSION 2.0
 WRAP.                  NO:   ONE LINE PER DEPTH STEP
~WELL INFORMATION BLOCK
#MNEM.UNIT           DATA                    DESCRIPTION OF MNEMONIC
#---------    -------------------            -------------------------------
# Generated from Intellog Unique Number	CW_73_75/WELL/2728
WELL.         ALLIED ET AL CALL 06-21        : Well_name    - WELL
LOC .         00/06-21-073-20W4/0            : Location     - LOCATION
UWI .         00/06-21-073-20W4/0            : Uwi          - UNIQUE WELL ID
ENTR.         JAYE                           : Entered      - ENTERED BY
SRVC.         SCHLUMBERGER                   : Scn          - SERVICE COMPANY
DATE.         22 JAN 74                      : Date         - LOG DATE
STRT.M        411.48                         : top_depth    - START DEPTH
STOP.M        615.73                         : bot_depth    - STOP DEPTH
STEP.M        0.25                           : increment    - STEP LENGTH
 NULL. -999.2500:NULL Value
~CURVE INFORMATION BLOCK
#MNEM UNIT       ERCB CURVE CODE    CURVE DESCRIPTION
#-----------   ------------------   ----------------------------------
DEPT.M        00 001 00 00         : DEPTH        - DEPTH
ILD .OHMM     00 120 00 00         : RESD         - DEEP RESISTIVITY (DIL)
NPHI.V/V      00 330 00 00         : PHIN         - NEUTRON POROSITY (SANDSTONE)
DPHI.V/V      00 890 00 00         : PHID         - DENSITY POROSITY (SANDSTONE)
GR  .API      00 310 00 00         : GR           - GAMMA RAY
CALI.MM       00 280 01 00         : CAL          - CALIPER
~PARAMETER INFORMATION
#MNEM.UNIT           DATA             DESCRIPTION OF MNEMONIC
#---------         -----------     ------------------------------
GL  .M        708.508              : gl           - GROUND LEVEL ELEVATION
EREF.M        711.556              : kb           - ELEVATION OF DEPTH REFERENCE
DATM.M        708.508              : datum        - DATUM ELEVATION
TDD .M        621.792              : tdd          - TOTAL DEPTH DRILLER
RUN .         ONE                  : Run          - RUN NUMBER
ENG .         CONNELLY             : Engineer     - RECORDING ENGINEER
WIT .         CONNELLY             : Witness      - WITNESSED BY
BASE.         EDM                  : Branch       - HOME BASE OF LOGGING UNIT
MUD .         CAUSTIC GEL          : Mud_type     - MUD TYPE
MATR.         SANDSTONE            : Logunit      - NEUTRON MATRIX
TMAX.C        21.1111              : BHT          - MAXIMUM RECORDED TEMPERATURE
BHTD.M        622.097              : BHTDEP       - MAXIMUM RECORDED TEMPERATURE
RMT .C        20                   : MDTP         - TEMPERATURE OF MUD
MUDD.KG/M     1140                 : MWT          - MUD DENSITY
NEUT.         1                    : NEUTRON      - NEUTRON TYPE
RESI.         0                    : RESIST       - RESISTIVITY TYPE
RM  .OHMM     2.83                 : RM           - RESISTIVITY OF MUD
RMC .OHMM     0                    : RMC          - RESISTIVITY OF MUD CAKE
RMF .OHMM     2.86                 : RMF          - RESISTIVITY OF MUD FILTRATE
SUFT.C        -17.7778             : SUFT         - SURFACE TEMPERATURE
~A  DEPTH     RESD     PHIN     PHID       GR      CAL
# ...
  447.980   18.850    0.501    0.222   62.825  158.171
  448.230   20.435    0.411    0.201   60.072  158.807
  448.480   20.431    0.275    0.158   56.889  160.378
  448.730   19.951    0.218    0.126   52.357  161.846
  448.980   19.113    0.187    0.092   50.463  162.171
  449.230   17.440    0.167    0.053   53.969  161.250
  449.480   15.886    0.311    0.058   57.533  159.184
  449.730   13.737    0.386    0.236   63.370  157.329
  449.980   12.025    0.505    0.301   66.567  156.407
  450.230   10.829    0.501    0.315   68.906  155.899
  450.480    9.713    0.497    0.302   68.423  155.599
  450.730    9.153    0.517    0.282   66.590  155.616
  450.980    8.831    0.562    0.272   67.518  155.630
  451.230    8.668    0.565    0.291   69.243  155.637
  451.480    8.505    0.616    0.284   69.557  155.651
  451.730    8.341    0.637    0.281   70.178  155.663
  451.980    8.139    0.580    0.286   72.701  155.883
  452.230    7.897    0.563    0.293   74.918  155.689
  452.480    7.575    0.546    0.299   75.661  155.703
  452.730    7.254    0.540    0.298   73.337  155.714
  452.980    6.614    0.532    0.288   74.695  155.730
  453.230    5.856    0.512    0.294   72.923  155.740
  453.480    5.176    0.522    0.293   71.274  155.754
  453.730    4.696    0.542    0.276   72.018  155.767
  453.980    4.334    0.522    0.301   73.498  155.987
  454.230    4.170    0.491    0.301   75.960  156.623
  454.480    4.207    0.479    0.281   80.507  160.168
  454.730    4.441    0.460    0.266   84.809  162.674
  454.980    4.596    0.465    0.249   89.540  163.934
  455.230    4.791    0.518    0.255   88.628  164.673
  455.480    5.104    0.538    0.255   84.035  164.478
  455.730    5.299    0.559    0.270   79.441  164.179
  455.980    5.374    0.555    0.293   75.154  162.219
  456.230    5.332    0.528    0.286   77.739  160.569
  456.480    5.208    0.503    0.273   81.366  161.518
  456.730    5.403    0.525    0.263   83.643  164.024
  456.980    5.876    0.565    0.247   82.791  165.907
  457.230    6.428    0.564    0.205   80.406  166.645
  457.480    7.020    0.558    0.217   76.794  166.348
  457.730    7.612    0.617    0.248   68.336  165.945
  457.980    8.443    0.675    0.332   58.159  165.853
  458.230   10.107    0.729    0.377   42.339  165.867
  458.480   11.573    0.790    0.537   30.812  165.569
  458.730   11.053    0.820    0.671   22.477  164.645
  458.980    8.704    0.823    0.800   21.810  162.789
  459.230    8.025    0.823    0.797   25.436  161.242
  459.480    6.710    0.821    0.790   35.138  159.593
  459.730    6.388    0.814    0.762   38.827  158.463
  459.980    5.987    0.802    0.339   40.982  157.751
  460.230    5.705    0.471    0.313   44.977  157.139
  460.480    5.542    0.441    0.319   45.721  156.633
  460.730    5.498    0.431    0.334   44.562  156.335
  460.980    5.494    0.438    0.343   44.509  156.138
  461.230    5.490    0.452    0.338   45.682  155.943
  461.480    5.487    0.462    0.340   46.977  155.749
  461.730    5.482    0.459    0.347   47.415  155.661
  461.980    5.478    0.452    0.336   47.300  155.569
  462.230    5.474    0.513    0.331   47.123  155.684
  462.480    5.471    0.793    0.342   47.928  155.595
  462.730    5.467    0.758    0.348   50.451  155.606
  462.980    5.463    0.653    0.340   51.011  155.723
  463.230    5.459    0.461    0.328   50.282  155.945
  463.480    5.455    0.470    0.347   49.063  156.060
  463.730    5.450    0.452    0.339   48.518  156.281
  463.980    5.447    0.473    0.318   47.974  156.293
  464.230    5.443    0.475    0.317   46.202  156.305
  464.480    5.440    0.430    0.330   44.675  156.115
  464.730    5.435    0.435    0.324   48.119  156.128
  464.980    5.432    0.452    0.319   50.580  156.035
  465.230    5.428    0.470    0.333   51.263  156.047
  465.480    5.423    0.498    0.347   52.007  156.060
  465.730    5.420    0.428    0.349   52.812  156.284
  465.980    5.416    0.457    0.341   54.844  156.397
  466.230    5.412    0.447    0.332   57.244  156.513
  466.480    5.407    0.458    0.336   57.437  156.525
  466.730    5.403    0.467    0.347   56.339  156.435
  466.980    5.400    0.462    0.344   52.359  156.448
  467.230    5.393    0.449    0.332   49.176  156.461
  467.480    5.391    0.475    0.333   51.762  156.472
  467.730    5.388    0.509    0.343   50.418  156.487
  467.980    5.424    0.485    0.347   48.279  156.500
  468.230    5.460    0.466    0.337   45.035  156.516
  468.480    5.495    0.463    0.342   46.086  156.525
  468.730    5.492    0.458    0.323   47.442  156.536
  468.980    5.527    0.479    0.302   48.125  156.554
  469.230    5.523    0.504    0.315   47.826  156.566
  469.480    5.598    0.504    0.350   47.650  156.575
  469.730    5.595    0.479    0.342   48.025  156.592
  469.980    5.630    0.455    0.342   47.664  156.810
  470.230    5.706    0.446    0.342   46.139  156.928
  470.480    5.741    0.464    0.343   43.324  157.146
  470.730    5.777    0.506    0.343   40.509  157.368
  470.980    5.814    0.518    0.333   39.598  157.587
  471.230    5.847    0.490    0.326   41.446  157.394
  471.480    5.884    0.474    0.328   42.680  157.509
  471.730    5.960    0.474    0.324   41.890  159.392
  471.980    5.957    0.475    0.317   39.934  160.027
  472.230    5.991    0.471    0.328   38.285  162.017
  472.480    5.988    0.477    0.326   40.072  162.342
  472.730    5.982    0.483    0.317   38.055  162.559
  472.980    5.980    0.505    0.335   35.793  161.120
  473.230    5.976    0.515    0.329   35.801  160.404
  473.480    5.969    0.502    0.319   36.791  159.901
  473.730    5.968    0.488    0.329   37.226  159.705
  473.980    5.965    0.517    0.340   36.866  159.513
  474.230    5.921    0.523    0.345   35.708  159.626
  474.480    5.838    0.502    0.339   35.470  159.742
  474.730    5.675    0.498    0.334   36.214  159.753
  474.980    5.471    0.528    0.334   34.872  159.664
  475.230    5.388    0.549    0.334   32.855  159.471
  475.480    5.266    0.534    0.328   33.660  159.070
  475.730    5.142    0.526    0.324   34.956  158.770
  475.980    5.059    0.505    0.332   34.595  158.571
  476.230    4.935    0.494    0.344   33.131  158.377
  476.480    4.852    0.492    0.355   31.788  158.390
  476.730    4.769    0.514    0.364   31.673  158.403
  476.980    4.685    0.496    0.364   32.785  158.418
  477.230    4.685    0.502    0.360   31.873  158.119
  477.480    4.677    0.485    0.356   31.880  157.923
  477.730    4.634    0.506    0.354   33.790  157.830
  477.980    4.591    0.503    0.350   36.128  157.948
  478.230    4.586    0.510    0.345   34.173  158.377
  478.480    4.582    0.506    0.330   31.543  158.493
  478.730    4.582    0.509    0.343   31.304  158.611
  478.980    4.575    0.506    0.344   33.705  158.831
  479.230    4.570    0.490    0.346   36.043  158.843
  479.480    4.567    0.463    0.357   37.340  158.647
  479.730    4.560    0.469    0.366   36.979  158.143
  479.980    4.519    0.491    0.377   36.373  157.949
  480.230    4.515    0.486    0.378   37.362  157.751
  480.480    4.511    0.488    0.367   37.186  157.455
  480.730    4.507    0.525    0.353   36.395  157.155
  480.980    4.507    0.527    0.343   36.281  157.170
  481.230    4.499    0.549    0.355   36.104  156.975
  481.480    4.495    0.550    0.355   36.541  157.090
  481.730    4.495    0.521    0.351   37.530  157.204
  481.980    4.488    0.501    0.340   38.827  157.427
  482.230    4.483    0.496    0.334   39.570  157.233
  482.480    4.519    0.507    0.343   41.173  157.245
  482.730    4.555    0.512    0.353   43.941  157.258
  482.980    4.590    0.532    0.350   45.605  157.271
  483.230    4.666    0.529    0.344   46.779  157.285
  483.480    4.782    0.523    0.344   47.583  157.401
  483.730    4.937    0.517    0.342   47.039  157.411
  483.980    5.131    0.508    0.342   46.249  157.320
  484.230    5.485    0.502    0.337   47.422  157.022
