~VERSION INFORMATION
 VERS.                 2.0:   CWLS LOG ASCII STANDARD -VERSION 2.0
 WRAP.                  NO:   ONE LINE PER DEPTH STEP
~WELL INFORMATION BLOCK
#MNEM.UNIT           DATA                    DESCRIPTION OF MNEMONIC
#---------    -------------------            -------------------------------
# Generated from Intellog Unique Number	CW_79_81/WELL/3694
WELL.         AMCO                           : Well_name    - WELL
LOC .         00/07-09-078-23W4/0            : Location     - LOCATION
UWI .         00/07-09-078-23W4/0            : Uwi          - UNIQUE WELL ID
ENTR.         TIM                            : Entered      - ENTERED BY
SRVC.         SCHLUMBERGER                   : Scn          - SERVICE COMPANY
DATE.         05\15\92                       : Date         - LOG DATE
STRT.M        250                            : top_depth    - START DEPTH
STOP.M        525                            : bot_depth    - STOP DEPTH
STEP.M        0.25                           : increment    - STEP LENGTH
 NULL. -999.2500:NULL Value
~CURVE INFORMATION BLOCK
#MNEM UNIT       ERCB CURVE CODE    CURVE DESCRIPTION
#-----------   ------------------   ----------------------------------
DEPT.M        00 001 00 00         : DEPTH        - DEPTH
GR  .API      00 310 00 00         : GR           - GAMMA RAY
DPHI.V/V      00 890 00 00         : PHID         - DENSITY POROSITY (SANDSTONE)
ILD .OHMM     00 120 00 00         : RESD         - DEEP RESISTIVITY (DIL)
NPHI.V/V      00 330 00 00         : PHIN         - NEUTRON POROSITY (SANDSTONE)
~PARAMETER INFORMATION
#MNEM.UNIT           DATA             DESCRIPTION OF MNEMONIC
#---------         -----------     ------------------------------
GL  .M        605                  : gl           - GROUND LEVEL ELEVATION
EREF.M        609                  : kb           - ELEVATION OF DEPTH REFERENCE
DATM.M        609                  : datum        - DATUM ELEVATION
TDD .M        525                  : tdd          - TOTAL DEPTH DRILLER
RUN .         ONE                  : Run          - RUN NUMBER
ENG .         JO                   : Engineer     - RECORDING ENGINEER
WIT .         TIM                  : Witness      - WITNESSED BY
MUD .         GEL                  : Mud_type     - MUD TYPE
MATR.         SANDSTONE            : Logunit      - NEUTRON MATRIX
TMAX.C        27                   : BHT          - MAXIMUM RECORDED TEMPERATURE
BHTD.M        525                  : BHTDEP       - MAXIMUM RECORDED TEMPERATURE
RMT .C        20                   : MDTP         - TEMPERATURE OF MUD
MUDD.KG/M     1090                 : MWT          - MUD DENSITY
NEUT.         1                    : NEUTRON      - NEUTRON TYPE
RESI.         0                    : RESIST       - RESISTIVITY TYPE
RM  .OHMM     5.2                  : RM           - RESISTIVITY OF MUD
RMC .OHMM     4                    : RMC          - RESISTIVITY OF MUD CAKE
RMF .OHMM     6.3                  : RMF          - RESISTIVITY OF MUD FILTRATE
SUFT.C        4                    : SUFT         - SURFACE TEMPERATURE
~A  DEPTH       GR     PHID     RESD     PHIN
# ...
  467.500  107.571    0.137   10.931    0.400
  467.750  111.855    0.134   10.948    0.406
  468.000  109.397    0.165   11.157    0.428
  468.250  103.263    0.165   11.377    0.433
  468.500   96.516    0.132   11.823    0.370
  468.750   92.218    0.118   12.053    0.324
  469.000   96.502    0.155   12.294    0.406
  469.250  103.234    0.166   12.528    0.419
  469.500  105.677    0.173   12.780    0.420
  469.750  101.381    0.166   12.799    0.422
  470.000   97.084    0.142   12.131    0.416
  470.250   92.790    0.148   11.084    0.400
  470.500   93.391    0.156   10.506    0.430
  470.750   95.837    0.162   10.515    0.458
  471.000   99.504    0.171   10.726    0.479
  471.250  101.946    0.181   10.934    0.481
  471.500  100.717    0.178   11.153    0.450
  471.750   97.646    0.150   10.961    0.435
  472.000   95.188    0.125   10.584    0.392
  472.250   94.568    0.117   10.213    0.374
  472.500   94.561    0.109    9.683    0.367
  472.750   99.455    0.117    9.346    0.391
  473.000  106.800    0.130    9.025    0.402
  473.250  109.244    0.141    8.867    0.408
  473.500  108.009    0.144    8.877    0.447
  473.750  106.777    0.116    8.891    0.441
  474.000  104.319    0.105    9.064    0.435
  474.250  100.023    0.098    9.953    0.414
  474.500   88.375    0.139   10.330    0.408
  474.750   77.339    0.167   11.333    0.400
  475.000   73.656    0.192   12.664    0.373
  475.250   80.388    0.187   14.154    0.376
  475.500   85.282    0.189   14.966    0.421
  475.750   83.436    0.202   16.122    0.457
  476.000   77.916    0.228   18.685    0.473
  476.250   61.979    0.251   21.669    0.464
  476.500   52.780    0.260   22.913    0.440
  476.750   49.097    0.261   26.090    0.419
  477.000   47.864    0.266   27.079    0.395
  477.250   46.632    0.267   28.123    0.398
  477.500   44.174    0.266   26.179    0.428
  477.750   41.101    0.264   24.355    0.430
  478.000   40.480    0.259   21.858    0.428
  478.250   40.476    0.238   20.710    0.422
  478.500   40.469    0.237   18.929    0.402
  478.750   39.234    0.242   17.935    0.398
  479.000   38.616    0.249   16.696    0.373
  479.250   38.609    0.247   15.829    0.371
  479.500   38.600    0.238   15.270    0.371
  479.750   39.206    0.237   14.744    0.373
  480.000   40.424    0.241   14.232    0.372
  480.250   41.642    0.238   13.742    0.372
  480.500   44.698    0.236   13.505    0.379
  480.750   49.590    0.237   13.281    0.389
  481.000   54.487    0.237   13.052    0.398
  481.250   58.764    0.237   12.603    0.401
  481.500   59.986    0.232   12.386    0.406
  481.750   63.042    0.227   11.963    0.406
  482.000   66.711    0.222   11.757    0.409
  482.250   68.542    0.226   11.143    0.411
  482.500   68.533    0.233   10.952    0.403
  482.750   67.913    0.230   10.571    0.376
  483.000   66.068    0.215   10.204    0.369
  483.250   85.668    0.187    9.850    0.358
  483.500   96.077    0.148    9.511    0.348
  483.750  101.582    0.146    9.180    0.348
  484.000  105.252    0.137    9.028    0.415
  484.250  103.405    0.109    9.203    0.406
  484.500   92.983    0.056    9.555    0.389
  484.750   86.236    0.169   10.486    0.401
  485.000   78.877    0.198   11.501    0.414
  485.250   73.353    0.249   14.345    0.425
  485.500   65.996    0.264   19.963    0.432
  485.750   54.961    0.258   23.564    0.432
  486.000   55.564    0.249   24.931    0.439
  486.250   58.622    0.242   23.208    0.449
  486.500   61.678    0.234   20.815    0.455
  486.750   67.796    0.206   17.999    0.426
  487.000   73.303    0.184   15.286    0.416
  487.250   85.549    0.146   13.470    0.385
  487.500   96.570    0.131   12.312    0.371
  487.750  107.591    0.135   11.880    0.416
  488.000  115.549    0.146   11.676    0.425
  488.250  102.061    0.174   12.361    0.450
  488.500   87.964    0.197   12.830    0.464
  488.750   73.253    0.231   19.214    0.481
  489.000   65.281    0.265   20.317    0.476
  489.250   60.372    0.267   24.875    0.454
  489.500   59.138    0.263   31.028    0.443
  489.750   60.358    0.256   35.972    0.413
  490.000   61.574    0.252   36.016    0.405
  490.250   62.179    0.245   35.396    0.393
  490.500   65.847    0.245   34.798    0.426
  490.750   68.290    0.242   33.589    0.432
  491.000   69.508    0.240   33.021    0.422
  491.250   68.890    0.234   32.473    0.421
  491.500   65.205    0.228   32.513    0.428
  491.750   63.360    0.223   32.553    0.436
  492.000   63.352    0.218   32.013    0.430
  492.250   63.958    0.203   32.032    0.319
  492.500   61.500    0.160   32.082    0.285
  492.750   60.269    0.097   31.539    0.242
  493.000   63.325    0.157   30.996    0.253
  493.250   63.929    0.179   28.854    0.303
  493.500   65.147    0.206   26.844    0.410
  493.750   69.427    0.203   24.536    0.376
  494.000   71.872    0.195   23.247    0.364
  494.250   71.252    0.189   22.040    0.367
  494.500   72.471    0.180   21.661    0.368
  494.750   75.523    0.171   20.909    0.373
  495.000   77.358    0.163   19.823    0.390
  495.250   90.215    0.152   18.447    0.464
  495.500   99.400    0.145   17.167    0.486
  495.750  100.005    0.141   15.686    0.403
  496.000   85.906    0.145   14.602    0.363
  496.250   80.385    0.149   14.091    0.351
  496.500   77.314    0.154   13.601    0.330
  496.750   73.019    0.151   13.129    0.326
  497.000   76.073    0.141   12.677    0.352
  497.250   81.580    0.126   12.015    0.369
  497.500   90.150    0.115   11.388    0.364
  497.750   93.206    0.110   10.989    0.357
  498.000   93.199    0.103    9.508    0.346
  498.250   91.354    0.127    8.685    0.347
  498.500   80.931    0.151    8.698    0.410
  498.750   64.994    0.163    9.370    0.365
  499.000   58.860    0.196   10.277    0.357
  499.250   50.276    0.222   11.074    0.352
  499.500   45.367    0.245   10.883    0.404
  499.750   56.388    0.274   10.508    0.418
  500.000   91.303    0.308   10.140    0.424
  500.250  100.486    0.328    9.791    0.493
  500.500  109.055    0.325    9.451    0.576
  500.750   92.505    0.325    9.289    0.585
  501.000   79.019    0.389    8.490    0.574
  501.250   72.272    0.434    7.762    0.563
  501.500   65.526    0.361    7.350    0.568
  501.750   77.772    0.306    6.479    0.572
  502.000  102.272    0.244    6.250    0.537
  502.250  109.001    0.220    5.715    0.509
  502.500  108.997    0.297    5.616    0.504
  502.750  111.441    0.341    5.521    0.541
  503.000  116.948    0.224    5.428    0.534
  503.250  122.454    0.164    5.433    0.523
  503.500  127.349    0.122    5.441    0.519
  503.750  109.574    0.101    5.550    0.515
  504.000   96.700    0.131    5.658    0.503
  504.250   89.950    0.221    6.095    0.465
  504.500   91.170    0.250    6.810    0.407
  504.750  105.867    0.249    7.336    0.390
  505.000  112.599    0.226    7.347    0.372
  505.250  119.944    0.184    7.223    0.361
  505.500  119.324    0.151    7.232    0.485
  505.750   81.331    0.183    7.508    0.523
  506.000   75.810    0.282    8.705    0.507
  506.250   72.127    0.288   10.465    0.442
  506.500   69.667    0.278   12.352    0.395
  506.750   73.338    0.263   14.316    0.425
  507.000   84.971    0.256   16.899    0.452
  507.250   89.253    0.250   18.563    0.452
  507.500   95.371    0.246   18.568    0.428
  507.750  102.714    0.240   18.591    0.422
  508.000  118.023    0.232   17.946    0.411
  508.250  135.173    0.225   17.328    0.421
  508.500  108.821    0.216   16.721    0.444
  508.750   98.398    0.225   15.848    0.456
  509.000   91.039    0.244   15.867    0.457
  509.250   84.292    0.254   16.479    0.452
  509.500   78.158    0.261   18.079    0.438
  509.750   76.924    0.227   21.347    0.413
  510.000   73.242    0.180   22.995    0.366
  510.250   57.916    0.127   24.322    0.200
  510.500   60.360    0.063   24.360    0.163
  510.750   65.254    0.086   23.941    0.183
