~VERSION INFORMATION
 VERS.                 2.0:   CWLS LOG ASCII STANDARD -VERSION 2.0
 WRAP.                  NO:   ONE LINE PER DEPTH STEP
~WELL INFORMATION BLOCK
#MNEM.UNIT           DATA                    DESCRIPTION OF MNEMONIC
#---------    -------------------            -------------------------------
# Generated from Intellog Unique Number	CS_69_70/WELL/784
NULL.         -999.25                        : NULL_VALUE
WELL.         ET AL TWEEDIE                  : Well_name    - WELL              
LOC .         00/06-31-070-11W4/0            : Location     - LOCATION          
UWI .         00/06-31-070-11W4/0            : Uwi          - UNIQUE WELL ID    
ENTR.         SP                             : Entered      - ENTERED BY        
SRVC.         SCHLUMBERGER                   : Scn          - SERVICE COMPANY   
STRT.M        265                            : top_depth    - START DEPTH       
STOP.M        470                            : bot_depth    - STOP DEPTH        
STEP.M        0.25                           : increment    - STEP LENGTH       
~CURVE INFORMATION BLOCK
#MNEM UNIT       ERCB CURVE CODE    CURVE DESCRIPTION
#-----------   ------------------   ----------------------------------
DEPT.M        00 001 00 00         : DEPTH        - DEPTH                       
ILD .OHMM     00 120 00 00         : RESD         - DEEP RESISTIVITY (DIL)      
DPHI.V/V      00 890 00 00         : PHID         - DENSITY POROSITY (LIMESTONE)
NPHI.V/V      00 330 00 00         : PHIN         - NEUTRON POROSITY (LIMESTONE)
GR  .API      00 310 00 00         : GR           - GAMMA RAY                   
~PARAMETER INFORMATION       
#MNEM.UNIT           DATA             DESCRIPTION OF MNEMONIC
#---------         -----------     ------------------------------
GL  .M        601.69               : gl           - GROUND LEVEL ELEVATION      
EREF.M        605.66               : kb           - ELEVATION OF DEPTH REFERENCE
DATM.M        601.69               : datum        - DATUM ELEVATION             
TDD .M        488                  : tdd          - TOTAL DEPTH DRILLER         
RUN .         ONE                  : Run          - RUN NUMBER                  
ENG .         BILL                 : Engineer     - RECORDING ENGINEER          
WIT .         JIM                  : Witness      - WITNESSED BY                
MUD .         GEL                  : Mud_type     - MUD TYPE                    
MATR.         LIMESTONE            : Logunit      - NEUTRON MATRIX              
TMAX.C        18.5                 : BHT          - MAXIMUM RECORDED TEMPERATURE
BHTD.M        488                  : BHTDEP       - MAXIMUM RECORDED TEMPERATURE
MATR.         1                    : LOGUNIT      - NEUTRON MATRIX              
RMT .C        25                   : MDTP         - TEMPERATURE OF MUD          
NEUT.         1                    : NEUTRON      - NEUTRON TYPE                
RESI.         0                    : RESIST       - RESISTIVITY TYPE            
RMC .OHMM     0.25                 : RMC          - RESISTIVITY OF MUD CAKE     
RMF .OHMM     0.25                 : RMF          - RESISTIVITY OF MUD FILTRATE 
SUFT.C        15                   : SUFT         - SURFACE TEMPERATURE         
~A  DEPTH     RESD     PHID     PHIN       GR
  265.000    2.567    0.252    0.528   93.762
  265.250    2.568    0.258    0.538   98.556
  265.500    2.507    0.261    0.535  103.958
  265.750    2.435    0.263    0.525  102.389
  266.000    2.409    0.260    0.524   99.912
  266.250    2.401    0.249    0.521  100.162
  266.500    2.447    0.247    0.508  104.835
  266.750    2.546    0.253    0.506  106.056
  267.000    2.689    0.240    0.525  103.577
  267.250    2.857    0.233    0.538  100.736
  267.500    2.973    0.235    0.513   99.713
  267.750    3.002    0.230    0.482  102.145
  268.000    2.937    0.231    0.494  106.151
  268.250    2.721    0.246    0.538  111.674
  268.500    2.584    0.269    0.555  112.227
  268.750    2.537    0.275    0.534  109.204
  269.000    2.533    0.252    0.516  107.453
  269.250    2.592    0.240    0.500  106.976
  269.500    2.638    0.240    0.494  109.528
  269.750    2.684    0.234    0.513  113.657
  270.000    2.741    0.228    0.541  111.785
  270.250    2.788    0.223    0.525  109.975
  270.500    2.800    0.219    0.515  109.739
  270.750    2.903    0.216    0.512  109.808
  271.000    3.015    0.204    0.506  110.845
  271.250    3.179    0.193    0.499  112.367
  271.500    3.332    0.186    0.492  112.859
  271.750    3.520    0.185    0.500  106.260
  272.000    3.731    0.154    0.437   99.479
  272.250    4.031    0.116    0.425   96.092
  272.500    4.132    0.189    0.429  101.130
  272.750    4.072    0.215    0.458  108.107
  273.000    3.896    0.236    0.456  110.114
  273.250    3.733    0.229    0.462  109.576
  273.500    3.538    0.228    0.470  111.888
  273.750    3.359    0.231    0.474  113.348
  274.000    3.237    0.232    0.476  113.174
  274.250    3.173    0.227    0.480  107.605
  274.500    3.174    0.220    0.482  109.917
  274.750    3.182    0.213    0.483  110.833
  275.000    3.238    0.219    0.495  110.415
  275.250    3.263    0.220    0.496  105.513
  275.500    3.314    0.235    0.484  100.611
  275.750    3.353    0.224    0.473   97.466
  276.000    3.311    0.157    0.484   96.322
  276.250    3.161    0.169    0.508   99.117
  276.500    3.018    0.197    0.512  102.336
  276.750    3.129    0.217    0.514  102.222
  277.000    3.795    0.250    0.506   86.593
  277.250    5.709    0.305    0.507   63.084
  277.500    7.775    0.339    0.147   50.909
  277.750   12.074    0.383    0.124   44.613
  278.000   29.362    0.403    0.119   42.438
  278.250   38.383    0.409    0.120   42.446
  278.500   43.122    0.412    0.124   43.483
  278.750   38.278    0.410    0.125   46.460
  279.000   30.029    0.410    0.131   51.135
  279.250   20.825    0.413    0.143   54.475
  279.500   15.331    0.416    0.169   57.876
  279.750   11.182    0.409    0.240   61.763
  280.000    8.741    0.390    0.289   65.289
  280.250    7.473    0.341    0.335   66.020
  280.500    6.319    0.250    0.368   71.117
  280.750    5.536    0.217    0.396   86.459
  281.000    5.072    0.201    0.418   98.951
  281.250    5.348    0.198    0.400   98.413
  281.500    5.606    0.219    0.392   96.663
  281.750    5.704    0.238    0.404  100.004
  282.000    5.836    0.253    0.415  102.677
  282.250    5.850    0.216    0.397  106.442
  282.500    5.798    0.212    0.387  107.843
  282.750    5.801    0.224    0.395  107.730
  283.000    5.804    0.234    0.397  109.252
  283.250    5.828    0.236    0.401  111.683
  283.500    5.854    0.226    0.409  114.115
  283.750    5.834    0.212    0.417  113.516
  284.000    5.718    0.198    0.412  112.129
  284.250    5.449    0.200    0.399  112.136
  284.500    5.421    0.215    0.411  110.022
  284.750    5.715    0.294    0.422   88.332
  285.000    5.880    0.339    0.430   70.157
  285.250    5.657    0.388    0.300   62.770
  285.500    5.193    0.403    0.266   58.231
  285.750    4.885    0.388    0.344   57.693
  286.000    4.578    0.373    0.388   58.065
  286.250    4.370    0.356    0.408   57.768
  286.500    4.228    0.348    0.420   55.836
  286.750    4.190    0.340    0.427   54.389
  287.000    4.224    0.322    0.401   52.214
  287.250    4.354    0.316    0.381   52.827
  287.500    4.651    0.302    0.360   75.259
  287.750    4.903    0.238    0.353   81.934
  288.000    5.083    0.214    0.384   86.305
  288.250    5.201    0.232    0.402   88.858
  288.500    5.351    0.244    0.412   87.471
  288.750    5.334    0.222    0.416   81.296
  289.000    5.306    0.228    0.419   81.546
  289.250    5.339    0.246    0.414   85.614
  289.500    5.432    0.253    0.411   87.743
  289.750    5.548    0.230    0.411   91.628
  290.000    5.347    0.213    0.416  101.575
  290.250    4.754    0.208    0.421  111.643
  290.500    4.111    0.212    0.446  120.257
  290.750    3.463    0.211    0.473  128.325
  291.000    3.080    0.214    0.509  133.545
  291.250    2.749    0.230    0.541  132.885
  291.500    2.566    0.250    0.566  128.590
  291.750    2.446    0.261    0.588  122.051
  292.000    2.928    0.206    0.564  111.451
  292.250    3.660    0.130    0.468   93.094
  292.500    4.481    0.105    0.452   81.586
  292.750    5.216    0.190    0.445   86.200
  293.000    6.004    0.220    0.447   94.086
  293.250    6.596    0.244    0.452   94.821
  293.500    6.967    0.251    0.442   87.312
  293.750    7.023    0.264    0.430   81.623
  294.000    6.961    0.277    0.424   77.993
  294.250    6.746    0.269    0.422   76.243
  294.500    6.587    0.261    0.424   75.766
  294.750    6.468    0.244    0.432   78.803
  295.000    6.328    0.253    0.447   83.598
  295.250    6.156    0.274    0.461   89.726
  295.500    6.022    0.284    0.464   94.461
  295.750    5.826    0.284    0.463   98.590
  296.000    5.531    0.251    0.452  102.234
  296.250    5.183    0.206    0.458  105.998
  296.500    4.839    0.186    0.478  109.703
  296.750    4.620    0.164    0.488  109.650
  297.000    4.411    0.149    0.493  110.081
  297.250    4.259    0.161    0.489  112.634
  297.500    4.097    0.191    0.482  114.944
  297.750    3.948    0.194    0.492  119.195
  298.000    3.899    0.186    0.498  123.686
  298.250    4.042    0.193    0.471  127.694
  298.500    4.350    0.207    0.455  126.913
  298.750    4.707    0.217    0.462  124.375
  299.000    5.056    0.230    0.446  122.261
  299.250    5.421    0.246    0.423  121.843
  299.500    5.726    0.239    0.435  121.790
  299.750    5.903    0.246    0.441  110.645
  300.000    5.689    0.279    0.435  100.410
  300.250    5.391    0.317    0.425   95.144
  300.500    5.244    0.327    0.419   94.121
  300.750    5.237    0.316    0.414   97.219
  301.000    5.369    0.306    0.419   97.227
  301.250    5.587    0.293    0.422   96.082
  301.500    5.802    0.282    0.409   96.756
  301.750    6.105    0.263    0.399  101.855
  302.000    6.341    0.240    0.397  106.470
  302.250    6.452    0.242    0.411  108.415
  302.500    6.395    0.263    0.431  109.876
  302.750    6.198    0.276    0.448  106.550
  303.000    6.063    0.290    0.446  101.285
  303.250    5.998    0.290    0.424   97.291
  303.500    6.103    0.282    0.413   98.753
  303.750    6.374    0.268    0.404  103.245
  304.000    6.595    0.254    0.397  107.072
  304.250    6.723    0.244    0.399  109.078
  304.500    6.791    0.236    0.412  108.177
  304.750    6.793    0.232    0.422  111.033
  305.000    6.708    0.228    0.429  113.828
  305.250    6.623    0.224    0.430  115.350
  305.500    6.528    0.250    0.437   93.963
  305.750    6.605    0.261    0.430   87.666
  306.000    6.695    0.251    0.434   87.856
  306.250    6.774    0.249    0.453   87.499
  306.500    6.829    0.256    0.467   82.598
  306.750    6.844    0.259    0.444   83.271
  307.000    6.847    0.266    0.447   87.278
  307.250    6.774    0.271    0.462   90.437
  307.500    6.790    0.255    0.473   91.475
  307.750    6.793    0.252    0.482   93.483
  308.000    6.784    0.244    0.484   95.186
  308.250    6.724    0.239    0.480   97.437
