~VERSION INFORMATION
 VERS.                 2.0:   CWLS LOG ASCII STANDARD -VERSION 2.0
 WRAP.                  NO:   ONE LINE PER DEPTH STEP
~WELL INFORMATION BLOCK
#MNEM.UNIT           DATA                    DESCRIPTION OF MNEMONIC
#---------    -------------------            -------------------------------
# Generated from Intellog Unique Number	CW_73_75/WELL/3518
WELL.         PINNACLE RT AL NARTINHILL      : Well_name    - WELL
LOC .         00/03-05-075-02W5/0            : Location     - LOCATION
UWI .         00/03-05-075-02W5/0            : Uwi          - UNIQUE WELL ID
ENTR.         TIM                            : Entered      - ENTERED BY
SRVC.         SCHLUMBERGER                   : Scn          - SERVICE COMPANY
DATE.         05/25/92                       : Date         - LOG DATE
STRT.M        405                            : top_depth    - START DEPTH
STOP.M        650                            : bot_depth    - STOP DEPTH
STEP.M        0.25                           : increment    - STEP LENGTH
 NULL. -999.2500:NULL Value
~CURVE INFORMATION BLOCK
#MNEM UNIT       ERCB CURVE CODE    CURVE DESCRIPTION
#-----------   ------------------   ----------------------------------
DEPT.M        00 001 00 00         : DEPTH        - DEPTH
ILD .OHMM     00 120 00 00         : RESD         - DEEP RESISTIVITY (DIL)
DPHI.V/V      00 890 00 00         : PHID         - DENSITY POROSITY (SANDSTONE)
NPHI.V/V      00 330 00 00         : PHIN         - NEUTRON POROSITY (SANDSTONE)
GR  .API      00 310 00 00         : GR           - GAMMA RAY
~PARAMETER INFORMATION
#MNEM.UNIT           DATA             DESCRIPTION OF MNEMONIC
#---------         -----------     ------------------------------
GL  .M        702                  : gl           - GROUND LEVEL ELEVATION
EREF.M        706                  : kb           - ELEVATION OF DEPTH REFERENCE
DATM.M        706                  : datum        - DATUM ELEVATION
TDD .M        659                  : tdd          - TOTAL DEPTH DRILLER
RUN .         ONE                  : Run          - RUN NUMBER
ENG .         BILL                 : Engineer     - RECORDING ENGINEER
WIT .         JIM                  : Witness      - WITNESSED BY
MUD .         GEL                  : Mud_type     - MUD TYPE
MATR.         SANDSTONE            : Logunit      - NEUTRON MATRIX
TMAX.C        36                   : BHT          - MAXIMUM RECORDED TEMPERATURE
BHTD.M        658                  : BHTDEP       - MAXIMUM RECORDED TEMPERATURE
RMT .C        16                   : MDTP         - TEMPERATURE OF MUD
MUDD.KG/M     1045                 : MWT          - MUD DENSITY
NEUT.         1                    : NEUTRON      - NEUTRON TYPE
RESI.         0                    : RESIST       - RESISTIVITY TYPE
RM  .OHMM     9.2                  : RM           - RESISTIVITY OF MUD
RMC .OHMM     6.78                 : RMC          - RESISTIVITY OF MUD CAKE
RMF .OHMM     7.28                 : RMF          - RESISTIVITY OF MUD FILTRATE
SUFT.C        4                    : SUFT         - SURFACE TEMPERATURE
~A  DEPTH     RESD     PHID     PHIN       GR
# ...
  622.500 1229.430    0.153    0.371   84.272
  622.750    4.866    0.154    0.363   86.543
  623.000    3.882    0.148    0.347   88.224
  623.250    3.270    0.139    0.336   85.188
  623.500    3.579    0.133    0.340   84.510
  623.750    3.850    0.128    0.354   86.191
  624.000    4.535    0.141    0.370   87.872
  624.250    5.247    0.164    0.366   88.374
  624.500    4.949    0.175    0.381   86.516
  624.750    4.494    0.163    0.393   87.018
  625.000    4.487    0.139    0.398   87.498
  625.250    4.638    0.120    0.383   87.431
  625.500    4.718    0.125    0.362   87.933
  625.750    4.971    0.119    0.359   82.515
  626.000    5.145    0.112    0.350   83.017
  626.250    5.325    0.110    0.347   87.057
  626.500    5.413    0.139    0.337   91.075
  626.750    5.394    0.143    0.333   93.346
  627.000    4.990    0.132    0.334   93.258
  627.250    4.538    0.131    0.466   96.140
  627.500    3.900    0.183    0.487   97.231
  627.750    2.940    0.180    0.521   97.143
  628.000    2.058    0.175    0.507   96.444
  628.250    1.801    0.201    0.501   96.355
  628.500    1.797    0.201    0.496   98.648
  628.750    1.791    0.193    0.500  102.098
  629.000    1.855    0.175    0.509  105.571
  629.250    2.068    0.157    0.482   90.695
  629.500    2.303    0.142    0.409   87.069
  629.750    2.568    0.110    0.371   83.421
  630.000    3.581    0.105    0.357   83.922
  630.250    4.070    0.109    0.358   84.424
  630.500    4.709    0.113    0.362   86.105
  630.750    5.157    0.111    0.358   91.346
  631.000    5.853    0.113    0.357   93.005
  631.250    5.315    0.112    0.347   92.917
  631.500    5.016    0.108    0.347   98.159
  631.750    4.474    0.105    0.361   98.049
  632.000    4.063    0.105    0.371   94.422
  632.250    3.979    0.110    0.378   97.872
  632.500    3.823    0.111    0.413   97.195
  632.750    3.742    0.110    0.403   92.978
  633.000    3.522    0.109    0.388   91.711
  633.250    3.452    0.105    0.385   89.854
  633.500    3.379    0.211    0.378   84.458
  633.750    3.305    0.264    0.361   40.075
  634.000    3.235    0.282    0.349   32.320
  634.250    3.169    0.296    0.357   29.217
  634.500    2.989    0.299    0.364   28.584
  634.750    2.662    0.299    0.362   27.906
  635.000    2.463    0.298    0.356   27.796
  635.250    2.412    0.300    0.346   27.707
  635.500    2.363    0.305    0.343   27.030
  635.750    2.310    0.304    0.335   24.583
  636.000    2.305    0.299    0.323   25.674
  636.250    2.300    0.290    0.308   31.505
  636.500    2.293    0.286    0.289   35.545
  636.750    2.287    0.281    0.283   38.406
  637.000    2.279    0.279    0.281   34.190
  637.250    2.271    0.279    0.287   31.743
  637.500    2.305    0.291    0.361   32.244
  637.750    2.301    0.299    0.361   32.156
  638.000    2.296    0.302    0.362   32.024
  638.250    2.331    0.300    0.362   32.548
  638.500    2.326    0.298    0.363   34.818
  638.750    2.319    0.297    0.370   37.701
  639.000    2.354    0.302    0.383   35.188
  639.250    2.350    0.308    0.377   34.554
  639.500    2.343    0.301    0.369   35.056
  639.750    2.335    0.296    0.364   36.737
  640.000    2.330    0.292    0.369   39.575
  640.250    2.323    0.292    0.369   43.026
  640.500    2.359    0.298    0.366   44.117
  640.750    2.398    0.296    0.367   42.260
  641.000    2.436    0.290    0.364   39.813
  641.250    2.567    0.278    0.365   40.336
  641.500    2.708    0.261    0.368   44.966
  641.750    3.015    0.219    0.350   47.193
  642.000    3.125    0.191    0.299   44.178
  642.250    3.483    0.169    0.255   45.291
  642.500    5.636    0.159    0.257   53.459
  642.750    5.620    0.151    0.250   65.188
  643.000    5.301    0.156    0.247   86.941
  643.250    4.810    0.167    0.367  110.486
  643.500    4.543    0.172    0.384  121.035
  643.750    3.972    0.160    0.379  128.614
  644.000    3.606    0.149    0.337  139.752
  644.250    3.470    0.182    0.330  156.198
  644.500    3.331    0.180    0.348  173.212
  644.750    3.261    0.179    0.370  182.582
  645.000    3.315    0.201    0.391  183.673
  645.250    3.625    0.229    0.391  178.845
  645.500    3.825    0.236    0.389  181.728
  645.750    4.186    0.231    0.388  190.485
  646.000    4.332    0.217    0.417  201.624
  646.250    4.314    0.206    0.413  215.122
  646.500    4.308    0.208    0.410  227.418
  646.750    4.217    0.219    0.415  241.505
  647.000    4.205    0.232    0.417  239.058
  647.250    4.190    0.223    0.415  233.073
  647.500    4.254    0.205    0.411  180.411
  647.750    4.248    0.186    0.402  168.507
  648.000    4.312    0.178    0.378  164.858
  648.250    4.378    0.166    0.372  163.613
  648.500    4.528    0.158    0.385  139.892
  648.750    4.606    0.144    0.396  129.188
  649.000    4.767    0.077    0.366  119.643
  649.250    5.121    0.039    0.222   75.259
  649.500   13.953    0.006    0.115   31.466
  649.750   16.459   -0.108    0.092   24.891
  650.000   18.011   -0.132    0.082   19.473
