~VERSION INFORMATION
 VERS.                 2.0:   CWLS LOG ASCII STANDARD -VERSION 2.0
 WRAP.                  NO:   ONE LINE PER DEPTH STEP
~WELL INFORMATION BLOCK
#MNEM.UNIT           DATA                    DESCRIPTION OF MNEMONIC
#---------    -------------------            -------------------------------
# Generated from Intellog Unique Number	CS_73_76/WELL/2180
WELL.         WAINOCO OIL AND GAS COMPAN     : Well_name    - WELL
LOC .         00/07-34-074-12W4/0            : Location     - LOCATION
UWI .         00/07-34-074-12W4/0            : Uwi          - UNIQUE WELL ID
ENTR.         SP                             : Entered      - ENTERED BY
SRVC.         SCHLUMBERGER                   : Scn          - SERVICE COMPANY
STRT.M        290                            : top_depth    - START DEPTH
STOP.M        520                            : bot_depth    - STOP DEPTH
STEP.M        0.25                           : increment    - STEP LENGTH
 NULL. -999.2500:NULL Value
~CURVE INFORMATION BLOCK
#MNEM UNIT       ERCB CURVE CODE    CURVE DESCRIPTION
#-----------   ------------------   ----------------------------------
DEPT.M        00 001 00 00         : DEPTH        - DEPTH
ILD .OHMM     00 120 00 00         : RESD         - DEEP RESISTIVITY (DIL)
DPHI.V/V      00 890 00 00         : PHID         - DENSITY POROSITY (LIMESTONE)
NPHI.V/V      00 330 00 00         : PHIN         - NEUTRON POROSITY (LIMESTONE)
GR  .API      00 310 00 00         : GR           - GAMMA RAY
~PARAMETER INFORMATION
#MNEM.UNIT           DATA             DESCRIPTION OF MNEMONIC
#---------         -----------     ------------------------------
GL  .M        661.49               : gl           - GROUND LEVEL ELEVATION
EREF.M        664.75               : kb           - ELEVATION OF DEPTH REFERENCE
DATM.M        661.49               : datum        - DATUM ELEVATION
TDD .M        530                  : tdd          - TOTAL DEPTH DRILLER
RUN .         ONE                  : Run          - RUN NUMBER
ENG .         BILL                 : Engineer     - RECORDING ENGINEER
WIT .         JIM                  : Witness      - WITNESSED BY
MUD .         GEL                  : Mud_type     - MUD TYPE
MATR.         LIMESTONE            : Logunit      - NEUTRON MATRIX
TMAX.C        22                   : BHT          - MAXIMUM RECORDED TEMPERATURE
BHTD.M        530                  : BHTDEP       - MAXIMUM RECORDED TEMPERATURE
MATR.         1                    : LOGUNIT      - NEUTRON MATRIX
RMT .C        25                   : MDTP         - TEMPERATURE OF MUD
NEUT.         1                    : NEUTRON      - NEUTRON TYPE
RESI.         0                    : RESIST       - RESISTIVITY TYPE
RMC .OHMM     0.25                 : RMC          - RESISTIVITY OF MUD CAKE
RMF .OHMM     0.25                 : RMF          - RESISTIVITY OF MUD FILTRATE
SUFT.C        15                   : SUFT         - SURFACE TEMPERATURE
~A  DEPTH     RESD     PHID     PHIN       GR
# ...
  420.500    5.242    0.271    0.407   88.944
  420.750    5.146    0.268    0.416   90.164
  421.000    5.248    0.276    0.420   90.160
  421.250    5.453    0.280    0.418   87.704
  421.500    5.667    0.278    0.418   85.865
  421.750    6.001    0.270    0.421   83.412
  422.000    6.476    0.243    0.401   81.571
  422.250    7.398    0.214    0.373   79.118
  422.500    8.291    0.175    0.325   75.439
  422.750    9.119    0.171    0.291   72.374
  423.000    9.657    0.182    0.273   69.921
  423.250    9.847    0.192    0.270   69.305
  423.500    9.309    0.228    0.285   70.523
  423.750    8.161    0.251    0.307   71.745
  424.000    7.861    0.267    0.345   76.638
  424.250    7.022    0.281    0.388   79.695
  424.500    6.893    0.290    0.419   82.139
  424.750    6.640    0.298    0.424   82.748
  425.000    6.398    0.301    0.424   82.742
  425.250    6.282    0.299    0.432   83.351
  425.500    6.166    0.304    0.438   84.572
  425.750    6.171    0.304    0.442   85.792
  426.000    6.174    0.306    0.446   87.623
  426.250    6.177    0.313    0.443   88.842
  426.500    6.183    0.320    0.437   88.227
  426.750    6.186    0.319    0.425   85.773
  427.000    6.189    0.312    0.415   83.320
  427.250    6.192    0.307    0.413   80.255
  427.500    6.195    0.302    0.419   79.639
  427.750    6.199    0.291    0.425   83.918
  428.000    6.087    0.281    0.430   85.139
  428.250    6.091    0.290    0.437   86.359
  428.500    6.094    0.288    0.443   86.355
  428.750    6.098    0.297    0.434   86.351
  429.000    6.101    0.303    0.430   86.959
  429.250    6.103    0.306    0.438   88.177
  429.500    5.993    0.311    0.443   88.174
  429.750    5.995    0.312    0.446   88.171
  430.000    5.999    0.309    0.441   86.330
  430.250    6.002    0.303    0.435   85.713
  430.500    6.005    0.296    0.423   86.933
  430.750    6.010    0.282    0.420   89.378
  431.000    6.014    0.274    0.420   90.598
  431.250    6.249    0.280    0.421   88.142
  431.500    6.251    0.286    0.421   87.528
  431.750    6.254    0.287    0.418   88.748
  432.000    6.258    0.291    0.414   91.191
  432.250    6.262    0.292    0.413   93.022
  432.500    6.266    0.284    0.413   93.020
  432.750    6.268    0.271    0.413   92.404
  433.000    6.272    0.267    0.414   92.399
  433.250    6.277    0.265    0.432   94.842
  433.500    6.400    0.265    0.429   96.063
  433.750    6.403    0.270    0.425   97.897
  434.000    6.286    0.274    0.415   99.728
  434.250    6.290    0.281    0.413   98.496
  434.500    6.176    0.284    0.428   98.495
  434.750    6.063    0.269    0.435  101.552
  435.000    5.842    0.270    0.446  104.609
  435.250    5.627    0.267    0.452  106.442
  435.500    5.423    0.267    0.457  103.376
  435.750    5.424    0.274    0.442   99.086
  436.000    5.854    0.274    0.429   92.959
  436.250    6.438    0.274    0.424   86.219
  436.500    7.218    0.264    0.417   81.930
  436.750    7.644    0.264    0.412   79.477
  437.000    7.943    0.257    0.413   78.858
  437.250    8.099    0.258    0.419   78.856
  437.500    8.259    0.257    0.428   80.688
  437.750    8.108    0.256    0.425   83.744
  438.000    7.959    0.250    0.422   83.741
  438.250    7.385    0.238    0.414   83.124
  438.500    7.250    0.232    0.409   81.282
  438.750    6.985    0.235    0.403   80.666
  439.000    6.857    0.236    0.404   80.049
  439.250    6.734    0.240    0.411   80.043
  439.500    6.736    0.246    0.417   80.650
  439.750    6.614    0.254    0.430   81.260
  440.000    6.493    0.259    0.432   83.093
  440.250    6.377    0.261    0.428   87.374
  440.500    6.379    0.263    0.425   92.879
  440.750    6.147    0.267    0.429   97.774
  441.000    6.035    0.271    0.432  101.442
  441.250    5.924    0.275    0.432  102.662
  441.500    5.927    0.282    0.437  102.658
  441.750    5.711    0.274    0.437  101.430
  442.000    5.714    0.267    0.437   99.588
  442.250    5.826    0.261    0.438  100.196
  442.500    5.942    0.264    0.443  101.417
  442.750    6.059    0.257    0.449  103.249
  443.000    6.178    0.253    0.451  102.019
  443.250    6.420    0.251    0.450  101.404
  443.500    6.545    0.239    0.445   98.949
  443.750    6.803    0.220    0.438   97.721
  444.000    6.935    0.204    0.433   94.654
  444.250    7.209    0.204    0.427   94.040
  444.500    7.491    0.210    0.419   94.035
  444.750    7.638    0.218    0.416   97.703
  445.000    7.643    0.231    0.418  100.149
  445.250    7.793    0.236    0.422  103.818
  445.500    7.796    0.231    0.426  102.587
  445.750    7.654    0.230    0.428  101.972
  446.000    7.374    0.231    0.432  105.642
  446.250    7.103    0.223    0.428  108.698
  446.500    6.975    0.223    0.424  109.917
  446.750    6.977    0.225    0.415  109.914
  447.000    6.852    0.227    0.408  108.073
  447.250    6.855    0.234    0.408  107.456
  447.500    6.730    0.238    0.412  111.125
  447.750    6.863    0.238    0.409  112.344
  448.000    6.740    0.239    0.404  111.116
  448.250    6.617    0.234    0.400  108.050
  448.500    6.496    0.230    0.401  106.210
  448.750    6.377    0.230    0.404  104.979
  449.000    6.143    0.230    0.407  104.364
  449.250    5.919    0.223    0.410  103.135
  449.500    5.491    0.217    0.416  101.295
  449.750    5.190    0.211    0.426   96.392
  450.000    4.906    0.207    0.436   95.164
  450.250    4.300    0.200    0.442   96.383
  450.500    3.840    0.222    0.437   98.216
  450.750    3.242    0.248    0.442  101.273
  451.000    3.006    0.261    0.466  101.881
  451.250    2.685    0.280    0.490  101.876
  451.500    2.538    0.294    0.502  100.646
  451.750    2.445    0.293    0.523   99.418
  452.000    2.401    0.297    0.517   96.352
  452.250    2.313    0.303    0.508   94.512
  452.500    2.314    0.297    0.500   92.059
  452.750    2.360    0.291    0.500   92.666
  453.000    2.406    0.293    0.498   97.558
  453.250    2.454    0.288    0.497  101.228
  453.500    2.502    0.273    0.495  106.122
  453.750    2.551    0.265    0.494  106.118
  454.000    2.553    0.277    0.495  104.889
  454.250    2.603    0.277    0.494  103.660
  454.500    2.705    0.272    0.490  101.819
  454.750    2.975    0.267    0.473   99.978
  455.000    3.530    0.270    0.465   97.523
  455.250    4.032    0.266    0.451   95.683
  455.500    4.519    0.260    0.442   95.068
  455.750    4.970    0.254    0.437   95.063
  456.000    5.467    0.250    0.435   97.507
  456.250    5.681    0.227    0.433   96.891
  456.500    5.903    0.205    0.413   93.825
  456.750    6.019    0.189    0.405   93.208
  457.000    6.254    0.174    0.395   93.205
  457.250    6.624    0.167    0.390   95.650
  457.500    6.755    0.184    0.389  101.154
  457.750    6.631    0.191    0.405  102.988
  458.000    6.037    0.197    0.424  103.595
  458.250    5.815    0.213    0.432  101.141
  458.500    5.194    0.221    0.441   99.914
  458.750    4.640    0.223    0.445   98.685
  459.000    4.145    0.232    0.446   98.067
  459.250    3.992    0.242    0.447  104.185
  459.500    3.773    0.245    0.447  107.855
  459.750    3.435    0.248    0.450  112.135
  460.000    3.068    0.247    0.456  113.356
  460.250    2.792    0.242    0.466  112.738
  460.500    2.494    0.236    0.473  110.285
  460.750    2.403    0.226    0.475  107.219
  461.000    2.450    0.215    0.474  104.765
  461.250    2.499    0.212    0.474  103.538
  461.500    2.548    0.217    0.483  104.146
  461.750    2.598    0.225    0.489  105.978
  462.000    2.649    0.226    0.489  107.810
  462.250    2.650    0.220    0.482  109.643
  462.500    2.553    0.205    0.468  109.638
  462.750    2.368    0.194    0.457  107.796
  463.000    1.888    0.183    0.446  106.569
  463.250    1.655    0.174    0.441  107.177
  463.500    1.478    0.167    0.445  109.620
  463.750    1.424    0.177    0.464  112.063
