~VERSION INFORMATION
 VERS.                 2.0:   CWLS LOG ASCII STANDARD -VERSION 2.0
 WRAP.                  NO:   ONE LINE PER DEPTH STEP
~WELL INFORMATION BLOCK
#MNEM.UNIT           DATA                    DESCRIPTION OF MNEMONIC
#---------    -------------------            -------------------------------
# Generated from Intellog Unique Number	CW_79_81/WELL/2442
WELL.         CHEVRON MISTEHAEN              : Well_name    - WELL
LOC .         00/03-19-081-05W5/0            : Location     - LOCATION
UWI .         00/03-19-081-05W5/0            : Uwi          - UNIQUE WELL ID
ENTR.         MAX                            : Entered      - ENTERED BY
SRVC.         SCHLUMBERGER                   : Scn          - SERVICE COMPANY
STRT.M        304.8                          : top_depth    - START DEPTH
STOP.M        533.05                         : bot_depth    - STOP DEPTH
STEP.M        0.25                           : increment    - STEP LENGTH
 NULL. -999.2500:NULL Value
~CURVE INFORMATION BLOCK
#MNEM UNIT       ERCB CURVE CODE    CURVE DESCRIPTION
#-----------   ------------------   ----------------------------------
DEPT.M        00 001 00 00         : DEPTH        - DEPTH
ILD .OHMM     00 120 00 00         : RESD         - DEEP RESISTIVITY (DIL)
NPHI.V/V      00 330 00 00         : PHIN         - NEUTRON POROSITY (SANDSTONE)
DPHI.V/V      00 890 00 00         : PHID         - DENSITY POROSITY (SANDSTONE)
GR  .API      00 310 00 00         : GR           - GAMMA RAY
CALI.MM       00 280 01 00         : CAL          - CALIPER
~PARAMETER INFORMATION
#MNEM.UNIT           DATA             DESCRIPTION OF MNEMONIC
#---------         -----------     ------------------------------
GL  .M        611.734              : gl           - GROUND LEVEL ELEVATION
EREF.M        614.111              : kb           - ELEVATION OF DEPTH REFERENCE
DATM.M        611.734              : datum        - DATUM ELEVATION
TDD .M        550.774              : tdd          - TOTAL DEPTH DRILLER
RUN .         ONE                  : Run          - RUN NUMBER
ENG .         BILL                 : Engineer     - RECORDING ENGINEER
WIT .         JIM                  : Witness      - WITNESSED BY
MUD .         GEL                  : Mud_type     - MUD TYPE
MATR.         SANDSTONE            : Logunit      - NEUTRON MATRIX
TMAX.C        29.4444              : BHT          - MAXIMUM RECORDED TEMPERATURE
BHTD.M        550.774              : BHTDEP       - MAXIMUM RECORDED TEMPERATURE
MATR.         1                    : LOGUNIT      - NEUTRON MATRIX
RMT .C        20                   : MDTP         - TEMPERATURE OF MUD
NEUT.         1                    : NEUTRON      - NEUTRON TYPE
RESI.         0                    : RESIST       - RESISTIVITY TYPE
RMC .OHMM     4.1                  : RMC          - RESISTIVITY OF MUD CAKE
RMF .OHMM     5.07                 : RMF          - RESISTIVITY OF MUD FILTRATE
SUFT.C        -20.5556             : SUFT         - SURFACE TEMPERATURE
~A  DEPTH     RESD     PHIN     PHID       GR      CAL
# ...
  450.800    4.682    0.519    0.213   75.909  205.001
  451.050    4.806    0.516    0.214   76.981  205.617
  451.300    4.896    0.503    0.219   75.870  206.733
  451.550    4.941    0.500    0.222   73.621  207.468
  451.800    4.981    0.499    0.213   74.122  207.071
  452.050    4.982    0.484    0.213   76.492  207.086
  452.300    4.928    0.484    0.213   77.093  207.103
  452.550    4.894    0.484    0.213   76.867  207.120
  452.800    4.922    0.478    0.216   76.522  207.136
  453.050    5.078    0.464    0.223   76.484  207.157
  453.300    5.319    0.449    0.223   76.248  207.173
  453.550    5.518    0.450    0.215   74.844  207.191
  453.800    5.694    0.461    0.211   73.791  207.208
  454.050    5.865    0.478    0.217   72.857  207.023
  454.300    6.042    0.491    0.233   71.924  206.639
  454.550    6.252    0.487    0.253   70.746  206.345
  454.800    6.399    0.506    0.269   69.526  206.775
  455.050    6.639    0.516    0.271   67.650  206.792
  455.300    6.814    0.498    0.271   65.418  206.811
  455.550    6.892    0.485    0.271   64.129  206.829
  455.800    6.894    0.486    0.271   63.785  206.644
  456.050    6.896    0.484    0.275   63.236  205.783
  456.300    6.897    0.479    0.276   63.983  205.385
  456.550    6.899    0.472    0.268   63.993  204.999
  456.800    7.015    0.469    0.262   63.827  204.916
  457.050    7.327    0.464    0.252   63.955  205.133
  457.300    8.049    0.453    0.237   64.259  205.448
  457.550   10.278    0.421    0.213   63.937  205.302
  457.800   13.742    0.330    0.159   63.455  204.491
  458.050   17.374    0.280    0.099   63.230  204.105
  458.300   19.952    0.239    0.066   61.234  204.321
  458.550   19.958    0.235    0.074   58.884  204.539
  458.800   17.587    0.285    0.125   56.416  204.457
  459.050   13.761    0.405    0.219   53.087  204.242
  459.300   11.249    0.462    0.268   54.080  205.090
  459.550    8.637    0.501    0.256   54.089  205.506
  459.800    7.328    0.509    0.251   56.045  205.624
  460.050    6.530    0.508    0.251   58.296  206.042
  460.300    5.929    0.503    0.250   60.254  206.658
  460.550    5.257    0.483    0.237   63.028  206.675
  460.800    4.802    0.476    0.229   66.233  206.692
  461.050    4.629    0.500    0.222   70.253  207.506
  461.300    4.589    0.528    0.216   74.273  207.722
  461.550    4.640    0.532    0.212   77.468  207.339
  461.800    4.770    0.508    0.208   78.717  206.557
  462.050    5.047    0.479    0.201   76.065  205.697
  462.300    5.369    0.477    0.215   73.374  205.296
  462.550    5.816    0.477    0.224   71.966  205.313
  462.800    6.338    0.469    0.233   70.737  205.030
  463.050    6.875    0.460    0.238   69.920  204.449
  463.300    7.453    0.457    0.241   69.045  203.868
  463.550    8.395    0.464    0.257   66.148  203.887
  463.800    9.069    0.458    0.266   62.226  203.906
  464.050    9.273    0.453    0.259   60.111  203.520
  464.300    9.327    0.426    0.243   60.298  203.136
  464.550    9.261    0.395    0.217   59.836  202.955
  464.800    9.195    0.378    0.192   57.900  203.073
  465.050    9.512    0.401    0.196   56.182  203.490
  465.300   10.518    0.440    0.227   58.158  203.509
  465.550   11.396    0.379    0.191   59.112  203.525
  465.800   12.352    0.328    0.160   57.235  203.242
  466.050   12.974    0.325    0.141   55.004  202.460
  466.300   13.073    0.370    0.146   53.833  201.877
  466.550   12.556    0.435    0.199   54.425  203.676
  466.800   11.131    0.479    0.263   56.154  206.607
  467.050    8.952    0.478    0.258   59.703  208.623
  467.300    7.797    0.468    0.258   62.190  209.438
  467.550    6.935    0.461    0.251   63.498  209.654
  467.800    6.261    0.469    0.236   64.275  209.771
  468.050    5.811    0.499    0.223   66.429  210.270
  468.300    5.553    0.476    0.226   68.898  210.704
  468.550    5.354    0.466    0.219   68.907  210.721
  468.800    5.133    0.486    0.212   69.980  211.037
  469.050    4.950    0.510    0.207   71.877  211.453
  469.300    4.790    0.524    0.207   73.950  211.769
  469.550    4.551    0.525    0.212   75.192  211.790
  469.800    4.382    0.522    0.209   75.447  211.809
  470.050    4.224    0.516    0.208   75.222  211.428
  470.300    4.027    0.513    0.203   76.588  211.044
  470.550    3.914    0.512    0.204   78.839  210.859
  470.800    3.900    0.517    0.209   80.973  210.875
  471.050    3.954    0.534    0.203   81.790  210.813
  471.300    4.078    0.518    0.205   82.291  210.413
  471.550    4.324    0.512    0.211   81.593  209.630
  471.800    4.537    0.502    0.214   81.425  208.548
  472.050    4.742    0.491    0.211   80.727  207.966
  472.300    4.949    0.482    0.207   79.677  208.082
  472.550    5.167    0.478    0.208   79.739  208.502
  472.800    5.329    0.495    0.201   79.995  208.519
  473.050    5.409    0.477    0.184   80.711  208.537
  473.300    5.371    0.467    0.180   80.012  208.853
  473.550    5.235    0.474    0.186   79.314  209.068
  473.800    5.077    0.495    0.197   79.384  209.185
  474.050    5.019    0.518    0.200   80.338  209.771
  474.300    5.098    0.525    0.188   80.348  210.623
  474.550    5.289    0.513    0.197   82.246  211.037
  474.800    5.666    0.481    0.206   84.320  210.255
  475.050    6.186    0.455    0.211   84.802  208.873
  475.300    6.777    0.446    0.212   82.629  207.591
  475.550    7.439    0.443    0.217   76.664  207.295
  475.800    8.226    0.425    0.219   72.745  207.728
  476.050    8.472    0.435    0.217   72.281  207.743
  476.300    8.444    0.440    0.222   72.526  207.762
  476.550    8.261    0.439    0.217   72.772  207.779
  476.800    7.978    0.439    0.204   72.960  207.893
  477.050    7.477    0.449    0.202   74.122  208.313
  477.300    6.985    0.466    0.178   76.345  208.332
  477.550    6.392    0.492    0.169   77.298  208.348
  477.800    6.021    0.494    0.187   78.781  208.665
  478.050    5.916    0.477    0.202   81.150  208.880
  478.300    6.015    0.452    0.206   83.460  208.896
  478.550    6.198    0.440    0.212   82.980  208.916
  478.800    6.442    0.440    0.217   80.533  208.933
  479.050    6.830    0.454    0.222   75.823  209.353
  479.300    7.204    0.449    0.223   71.468  209.470
  479.550    7.451    0.442    0.218   69.118  209.486
  479.800    7.522    0.439    0.211   68.951  209.601
  480.050    7.435    0.432    0.208   69.229  210.021
  480.300    7.268    0.423    0.205   67.027  210.038
  480.550    7.008    0.414    0.201   69.160  210.454
  480.800    6.832    0.428    0.197   71.117  211.170
  481.050    6.710    0.451    0.188   71.127  211.786
  481.300    6.626    0.469    0.175   69.957  212.202
  481.550    6.559    0.474    0.163   71.403  212.786
  481.800    6.462    0.488    0.158   73.871  213.636
  482.050    6.416    0.470    0.155   76.950  213.651
  482.300    6.406    0.445    0.154   79.495  214.268
  482.550    6.524    0.418    0.155   81.864  215.084
  482.800    6.746    0.398    0.161   83.407  215.800
  483.050    6.930    0.400    0.170   82.574  216.386
  483.300    7.093    0.405    0.160   83.076  217.236
  483.550    7.147    0.402    0.149   82.851  216.455
  483.800    7.162    0.414    0.145   83.686  215.670
  484.050    7.111    0.421    0.142   85.346  215.087
  484.300    6.930    0.419    0.143   86.772  214.805
  484.550    6.394    0.428    0.154   86.372  214.824
  484.800    5.753    0.464    0.160   87.856  214.843
  485.050    5.588    0.467    0.164   88.573  214.460
  485.300    5.733    0.453    0.168   88.760  213.777
  485.550    6.119    0.437    0.175   87.353  212.595
  485.800    6.828    0.428    0.181   84.413  211.012
  486.050    8.612    0.420    0.166   79.894  209.187
  486.300   11.151    0.371    0.135   73.760  207.957
  486.550   14.098    0.330    0.110   68.344  207.574
  486.800   16.531    0.261    0.073   62.927  206.889
  487.050   18.355    0.228    0.050   58.808  206.506
