~VERSION INFORMATION
 VERS.                 2.0:   CWLS LOG ASCII STANDARD -VERSION 2.0
 WRAP.                  NO:   ONE LINE PER DEPTH STEP
~WELL INFORMATION BLOCK
#MNEM.UNIT           DATA                    DESCRIPTION OF MNEMONIC
#---------    -------------------            -------------------------------
# Generated from Intellog Unique Number	CC_84_87/WELL/1169
NULL.         -999.25                        : NULL_VALUE
WELL.         BP GRANOR                      : Well_name    - WELL              
LOC .         07-29-084-18W4                 : Location     - LOCATION          
UWI .         00/07-29-084-18W400            : Uwi          - UNIQUE WELL ID    
ENTR.         JHS                            : Entered      - ENTERED BY        
SRVC.         SCHLUMBERGER                   : Scn          - SERVICE COMPANY   
DATE.         01 MAR 81                      : Date         - LOG DATE
STRT.M        115                            : top_depth    - START DEPTH       
STOP.M        364.897                        : bot_depth    - STOP DEPTH        
STEP.M        0.3                            : increment    - STEP LENGTH       
~CURVE INFORMATION BLOCK
#MNEM UNIT       ERCB CURVE CODE    CURVE DESCRIPTION
#-----------   ------------------   ----------------------------------
DEPT.M        00 001 00 00         : DEPTH        - DEPTH                       
DPHI.V/V      00 890 00 00         : PHID         - DENSITY POROSITY (LIMESTONE)
NPHI.V/V      00 330 00 00         : PHIN         - NEUTRON POROSITY (LIMESTONE)
GR  .API      00 310 00 00         : GR           - GAMMA RAY                   
ILD .OHMM     00 120 00 00         : RESD         - DEEP RESISTIVITY (DIL)      
~PARAMETER INFORMATION       
#MNEM.UNIT           DATA             DESCRIPTION OF MNEMONIC
#---------         -----------     ------------------------------
GL  .M        567.8                : gl           - GROUND LEVEL ELEVATION      
EREF.M        571.5                : kb           - ELEVATION OF DEPTH REFERENCE
DATM.M        571.5                : datum        - DATUM ELEVATION             
TDD .M        350                  : tdd          - TOTAL DEPTH DRILLER         
RUN .         ONE                  : Run          - RUN NUMBER                  
ENG .         BILL                 : Engineer     - RECORDING ENGINEER          
WIT .         JIM                  : Witness      - WITNESSED BY                
MUD .         GEL                  : Mud_type     - MUD TYPE                    
MATR.         LIMESTONE            : Logunit      - NEUTRON MATRIX              
TMAX.C        20                   : BHT          - MAXIMUM RECORDED TEMPERATURE
BHTD.M        350                  : BHTDEP       - MAXIMUM RECORDED TEMPERATURE
MATR.         1                    : LOGUNIT      - NEUTRON MATRIX              
RMT .C        25                   : MDTP         - TEMPERATURE OF MUD          
NEUT.         1                    : NEUTRON      - NEUTRON TYPE                
RESI.         0                    : RESIST       - RESISTIVITY TYPE            
RMC .OHMM     0.25                 : RMC          - RESISTIVITY OF MUD CAKE     
RMF .OHMM     0.25                 : RMF          - RESISTIVITY OF MUD FILTRATE 
SUFT.C        15                   : SUFT         - SURFACE TEMPERATURE         
~A  DEPTH     PHID     PHIN       GR     RESD
# ...
  271.601    0.240    0.388   73.083    9.827
  271.901    0.250    0.424   70.081    9.650
  272.201    0.233    0.421   71.342    9.471
  272.501    0.225    0.431   75.638    9.479
  272.801    0.239    0.448   78.716    9.487
  273.101    0.228    0.427   80.576    9.492
  273.401    0.225    0.411   81.841    9.499
  273.701    0.232    0.411   81.874    9.507
  274.001    0.227    0.415   81.310    9.514
  274.301    0.220    0.416   78.315    9.519
  274.601    0.235    0.420   76.532    9.527
  274.901    0.236    0.435   75.368    9.716
  275.201    0.244    0.441   72.369    9.723
  275.501    0.232    0.419   69.983    9.920
  275.801    0.223    0.401   71.850    9.924
  276.101    0.190    0.402   75.538    9.378
  276.401    0.229    0.432   80.435    8.528
  276.701    0.205    0.447   82.902    7.184
  277.001    0.223    0.443   85.379    6.169
  277.301    0.227    0.444   87.844    5.718
  277.601    0.224    0.471   89.712    5.614
  277.901    0.221    0.465   84.895    6.064
  278.201    0.204    0.445   78.869    7.073
  278.501    0.234    0.435   75.868    8.905
  278.801    0.219    0.423   71.053    9.996
  279.100    0.216    0.401   71.705    9.814
  279.400    0.206    0.411   75.387    8.924
  279.700    0.226    0.441   80.902    7.375
  280.000    0.211    0.443   83.373    6.707
  280.300    0.210    0.421   84.624    6.461
  280.600    0.215    0.425   86.500    6.465
  280.900    0.206    0.443   88.358    6.470
  281.200    0.225    0.466   90.218    6.599
  281.500    0.206    0.465   85.401    6.730
  281.800    0.191    0.460   81.192    6.867
  282.100    0.192    0.456   79.414    6.871
  282.400    0.210    0.465   83.097    6.619
  282.700    0.201    0.476   84.362    6.622
  283.000    0.186    0.472   86.839    6.378
  283.300    0.184    0.462   89.299    6.263
  283.600    0.209    0.466   89.954    6.266
  283.900    0.211    0.488   87.559    6.393
  284.200    0.177    0.464   86.390    6.396
  284.500    0.178    0.447   88.867    6.401
  284.800    0.190    0.457   92.551    6.784
  285.100    0.205    0.469   94.407    7.470
  285.400    0.200    0.465   90.209    8.385
  285.700    0.213    0.435   88.429    9.233
  286.000    0.203    0.412   87.861   10.976
  286.300    0.202    0.399   83.651   13.049
  286.600    0.197    0.383   77.009   13.830
  286.900    0.161    0.379   69.159   13.069
  287.200    0.103    0.325   65.555   10.395
  287.500    0.115    0.336   71.676    9.273
  287.800    0.214    0.402   80.824    8.931
  288.100    0.237    0.413   81.473    9.110
  288.400    0.223    0.396   81.524   10.033
  288.700    0.225    0.388   78.525   11.261
  289.000    0.250    0.397   73.106   11.054
  289.300    0.268    0.393   71.927   10.651
  289.600    0.267    0.404   71.367   10.656
  289.900    0.263    0.406   67.156   11.511
  290.200    0.266    0.398   61.730   12.921
  290.500    0.231    0.323   54.487   16.581
  290.800    0.164    0.252   50.284   19.712
  291.100    0.093    0.206   52.146   18.626
  291.400    0.108    0.269   58.257   14.259
  291.700    0.170    0.335   63.761   12.725
  292.000    0.194    0.402   65.022   11.794
  292.300    0.154    0.379   61.421   11.802
  292.600    0.131    0.357   60.244   12.037
  292.900    0.226    0.380   60.900   12.515
  293.200    0.200    0.373   60.949   13.523
  293.500    0.168    0.357   59.774   14.058
  293.800    0.173    0.376   59.816   14.069
  294.100    0.185    0.369   61.676   13.550
  294.400    0.177    0.360   65.964   12.323
  294.700    0.183    0.350   66.622   10.995
  295.000    0.200    0.367   65.451   10.000
  295.300    0.240    0.396   66.699    9.449
  295.600    0.232    0.413   69.170    9.274
  295.900    0.240    0.421   66.181    8.932
  296.200    0.240    0.428   66.826    8.770
  296.500    0.232    0.420   72.334    8.775
  296.800    0.232    0.425   71.163    9.124
  297.100    0.226    0.441   73.640    9.130
  297.400    0.216    0.448   76.711    9.136
  297.700    0.217    0.442   74.935    8.633
  298.000    0.228    0.432   74.375    8.003
  298.300    0.223    0.426   76.228    7.140
  298.600    0.208    0.427   79.307    6.746
  298.900    0.205    0.449   81.174    6.623
  299.200    0.216    0.445   78.177    6.628
  299.500    0.218    0.442   73.371    7.025
  299.800    0.230    0.418   70.978    7.304
  300.100    0.201    0.422   68.999    7.688
  300.400    0.155    0.429   67.795    7.541
  300.700    0.156    0.412   71.993    7.397
  301.000    0.202    0.422   80.990    6.849
  301.300    0.225    0.444   83.987    6.221
  301.600    0.229    0.449   83.984    5.760
  301.900    0.212    0.434   85.782    5.334
  302.200    0.196    0.454   83.979    4.938
  302.500    0.195    0.456   85.776    4.661
  302.800    0.209    0.463   89.973    4.486
  303.100    0.212    0.456   93.570    4.486
  303.400    0.207    0.443   95.367    4.938
  303.699    0.200    0.433   95.365    5.543
  303.999    0.188    0.451   93.562    6.849
  304.299    0.165    0.444   88.760    8.796
  304.599    0.157    0.416   76.157   11.739
  304.899    0.029    0.397   65.955   13.693
  305.199    0.054    0.289   67.152   14.230
  305.499    0.142    0.321   78.549   12.925
  305.799    0.189    0.388   79.146   11.296
  306.099    0.206    0.379   76.144   11.296
  306.399    0.195    0.373   71.341   12.678
  306.699    0.212    0.377   59.938   14.788
  306.999    0.219    0.391   53.336   16.921
  307.299    0.260    0.410   41.933   19.736
  307.599    0.278    0.415   38.930   22.151
  307.899    0.292    0.394   40.727   22.151
  308.199    0.298    0.406   45.525   21.315
  308.499    0.273    0.408   49.122   19.736
  308.799    0.259    0.402   56.319   15.368
  309.099    0.266    0.387   67.716   11.081
  309.399    0.237    0.381   76.713    7.989
  309.699    0.181    0.367   78.511    6.342
  309.999    0.209    0.391   79.108    4.752
  310.299    0.203    0.404   82.105    3.772
  310.599    0.221    0.429   89.302    3.172
  310.899    0.242    0.457   91.699    2.937
  311.199    0.209    0.526   89.897    2.937
  311.499    0.221    0.525   90.493    3.053
  311.799    0.212    0.495   91.691    3.361
  312.099    0.191    0.484   88.689    3.996
  312.399    0.181    0.468   80.886    4.316
  312.699    0.194    0.443   81.483    4.234
  312.999    0.209    0.440   92.280    4.074
  313.299    0.227    0.479   94.677    3.630
  313.599    0.226    0.472   92.275    3.297
  313.899    0.219    0.487   87.472    3.493
  314.199    0.202    0.494   79.669    3.846
  314.499    0.204    0.438   71.867    5.760
  314.799    0.247    0.429   67.664    8.628
  315.099    0.236    0.412   71.861   11.515
  315.399    0.191    0.399   76.059   12.678
  315.699    0.212    0.404   71.856   12.678
  315.999    0.229    0.416   62.853   12.925
  316.299    0.241    0.405   54.451   13.693
  316.599    0.265    0.396   52.048   15.075
  316.899    0.260    0.377   53.846   14.788
  317.199    0.242    0.390   61.642   14.506
  317.499    0.202    0.405   64.640   13.432
  317.799    0.167    0.386   65.237   11.739
  318.099    0.151    0.357   70.634   10.459
  318.399    0.221    0.380   78.431    9.684
  318.699    0.227    0.402   76.629    9.684
  318.999    0.226    0.391   78.426   10.662
  319.299    0.235    0.367   86.823   11.296
  319.599    0.217    0.375   91.619   12.925
  319.899    0.230    0.428   88.017   15.667
  320.199    0.265    0.439   51.415   19.736
  320.499    0.293    0.440   45.413   24.389
  320.799    0.284    0.427   44.809   31.320
  321.099    0.290    0.408   47.207   43.439
  321.399    0.293    0.390   50.205   57.974
  321.699    0.299    0.374   55.602   66.333
  321.999    0.302    0.381   60.398   66.333
  322.299    0.306    0.398   65.796   59.100
  322.599    0.308    0.404   72.393   46.915
  322.899    0.313    0.391   81.990   33.826
  323.199    0.322    0.411   83.787   21.315
  323.499    0.329    0.480   83.184   17.926
