~VERSION INFORMATION
 VERS.                 2.0:   CWLS LOG ASCII STANDARD -VERSION 2.0
 WRAP.                  NO:   ONE LINE PER DEPTH STEP
~WELL INFORMATION BLOCK
#MNEM.UNIT           DATA                    DESCRIPTION OF MNEMONIC
#---------    -------------------            -------------------------------
# Generated from Intellog Unique Number	CS_67_68/WELL/2163
WELL.         ESSO AEC 85 FISHCK             : Well_name    - WELL
LOC .         00/03-25-067-07W4/0            : Location     - LOCATION
UWI .         00/03-25-067-07W4/0            : Uwi          - UNIQUE WELL ID
ENTR.         SP                             : Entered      - ENTERED BY
SRVC.         SCHLUMBERGER                   : Scn          - SERVICE COMPANY
STRT.M        325                            : top_depth    - START DEPTH
STOP.M        545                            : bot_depth    - STOP DEPTH
STEP.M        0.25                           : increment    - STEP LENGTH
 NULL. -999.2500:NULL Value
~CURVE INFORMATION BLOCK
#MNEM UNIT       ERCB CURVE CODE    CURVE DESCRIPTION
#-----------   ------------------   ----------------------------------
DEPT.M        00 001 00 00         : DEPTH        - DEPTH
ILD .OHMM     00 120 00 00         : RESD         - DEEP RESISTIVITY (DIL)
DPHI.V/V      00 890 00 00         : PHID         - DENSITY POROSITY (LIMESTONE)
NPHI.V/V      00 330 00 00         : PHIN         - NEUTRON POROSITY (LIMESTONE)
GR  .API      00 310 00 00         : GR           - GAMMA RAY
CALI.MM       00 280 01 00         : CAL          - CALIPER
~PARAMETER INFORMATION
#MNEM.UNIT           DATA             DESCRIPTION OF MNEMONIC
#---------         -----------     ------------------------------
GL  .M        649.9                : gl           - GROUND LEVEL ELEVATION
EREF.M        653.5                : kb           - ELEVATION OF DEPTH REFERENCE
DATM.M        653.5                : datum        - DATUM ELEVATION
TDD .M        549                  : tdd          - TOTAL DEPTH DRILLER
RUN .         ONE                  : Run          - RUN NUMBER
ENG .         BILL                 : Engineer     - RECORDING ENGINEER
WIT .         JIM                  : Witness      - WITNESSED BY
MUD .         GEL                  : Mud_type     - MUD TYPE
MATR.         LIMESTONE            : Logunit      - NEUTRON MATRIX
TMAX.C        19                   : BHT          - MAXIMUM RECORDED TEMPERATURE
BHTD.M        548                  : BHTDEP       - MAXIMUM RECORDED TEMPERATURE
MATR.         1                    : LOGUNIT      - NEUTRON MATRIX
RMT .C        25                   : MDTP         - TEMPERATURE OF MUD
NEUT.         1                    : NEUTRON      - NEUTRON TYPE
RESI.         0                    : RESIST       - RESISTIVITY TYPE
RMC .OHMM     0.25                 : RMC          - RESISTIVITY OF MUD CAKE
RMF .OHMM     0.25                 : RMF          - RESISTIVITY OF MUD FILTRATE
SUFT.C        15                   : SUFT         - SURFACE TEMPERATURE
~A  DEPTH     RESD     PHID     PHIN       GR      CAL
# ...
  434.500    3.648    0.350    0.459   62.185  160.589
  434.750    3.627    0.349    0.464   61.906  160.537
  435.000    3.586    0.344    0.469   62.172  160.778
  435.250    3.526    0.339    0.472   65.925  160.920
  435.500    3.467    0.333    0.481   68.692  161.265
  435.750    3.447    0.343    0.486   70.792  161.616
  436.000    3.434    0.348    0.487   66.299  161.864
  436.250    3.480    0.353    0.480   61.625  162.000
  436.500    3.545    0.352    0.465   65.313  162.042
  436.750    3.640    0.352    0.452   69.125  162.193
  437.000    3.737    0.351    0.452   68.174  162.126
  437.250    3.872    0.351    0.452   61.117  162.181
  437.500    3.968    0.351    0.446   56.014  162.113
  437.750    4.112    0.351    0.441   52.317  161.946
  438.000    4.229    0.349    0.437   53.380  161.989
  438.250    4.277    0.344    0.442   57.312  161.726
  438.500    4.221    0.340    0.444   59.961  161.569
  438.750    4.181    0.336    0.434   59.436  161.301
  439.000    4.142    0.333    0.427   59.527  161.045
  439.250    4.088    0.332    0.425   60.034  160.678
  439.500    4.012    0.334    0.432   61.649  160.514
  439.750    3.959    0.337    0.438   63.014  160.253
  440.000    3.835    0.340    0.432   64.079  160.093
  440.250    3.756    0.339    0.428   65.566  159.922
  440.500    3.693    0.344    0.431   67.731  159.867
  440.750    3.686    0.350    0.433   68.424  160.209
  441.000    3.707    0.353    0.426   67.168  160.762
  441.250    3.770    0.350    0.425   66.405  161.006
  441.500    3.841    0.355    0.428   67.097  161.251
  441.750    3.884    0.360    0.427   68.890  161.699
  442.000    3.973    0.364    0.420   67.024  162.353
  442.250    4.389    0.363    0.411   62.350  162.498
  442.500    5.315    0.359    0.405   68.786  162.639
  442.750    6.658    0.353    0.429   71.677  162.477
  443.000    8.677    0.328    0.451   69.565  162.521
  443.250   11.076    0.284    0.320   60.559  162.563
  443.500   12.847    0.232    0.276   56.493  162.503
  443.750   10.889    0.123    0.230   54.139  162.242
  444.000    8.807    0.026    0.197   51.113  161.876
  444.250    6.745    0.000    0.167   48.514  162.018
  444.500    5.445    0.000    0.147   56.964  162.466
  444.750    4.529    0.029    0.396   65.591  163.731
  445.000    4.077    0.035    0.435   74.221  164.690
  445.250    4.046    0.333    0.474   82.425  165.233
  445.500    4.170    0.348    0.503   86.599  165.282
  445.750    4.249    0.332    0.526   89.982  164.808
  446.000    4.289    0.314    0.500   90.496  163.838
  446.250    4.217    0.305    0.472   89.611  163.268
  446.500    3.970    0.305    0.472   88.288  163.408
  446.750    3.436    0.305    0.473   87.334  165.894
  447.000    2.973    0.349    0.474   86.813  170.306
  447.250    2.691    0.390    0.485   87.202  178.082
  447.500    2.459    0.407    0.487   87.475  184.936
  447.750    2.487    0.419    0.490   87.068  182.131
  448.000    2.747    0.438    0.511   85.689  175.662
  448.250    3.017    0.284    0.493   88.645  172.957
  448.500    3.314    0.259    0.476   93.614  170.261
  448.750    3.607    0.265    0.467   97.117  169.581
  449.000    3.895    0.281    0.474   96.230  170.747
  449.250    3.320    0.322    0.465   95.645  175.875
  449.500    2.820    0.422    0.495   95.728  183.133
  449.750    2.510    0.467    0.518   96.247  192.636
  450.000    2.319    0.501    0.538   96.388  201.322
  450.250    2.229    0.516    0.562   94.526  205.844
  450.500    2.119    0.496    0.553   94.302  203.643
  450.750    2.049    0.481    0.544   95.613  202.976
  451.000    2.060    0.470    0.558   95.212  208.509
  451.250    2.076    0.487    0.567   94.377  208.855
  451.500    2.083    0.500    0.583   94.220  204.321
  451.750    2.087    0.476    0.587   94.431  199.583
  452.000    2.079    0.447    0.565   93.842  199.829
  452.250    2.071    0.491    0.584   92.403  204.042
  452.500    2.071    0.523    0.600   87.911  209.071
  452.750    2.163    0.545    0.588   88.062  212.870
  453.000    2.301    0.522    0.572   90.281  215.150
  453.250    2.518    0.504    0.584   91.465  213.258
  453.500    2.829    0.550    0.598   83.680  211.776
  453.750    3.232    0.604    0.616   78.884  216.802
  454.000    3.813    0.491    0.567   82.203  220.604
  454.250    4.406    0.411    0.535   81.801  206.202
  454.500    5.178    0.361    0.509   76.760  179.801
  454.750    6.271    0.348    0.500   73.126  164.076
  455.000    7.086    0.340    0.492   70.773  157.300
  455.250    7.842    0.332    0.473   69.760  157.957
  455.500    8.296    0.321    0.456   68.987  158.416
  455.750    8.469    0.312    0.441   68.463  158.760
  456.000    8.249    0.306    0.480   72.028  158.900
  456.250    7.124    0.311    0.479   74.130  159.239
  456.500    5.784    0.314    0.469   75.439  159.386
  456.750    4.784    0.311    0.463   75.522  159.739
  457.000    4.454    0.304    0.456   77.134  160.081
  457.250    4.330    0.295    0.452   80.758  160.125
  457.500    4.226    0.288    0.450   82.676  160.161
  457.750    4.171    0.291    0.456   79.894  160.116
  458.000    4.124    0.293    0.469   77.052  160.255
  458.250    4.093    0.295    0.460   75.123  160.291
  458.500    4.070    0.296    0.437   75.147  160.535
  458.750    4.092    0.295    0.412   77.860  160.674
  459.000    4.108    0.294    0.430   80.751  160.525
  459.250    4.131    0.291    0.440   83.160  160.763
  459.500    4.154    0.290    0.430   84.279  161.112
  459.750    4.154    0.291    0.456   85.342  161.452
  460.000    4.161    0.292    0.472   84.636  162.007
  460.250    4.154    0.289    0.457   84.355  162.455
  460.500    4.115    0.289    0.438   86.090  162.803
  460.750    4.076    0.277    0.438   88.558  163.147
  461.000    4.068    0.259    0.454   90.779  163.493
  461.250    4.068    0.240    0.470   90.807  164.041
  461.500    4.076    0.237    0.479   91.258  164.391
  461.750    4.091    0.248    0.493   91.588  165.246
  462.000    4.106    0.263    0.496   92.165  166.610
  462.250    4.090    0.269    0.485   92.125  168.990
  462.500    4.067    0.274    0.476   91.783  172.191
  462.750    4.067    0.277    0.467   91.258  173.956
  463.000    4.067    0.277    0.476   92.259  174.608
  463.250    4.067    0.274    0.478   94.543  171.606
  463.500    4.082    0.274    0.478   95.666  169.306
  463.750    4.097    0.277    0.483   95.390  167.510
  464.000    4.120    0.281    0.501   96.021  165.622
  464.250    4.159    0.283    0.516   96.231  164.543
  464.500    4.238    0.279    0.514   94.487  165.703
  464.750    5.075    0.275    0.496   90.914  170.123
  465.000    5.897    0.274    0.496   88.372  171.077
  465.250    6.239    0.292    0.509   86.016  170.101
  465.500    7.757    0.304    0.494   83.783  167.602
  465.750    9.290    0.317    0.480   81.611  165.506
  466.000   10.535    0.320    0.486   77.610  163.925
  466.250   11.464    0.317    0.496   74.033  162.743
  466.500   12.151    0.317    0.483   71.250  161.971
  466.750   12.544    0.320    0.469   70.360  161.507
  467.000   12.686    0.324    0.453   72.706  161.041
  467.250   12.496    0.321    0.463   74.320  160.773
  467.500   12.449    0.317    0.481   75.746  160.716
  467.750   11.878    0.302    0.407   72.717  160.355
  468.000   10.976    0.237    0.356   69.080  160.086
  468.250    9.534    0.199    0.335   66.664  159.621
  468.500    7.976    0.177    0.394   71.816  159.569
  468.750    7.033    0.217    0.424   75.870  159.704
  469.000    6.212    0.253    0.452   78.885  159.741
  469.250    5.168    0.274    0.438   78.727  159.583
  469.500    4.041    0.260    0.455   76.556  159.624
  469.750    3.159    0.307    0.423   76.886  159.767
  470.000    2.194    0.346    0.521   78.070  160.421
  470.250    1.906    0.427    0.555   78.095  161.580
  470.500    1.795    0.444    0.574   77.086  172.100
  470.750    1.696    0.437    0.564   76.924  179.668
