~VERSION INFORMATION
 VERS.                 2.0:   CWLS LOG ASCII STANDARD -VERSION 2.0
 WRAP.                  NO:   ONE LINE PER DEPTH STEP
~WELL INFORMATION BLOCK
#MNEM.UNIT           DATA                    DESCRIPTION OF MNEMONIC
#---------    -------------------            -------------------------------
# Generated from Intellog Unique Number	CS_73_76/WELL/1040
WELL.         ANDERSON EXPLORATION LTD       : Well_name    - WELL
LOC .         00/06-13-075-12W4/0            : Location     - LOCATION
UWI .         00/06-13-075-12W4/0            : Uwi          - UNIQUE WELL ID
ENTR.         SP                             : Entered      - ENTERED BY
SRVC.         SCHLUMBERGER                   : Scn          - SERVICE COMPANY
STRT.M        295                            : top_depth    - START DEPTH
STOP.M        533                            : bot_depth    - STOP DEPTH
STEP.M        0.25                           : increment    - STEP LENGTH
 NULL. -999.2500:NULL Value
~CURVE INFORMATION BLOCK
#MNEM UNIT       ERCB CURVE CODE    CURVE DESCRIPTION
#-----------   ------------------   ----------------------------------
DEPT.M        00 001 00 00         : DEPTH        - DEPTH
GR  .API      00 310 00 00         : GR           - GAMMA RAY
NPHI.V/V      00 330 00 00         : PHIN         - NEUTRON POROSITY (LIMESTONE)
DPHI.V/V      00 890 00 00         : PHID         - DENSITY POROSITY (LIMESTONE)
ILD .OHMM     00 120 00 00         : RESD         - DEEP RESISTIVITY (DIL)
~PARAMETER INFORMATION
#MNEM.UNIT           DATA             DESCRIPTION OF MNEMONIC
#---------         -----------     ------------------------------
GL  .M        672.6                : gl           - GROUND LEVEL ELEVATION
EREF.M        676.1                : kb           - ELEVATION OF DEPTH REFERENCE
DATM.M        672.6                : datum        - DATUM ELEVATION
TDD .M        533                  : tdd          - TOTAL DEPTH DRILLER
RUN .         ONE                  : Run          - RUN NUMBER
ENG .         BILL                 : Engineer     - RECORDING ENGINEER
WIT .         JIM                  : Witness      - WITNESSED BY
MUD .         GEL                  : Mud_type     - MUD TYPE
MATR.         LIMESTONE            : Logunit      - NEUTRON MATRIX
TMAX.C        23.5                 : BHT          - MAXIMUM RECORDED TEMPERATURE
BHTD.M        533                  : BHTDEP       - MAXIMUM RECORDED TEMPERATURE
MATR.         1                    : LOGUNIT      - NEUTRON MATRIX
RMT .C        25                   : MDTP         - TEMPERATURE OF MUD
NEUT.         1                    : NEUTRON      - NEUTRON TYPE
RESI.         0                    : RESIST       - RESISTIVITY TYPE
RMC .OHMM     0.25                 : RMC          - RESISTIVITY OF MUD CAKE
RMF .OHMM     0.25                 : RMF          - RESISTIVITY OF MUD FILTRATE
SUFT.C        15                   : SUFT         - SURFACE TEMPERATURE
~A  DEPTH       GR     PHIN     PHID     RESD
# ...
  425.500   74.534    0.459    0.271    5.998
  425.750   75.743    0.465    0.327    5.997
  426.000   76.954    0.468    0.329    5.884
  426.250   75.757    0.457    0.329    5.883
  426.500   75.765    0.452    0.344    5.881
  426.750   76.374    0.441    0.333    5.879
  427.000   76.981    0.454    0.335    5.877
  427.250   78.193    0.466    0.318    5.876
  427.500   78.802    0.456    0.283    5.875
  427.750   78.809    0.441    0.249    5.873
  428.000   78.814    0.445    0.247    5.764
  428.250   78.824    0.447    0.250    5.762
  428.500   78.828    0.449    0.252    5.868
  428.750   78.836    0.465    0.258    5.866
  429.000   76.431    0.462    0.276    5.864
  429.250   73.425    0.453    0.299    5.972
  429.500   71.022    0.463    0.287    5.971
  429.750   70.428    0.464    0.278    5.969
  430.000   69.830    0.462    0.289    6.079
  430.250   68.634    0.460    0.296    6.424
  430.500   68.638    0.457    0.301    6.916
  430.750   67.443    0.465    0.305    7.175
  431.000   67.449    0.472    0.276    7.583
  431.250   66.852    0.460    0.265    7.440
  431.500   66.859    0.453    0.258    7.439
  431.750   67.466    0.446    0.255    7.167
  432.000   69.282    0.454    0.266    6.777
  432.250   69.891    0.467    0.289    6.529
  432.500   67.488    0.475    0.305    6.407
  432.750   65.686    0.487    0.302    6.173
  433.000   65.693    0.499    0.302    5.837
  433.250   66.304    0.504    0.305    5.623
  433.500   66.308    0.486    0.306    5.622
  433.750   67.520    0.477    0.311    5.620
  434.000   68.731    0.464    0.297    5.724
  434.250   68.136    0.459    0.312    5.722
  434.500   68.142    0.453    0.312    5.720
  434.750   68.150    0.464    0.308    5.719
  435.000   68.156    0.469    0.311    5.717
  435.250   66.355    0.469    0.311    5.822
  435.500   65.758    0.477    0.323    5.821
  435.750   65.766    0.489    0.314    5.818
  436.000   66.378    0.492    0.306    5.925
  436.250   66.383    0.487    0.302    5.924
  436.500   66.389    0.490    0.317    6.144
  436.750   66.394    0.479    0.327    6.258
  437.000   65.802    0.472    0.314    6.492
  437.250   65.805    0.458    0.312    6.736
  437.500   65.813    0.459    0.312    7.252
  437.750   65.819    0.473    0.313    7.664
  438.000   65.825    0.476    0.303    7.804
  438.250   66.435    0.466    0.295    7.380
  438.500   66.440    0.462    0.294    6.851
  438.750   65.845    0.471    0.305    6.479
  439.000   65.248    0.477    0.317    6.015
  439.250   67.063    0.482    0.318    5.794
  439.500   70.083    0.479    0.312    5.687
  439.750   71.292    0.474    0.309    5.684
  440.000   71.299    0.480    0.308    5.682
  440.250   70.102    0.482    0.320    5.681
  440.500   68.902    0.474    0.305    5.786
  440.750   72.525    0.466    0.298    5.785
  441.000   76.147    0.460    0.292    5.890
  441.250   77.358    0.451    0.291    5.890
  441.500   79.174    0.450    0.288    5.998
  441.750   79.780    0.445    0.280    5.995
  442.000   81.597    0.454    0.286    5.994
  442.250   81.600    0.455    0.294    6.104
  442.500   82.210    0.452    0.277    6.216
  442.750   81.614    0.456    0.243    6.215
  443.000   80.415    0.456    0.272    6.447
  443.250   75.602    0.471    0.266    6.566
  443.500   69.585    0.475    0.275    6.812
  443.750   65.975    0.456    0.267    7.067
  444.000   63.573    0.443    0.256    7.196
  444.250   62.374    0.437    0.266    7.194
  444.500   62.382    0.445    0.281    7.327
  444.750   62.990    0.458    0.280    7.601
  445.000   63.599    0.464    0.263    7.741
  445.250   63.605    0.443    0.233    8.030
  445.500   61.804    0.424    0.213    8.028
  445.750   57.596    0.372    0.193    8.026
  446.000   56.396    0.327    0.142    7.589
  446.250   61.826    0.356    0.178    7.312
  446.500   67.859    0.410    0.241    7.044
  446.750   69.670    0.440    0.275    6.785
  447.000   72.689    0.457    0.298    6.783
  447.250   74.503    0.452    0.293    7.037
  447.500   73.304    0.447    0.275    7.301
  447.750   69.698    0.452    0.263    7.298
  448.000   68.498    0.440    0.237    7.296
  448.250   66.698    0.407    0.220    7.295
  448.500   69.716    0.371    0.167    7.027
  448.750   73.941    0.409    0.227    6.770
  449.000   76.959    0.430    0.235    6.402
  449.250   80.582    0.433    0.252    6.283
  449.500   81.188    0.423    0.259    6.166
  449.750   84.208    0.442    0.257    6.051
  450.000   87.226    0.456    0.251    6.162
  450.250   90.850    0.461    0.240    6.160
  450.500   92.059    0.459    0.228    6.274
  450.750   92.668    0.458    0.225    6.389
  451.000   92.073    0.453    0.242    6.507
  451.250   89.068    0.448    0.247    6.626
  451.500   88.471    0.444    0.253    6.747
  451.750   86.671    0.442    0.236    6.872
  452.000   84.267    0.447    0.213    6.999
  452.250   83.070    0.439    0.188    7.260
  452.500   84.884    0.429    0.158    7.259
  452.750   86.698    0.425    0.177    7.391
  453.000   87.908    0.429    0.190    7.390
  453.250   90.325    0.433    0.200    7.526
  453.500   93.347    0.431    0.217    7.250
  453.750   94.557    0.430    0.229    6.856
  454.000   96.370    0.436    0.214    6.604
  454.250   96.978    0.447    0.211    6.603
  454.500   98.191    0.458    0.203    6.724
  454.750   98.798    0.470    0.204    6.848
  455.000   98.203    0.448    0.214    6.974
  455.250   97.005    0.431    0.224    6.972
  455.500   97.010    0.430    0.230    6.841
  455.750   96.416    0.424    0.221    6.715
  456.000   95.218    0.419    0.217    6.233
  456.250   93.415    0.418    0.212    5.786
  456.500   89.206    0.419    0.213    5.574
  456.750   86.201    0.431    0.218    5.370
  457.000   84.398    0.453    0.210    5.369
  457.250   85.610    0.459    0.181    5.468
  457.500   88.031    0.442    0.206    4.801
  457.750   89.241    0.460    0.219    4.217
  458.000   89.246    0.480    0.224    3.438
  458.250   89.251    0.488    0.235    3.020
  458.500   88.053    0.514    0.259    2.555
  458.750   86.254    0.549    0.284    2.417
  459.000   84.451    0.570    0.272    2.328
  459.250   83.254    0.549    0.263    2.371
  459.500   83.260    0.540    0.261    2.370
  459.750   84.474    0.555    0.261    2.414
  460.000   85.684    0.561    0.260    2.458
  460.250   87.498    0.558    0.269    2.503
  460.500   91.724    0.546    0.256    2.549
  460.750   93.535    0.541    0.249    2.596
  461.000   94.746    0.542    0.241    2.644
  461.250   94.151    0.530    0.237    2.743
  461.500   92.350    0.540    0.229    3.064
  461.750   91.753    0.524    0.243    3.552
  462.000   89.351    0.518    0.226    4.043
  462.250   88.152    0.508    0.203    4.687
  462.500   85.749    0.489    0.192    5.237
  462.750   82.743    0.458    0.198    6.071
  463.000   80.340    0.443    0.201    6.658
  463.250   77.938    0.433    0.180    7.036
  463.500   77.341    0.407    0.145    7.299
  463.750   80.964    0.384    0.109    7.434
  464.000   83.379    0.380    0.118    6.408
  464.250   86.399    0.399    0.134    5.840
  464.500   87.609    0.430    0.165    5.224
  464.750   88.821    0.442    0.196    4.761
  465.000   90.635    0.449    0.192    4.587
  465.250   92.449    0.454    0.177    4.418
  465.500   95.469    0.463    0.179    4.336
  465.750   96.679    0.479    0.185    4.100
  466.000   97.287    0.477    0.194    4.024
  466.250   97.896    0.472    0.200    4.023
  466.500   96.096    0.474    0.211    4.022
  466.750   95.501    0.476    0.199    4.020
  467.000   95.508    0.472    0.189    4.094
  467.250   96.718    0.472    0.193    4.169
  467.500   97.930    0.465    0.200    4.246
  467.750   98.540    0.472    0.180    4.324
  468.000   97.942    0.488    0.170    4.323
  468.250   97.348    0.486    0.160    4.088
  468.500   96.752    0.478    0.171    3.726
  468.750   96.155    0.483    0.187    3.212
