~VERSION INFORMATION
 VERS.                 2.0:   CWLS LOG ASCII STANDARD -VERSION 2.0
 WRAP.                  NO:   ONE LINE PER DEPTH STEP
~WELL INFORMATION BLOCK
#MNEM.UNIT           DATA                    DESCRIPTION OF MNEMONIC
#---------    -------------------            -------------------------------
# Generated from Intellog Unique Number	CW_76_78/WELL/2566
WELL.         NOVALTA PORTAGE                : Well_name    - WELL
LOC .         00/05-29-078-19W4/0            : Location     - LOCATION
UWI .         00/05-29-078-19W4/0            : Uwi          - UNIQUE WELL ID
ENTR.         MAX                            : Entered      - ENTERED BY
SRVC.         WESTERN ATLAS                  : Scn          - SERVICE COMPANY
STRT.M        190                            : top_depth    - START DEPTH
STOP.M        400                            : bot_depth    - STOP DEPTH
STEP.M        0.25                           : increment    - STEP LENGTH
 NULL. -999.2500:NULL Value
~CURVE INFORMATION BLOCK
#MNEM UNIT       ERCB CURVE CODE    CURVE DESCRIPTION
#-----------   ------------------   ----------------------------------
DEPT.M        00 001 00 00         : DEPTH        - DEPTH
ILD .OHMM     00 120 00 00         : RESD         - DEEP RESISTIVITY (DIL)
NPHI.V/V      00 330 00 00         : PHIN         - NEUTRON POROSITY (SANDSTONE)
DPHI.V/V      00 890 00 00         : PHID         - DENSITY POROSITY (SANDSTONE)
CALI.MM       00 280 01 00         : CAL          - CALIPER
GR  .API      00 310 00 00         : GR           - GAMMA RAY
~PARAMETER INFORMATION
#MNEM.UNIT           DATA             DESCRIPTION OF MNEMONIC
#---------         -----------     ------------------------------
GL  .M        559.38               : gl           - GROUND LEVEL ELEVATION
EREF.M        563.38               : kb           - ELEVATION OF DEPTH REFERENCE
DATM.M        559.38               : datum        - DATUM ELEVATION
TDD .M        433.8                : tdd          - TOTAL DEPTH DRILLER
RUN .         ONE                  : Run          - RUN NUMBER
ENG .         BILL                 : Engineer     - RECORDING ENGINEER
WIT .         JIM                  : Witness      - WITNESSED BY
MUD .         GEL                  : Mud_type     - MUD TYPE
MATR.         SANDSTONE            : Logunit      - NEUTRON MATRIX
TMAX.C        24                   : BHT          - MAXIMUM RECORDED TEMPERATURE
BHTD.M        433.8                : BHTDEP       - MAXIMUM RECORDED TEMPERATURE
RMT .C        17                   : MDTP         - TEMPERATURE OF MUD
MUDD.KG/M     1160                 : MWT          - MUD DENSITY
NEUT.         1                    : NEUTRON      - NEUTRON TYPE
RESI.         0                    : RESIST       - RESISTIVITY TYPE
RM  .OHMM     5                    : RM           - RESISTIVITY OF MUD
RMC .OHMM     0.25                 : RMC          - RESISTIVITY OF MUD CAKE
RMF .OHMM     0.25                 : RMF          - RESISTIVITY OF MUD FILTRATE
SUFT.C        -20                  : SUFT         - SURFACE TEMPERATURE
~A  DEPTH     RESD     PHIN     PHID      CAL       GR
# ...
  336.000    9.157    0.393    0.331  167.981   61.261
  336.250    8.985    0.403    0.341  167.452   61.845
  336.500    8.897    0.402    0.352  167.431   62.131
  336.750    9.058    0.397    0.356  168.405   63.018
  337.000    9.138    0.397    0.336  168.882   63.304
  337.250    9.132    0.406    0.329  168.860   64.191
  337.500    9.211    0.411    0.337  168.335   65.980
  337.750    9.292    0.412    0.349  167.809   65.965
  338.000    9.816    0.387    0.326  168.279   64.746
  338.250   10.371    0.364    0.291  168.759   61.727
  338.500   11.059    0.329    0.270  169.238   55.695
  338.750   11.470    0.315    0.268  171.211   55.081
  339.000   11.464    0.203    0.282  172.693   56.271
  339.250   11.039    0.224    0.336  173.667   60.163
  339.500   10.535    0.282    0.360  174.140   63.154
  339.750   10.052    0.393    0.366  174.115   63.739
  340.000    9.861    0.418    0.341  174.592   64.327
  340.250    9.857    0.417    0.326  175.071   64.611
  340.500    9.942    0.405    0.328  174.546   63.695
  340.750   10.121    0.391    0.342  173.516   62.778
  341.000   10.400    0.386    0.334  172.493   63.062
  341.250   10.687    0.382    0.327  171.463   64.248
  341.500   10.881    0.378    0.324  170.934   64.536
  341.750   11.078    0.373    0.326  170.910   63.619
  342.000   11.278    0.367    0.329  170.891   62.098
  342.250   11.482    0.366    0.330  170.867   62.387
  342.500   11.370    0.371    0.332  171.337   64.773
  342.750   11.155    0.382    0.343  171.816   66.562
  343.000   10.944    0.392    0.357  172.791   66.549
  343.250   10.737    0.397    0.360  173.270   66.536
  343.500   10.732    0.400    0.359  173.246   65.917
  343.750   10.925    0.400    0.343  173.221   65.603
  344.000   11.226    0.400    0.325  173.193   65.286
  344.250   11.643    0.398    0.331  173.193   64.672
  344.500   11.850    0.401    0.338  173.144   64.657
  344.750   12.181    0.406    0.333  173.116   64.939
  345.000   12.287    0.407    0.333  173.095   65.830
  345.250   12.054    0.404    0.338  173.064   68.517
  345.500   11.609    0.402    0.346  173.046   69.407
  345.750   11.391    0.404    0.347  172.520   69.692
  346.000   11.173    0.404    0.360  172.495   69.374
  346.250   11.166    0.400    0.367  172.468   68.760
  346.500   11.161    0.395    0.361  173.439   68.445
  346.750   11.155    0.391    0.343  174.416   69.330
  347.000   10.843    0.387    0.348  174.395   71.718
  347.250   10.639    0.385    0.349  174.373   73.809
  347.500   10.533    0.390    0.344  173.845   74.696
  347.750   10.625    0.394    0.348  173.820   77.086
  348.000   10.718    0.395    0.347  173.294   80.379
  348.250   10.811    0.393    0.344  173.264   84.870
  348.500   10.805    0.388    0.331  173.245   86.360
  348.750   10.799    0.377    0.325  173.221   86.645
  349.000   10.694    0.376    0.331  173.196   87.532
  349.250   10.297    0.381    0.346  173.168   89.321
  349.500   10.010    0.399    0.351  173.648   93.815
  349.750    9.553    0.410    0.349  174.118   93.799
  350.000    8.948    0.405    0.338  174.598   93.786
  350.250    8.618    0.390    0.337  176.574   94.671
  350.500    7.997    0.388    0.349  179.057   96.461
  350.750    7.847    0.414    0.363  180.535   98.847
  351.000    7.769    0.436    0.368  181.012  100.935
  351.250    7.911    0.432    0.367  180.987  103.028
  351.500    8.205    0.410    0.354  180.462  103.011
  351.750    8.588    0.395    0.356  179.933  100.590
  352.000    8.988    0.392    0.361  179.905  100.575
  352.250    9.237    0.404    0.359  179.380  101.765
  352.500    9.580    0.403    0.331  178.356  102.351
  352.750   10.028    0.390    0.316  176.829  100.533
  353.000   10.305    0.364    0.313  174.296   99.915
  353.250   10.588    0.361    0.320  172.766  100.203
  353.500   11.084    0.355    0.324  171.736   98.986
  353.750   12.265    0.333    0.316  170.716   94.462
  354.000   12.719    0.308    0.312  170.187   87.228
  354.250   12.713    0.306    0.309  170.165   87.816
  354.500   12.823    0.329    0.309  170.138   89.607
  354.750   12.934    0.348    0.316  170.614   92.596
  355.000   12.808    0.379    0.324  171.094   96.190
  355.250   12.682    0.406    0.321  171.567   97.977
  355.500   12.674    0.392    0.318  172.541   95.556
  355.750   12.786    0.369    0.320  173.018   92.539
  356.000   13.260    0.340    0.313  172.993   87.412
  356.250   14.011    0.312    0.290  173.469   81.987
  356.500   14.940    0.264    0.265  172.443   80.768
  356.750   15.639    0.288    0.270  171.920   82.559
  357.000   15.630    0.312    0.278  171.395   85.548
  357.250   14.640    0.326    0.282  171.367   88.537
  357.500   13.585    0.341    0.286  172.341   90.628
  357.750   12.964    0.352    0.292  173.322   90.912
  358.000   12.718    0.359    0.301  174.797   90.900
  358.250   12.713    0.360    0.309  175.777   91.182
  358.500   12.941    0.348    0.317  176.755   91.169
  358.750   13.176    0.332    0.318  177.231   90.555
  359.000   13.169    0.323    0.314  177.203   89.935
  359.250   13.040    0.324    0.306  177.680   91.126
  359.500   12.676    0.350    0.305  178.657   93.214
  359.750   11.763    0.377    0.312  180.132   96.205
  360.000   10.918    0.406    0.327  181.110   98.893
  360.250    9.496    0.426    0.337  181.589  100.981
  360.500    8.979    0.440    0.338  182.566  103.070
  360.750    8.808    0.443    0.343  182.539  103.057
  361.000    8.723    0.430    0.350  181.509  102.744
  361.250    8.717    0.402    0.344  179.985  100.625
  361.500    8.631    0.370    0.331  177.953   93.094
  361.750    8.236    0.353    0.325  176.924   88.268
  362.000    7.859    0.376    0.329  176.905   88.853
  362.250    7.227    0.439    0.336  177.882   91.244
  362.500    5.838    0.468    0.359  178.359   93.035
  362.750    4.893    0.499    0.387  179.834   95.725
  363.000    3.285    0.557    0.423  180.310   95.406
  363.250    2.805    0.586    0.438  180.283   93.289
  363.500    2.651    0.603    0.439  179.259   90.269
  363.750    2.725    0.578    0.414  176.226   86.948
  364.000    3.277    0.543    0.379  174.695   82.725
  364.250    4.052    0.461    0.345  174.176   77.600
  364.500    5.105    0.414    0.319  172.645   70.069
  364.750    8.568    0.388    0.307  170.611   64.944
  365.000   13.108    0.397    0.304  169.089   61.620
  365.250   23.690    0.402    0.315  168.564   60.106
  365.500   28.494    0.388    0.335  169.541   56.480
  365.750   30.102    0.368    0.334  172.519   58.870
  366.000   28.199    0.341    0.319  174.501   65.769
  366.250   19.281    0.343    0.309  175.980   73.569
  366.500   13.431    0.359    0.311  175.980   80.770
  366.750   10.748    0.423    0.315  175.918   86.767
  367.000    8.062    0.451    0.325  175.903   93.064
  367.250    5.564    0.471    0.335  176.379   96.656
  367.500    5.987    0.446    0.346  176.349   96.940
  367.750    7.202    0.404    0.342  176.828   93.320
  368.000    7.896    0.338    0.325  177.808   79.479
  368.250    9.674    0.280    0.308  179.778   73.751
  368.500   12.763    0.241    0.298  180.261   76.141
  368.750   13.237    0.258    0.320  180.236   88.450
  369.000   13.228    0.368    0.357  180.209   96.852
  369.250   12.508    0.385    0.373  180.187  111.868
  369.500   10.780    0.391    0.365  180.159  116.660
  369.750    9.463    0.383    0.348  180.138  116.646
  370.000    8.946    0.385    0.335  180.113  108.513
  370.250    8.859    0.411    0.333  179.582  104.291
  370.500    8.936    0.457    0.340  179.056  105.179
  370.750    8.936    0.465    0.338  179.028  105.463
  371.000    9.609    0.442    0.323  178.506   95.529
  371.250   11.038    0.392    0.312  177.983   84.694
  371.500   11.990    0.319    0.287  176.957   80.471
  371.750   13.146    0.308    0.289  176.932   81.957
  372.000   14.147    0.324    0.305  176.905   85.850
  372.250   13.623    0.349    0.311  176.905   90.344
