~VERSION INFORMATION
 VERS.                 2.0:   CWLS LOG ASCII STANDARD -VERSION 2.0
 WRAP.                  NO:   ONE LINE PER DEPTH STEP
~WELL INFORMATION BLOCK
#MNEM.UNIT           DATA                    DESCRIPTION OF MNEMONIC
#---------    -------------------            -------------------------------
# Generated from Intellog Unique Number	CW_73_75/WELL/829
WELL.         07-31-074-25W4                 : Well_name    - WELL
LOC .         00/07-31-074-25W4/0            : Location     - LOCATION
UWI .         00/07-31-074-25W4/0            : Uwi          - UNIQUE WELL ID
ENTR.         JAYE                           : Entered      - ENTERED BY
SRVC.         COMPUTALOG                     : Scn          - SERVICE COMPANY
DATE.         24 FEB 80                      : Date         - LOG DATE
STRT.M        430                            : top_depth    - START DEPTH
STOP.M        626                            : bot_depth    - STOP DEPTH
STEP.M        0.25                           : increment    - STEP LENGTH
 NULL. -999.2500:NULL Value
~CURVE INFORMATION BLOCK
#MNEM UNIT       ERCB CURVE CODE    CURVE DESCRIPTION
#-----------   ------------------   ----------------------------------
DEPT.M        00 001 00 00         : DEPTH        - DEPTH
ILD .OHMM     00 120 00 00         : RESD         - DEEP RESISTIVITY (DIL)
CALI.MM       00 280 01 00         : CAL          - CALIPER
GR  .API      00 310 00 00         : GR           - GAMMA RAY
NPHI.V/V      00 330 00 00         : PHIN         - NEUTRON POROSITY (SANDSTONE)
DPHI.V/V      00 890 00 00         : PHID         - DENSITY POROSITY (SANDSTONE)
~PARAMETER INFORMATION
#MNEM.UNIT           DATA             DESCRIPTION OF MNEMONIC
#---------         -----------     ------------------------------
GL  .M        703.95               : gl           - GROUND LEVEL ELEVATION
EREF.M        707.95               : kb           - ELEVATION OF DEPTH REFERENCE
DATM.M        703.95               : datum        - DATUM ELEVATION
TDD .M        626.4                : tdd          - TOTAL DEPTH DRILLER
RUN .         ONE                  : Run          - RUN NUMBER
ENG .         HOLDEN               : Engineer     - RECORDING ENGINEER
WIT .         LEGG/LEROUX          : Witness      - WITNESSED BY
BASE.         EDM                  : Branch       - HOME BASE OF LOGGING UNIT
MUD .         GEL CHEM             : Mud_type     - MUD TYPE
MATR.         SANDSTONE            : Logunit      - NEUTRON MATRIX
TMAX.C        18                   : BHT          - MAXIMUM RECORDED TEMPERATURE
BHTD.M        627                  : BHTDEP       - MAXIMUM RECORDED TEMPERATURE
RMT .C        5                    : MDTP         - TEMPERATURE OF MUD
MUDD.KG/M     1186                 : MWT          - MUD DENSITY
NEUT.         1                    : NEUTRON      - NEUTRON TYPE
RESI.         0                    : RESIST       - RESISTIVITY TYPE
RM  .OHMM     4.4                  : RM           - RESISTIVITY OF MUD
RMC .OHMM     5.5                  : RMC          - RESISTIVITY OF MUD CAKE
RMF .OHMM     4.7                  : RMF          - RESISTIVITY OF MUD FILTRATE
SUFT.C        0                    : SUFT         - SURFACE TEMPERATURE
~A  DEPTH     RESD      CAL       GR     PHIN     PHID
# ...
  539.500    5.802  200.583   74.627    0.354    0.222
  539.750    6.340  200.804   73.459    0.371    0.216
  540.000    6.942  201.956   72.661    0.353    0.212
  540.250    8.037  203.420   72.113    0.323    0.195
  540.500    9.513  202.713   67.656    0.331    0.188
  540.750   11.282  201.591   65.558    0.324    0.169
  541.000   12.445  200.882   69.536    0.310    0.140
  541.250   12.698  200.693   71.654    0.327    0.115
  541.500   12.461  201.020   66.330    0.334    0.092
  541.750   11.185  202.793   62.060    0.264    0.056
  542.000    9.782  204.149   63.124    0.257    0.060
  542.250    8.572  203.958   58.420    0.301    0.101
  542.500    7.372  202.527   61.220    0.324    0.142
  542.750    6.496  200.992   68.113    0.355    0.165
  543.000    5.608  199.975   80.711    0.369    0.185
  543.250    5.253  198.855   83.325    0.340    0.202
  543.500    5.098  198.146   78.931    0.347    0.218
  543.750    5.068  198.057   71.376    0.375    0.221
  544.000    5.048  199.005   75.292    0.409    0.218
  544.250    5.065  200.260   77.658    0.417    0.211
  544.500    5.092  201.101   74.318    0.405    0.216
  544.750    5.129  202.357   76.560    0.432    0.226
  545.000    5.127  202.269   77.686    0.444    0.232
  545.250    5.125  200.115   84.269    0.396    0.227
  545.500    5.133  201.167   84.588    0.368    0.222
  545.750    5.141  202.423   78.024    0.374    0.224
  546.000    5.216  203.469   78.406    0.389    0.220
  546.250    5.323  204.520   82.136    0.375    0.212
  546.500    5.471  203.811   82.455    0.365    0.207
  546.750    5.541  201.450   78.186    0.406    0.211
  547.000    5.591  199.915   76.397    0.442    0.217
  547.250    5.621  199.208   75.972    0.437    0.215
  547.500    5.619  198.914   70.834    0.379    0.200
  547.750    5.617  198.928   77.107    0.383    0.197
  548.000    5.753  199.152   85.736    0.408    0.207
  548.250    6.489  199.581   83.886    0.405    0.211
  548.500    7.526  199.595   76.701    0.397    0.189
  548.750    8.225  200.541   68.773    0.439    0.111
  549.000    8.377  201.385   65.434    0.444    0.048
  549.250    8.296  201.916   71.272    0.184    0.039
  549.500    8.022  202.657   80.274    0.186    0.075
  549.750    7.641  203.293   80.656    0.300    0.140
  550.000    6.708  203.824   77.875    0.340    0.170
  550.250    6.402  204.357   78.007    0.345    0.175
  550.500    6.388  204.371   72.870    0.327    0.169
  550.750    6.457  203.768   71.267    0.314    0.158
  551.000    6.601  203.065   71.896    0.351    0.160
  551.250    6.722  203.080   73.766    0.379    0.173
  551.500    6.683  202.780   81.341    0.378    0.171
  551.750    6.582  200.523   76.266    0.377    0.162
  552.000    6.532  198.988   76.151    0.396    0.151
  552.250    6.374  198.694   80.005    0.337    0.172
  552.500    6.016  199.329   88.944    0.301    0.190
  552.750    5.688  200.895   92.426    0.293    0.203
  553.000    5.500  201.428   87.288    0.314    0.209
  553.250    5.387  201.030   82.772    0.343    0.200
  553.500    5.395  200.116   83.525    0.360    0.184
  553.750    5.484  199.719   85.952    0.354    0.165
  554.000    5.754  199.940   89.683    0.334    0.168
  554.250    5.936  200.265   84.669    0.336    0.183
  554.500    5.913  200.694   79.470    0.380    0.198
  554.750    5.824  201.229   83.758    0.442    0.208
  555.000    5.779  201.759   85.876    0.423    0.168
  555.250    5.745  202.293   85.513    0.368    0.138
  555.500    5.690  202.930   88.375    0.365    0.153
  555.750    5.626  203.048   92.787    0.394    0.174
  556.000    5.624  202.958   97.138    0.411    0.189
  556.250    5.580  203.080   95.411    0.384    0.181
  556.500    5.684  203.301   91.328    0.366    0.191
  556.750    5.886  203.316   87.368    0.387    0.193
  557.000    5.906  203.229   84.090    0.406    0.181
  557.250    5.937  203.141   92.285    0.371    0.148
  557.500    5.957  202.846   92.110    0.342    0.151
  557.750    5.933  202.864   87.157    0.360    0.163
  558.000    5.855  202.880   79.229    0.378    0.165
  558.250    5.789  203.100   78.184    0.341    0.156
  558.500    5.755  203.530   84.519    0.301    0.161
  558.750    5.732  204.166   90.792    0.314    0.172
  559.000    5.666  205.318   83.794    0.338    0.172
  559.250    5.643  205.747   79.400    0.359    0.154
  559.500    5.631  203.902   87.285    0.378    0.159
  559.750    5.672  202.368   92.379    0.395    0.180
  560.000    5.863  201.351   89.474    0.408    0.160
  560.250    6.128  201.057   87.809    0.414    0.141
  560.500    6.393  200.762   92.780    0.404    0.127
  560.750    6.572  201.088   98.184    0.403    0.153
  561.000    6.668  202.035   91.310    0.392    0.150
  561.250    6.641  203.083   80.529    0.418    0.096
  561.500    6.640  204.441   76.880    0.345    0.072
  561.750    6.638  205.904   91.214    0.349    0.123
  562.000    6.636  206.954   94.139    0.389    0.155
  562.250    6.671  207.176   92.473    0.419    0.185
  562.500    6.743  206.674   88.018    0.395    0.170
  562.750    6.779  206.380   88.276    0.376    0.156
  563.000    6.739  205.879   85.866    0.315    0.111
  563.250    6.613  205.793   81.163    0.296    0.095
  563.500    6.406  205.807   82.165    0.290    0.096
  563.750    6.274  205.822   90.484    0.294    0.139
  564.000    6.146  205.839   97.190    0.323    0.159
  564.250    6.133  205.543  102.099    0.348    0.183
  564.500    6.063  205.766  101.860    0.369    0.179
  564.750    6.027  205.885  102.676    0.408    0.169
  565.000    6.230  206.107  103.057    0.432    0.171
  565.250    6.573  206.226  103.935    0.425    0.176
  565.500    7.183  206.139   93.154    0.367    0.179
  565.750    7.880  205.535   79.892    0.347    0.155
  566.000    8.822  205.241   79.344    0.354    0.140
  566.250   10.118  204.739   95.414    0.370    0.166
  566.500   11.757  204.134   94.183    0.384    0.190
  566.750   15.159  203.634   84.395    0.386    0.215
  567.000   16.940  203.235   78.203    0.400    0.248
  567.250   16.809  202.942   69.468    0.417    0.261
  567.500   16.556  202.856   68.735    0.428    0.262
  567.750   16.277  202.664   71.224    0.405    0.255
  568.000   16.122  202.679   68.690    0.428    0.250
  568.250   16.542  202.693   62.622    0.451    0.241
  568.500   17.680  203.019   61.516    0.409    0.232
  568.750   18.861  203.244   64.502    0.400    0.220
  569.000   18.996  203.362   70.837    0.419    0.224
  569.250   18.503  203.686   64.830    0.443    0.229
  569.500   17.174  203.909   60.747    0.418    0.227
  569.750   16.027  203.820   61.749    0.376    0.226
  570.000   16.083  203.528   68.146    0.388    0.233
  570.250   17.447  203.440   74.418    0.390    0.228
  570.500   18.716  203.456   68.412    0.396    0.219
  570.750   19.746  203.573   64.825    0.389    0.212
  571.000   21.105  203.697   69.052    0.395    0.201
  571.250   22.809  203.813   66.891    0.352    0.199
  571.500   25.537  203.829   64.233    0.336    0.199
  571.750   26.154  203.843   61.886    0.329    0.191
  572.000   26.885  203.963   61.833    0.342    0.184
  572.250   28.522  203.979   64.448    0.312    0.167
  572.500   29.482  203.579   63.341    0.274    0.157
  572.750   30.249  202.873   61.427    0.297    0.160
  573.000   30.863  202.165   60.134    0.349    0.174
  573.250   31.027  201.456   62.314    0.401    0.178
  573.500   30.673  200.954   62.882    0.346    0.174
  573.750   29.878  200.869   64.752    0.330    0.173
  574.000   28.887  201.194   65.754    0.317    0.174
  574.250   27.825  201.934   58.941    0.313    0.179
  574.500   26.853  202.362   59.571    0.321    0.193
  574.750   25.817  202.790   68.572    0.353    0.204
  575.000   25.194  203.013   71.062    0.361    0.212
  575.250   25.000  202.926   63.072    0.354    0.208
  575.500   24.993  202.734   61.965    0.335    0.207
  575.750   24.893  202.750   58.191    0.343    0.206
