~VERSION INFORMATION
 VERS.                 2.0:   CWLS LOG ASCII STANDARD -VERSION 2.0
 WRAP.                  NO:   ONE LINE PER DEPTH STEP
~WELL INFORMATION BLOCK
#MNEM.UNIT           DATA                    DESCRIPTION OF MNEMONIC
#---------    -------------------            -------------------------------
# Generated from Intellog Unique Number	CS_67_68/WELL/2167
WELL.         06-13-067-07W4                 : Well_name    - WELL
LOC .         00/06-13-067-07W4/0            : Location     - LOCATION
UWI .         00/06-13-067-07W4/0            : Uwi          - UNIQUE WELL ID
ENTR.         SP                             : Entered      - ENTERED BY
SRVC.         SCHLUMBERGER                   : Scn          - SERVICE COMPANY
STRT.M        330                            : top_depth    - START DEPTH
STOP.M        545                            : bot_depth    - STOP DEPTH
STEP.M        0.25                           : increment    - STEP LENGTH
 NULL. -999.2500:NULL Value
~CURVE INFORMATION BLOCK
#MNEM UNIT       ERCB CURVE CODE    CURVE DESCRIPTION
#-----------   ------------------   ----------------------------------
DEPT.M        00 001 00 00         : DEPTH        - DEPTH
ILD .OHMM     00 120 00 00         : RESD         - DEEP RESISTIVITY (DIL)
DPHI.V/V      00 890 00 00         : PHID         - DENSITY POROSITY (LIMESTONE)
NPHI.V/V      00 330 00 00         : PHIN         - NEUTRON POROSITY (LIMESTONE)
GR  .API      00 310 00 00         : GR           - GAMMA RAY
CALI.MM       00 280 01 00         : CAL          - CALIPER
~PARAMETER INFORMATION
#MNEM.UNIT           DATA             DESCRIPTION OF MNEMONIC
#---------         -----------     ------------------------------
GL  .M        648.63               : gl           - GROUND LEVEL ELEVATION
EREF.M        652.41               : kb           - ELEVATION OF DEPTH REFERENCE
DATM.M        652.41               : datum        - DATUM ELEVATION
TDD .M        553                  : tdd          - TOTAL DEPTH DRILLER
RUN .         ONE                  : Run          - RUN NUMBER
ENG .         BILL                 : Engineer     - RECORDING ENGINEER
WIT .         JIM                  : Witness      - WITNESSED BY
MUD .         GEL                  : Mud_type     - MUD TYPE
MATR.         LIMESTONE            : Logunit      - NEUTRON MATRIX
TMAX.C        21                   : BHT          - MAXIMUM RECORDED TEMPERATURE
BHTD.M        501                  : BHTDEP       - MAXIMUM RECORDED TEMPERATURE
MATR.         1                    : LOGUNIT      - NEUTRON MATRIX
RMT .C        25                   : MDTP         - TEMPERATURE OF MUD
NEUT.         1                    : NEUTRON      - NEUTRON TYPE
RESI.         0                    : RESIST       - RESISTIVITY TYPE
RMC .OHMM     0.25                 : RMC          - RESISTIVITY OF MUD CAKE
RMF .OHMM     0.25                 : RMF          - RESISTIVITY OF MUD FILTRATE
SUFT.C        15                   : SUFT         - SURFACE TEMPERATURE
~A  DEPTH     RESD     PHID     PHIN       GR      CAL
# ...
  366.500    6.405    0.222    0.450   76.493  166.138
  366.750    6.273    0.181    0.441   77.829  163.795
  367.000    6.133    0.185    0.440   75.264  162.467
  367.250    6.041    0.216    0.442   71.419  162.154
  367.500    5.905    0.234    0.442   68.916  162.350
  367.750    5.839    0.252    0.443   71.532  162.748
  368.000    5.817    0.271    0.449   75.306  162.842
  368.250    5.817    0.261    0.458   78.045  163.038
  368.500    5.873    0.271    0.469   80.296  163.132
  368.750    5.929    0.283    0.467   79.133  163.124
  369.000    5.997    0.297    0.455   76.995  163.015
  369.250    5.862    0.309    0.446   74.247  163.007
  369.500    5.688    0.315    0.437   71.134  162.897
  369.750    5.634    0.307    0.430   68.082  162.889
  370.000    5.613    0.294    0.440   71.918  162.984
  370.250    5.582    0.277    0.452   76.058  163.180
  370.500    5.561    0.265    0.463   80.198  163.273
  370.750    5.529    0.273    0.469   81.290  163.367
  371.000    5.488    0.282    0.478   80.249  163.664
  371.250    5.488    0.289    0.473   82.378  163.859
  371.500    5.551    0.291    0.460   85.177  164.054
  371.750    5.636    0.278    0.448   87.915  164.048
  372.000    5.700    0.270    0.440   89.557  164.040
  372.250    5.711    0.264    0.471   89.125  163.931
  372.500    5.711    0.249    0.497   89.121  163.922
  372.750    5.690    0.227    0.516   90.518  164.017
  373.000    5.647    0.238    0.491   92.950  164.518
  373.250    5.584    0.254    0.477   93.678  164.306
  373.500    5.521    0.256    0.468   93.369  164.197
  373.750    5.357    0.256    0.462   91.413  163.986
  374.000    5.100    0.251    0.457   89.886  163.877
  374.250    4.837    0.242    0.451   88.479  166.206
  374.500    4.587    0.231    0.444   88.413  177.373
  374.750    4.476    0.228    0.438   90.603  191.791
  375.000    4.553    0.237    0.472   94.134  202.957
  375.250    4.658    0.259    0.511   94.312  212.499
  375.500    4.801    0.294    0.478   93.942  204.770
  375.750    4.930    0.307    0.455   95.583  175.100
  376.000    5.091    0.277    0.454   92.591  165.035
  376.250    5.248    0.282    0.467   86.613  162.488
  376.500    5.338    0.272    0.451   83.927  161.563
  376.750    5.430    0.258    0.441   79.960  161.253
  377.000    5.461    0.264    0.451   73.922  160.736
  377.250    5.461    0.267    0.443   72.577  160.730
  377.500    5.472    0.253    0.442   71.048  160.822
  377.750    5.545    0.237    0.465   67.020  160.918
  378.000    5.683    0.251    0.461   65.736  161.112
  378.250    5.662    0.277    0.438   69.875  161.104
  378.500    5.525    0.289    0.432   72.492  161.200
  378.750    5.380    0.298    0.461   74.621  161.495
  379.000    5.350    0.301    0.493   76.628  161.793
  379.250    5.381    0.298    0.479   77.842  161.988
  379.500    5.412    0.292    0.483   76.436  161.981
  379.750    5.494    0.284    0.472   76.126  162.075
  380.000    5.578    0.279    0.460   78.255  162.168
  380.250    5.674    0.270    0.448   79.225  162.162
  380.500    5.805    0.235    0.413   78.917  161.849
  380.750    6.052    0.193    0.392   75.925  161.639
  381.000    6.133    0.212    0.395   74.702  161.529
  381.250    6.006    0.257    0.435   75.916  161.216
  381.500    5.883    0.278    0.453   77.070  161.005
  381.750    5.751    0.275    0.446   78.953  160.998
  382.000    5.654    0.265    0.460   80.230  162.209
  382.250    5.527    0.269    0.468   81.505  163.218
  382.500    5.465    0.296    0.477   81.745  163.108
  382.750    5.383    0.312    0.480   73.816  162.491
  383.000    5.313    0.329    0.473   67.107  161.874
  383.250    5.303    0.339    0.463   62.592  161.053
  383.500    5.303    0.341    0.449   61.490  160.740
  383.750    5.333    0.338    0.429   62.217  160.632
  384.000    5.394    0.330    0.416   63.858  160.726
  384.250    5.435    0.321    0.409   67.571  161.430
  384.500    5.498    0.313    0.406   70.431  163.251
  384.750    5.540    0.313    0.415   73.779  166.290
  385.000    5.508    0.322    0.431   76.944  165.876
  385.250    5.395    0.313    0.444   77.976  162.516
  385.500    5.264    0.321    0.453   74.863  159.969
  385.750    5.176    0.325    0.445   74.005  158.437
  386.000    5.079    0.328    0.434   74.610  157.818
  386.250    5.012    0.331    0.434   77.043  158.015
  386.500    5.003    0.334    0.445   79.599  158.313
  386.750    5.003    0.332    0.452   74.778  158.710
  387.000    5.216    0.318    0.461   72.945  158.805
  387.250    5.376    0.294    0.471   74.282  159.204
  387.500    5.510    0.270    0.478   81.104  159.500
  387.750    5.552    0.249    0.491   86.889  159.898
  388.000    5.511    0.269    0.497   88.957  160.196
  388.250    5.397    0.284    0.470   85.051  160.290
  388.500    5.296    0.297    0.447   81.999  160.181
  388.750    5.187    0.286    0.431   82.238  160.174
  389.000    5.139    0.271    0.422   83.636  160.165
  389.250    5.100    0.260    0.438   84.972  160.159
  389.500    5.062    0.260    0.431   85.151  160.862
  389.750    5.005    0.260    0.410   87.035  162.581
  390.000    4.930    0.250    0.475   91.358  167.754
  390.250    4.949    0.267    0.515   94.523  168.356
  390.500    4.977    0.271    0.516   94.031  164.996
  390.750    5.053    0.273    0.484   87.992  162.347
  391.000    5.189    0.277    0.461   84.209  161.323
  391.250    5.440    0.278    0.450   82.436  161.619
  391.500    5.672    0.280    0.442   83.773  161.715
  391.750    5.857    0.282    0.430   87.425  162.316
  392.000    6.004    0.283    0.420   86.811  162.817
  392.250    6.095    0.279    0.418   83.515  163.622
  392.500    6.189    0.273    0.413   89.850  164.732
  392.750    6.295    0.264    0.405   95.635  165.434
  393.000    6.379    0.257    0.413   99.410  166.037
  393.250    6.379    0.246    0.431   99.831  166.639
  393.500    6.416    0.238    0.441   99.401  166.936
  393.750    6.404    0.237    0.425  102.199  166.927
  394.000    6.380    0.240    0.424  101.220  166.615
  394.250    6.332    0.259    0.451   90.183  165.694
  394.500    6.225    0.271    0.448   81.097  163.145
  394.750    6.155    0.277    0.432   77.617  162.122
  395.000    6.063    0.275    0.418   77.064  161.200
  395.250    5.894    0.264    0.406   80.413  160.686
  395.500    5.548    0.256    0.408   83.455  160.168
  395.750    5.222    0.257    0.445   78.391  160.162
  396.000    4.943    0.276    0.466   72.535  160.661
  396.250    4.860    0.289    0.481   67.594  161.061
  396.500    4.897    0.290    0.497   62.897  161.256
  396.750    4.888    0.288    0.465   59.478  161.248
  397.000    4.815    0.293    0.430   57.645  161.241
  397.250    4.707    0.315    0.413   56.300  161.029
  397.500    4.619    0.329    0.397   56.661  160.921
  397.750    4.506    0.332    0.383   60.984  160.608
  398.000    4.439    0.324    0.390   64.514  160.498
  398.250    4.389    0.321    0.386   63.108  160.288
  398.500    4.356    0.314    0.380   57.739  160.180
  398.750    4.348    0.313    0.384   52.249  160.172
  399.000    4.324    0.316    0.391   50.721  159.961
  399.250    4.307    0.318    0.397   51.387  159.547
  399.500    4.299    0.319    0.401   57.172  156.288
  399.750    4.316    0.315    0.403   63.507  150.998
  400.000    4.382    0.303    0.392   71.181  149.670
  400.250    4.551    0.276    0.380   76.846  155.757
  400.500    4.673    0.259    0.377   82.632  156.765
  400.750    4.754    0.248    0.400   85.797  156.146
  401.000    4.790    0.265    0.416   80.184  155.836
  401.250    4.790    0.283    0.408   77.681  155.930
  401.500    4.727    0.293    0.395   76.031  156.430
  401.750    4.799    0.277    0.381   80.537  156.829
  402.000    4.975    0.252    0.392   86.444  156.515
  402.250    5.138    0.235    0.409   84.854  156.407
  402.500    5.296    0.251    0.412   83.144  156.399
  402.750    5.296    0.259    0.396   83.992  156.186
