~VERSION INFORMATION
 VERS.                 2.0:   CWLS LOG ASCII STANDARD -VERSION 2.0
 WRAP.                  NO:   ONE LINE PER DEPTH STEP
~WELL INFORMATION BLOCK
#MNEM.UNIT           DATA                    DESCRIPTION OF MNEMONIC
#---------    -------------------            -------------------------------
# Generated from Intellog Unique Number	CS_77_79/WELL/909
WELL.         CDN-SUP CHRISTINA              : Well_name    - WELL
LOC .         00/07-26-079-10W4/0            : Location     - LOCATION
UWI .         00/07-26-079-10W4/0            : Uwi          - UNIQUE WELL ID
ENTR.         JHS                            : Entered      - ENTERED BY
SRVC.         SCHLUMBERGER                   : Scn          - SERVICE COMPANY
STRT.M        243.84                         : top_depth    - START DEPTH
STOP.M        478.34                         : bot_depth    - STOP DEPTH
STEP.M        0.25                           : increment    - STEP LENGTH
 NULL. -999.2500:NULL Value
~CURVE INFORMATION BLOCK
#MNEM UNIT       ERCB CURVE CODE    CURVE DESCRIPTION
#-----------   ------------------   ----------------------------------
DEPT.M        00 001 00 00         : DEPTH        - DEPTH
RHOB.KG/M3    00 350 00 00         : DENS         - BULK DENSITY
GR  .API      00 310 00 00         : GR           - GAMMA RAY
DPHI.V/V      00 890 00 00         : PHID         - DENSITY POROSITY (SANDSTONE)
NPHI.V/V      00 330 00 00         : PHIN         - NEUTRON POROSITY (SANDSTONE)
ILD .OHMM     00 120 00 00         : RESD         - DEEP RESISTIVITY (DIL)
~PARAMETER INFORMATION
#MNEM.UNIT           DATA             DESCRIPTION OF MNEMONIC
#---------         -----------     ------------------------------
GL  .M        679.094              : gl           - GROUND LEVEL ELEVATION
EREF.M        683.666              : kb           - ELEVATION OF DEPTH REFERENCE
DATM.M        683.666              : datum        - DATUM ELEVATION
TDD .M        487.68               : tdd          - TOTAL DEPTH DRILLER
RUN .         ONE                  : Run          - RUN NUMBER
ENG .         BILL                 : Engineer     - RECORDING ENGINEER
WIT .         JIM                  : Witness      - WITNESSED BY
MUD .         GEL                  : Mud_type     - MUD TYPE
MATR.         SANDSTONE            : Logunit      - NEUTRON MATRIX
TMAX.C        60                   : BHT          - MAXIMUM RECORDED TEMPERATURE
BHTD.M        487.68               : BHTDEP       - MAXIMUM RECORDED TEMPERATURE
MATR.         1                    : LOGUNIT      - NEUTRON MATRIX
RMT .C        25                   : MDTP         - TEMPERATURE OF MUD
NEUT.         1                    : NEUTRON      - NEUTRON TYPE
RESI.         0                    : RESIST       - RESISTIVITY TYPE
RMC .OHMM     0.25                 : RMC          - RESISTIVITY OF MUD CAKE
RMF .OHMM     0.25                 : RMF          - RESISTIVITY OF MUD FILTRATE
SUFT.C        15                   : SUFT         - SURFACE TEMPERATURE
~A  DEPTH     DENS       GR     PHID     PHIN     RESD
# ...
  316.840    0.000   59.526    0.339    0.422   19.461
  317.090    0.000   58.977    0.336    0.440   19.472
  317.340    0.000   57.471    0.352    0.455   19.483
  317.590   -0.000   57.076    0.356    0.428   19.522
  317.840   -0.000   59.279    0.332    0.413   19.159
  318.090   -0.000   62.259    0.330    0.408   18.761
  318.340    0.000   64.615    0.326    0.434   17.951
  318.590    0.000   66.744    0.338    0.452   16.876
  318.840    0.000   68.038    0.362    0.458   16.241
  319.090   -0.000   68.922    0.363    0.446   15.239
  319.340   -0.000   71.155    0.369    0.444   15.163
  319.590   -0.000   73.303    0.355    0.450   15.162
  319.840    0.000   76.233    0.343    0.462   14.905
  320.090    0.000   81.178    0.340    0.464   14.553
  320.340   -0.000   86.762    0.342    0.459   14.129
  320.590   -0.000   93.488    0.340    0.454   14.136
  320.840   -0.000  103.099    0.333    0.450   14.130
  321.090    0.000  110.813    0.304    0.457   14.397
  321.340    0.000  117.737    0.299    0.473   14.555
  321.590    0.000  110.655    0.287    0.465   15.107
  321.840   -0.000   88.333    0.295    0.440   16.899
  322.090   -0.000   67.457    0.312    0.417   18.034
  322.340   -0.000   56.866    0.318    0.412   18.386
  322.590    0.000   54.488    0.325    0.423   18.750
  322.840    0.000   55.877    0.316    0.430   18.746
  323.090    0.000   57.013    0.318    0.433   18.754
  323.340   -0.000   57.758    0.328    0.425   18.758
  323.590   -0.000   57.227    0.319    0.413   18.692
  323.840    0.000   59.166    0.313    0.416   18.474
  324.090    0.000   65.182    0.313    0.424   17.552
  324.340    0.000   71.980    0.315    0.424   17.479
  324.590   -0.000   79.262    0.300    0.425   17.780
  324.840   -0.000   88.374    0.287    0.447   18.656
  325.090   -0.000   93.420    0.252    0.281   20.090
  325.340    0.000   88.229    0.216    0.223   23.684
  325.590    0.000   76.047   -0.012    0.198   28.578
  325.840    0.000   64.586   -0.000    0.184   34.151
  326.090   -0.000   60.555    0.006    0.174   38.272
  326.340   -0.000   54.631   -0.001    0.174   41.942
  326.590    0.000   55.064   -0.000    0.185   39.654
  326.840    0.000   62.073    0.026    0.204   30.318
  327.090    0.000   66.518    0.127    0.259   25.824
  327.340   -0.000   68.875    0.186    0.325   22.154
  327.590   -0.000   67.006    0.295    0.444   19.468
  327.840   -0.000   64.282    0.317    0.451   17.558
  328.090    0.000   60.685    0.307    0.454   16.516
  328.340    0.000   57.613    0.323    0.447   16.569
  328.590    0.000   54.353    0.286    0.381   17.505
  328.840   -0.000   49.825    0.227    0.328   21.065
  329.090   -0.000   46.066    0.114    0.154   24.274
  329.340   -0.000   42.545    0.020    0.148   27.593
  329.590    0.000   44.019    0.024    0.154   30.876
  329.840    0.000   51.795    0.109    0.202   31.913
  330.090   -0.000   57.115    0.194    0.282   27.413
  330.340   -0.000   62.448    0.288    0.400   23.373
  330.590   -0.000   63.813    0.358    0.456   19.890
  330.840    0.000   59.541    0.345    0.452   17.402
  331.090    0.000   58.074    0.339    0.446   15.836
  331.340    0.000   61.346    0.338    0.440   14.782
  331.590   -0.000   63.310    0.349    0.447   14.103
  331.840   -0.000   64.109    0.357    0.474   14.186
  332.090   -0.000   63.375    0.366    0.464   14.348
  332.340    0.000   62.465    0.366    0.453   14.360
  332.590    0.000   60.803    0.359    0.458   14.376
  332.840   -0.000   59.231    0.363    0.442   14.381
  333.090   -0.000   59.398    0.359    0.430   14.220
  333.340   -0.000   62.738    0.356    0.423   14.106
  333.590    0.000   65.076    0.364    0.430   13.651
  333.840    0.000   65.904    0.361    0.452   13.517
  334.090    0.000   64.371    0.362    0.457   13.391
  334.340   -0.000   61.847    0.370    0.449   12.963
  334.590   -0.000   60.725    0.365    0.458   12.950
  334.840   -0.000   59.705    0.349    0.461   12.955
  335.090    0.000   59.469    0.351    0.465   12.963
  335.340    0.000   62.309    0.365    0.467   12.968
  335.590    0.000   63.941    0.360    0.460   12.983
  335.840   -0.000   62.082    0.361    0.459   12.759
  336.090   -0.000   60.510    0.360    0.447   12.458
  336.340    0.000   58.021    0.366    0.451   12.104
  336.590    0.000   56.192    0.349    0.450   11.752
  336.840    0.000   52.842    0.309    0.446   11.408
  337.090   -0.000   55.743    0.288    0.457   11.249
  337.340   -0.000   57.419    0.324    0.475   11.159
  337.590   -0.000   56.620    0.364    0.483   11.055
  337.840    0.000   56.464    0.366    0.466   10.733
  338.090    0.000   59.371    0.355    0.447   10.143
  338.340    0.000   64.656    0.345    0.436    9.566
  338.590   -0.000   64.387    0.353    0.427    9.077
  338.840   -0.000   62.538    0.341    0.428    8.309
  339.090    0.000   60.302    0.327    0.456    7.991
  339.340    0.000   59.308    0.314    0.475    7.753
  339.590    0.000   62.673    0.304    0.485    7.763
  339.840   -0.000   66.911    0.345    0.493    8.287
  340.090   -0.000   64.024    0.366    0.461    8.715
  340.340   -0.000   61.409    0.362    0.443    9.375
  340.590    0.000   64.500    0.349    0.459    9.986
  340.840    0.000   73.945    0.360    0.457    9.309
  341.090    0.000   84.028    0.348    0.435    6.947
  341.340   -0.000   95.463    0.327    0.416    5.803
  341.590   -0.000   98.032    0.298    0.421    5.025
  341.840   -0.000   95.421    0.267    0.472    4.466
  342.090    0.000   91.349    0.247    0.461    4.270
  342.340    0.000   92.372    0.251    0.449    4.071
  342.590   -0.000   98.394    0.262    0.448    4.090
  342.840   -0.000   98.499    0.259    0.470    4.141
  343.090   -0.000   97.946    0.239    0.483    4.188
  343.340    0.000  100.662    0.223    0.492    4.184
  343.590    0.000  101.667    0.239    0.510    4.151
  343.840    0.000  103.423    0.240    0.490    3.927
  344.090   -0.000  103.934    0.233    0.478    3.633
  344.340   -0.000   95.543    0.245    0.510    3.539
  344.590   -0.000   91.635    0.266    0.534    3.620
  344.840    0.000   85.857    0.268    0.499    3.832
  345.090    0.000   72.643    0.273    0.476    4.252
  345.340   -0.000   75.058    0.291    0.452    4.771
  345.590   -0.000   79.765    0.334    0.440    5.372
  345.840   -0.000   79.926    0.325    0.456    6.161
  346.090    0.000   73.627    0.316    0.504    6.513
  346.340    0.000   68.166    0.309    0.486    6.799
  346.590    0.000   66.184    0.341    0.462    6.961
  346.840   -0.000   67.723    0.345    0.450    7.506
  347.090   -0.000   68.763    0.353    0.435    8.413
  347.340   -0.000   69.748    0.341    0.423    8.985
  347.590    0.000   71.058    0.338    0.433    8.841
  347.840    0.000   74.764    0.332    0.446    8.773
  348.090    0.000   75.643    0.326    0.452    8.503
  348.340   -0.000   75.262    0.319    0.452    8.243
  348.590   -0.000   74.085    0.288    0.449    8.210
  348.840    0.000   72.669    0.211    0.442    8.225
  349.090    0.000   72.092    0.172    0.354    7.850
  349.340    0.000   77.371    0.152    0.357    7.275
  349.590   -0.000   84.101    0.240    0.414    6.540
  349.840   -0.000   89.973    0.304    0.466    5.867
  350.090   -0.000   92.076    0.299    0.485    5.131
  350.340    0.000   95.185    0.285    0.481    4.400
  350.590    0.000   98.057    0.269    0.468    3.781
  350.840    0.000  102.086    0.260    0.469    3.160
  351.090   -0.000  108.092    0.246    0.483    2.904
  351.340   -0.000  112.773    0.223    0.492    2.613
  351.590    0.000  115.618    0.243    0.512    2.376
  351.840    0.000  116.521    0.230    0.544    2.260
  352.090    0.000  114.194    0.242    0.560    2.249
  352.340   -0.000  111.445    0.220    0.536    2.294
  352.590   -0.000  111.040    0.211    0.548    2.341
  352.840   -0.000  112.054    0.219    0.554    2.437
  353.090    0.000  111.563    0.230    0.566    2.510
