~VERSION INFORMATION
 VERS.                 2.0:   CWLS LOG ASCII STANDARD -VERSION 2.0
 WRAP.                  NO:   ONE LINE PER DEPTH STEP
~WELL INFORMATION BLOCK
#MNEM.UNIT           DATA                    DESCRIPTION OF MNEMONIC
#---------    -------------------            -------------------------------
# Generated from Intellog Unique Number	CW_73_75/WELL/637
WELL.         MANNVILL MESA MITSKE 07-01     : Well_name    - WELL
LOC .         00/07-01-074-03W5/0            : Location     - LOCATION
UWI .         00/07-01-074-03W5/0            : Uwi          - UNIQUE WELL ID
ENTR.         JAYE                           : Entered      - ENTERED BY
SRVC.         SCHLUMBERGER                   : Scn          - SERVICE COMPANY
DATE.         1 MAR 79                       : Date         - LOG DATE
STRT.M        440                            : top_depth    - START DEPTH
STOP.M        675                            : bot_depth    - STOP DEPTH
STEP.M        0.25                           : increment    - STEP LENGTH
 NULL. -999.2500:NULL Value
~CURVE INFORMATION BLOCK
#MNEM UNIT       ERCB CURVE CODE    CURVE DESCRIPTION
#-----------   ------------------   ----------------------------------
DEPT.M        00 001 00 00         : DEPTH        - DEPTH
ILD .OHMM     00 120 00 00         : RESD         - DEEP RESISTIVITY (DIL)
NPHI.V/V      00 330 00 00         : PHIN         - NEUTRON POROSITY (SANDSTONE)
DPHI.V/V      00 890 00 00         : PHID         - DENSITY POROSITY (SANDSTONE)
CALI.MM       00 280 01 00         : CAL          - CALIPER
GR  .API      00 310 00 00         : GR           - GAMMA RAY
~PARAMETER INFORMATION
#MNEM.UNIT           DATA             DESCRIPTION OF MNEMONIC
#---------         -----------     ------------------------------
GL  .M        685.4                : gl           - GROUND LEVEL ELEVATION
EREF.M        688.4                : kb           - ELEVATION OF DEPTH REFERENCE
DATM.M        685.4                : datum        - DATUM ELEVATION
TDD .M        675                  : tdd          - TOTAL DEPTH DRILLER
RUN .         ONE                  : Run          - RUN NUMBER
ENG .         KESTER               : Engineer     - RECORDING ENGINEER
WIT .         MURYNKA              : Witness      - WITNESSED BY
BASE.         EDM                  : Branch       - HOME BASE OF LOGGING UNIT
MUD .         GEL GELEX            : Mud_type     - MUD TYPE
MATR.         SANDSTONE            : Logunit      - NEUTRON MATRIX
TMAX.C        17.5                 : BHT          - MAXIMUM RECORDED TEMPERATURE
BHTD.M        674                  : BHTDEP       - MAXIMUM RECORDED TEMPERATURE
RMT .C        16.7                 : MDTP         - TEMPERATURE OF MUD
MUDD.KG/M     1110                 : MWT          - MUD DENSITY
NEUT.         1                    : NEUTRON      - NEUTRON TYPE
RESI.         0                    : RESIST       - RESISTIVITY TYPE
RM  .OHMM     4.07                 : RM           - RESISTIVITY OF MUD
RMC .OHMM     0                    : RMC          - RESISTIVITY OF MUD CAKE
RMF .OHMM     4.68                 : RMF          - RESISTIVITY OF MUD FILTRATE
SUFT.C        0                    : SUFT         - SURFACE TEMPERATURE
~A  DEPTH     RESD     PHIN     PHID      CAL       GR
# ...
  549.500    4.317    0.439    0.206  162.331   89.062
  549.750    4.205    0.444    0.174  161.897   91.299
  550.000    4.126    0.445    0.167  161.876   90.852
  550.250    4.004    0.418    0.159  161.965   87.658
  550.500    3.928    0.427    0.147  162.259   88.958
  550.750    3.818    0.441    0.136  162.554   93.255
  551.000    3.663    0.458    0.156  162.540   90.622
  551.250    3.430    0.470    0.191  162.834   89.674
  551.500    3.232    0.457    0.197  162.502   89.228
  551.750    3.128    0.458    0.206  161.859   86.908
  552.000    3.008    0.469    0.219  160.804   84.339
  552.250    3.007    0.468    0.238  159.540   77.150
  552.500    3.017    0.453    0.255  158.794   73.145
  552.750    3.084    0.437    0.300  158.361   73.572
  553.000    3.159    0.415    0.286  158.031   77.306
  553.250    3.248    0.426    0.285  157.806   77.857
  553.500    3.480    0.445    0.273  157.476   77.972
  553.750    3.748    0.465    0.279  157.147   80.957
  554.000    4.231    0.494    0.257  157.022   80.136
  554.250    4.678    0.476    0.236  157.111   77.066
  554.500    5.339    0.440    0.250  157.615   74.684
  554.750    6.817    0.416    0.264  158.633   73.114
  555.000    8.736    0.368    0.216  159.243   71.667
  555.250   10.647    0.281    0.171  159.954   70.035
  555.500   11.426    0.238    0.114  160.250   66.715
  555.750   11.528    0.220    0.109  161.480   63.585
  556.000   11.354    0.210    0.098  162.192   60.702
  556.250   11.329    0.213    0.069  162.591   60.130
  556.500   11.035    0.225    0.066  162.778   62.804
  556.750   10.826    0.219    0.079  162.762   61.856
  557.000   10.176    0.195    0.104  163.578   60.037
  557.250    9.062    0.176    0.050  164.393   60.650
  557.500    7.995    0.197    0.027  164.998   62.012
  557.750    6.484    0.257    0.062  164.879   64.686
  558.000    5.318    0.320    0.109  163.196   69.483
  558.250    4.915    0.352    0.172  160.058   72.593
  558.500    4.629    0.427    0.220  158.481   74.830
  558.750    4.450    0.447    0.243  158.256   77.316
  559.000    4.246    0.440    0.291  158.340   75.745
  559.250    4.065    0.424    0.290  159.053   73.675
  559.500    3.857    0.421    0.295  160.597   72.603
  559.750    3.585    0.442    0.289  161.928   71.844
  560.000    3.327    0.461    0.280  161.496   71.584
  560.250    3.234    0.475    0.270  160.748   71.510
  560.500    3.197    0.476    0.276  160.004   71.687
  560.750    3.166    0.477    0.291  159.363   72.177
  561.000    3.249    0.484    0.283  158.515   73.228
  561.250    3.409    0.470    0.287  157.769   76.775
  561.500    3.599    0.462    0.275  157.540   76.577
  561.750    3.692    0.457    0.275  157.316   74.569
  562.000    3.699    0.443    0.297  156.987   73.873
  562.250    3.628    0.373    0.278  156.658   70.366
  562.500    3.535    0.371    0.244  156.225   66.487
  562.750    3.405    0.392    0.211  155.894   71.469
  563.000    3.322    0.426    0.224  155.151   75.392
  563.250    3.234    0.452    0.255  154.506   79.812
  563.500    3.133    0.474    0.271  153.972   84.858
  563.750    3.040    0.493    0.248  154.058   85.909
  564.000    2.999    0.499    0.252  156.328   81.966
  564.250    2.915    0.484    0.249  157.872   79.522
  564.500    2.898    0.490    0.267  158.792   82.755
  564.750    2.881    0.484    0.275  159.293   83.995
  565.000    2.875    0.493    0.253  159.381   79.553
  565.250    2.896    0.487    0.238  159.364   77.045
  565.500    2.900    0.475    0.258  159.241   77.907
  565.750    2.900    0.468    0.289  159.121   78.772
  566.000    2.893    0.472    0.284  159.310   80.820
  566.250    2.899    0.473    0.266  159.391   82.996
  566.500    2.940    0.456    0.256  159.691   84.795
  566.750    3.057    0.449    0.246  159.670   85.035
  567.000    3.226    0.450    0.246  159.555   83.214
  567.250    3.393    0.447    0.233  159.848   79.771
  567.500    3.474    0.438    0.225  159.728   80.197
  567.750    3.506    0.417    0.209  159.709   82.059
  568.000    3.518    0.393    0.181  159.486   85.544
  568.250    3.478    0.407    0.159  160.196   88.655
  568.500    3.419    0.454    0.183  161.008   90.267
  568.750    3.362    0.488    0.220  161.408   90.569
  569.000    3.317    0.480    0.227  161.393   89.122
  569.250    3.279    0.473    0.227  161.582   88.176
  569.500    3.277    0.480    0.241  161.253   90.662
  569.750    3.283    0.483    0.226  161.025   92.587
  570.000    3.356    0.471    0.209  161.010   92.639
  570.250    3.535    0.466    0.193  161.201   88.572
  570.500    3.773    0.473    0.204  160.870   85.752
  570.750    4.034    0.472    0.212  160.954   83.932
  571.000    4.354    0.465    0.212  160.835   82.984
  571.250    4.518    0.461    0.217  160.505   82.287
  571.500    4.654    0.432    0.224  160.384   81.591
  571.750    4.575    0.409    0.203  160.473   84.263
  572.000    4.413    0.341    0.174  160.662   85.252
  572.250    4.134    0.357    0.138  161.059   83.869
  572.500    3.922    0.394    0.145  161.253   86.355
  572.750    3.791    0.480    0.167  161.443   89.965
  573.000    3.720    0.471    0.226  161.425   92.264
  573.250    3.712    0.470    0.226  161.513   92.815
  573.500    3.718    0.470    0.209  161.804   92.868
  573.750    3.717    0.473    0.194  161.790   95.852
  574.000    3.702    0.464    0.217  162.186   97.091
  574.250    3.728    0.489    0.213  162.066   97.205
  574.500    3.728    0.493    0.210  162.254   97.008
  574.750    3.733    0.484    0.209  162.238   96.873
  575.000    3.739    0.484    0.196  162.117   97.362
  575.250    3.758    0.479    0.192  162.101   97.225
  575.500    3.772    0.465    0.202  162.290   97.715
  575.750    3.827    0.456    0.199  162.483   98.142
  576.000    3.891    0.451    0.225  162.672   98.318
  576.250    3.957    0.449    0.209  162.762   98.808
  576.500    4.014    0.452    0.210  163.055   99.421
  576.750    4.066    0.456    0.211  163.035   99.660
  577.000    4.118    0.465    0.182  163.020   97.466
  577.250    4.211    0.478    0.185  163.105   93.273
  577.500    4.288    0.469    0.192  163.299   95.697
  577.750    4.434    0.459    0.204  163.385   99.057
  578.000    4.558    0.459    0.207  163.366   98.173
  578.250    4.756    0.464    0.198  163.348   96.353
  578.500    5.011    0.463    0.190  163.224   94.158
  578.750    5.170    0.458    0.195  163.314   88.404
  579.000    5.306    0.454    0.213  163.297   86.522
  579.250    5.385    0.451    0.229  163.280   89.132
  579.500    5.395    0.448    0.213  163.263   91.556
  579.750    5.371    0.443    0.211  163.142   89.798
  580.000    5.299    0.450    0.223  163.018   88.665
  580.250    4.981    0.443    0.227  162.899   89.903
  580.500    4.587    0.437    0.216  163.193   91.326
  580.750    4.352    0.436    0.224  163.177   92.940
  581.000    4.280    0.452    0.219  163.055   95.364
  581.250    4.287    0.446    0.211  163.349   97.538
  581.500    4.293    0.441    0.197  164.578   97.340
  581.750    4.324    0.433    0.196  165.393   98.890
  582.000    4.338    0.434    0.181  166.105   99.754
  582.250    4.402    0.462    0.176  166.713   98.370
  582.500    4.493    0.453    0.172  167.112   96.737
  582.750    4.517    0.443    0.178  166.990   96.165
  583.000    4.582    0.440    0.190  166.764   94.594
  583.250    4.538    0.455    0.187  166.330   91.837
  583.500    4.461    0.445    0.214  165.170   91.639
  583.750    4.297    0.459    0.212  160.887   94.999
  584.000    4.024    0.460    0.221  158.477   99.234
  584.250    3.846    0.451    0.212  157.732  101.595
  584.500    3.718    0.462    0.190  159.171  102.521
  584.750    3.731    0.463    0.175  161.753  101.324
  585.000    3.982    0.469    0.169  163.609   97.382
  585.250    4.362    0.477    0.182  165.048   92.503
  585.500    5.016    0.467    0.188  165.239   84.752
  585.750    5.955    0.451    0.181  165.324   79.686
