~VERSION INFORMATION
 VERS.                 2.0:   CWLS LOG ASCII STANDARD -VERSION 2.0
 WRAP.                  NO:   ONE LINE PER DEPTH STEP
~WELL INFORMATION BLOCK
#MNEM.UNIT           DATA                    DESCRIPTION OF MNEMONIC
#---------    -------------------            -------------------------------
# Generated from Intellog Unique Number	CS_67_68/WELL/662
WELL.         BURNT LAKE                     : Well_name    - WELL
LOC .         00/06-13-068-03W4/0            : Location     - LOCATION
UWI .         00/06-13-068-03W4/0            : Uwi          - UNIQUE WELL ID
ENTR.         SP                             : Entered      - ENTERED BY
SRVC.         SCHLUMBERGER                   : Scn          - SERVICE COMPANY
STRT.M        380                            : top_depth    - START DEPTH
STOP.M        620                            : bot_depth    - STOP DEPTH
STEP.M        0.25                           : increment    - STEP LENGTH
 NULL. -999.2500:NULL Value
~CURVE INFORMATION BLOCK
#MNEM UNIT       ERCB CURVE CODE    CURVE DESCRIPTION
#-----------   ------------------   ----------------------------------
DEPT.M        00 001 00 00         : DEPTH        - DEPTH
ILD .OHMM     00 120 00 00         : RESD         - DEEP RESISTIVITY (DIL)
DPHI.V/V      00 890 00 00         : PHID         - DENSITY POROSITY (LIMESTONE)
NPHI.V/V      00 330 00 00         : PHIN         - NEUTRON POROSITY (LIMESTONE)
GR  .API      00 310 00 00         : GR           - GAMMA RAY
~PARAMETER INFORMATION
#MNEM.UNIT           DATA             DESCRIPTION OF MNEMONIC
#---------         -----------     ------------------------------
GL  .M        722.86               : gl           - GROUND LEVEL ELEVATION
EREF.M        726.87               : kb           - ELEVATION OF DEPTH REFERENCE
DATM.M        722.86               : datum        - DATUM ELEVATION
TDD .M        630                  : tdd          - TOTAL DEPTH DRILLER
RUN .         ONE                  : Run          - RUN NUMBER
ENG .         BILL                 : Engineer     - RECORDING ENGINEER
WIT .         JIM                  : Witness      - WITNESSED BY
MUD .         GEL                  : Mud_type     - MUD TYPE
MATR.         LIMESTONE            : Logunit      - NEUTRON MATRIX
TMAX.C        18.3                 : BHT          - MAXIMUM RECORDED TEMPERATURE
BHTD.M        630                  : BHTDEP       - MAXIMUM RECORDED TEMPERATURE
MATR.         1                    : LOGUNIT      - NEUTRON MATRIX
RMT .C        25                   : MDTP         - TEMPERATURE OF MUD
NEUT.         1                    : NEUTRON      - NEUTRON TYPE
RESI.         0                    : RESIST       - RESISTIVITY TYPE
RMC .OHMM     0.25                 : RMC          - RESISTIVITY OF MUD CAKE
RMF .OHMM     0.25                 : RMF          - RESISTIVITY OF MUD FILTRATE
SUFT.C        15                   : SUFT         - SURFACE TEMPERATURE
~A  DEPTH     RESD     PHID     PHIN       GR
# ...
  554.000    5.805    0.297    0.393   73.887
  554.250    6.422    0.296    0.395   73.644
  554.500    6.767    0.290    0.403   73.950
  554.750    6.815    0.288    0.411   76.149
  555.000    6.762    0.300    0.402   78.469
  555.250    6.759    0.288    0.409   80.363
  555.500    6.795    0.264    0.420   75.419
  555.750    6.894    0.248    0.386   65.041
  556.000    7.036    0.244    0.360   57.716
  556.250    7.194    0.256    0.359   53.199
  556.500    7.328    0.263    0.357   50.514
  556.750    7.436    0.259    0.343   56.315
  557.000    7.490    0.243    0.333   62.237
  557.250    7.516    0.234    0.351   68.648
  557.500    7.485    0.234    0.359   74.205
  557.750    7.356    0.230    0.361   79.395
  558.000    7.312    0.218    0.368   83.914
  558.250    7.323    0.210    0.374   86.051
  558.500    7.362    0.212    0.377   84.343
  558.750    7.401    0.219    0.379   81.902
  559.000    7.454    0.210    0.370   79.583
  559.250    7.479    0.209    0.357   71.464
  559.500    7.532    0.221    0.347   69.084
  559.750    7.542    0.234    0.338   72.260
  560.000    7.512    0.238    0.336   71.650
  560.250    7.482    0.239    0.353   62.798
  560.500    7.438    0.247    0.367   53.886
  560.750    7.420    0.258    0.372   59.259
  561.000    7.362    0.256    0.379   65.915
  561.250    7.319    0.253    0.385   48.456
  561.500    7.206    0.266    0.366   46.625
  561.750    7.164    0.266    0.345   51.266
  562.000    7.054    0.255    0.333   55.845
  562.250    6.972    0.249    0.352   53.221
  562.500    6.892    0.249    0.361   52.428
  562.750    6.812    0.257    0.346   59.877
  563.000    6.759    0.245    0.347   70.073
  563.250    6.718    0.233    0.368   75.141
  563.500    6.678    0.226    0.376   77.523
  563.750    6.663    0.221    0.385   77.829
  564.000    6.661    0.216    0.404   77.403
  564.250    6.671    0.227    0.406   75.023
  564.500    6.643    0.242    0.413   68.797
  564.750    6.591    0.252    0.396   61.899
  565.000    6.539    0.251    0.377   64.220
  565.250    6.500    0.244    0.378   69.960
  565.500    6.498    0.240    0.401   73.257
  565.750    6.483    0.246    0.401   62.391
  566.000    6.469    0.266    0.377   45.237
  566.250    6.430    0.283    0.356   33.638
  566.500    6.379    0.277    0.340   40.904
  566.750    6.317    0.249    0.346   51.894
  567.000    6.280    0.216    0.359   62.457
  567.250    6.242    0.195    0.380   75.522
  567.500    6.240    0.179    0.405   84.620
  567.750    6.296    0.179    0.433   81.873
  568.000    6.365    0.191    0.429   75.891
  568.250    6.496    0.201    0.385   72.107
  568.500    6.642    0.206    0.359   69.971
  568.750    6.816    0.209    0.349   69.972
  569.000    6.942    0.218    0.357   70.217
  569.250    7.005    0.222    0.357   69.669
  569.500    7.016    0.224    0.354   67.777
  569.750    6.988    0.224    0.363   74.310
  570.000    6.907    0.214    0.381   80.538
  570.250    6.814    0.211    0.405   82.615
  570.500    6.697    0.211    0.402   83.165
  570.750    6.619    0.210    0.388   81.579
  571.000    6.605    0.217    0.376   65.523
  571.250    6.689    0.225    0.368   56.306
  571.500    6.763    0.228    0.358   58.932
  571.750    6.876    0.229    0.369   55.270
  572.000    7.043    0.237    0.369   49.837
  572.250    7.147    0.249    0.355   54.722
  572.500    7.212    0.266    0.337   59.851
  572.750    7.263    0.259    0.326   65.713
  573.000    7.261    0.242    0.332   68.705
  573.250    7.259    0.227    0.347   63.029
  573.500    7.215    0.242    0.360   59.000
  573.750    7.199    0.258    0.362   58.330
  574.000    7.183    0.250    0.365   61.993
  574.250    7.180    0.238    0.360   62.483
  574.500    7.191    0.232    0.345   64.315
  574.750    7.202    0.227    0.349   69.566
  575.000    7.213    0.224    0.352   77.015
  575.250    7.251    0.226    0.352   82.572
  575.500    7.276    0.219    0.370   86.358
  575.750    7.356    0.218    0.403   86.115
  576.000    7.450    0.220    0.393   76.408
  576.250    7.518    0.234    0.384   67.435
  576.500    7.571    0.253    0.364   67.619
  576.750    7.583    0.249    0.354   71.100
  577.000    7.595    0.238    0.368   74.581
  577.250    7.591    0.232    0.379   75.986
  577.500    7.589    0.228    0.372   74.216
  577.750    7.558    0.225    0.366   71.103
  578.000    7.555    0.225    0.366   69.151
  578.250    7.552    0.233    0.376   67.747
  578.500    7.563    0.219    0.373   70.129
  578.750    7.575    0.206    0.350   72.633
  579.000    7.601    0.206    0.338   65.491
  579.250    7.584    0.221    0.346   59.570
  579.500    7.580    0.236    0.351   53.344
  579.750    7.564    0.246    0.355   48.339
  580.000    7.533    0.254    0.357   45.165
  580.250    7.487    0.264    0.338   51.943
  580.500    7.414    0.255    0.353   59.758
  580.750    7.384    0.226    0.353   65.131
  581.000    7.354    0.211    0.348   70.260
  581.250    7.296    0.208    0.349   75.573
  581.500    7.211    0.212    0.354   78.138
  581.750    7.128    0.215    0.349   75.513
  582.000    7.086    0.215    0.343   72.462
  582.250    7.030    0.217    0.374   69.776
  582.500    7.001    0.225    0.391   71.975
  582.750    6.999    0.230    0.386   76.189
  583.000    6.983    0.219    0.377   78.937
  583.250    6.980    0.210    0.381   79.121
  583.500    6.965    0.211    0.383   76.191
  583.750    6.923    0.220    0.381   75.338
  584.000    6.881    0.225    0.383   77.963
  584.250    6.840    0.227    0.395   79.674
  584.500    6.799    0.229    0.409   71.067
  584.750    6.772    0.235    0.409   64.474
  585.000    6.718    0.246    0.391   63.010
  585.250    6.703    0.253    0.371   69.116
  585.500    6.650    0.260    0.461   74.672
  585.750    6.649    0.327    0.547   79.862
  586.000    6.646    0.309    0.606   85.236
  586.250    6.719    0.259    0.444   81.879
  586.500    6.870    0.243    0.406   75.103
  586.750    7.103    0.235    0.386   68.999
  587.000    7.290    0.233    0.371   63.689
  587.250    7.315    0.236    0.371   59.416
  587.500    7.244    0.246    0.382   55.632
  587.750    7.092    0.267    0.382   46.109
  588.000    6.919    0.290    0.366   37.319
  588.250    6.404    0.315    0.356   37.319
  588.500    6.017    0.289    0.348   43.914
  588.750    5.803    0.275    0.360   51.973
  589.000    5.682    0.271    0.379   42.572
  589.250    5.606    0.290    0.379   30.852
  589.500    5.573    0.313    0.370   25.847
  589.750    5.508    0.329    0.369   26.275
  590.000    5.465    0.329    0.368   28.290
  590.250    5.391    0.328    0.356   31.283
  590.500    5.339    0.323    0.340   33.970
  590.750    5.318    0.315    0.336   36.901
  591.000    5.285    0.307    0.359   29.698
  591.250    5.284    0.317    0.357   23.838
  591.500    5.312    0.329    0.353   19.505
  591.750    5.350    0.325    0.354   25.000
  592.000    5.338    0.318    0.356   31.228
  592.250    5.316    0.310    0.364   29.214
  592.500    5.264    0.325    0.366   24.881
  592.750    5.125    0.336    0.374   24.515
  593.000    5.047    0.338    0.386   22.624
  593.250    4.933    0.337    0.399   22.624
  593.500    4.885    0.339    0.402   29.158
  593.750    4.883    0.342    0.414   39.537
  594.000    4.946    0.331    0.401   46.437
  594.250    5.010    0.310    0.392   49.734
  594.500    5.074    0.288    0.388   50.346
  594.750    5.139    0.325    0.381   32.947
  595.000    5.215    0.339    0.359   27.698
  595.250    5.253    0.339    0.337   24.097
  595.500    5.241    0.333    0.345   27.639
  595.750    5.180    0.328    0.346   33.684
  596.000    5.159    0.319    0.319   55.846
  596.250    5.196    0.288    0.317   82.281
  596.500    5.547    0.249    0.337   89.730
  596.750    5.867    0.198    0.361   94.859
  597.000    6.526    0.182    0.380   94.738
  597.250    6.724    0.184    0.383   89.428
