~VERSION INFORMATION
 VERS.                 2.0:   CWLS LOG ASCII STANDARD -VERSION 2.0
 WRAP.                  NO:   ONE LINE PER DEPTH STEP
~WELL INFORMATION BLOCK
#MNEM.UNIT           DATA                    DESCRIPTION OF MNEMONIC
#---------    -------------------            -------------------------------
# Generated from Intellog Unique Number	CS_71_72/WELL/822
WELL.         MAYNARD ET AL TWEEDIE          : Well_name    - WELL
LOC .         00/07-29-072-12W4/0            : Location     - LOCATION
UWI .         00/07-29-072-12W4/0            : Uwi          - UNIQUE WELL ID
ENTR.         SP                             : Entered      - ENTERED BY
SRVC.         SCHLUMBERGER                   : Scn          - SERVICE COMPANY
STRT.M        275                            : top_depth    - START DEPTH
STOP.M        510                            : bot_depth    - STOP DEPTH
STEP.M        0.25                           : increment    - STEP LENGTH
 NULL. -999.2500:NULL Value
~CURVE INFORMATION BLOCK
#MNEM UNIT       ERCB CURVE CODE    CURVE DESCRIPTION
#-----------   ------------------   ----------------------------------
DEPT.M        00 001 00 00         : DEPTH        - DEPTH
GR  .API      00 310 00 00         : GR           - GAMMA RAY
NPHI.V/V      00 330 00 00         : PHIN         - NEUTRON POROSITY (LIMESTONE)
DPHI.V/V      00 890 00 00         : PHID         - DENSITY POROSITY (LIMESTONE)
ILD .OHMM     00 120 00 00         : RESD         - DEEP RESISTIVITY (DIL)
~PARAMETER INFORMATION
#MNEM.UNIT           DATA             DESCRIPTION OF MNEMONIC
#---------         -----------     ------------------------------
GL  .M        622.95               : gl           - GROUND LEVEL ELEVATION
EREF.M        626.55               : kb           - ELEVATION OF DEPTH REFERENCE
DATM.M        622.95               : datum        - DATUM ELEVATION
TDD .M        521                  : tdd          - TOTAL DEPTH DRILLER
RUN .         ONE                  : Run          - RUN NUMBER
ENG .         BILL                 : Engineer     - RECORDING ENGINEER
WIT .         JIM                  : Witness      - WITNESSED BY
MUD .         GEL                  : Mud_type     - MUD TYPE
MATR.         LIMESTONE            : Logunit      - NEUTRON MATRIX
TMAX.C        25                   : BHT          - MAXIMUM RECORDED TEMPERATURE
BHTD.M        521                  : BHTDEP       - MAXIMUM RECORDED TEMPERATURE
MATR.         1                    : LOGUNIT      - NEUTRON MATRIX
RMT .C        25                   : MDTP         - TEMPERATURE OF MUD
NEUT.         1                    : NEUTRON      - NEUTRON TYPE
RESI.         0                    : RESIST       - RESISTIVITY TYPE
RMC .OHMM     0.25                 : RMC          - RESISTIVITY OF MUD CAKE
RMF .OHMM     0.25                 : RMF          - RESISTIVITY OF MUD FILTRATE
SUFT.C        15                   : SUFT         - SURFACE TEMPERATURE
~A  DEPTH       GR     PHIN     PHID     RESD
# ...
  362.000   59.992    0.400    0.300   11.003
  362.250   58.775    0.412    0.301   10.920
  362.500   58.773    0.422    0.301   10.755
  362.750   60.593    0.427    0.303   10.589
  363.000   64.842    0.437    0.301   10.424
  363.250   69.090    0.443    0.297   10.013
  363.500   72.732    0.429    0.301    9.766
  363.750   75.766    0.426    0.306    9.519
  364.000   76.372    0.426    0.307    8.863
  364.250   79.406    0.428    0.301    8.617
  364.500   79.404    0.442    0.291    8.043
  364.750   83.045    0.459    0.287    7.633
  365.000   87.902    0.469    0.291    7.059
  365.250   95.187    0.475    0.298    6.731
  365.500   99.436    0.483    0.314    6.157
  365.750   97.612    0.459    0.325    5.666
  366.000   89.715    0.451    0.338    5.337
  366.250   82.425    0.438    0.340    5.171
  366.500   79.994    0.433    0.335    5.496
  366.750   81.206    0.440    0.332    6.392
  367.000   82.419    0.458    0.327    7.369
  367.250   84.239    0.466    0.332    7.939
  367.500   86.665    0.471    0.327    8.671
  367.750   87.879    0.472    0.324    8.587
  368.000   87.269    0.461    0.321    8.748
  368.250   84.838    0.453    0.286    9.318
  368.500   80.584    0.436    0.259   10.294
  368.750   78.761    0.387    0.227   11.353
  369.000   73.900    0.211    0.213   12.005
  369.250   71.469    0.198    0.200   13.962
  369.500   69.645    0.317    0.220   16.572
  369.750   72.072    0.378    0.261   18.773
  370.000   76.928    0.411    0.280   19.098
  370.250   81.784    0.429    0.294   18.279
  370.500   82.997    0.443    0.294   15.665
  370.750   84.209    0.449    0.294   13.704
  371.000   85.422    0.453    0.294   11.742
  371.250   88.455    0.444    0.297   10.189
  371.500   89.668    0.439    0.302    8.963
  371.750   90.274    0.437    0.297    8.389
  372.000   90.878    0.442    0.292    7.979
  372.250   90.876    0.447    0.288    7.650
  372.500   89.659    0.450    0.281    7.484
  372.750   89.051    0.450    0.277    7.400
  373.000   89.656    0.449    0.277    7.318
  373.250   90.261    0.448    0.285    7.397
  373.500   89.044    0.444    0.291    7.721
  373.750   84.791    0.439    0.284    8.290
  374.000   81.146    0.431    0.280    8.778
  374.250   78.107    0.416    0.290    9.592
  374.500   79.926    0.406    0.295   10.406
  374.750   81.139    0.418    0.304   10.894
  375.000   81.744    0.439    0.316   11.218
  375.250   79.921    0.447    0.320   11.216
  375.500   79.918    0.447    0.305   11.132
  375.750   80.523    0.445    0.297   10.885
  376.000   82.343    0.443    0.284   10.556
  376.250   82.341    0.440    0.291   10.391
  376.500   81.732    0.440    0.299   10.144
  376.750   79.908    0.447    0.305    9.734
  377.000   81.120    0.450    0.299    9.405
  377.250   84.154    0.461    0.274    8.749
  377.500   86.582    0.471    0.259    8.421
  377.750   88.401    0.477    0.252    7.929
  378.000   87.184    0.483    0.259    7.764
  378.250   84.753    0.491    0.269    7.517
  378.500   83.537    0.470    0.270    7.351
  378.750   87.178    0.461    0.268    7.675
  379.000   89.605    0.445    0.258    7.918
  379.250   90.817    0.432    0.255    8.079
  379.500   89.600    0.421    0.248    8.241
  379.750   88.384    0.411    0.256    8.483
  380.000   88.989    0.426    0.261    8.562
  380.250   91.415    0.436    0.261    8.642
  380.500   92.628    0.443    0.248    8.640
  380.750   93.234    0.434    0.245    8.638
  381.000   93.232    0.423    0.237    8.636
  381.250   93.230    0.417    0.234    8.551
  381.500   92.620    0.414    0.231    8.550
  381.750   91.404    0.411    0.237    8.548
  382.000   90.186    0.410    0.241    8.627
  382.250   90.184    0.410    0.244    8.707
  382.500   89.576    0.414    0.241    8.785
  382.750   90.181    0.417    0.235    8.784
  383.000   94.429    0.425    0.226    8.782
  383.250   96.249    0.432    0.218    8.616
  383.500   96.854    0.441    0.206    8.369
  383.750   97.459    0.432    0.206    8.204
  384.000   98.065    0.439    0.226    7.875
  384.250   99.885    0.444    0.241    7.710
  384.500  100.490    0.448    0.248    7.299
  384.750   99.881    0.447    0.252    7.134
  385.000   99.271    0.447    0.249    7.051
  385.250   99.876    0.450    0.231    6.884
  385.500  102.303    0.455    0.222    6.882
  385.750  102.908    0.454    0.222    6.880
  386.000  101.691    0.449    0.228    6.960
  386.250  101.082    0.437    0.229    7.039
  386.500  100.472    0.431    0.225    7.118
  386.750  102.293    0.426    0.223    7.116
  387.000  102.291    0.419    0.226    7.113
  387.250  101.073    0.419    0.226    7.194
  387.500  100.464    0.423    0.226    7.193
  387.750   99.248    0.453    0.231    7.271
  388.000   99.853    0.467    0.231    7.188
  388.250  101.064    0.476    0.225    7.185
  388.500  101.063    0.475    0.219    7.101
  388.750  100.454    0.472    0.236    7.018
  389.000   99.844    0.482    0.238    6.935
  389.250   99.235    0.488    0.222    6.769
  389.500   98.626    0.488    0.230    6.685
  389.750   99.230    0.486    0.225    6.683
  390.000  100.443    0.483    0.215    6.598
  390.250  102.870    0.482    0.228    6.597
  390.500  103.476    0.476    0.224    6.594
  390.750   98.615    0.472    0.230    6.593
  391.000   94.969    0.466    0.239    6.591
  391.250   92.538    0.461    0.241    6.670
  391.500   93.749    0.450    0.233    6.750
  391.750   94.356    0.448    0.233    6.911
  392.000   94.960    0.447    0.234    7.071
  392.250   95.566    0.449    0.240    7.151
  392.500   94.956    0.452    0.233    7.231
  392.750   95.561    0.456    0.240    6.575
  393.000   98.595    0.470    0.247    6.002
  393.250  100.416    0.486    0.255    5.102
  393.500  105.271    0.531    0.251    4.365
  393.750  107.092    0.574    0.262    3.791
  394.000  108.304    0.603    0.272    3.299
  394.250  107.087    0.604    0.278    3.053
  394.500  106.478    0.621    0.285    2.643
  394.750  104.047    0.645    0.287    2.314
  395.000  100.401    0.617    0.281    2.149
  395.250   98.577    0.573    0.281    2.147
  395.500   97.360    0.510    0.268    2.389
  395.750   97.358    0.463    0.255    2.958
  396.000   97.963    0.454    0.246    3.772
  396.250  100.390    0.448    0.238    4.423
  396.500  100.996    0.449    0.232    4.666
  396.750  101.600    0.450    0.228    5.154
  397.000  101.598    0.460    0.228    5.478
  397.250   99.167    0.472    0.233    5.638
  397.500   96.735    0.470    0.236    5.719
  397.750   96.127    0.465    0.241    5.797
  398.000   95.517    0.460    0.240    5.877
  398.250   97.944    0.453    0.239    5.875
  398.500   98.550    0.461    0.243    5.873
  398.750   99.762    0.470    0.252    5.870
  399.000   99.152    0.490    0.267    5.867
  399.250   95.506    0.486    0.282    5.866
  399.500   93.075    0.471    0.290    5.864
  399.750   95.502    0.455    0.300    5.862
  400.000   97.929    0.441    0.302    5.941
  400.250   95.498    0.432    0.294    6.021
  400.500   88.816    0.420    0.294    6.101
  400.750   82.133    0.405    0.267    6.506
  401.000   76.059    0.392    0.232    6.831
  401.250   63.911    0.361    0.162    7.400
  401.500   56.014    0.266    0.132    8.133
  401.750   58.441    0.216    0.191    8.702
  402.000   63.296    0.188    0.225    9.190
  402.250   66.332    0.353    0.261    9.841
  402.500   71.188    0.382    0.277    8.695
  402.750   76.044    0.400    0.275    8.204
  403.000   79.686    0.409    0.254    7.303
  403.250   82.720    0.410    0.239    6.485
  403.500   85.754    0.420    0.228    6.156
  403.750   87.574    0.428    0.219    5.991
  404.000   87.571    0.433    0.213    5.907
  404.250   87.570    0.431    0.233    5.905
  404.500   88.175    0.433    0.238    5.739
  404.750   89.995    0.447    0.243    5.573
  405.000   94.243    0.475    0.250    5.409
  405.250   97.278    0.507    0.259    5.244
