~VERSION INFORMATION
 VERS.                 2.0:   CWLS LOG ASCII STANDARD -VERSION 2.0
 WRAP.                  NO:   ONE LINE PER DEPTH STEP
~WELL INFORMATION BLOCK
#MNEM.UNIT           DATA                    DESCRIPTION OF MNEMONIC
#---------    -------------------            -------------------------------
# Generated from Intellog Unique Number	CW_79_81/WELL/620
WELL.         PETROREP SANDERS               : Well_name    - WELL
LOC .         00/07-26-080-02W5/0            : Location     - LOCATION
UWI .         00/07-26-080-02W5/0            : Uwi          - UNIQUE WELL ID
ENTR.         MAX                            : Entered      - ENTERED BY
SRVC.         SCHLUMBERGER                   : Scn          - SERVICE COMPANY
STRT.M        256.032                        : top_depth    - START DEPTH
STOP.M        515.032                        : bot_depth    - STOP DEPTH
STEP.M        0.25                           : increment    - STEP LENGTH
 NULL. -999.2500:NULL Value
~CURVE INFORMATION BLOCK
#MNEM UNIT       ERCB CURVE CODE    CURVE DESCRIPTION
#-----------   ------------------   ----------------------------------
DEPT.M        00 001 00 00         : DEPTH        - DEPTH
ILD .OHMM     00 120 00 00         : RESD         - DEEP RESISTIVITY (DIL)
NPHI.V/V      00 330 00 00         : PHIN         - NEUTRON POROSITY (SANDSTONE)
DPHI.V/V      00 890 00 00         : PHID         - DENSITY POROSITY (SANDSTONE)
CALI.MM       00 280 01 00         : CAL          - CALIPER
GR  .API      00 310 00 00         : GR           - GAMMA RAY
~PARAMETER INFORMATION
#MNEM.UNIT           DATA             DESCRIPTION OF MNEMONIC
#---------         -----------     ------------------------------
GL  .M        602.254              : gl           - GROUND LEVEL ELEVATION
EREF.M        605.607              : kb           - ELEVATION OF DEPTH REFERENCE
DATM.M        602.254              : datum        - DATUM ELEVATION
TDD .M        544.068              : tdd          - TOTAL DEPTH DRILLER
RUN .         ONE                  : Run          - RUN NUMBER
ENG .         BILL                 : Engineer     - RECORDING ENGINEER
WIT .         JIM                  : Witness      - WITNESSED BY
MUD .         GEL                  : Mud_type     - MUD TYPE
MATR.         SANDSTONE            : Logunit      - NEUTRON MATRIX
TMAX.C        24.4444              : BHT          - MAXIMUM RECORDED TEMPERATURE
BHTD.M        544.068              : BHTDEP       - MAXIMUM RECORDED TEMPERATURE
RMT .C        18.3333              : MDTP         - TEMPERATURE OF MUD
MUDD.KG/M     1120                 : MWT          - MUD DENSITY
NEUT.         1                    : NEUTRON      - NEUTRON TYPE
RESI.         0                    : RESIST       - RESISTIVITY TYPE
RM  .OHMM     5                    : RM           - RESISTIVITY OF MUD
RMC .OHMM     0                    : RMC          - RESISTIVITY OF MUD CAKE
RMF .OHMM     7                    : RMF          - RESISTIVITY OF MUD FILTRATE
SUFT.C        -20.5556             : SUFT         - SURFACE TEMPERATURE
~A  DEPTH     RESD     PHIN     PHID      CAL       GR
# ...
  475.032    8.030    0.367    0.152  167.791  102.315
  475.282    7.610    0.358    0.141  167.857   92.865
  475.532    6.828    0.353    0.195  167.414   84.605
  475.782    5.959    0.347    0.241  167.458   64.489
  476.032    5.545    0.350    0.269  166.520   52.080
  476.282    5.455    0.350    0.291  166.070   45.601
  476.532    5.461    0.345    0.295  165.634   45.048
  476.782    5.676    0.344    0.277  165.198   45.670
  477.032    6.005    0.341    0.265  165.256   46.594
  477.282    6.472    0.344    0.271  165.322   47.809
  477.532    7.717    0.346    0.282  165.366   49.029
  477.782    8.317    0.344    0.287  165.439   49.956
  478.032    9.298    0.336    0.277  164.995   50.879
  478.282   10.306    0.335    0.271  165.039   53.293
  478.532   10.708    0.336    0.268  165.112   55.096
  478.782   10.925    0.327    0.255  165.672   59.587
  479.032   11.137    0.318    0.259  165.731   62.580
  479.282   11.682    0.331    0.261  165.782   67.647
  479.532   11.914    0.351    0.255  165.855   73.907
  479.782   12.270    0.367    0.234  165.899   78.686
  480.032   12.514    0.363    0.219  165.965   79.901
  480.282   12.764    0.355    0.199  166.532   81.121
  480.532   12.899    0.348    0.180  166.583   84.122
  480.782   12.578    0.365    0.179  167.150   90.082
  481.032   12.136    0.385    0.210  167.718   90.121
  481.282   11.504    0.386    0.213  168.263   90.452
  481.532   11.211    0.369    0.223  168.336   97.004
  481.782   11.436    0.363    0.223  168.380  105.046
  482.032   12.101    0.378    0.218  168.446  106.854
  482.282   12.570    0.385    0.208  168.504  109.259
  482.532   13.060    0.385    0.211  169.064  111.663
  482.782   12.849    0.377    0.213  170.635  111.994
  483.032   12.177    0.382    0.193  171.195  112.922
  483.282   11.331    0.397    0.179  171.261  114.734
  483.532   10.258    0.398    0.193  171.319  113.287
  483.782    9.204    0.383    0.216  173.377  108.581
  484.032    8.334    0.371    0.218  176.446   98.835
  484.282    7.755    0.355    0.192  177.515   89.389
  484.532    7.087    0.335    0.181  175.566   80.239
  484.782    6.595    0.323    0.167  173.611   72.863
  485.032    6.138    0.306    0.046  171.663   72.008
  485.282    5.767    0.311    0.058  170.732   76.792
  485.532    5.775    0.336    0.129  170.783   88.672
  485.782    6.000    0.361    0.159  171.853   90.785
  486.032    6.408    0.358    0.229  170.413   92.894
  486.282    6.842    0.349    0.251  169.454   96.187
  486.532    7.791    0.349    0.251  169.018  100.073
  486.782    8.955    0.396    0.238  168.567  111.370
  487.032   10.482    0.410    0.216  169.127  118.227
  487.282   12.847    0.455    0.205  169.186  114.706
  487.532   14.238    0.443    0.207  169.244  108.515
  487.782   14.518    0.436    0.204  169.303  110.335
  488.032   13.511    0.431    0.204  169.383  111.843
  488.282    9.291    0.436    0.213  168.423  106.841
  488.532    7.131    0.422    0.181  167.486  104.209
  488.782    5.891    0.397    0.150  169.057  106.321
  489.032    4.605    0.348    0.196  169.602  109.907
  489.282    3.804    0.399    0.262  169.660  108.177
  489.532    3.508    0.473    0.282  169.225  106.421
  489.782    3.514    0.479    0.298  169.290  103.789
  490.032    3.650    0.464    0.316  169.843  102.050
  490.282    4.601    0.441    0.305  170.912   97.340
  490.532    4.866    0.381    0.262  171.974   89.380
  490.782    5.646    0.359    0.260  172.040   88.229
  491.032    5.973    0.365    0.260  172.083   89.445
  491.282    6.440    0.365    0.258  171.640   90.368
  491.532    6.751    0.357    0.238  170.695   93.369
  491.782    7.210    0.383    0.210  170.761   98.144
  492.032    7.629    0.459    0.226  170.819  108.260
  492.282    8.223    0.461    0.260  172.397  110.660
  492.532    9.028    0.446    0.248  170.449  112.769
  492.782    9.913    0.397    0.233  169.490  115.177
  493.032   10.488    0.410    0.209  169.563  113.142
  493.282   10.406    0.432    0.190  171.126  110.502
  493.532    9.000    0.431    0.174  171.672  108.772
  493.782    7.101    0.410    0.193  170.240  108.802
  494.032    6.030    0.391    0.190  169.789  110.314
  494.282    5.509    0.407    0.191  169.848  118.051
  494.532    5.322    0.453    0.223  170.909  108.901
  494.782    5.378    0.463    0.208  170.473   95.896
  495.032    5.485    0.437    0.184  169.521   80.529
  495.282    5.752    0.355    0.172  169.587   80.860
  495.532    5.867    0.327    0.206  170.649   82.668
  495.782    5.867    0.317    0.214  170.707   84.776
  496.032    5.834    0.319    0.200  169.769   87.490
  496.282    5.426    0.324    0.185  169.821   90.478
  496.532    4.958    0.329    0.185  169.385  103.557
  496.782    5.058    0.337    0.200  169.937  108.624
  497.032    5.761    0.358    0.204  170.498  112.514
  497.282    7.125    0.378    0.211  171.567  115.215
  497.532    9.310    0.407    0.220  173.137  119.401
  497.782   12.973    0.420    0.219  174.192  117.950
  498.032   12.645    0.411    0.239  175.268  101.093
  498.282   11.657    0.439    0.250  175.319   92.240
  498.532    9.031    0.448    0.212  174.876   86.053
  498.782    7.955    0.416    0.174  172.928   84.319
  499.032    7.070    0.337    0.125  170.980   86.418
  499.282    6.343    0.320    0.099  170.042   94.752
  499.532    6.013    0.305    0.148  170.100  105.457
  499.782    5.806    0.321    0.173  170.653  107.861
  500.032    5.868    0.334    0.206  172.733  103.452
  500.282    6.153    0.371    0.220  172.777  104.972
  500.532    6.755    0.363    0.225  172.341  105.002
  500.782    7.762    0.334    0.230  170.894   95.556
  501.032    9.429    0.326    0.223  169.949   89.661
  501.282   10.447    0.326    0.218  169.506   87.034
  501.532   11.055    0.329    0.206  170.560   87.961
  501.782   10.969    0.336    0.209  169.136   89.176
  502.032   10.493    0.353    0.223  168.184   85.952
  502.282   10.132    0.358    0.265  167.740   82.135
  502.532   10.057    0.354    0.286  168.293   79.508
  502.782   10.349    0.343    0.293  168.359   80.130
  503.032   11.158    0.339    0.264  168.912   83.424
  503.282   11.487    0.331    0.222  170.475   89.087
  503.532   11.088    0.325    0.244  171.057   92.681
  503.782   11.105    0.320    0.243  171.610   91.535
  504.032   11.751    0.325    0.221  172.163   91.273
  504.282   12.667    0.318    0.212  171.719   91.007
  504.532   13.652    0.311    0.198  170.782   93.416
  504.782   14.184    0.315    0.207  169.335   96.117
  505.032   13.947    0.320    0.203  169.895  100.595
  505.282   13.223    0.321    0.185  169.961  104.481
  505.532   12.534    0.324    0.203  170.012  109.556
  505.782   11.988    0.331    0.206  171.081  112.554
  506.032   11.574    0.349    0.191  172.645  114.370
  506.282   11.072    0.347    0.205  173.212  113.516
  506.532   10.307    0.344    0.206  172.754  111.476
  506.782    9.679    0.344    0.209  171.824  110.914
  507.032    9.091    0.338    0.196  171.366  115.693
  507.282    8.461    0.326    0.168  172.428  114.542
  507.532    7.950    0.327    0.148  171.992  105.689
  507.782    7.672    0.324    0.148  171.549  100.090
  508.032    7.475    0.316    0.145  171.120   96.273
  508.282    7.420    0.303    0.143  170.669   99.275
  508.532    7.365    0.298    0.128  170.226  106.420
  508.782    7.373    0.312    0.114  170.794  116.235
  509.032    7.524    0.316    0.118  171.848  119.529
  509.282    7.537    0.326    0.149  173.411  121.049
  509.532    7.144    0.344    0.160  172.976  112.487
  509.782    6.648    0.344    0.172  173.528  107.782
  510.032    6.419    0.328    0.166  174.096  106.335
  510.282    6.426    0.323    0.156  174.147  109.628
  510.532    6.437    0.340    0.145  172.708  112.033
  510.782    6.627    0.364    0.161  171.763  114.145
  511.032    6.824    0.379    0.174  171.814  117.735
  511.282    7.089    0.397    0.176  172.897  117.770
