~VERSION INFORMATION
 VERS.                 2.0:   CWLS LOG ASCII STANDARD -VERSION 2.0
 WRAP.                  NO:   ONE LINE PER DEPTH STEP
~WELL INFORMATION BLOCK
#MNEM.UNIT           DATA                    DESCRIPTION OF MNEMONIC
#---------    -------------------            -------------------------------
# Generated from Intellog Unique Number	CW_70_72/WELL/528
NULL.         -999.25                        : NULL_VALUE
WELL.         RAVENNA ET AL CALL 05-24       : Well_name    - WELL              
LOC .         05-24-071-19W4                 : Location     - LOCATION          
UWI .         00/05-24-071-19W4/0            : Uwi          - UNIQUE WELL ID    
ENTR.         JAYE                           : Entered      - ENTERED BY        
SRVC.         COMPUTALOG                     : Scn          - SERVICE COMPANY   
DATE.         31 JAN 82                      : Date         - LOG DATE          
STRT.M        310                            : top_depth    - START DEPTH       
STOP.M        477                            : bot_depth    - STOP DEPTH        
STEP.M        0.25                           : increment    - STEP LENGTH       
~CURVE INFORMATION BLOCK
#MNEM UNIT       ERCB CURVE CODE    CURVE DESCRIPTION
#-----------   ------------------   ----------------------------------
DEPT.M        00 001 00 00         : DEPTH        - DEPTH                       
DPHI.V/V      00 890 00 00         : PHID         - DENSITY POROSITY (SANDSTONE)
NPHI.V/V      00 330 00 00         : PHIN         - NEUTRON POROSITY (SANDSTONE)
GR  .API      00 310 00 00         : GR           - GAMMA RAY                   
CALI.MM       00 280 01 00         : CAL          - CALIPER                     
ILD .OHMM     00 120 00 00         : RESD         - DEEP RESISTIVITY (DIL)      
~PARAMETER INFORMATION       
#MNEM.UNIT           DATA             DESCRIPTION OF MNEMONIC
#---------         -----------     ------------------------------
GL  .M        589.6                : gl           - GROUND LEVEL ELEVATION      
EREF.M        593.2                : kb           - ELEVATION OF DEPTH REFERENCE
DATM.M        589.6                : datum        - DATUM ELEVATION             
TDD .M        480                  : tdd          - TOTAL DEPTH DRILLER         
RUN .         ONE                  : Run          - RUN NUMBER                  
ENG .         EISLER               : Engineer     - RECORDING ENGINEER          
WIT .         TAVATAVAI            : Witness      - WITNESSED BY                
BASE.         LLOYDMINISTER        : Branch       - HOME BASE OF LOGGING UNIT   
MUD .         GEL CHEM             : Mud_type     - MUD TYPE                    
MATR.         SANDSTONE            : Logunit      - NEUTRON MATRIX              
TMAX.C        22                   : BHT          - MAXIMUM RECORDED TEMPERATURE
BHTD.M        479.4                : BHTDEP       - MAXIMUM RECORDED TEMPERATURE
RMT .C        17.2                 : MDTP         - TEMPERATURE OF MUD          
MUDD.KG/M     1110                 : MWT          - MUD DENSITY                 
NEUT.         1                    : NEUTRON      - NEUTRON TYPE                
RESI.         0                    : RESIST       - RESISTIVITY TYPE            
RM  .OHMM     5.2                  : RM           - RESISTIVITY OF MUD          
RMC .OHMM     0                    : RMC          - RESISTIVITY OF MUD CAKE     
RMF .OHMM     5                    : RMF          - RESISTIVITY OF MUD FILTRATE 
SUFT.C        0                    : SUFT         - SURFACE TEMPERATURE         
~A  DEPTH     PHID     PHIN       GR      CAL     RESD
# ...
  456.000    0.119    0.337  113.009  159.922    7.151
  456.250    0.097    0.318  113.584  159.303    7.251
  456.500    0.100    0.278  112.581  156.056    7.229
  456.750    0.117    0.295  113.407  151.338    7.167
  457.000    0.130    0.329  117.323  146.619    7.118
  457.250    0.138    0.350  121.364  149.152    7.030
  457.500    0.129    0.342  124.776  154.837    6.968
  457.750    0.129    0.331  127.368  159.893    6.857
  458.000    0.132    0.307  124.286  160.535    6.796
  458.250    0.126    0.315  120.382  159.179    6.725
  458.500    0.115    0.299  115.534  156.249    6.692
  458.750    0.094    0.310  111.063  154.894    6.546
  459.000    0.103    0.320  108.737  155.009    6.564
  459.250    0.116    0.343  109.879  156.807    6.570
  459.500    0.137    0.358  111.524  158.603    6.463
  459.750    0.126    0.343  110.900  160.717    6.371
  460.000    0.085    0.334  107.754  161.252    6.232
  460.250    0.085    0.330  105.491  161.262    5.837
  460.500    0.107    0.322  108.586  160.433    5.435
  460.750    0.127    0.306  112.251  159.184    4.828
  461.000    0.145    0.293  115.157  158.143    4.403
  461.250    0.153    0.336  119.515  156.683    3.730
  461.500    0.160    0.398  123.304  154.488    2.991
  461.750    0.165    0.428  125.958  152.710    2.656
  462.000    0.163    0.442  125.083  150.306    2.745
  462.250    0.152    0.411  122.756  148.950    3.149
  462.500    0.138    0.367  116.331  148.434    3.926
  462.750    0.121    0.349  110.474  149.076    4.580
  463.000    0.108    0.342  111.931  151.083    5.487
  463.250    0.103    0.334  110.992  154.983    5.991
  463.500    0.100    0.326  108.665  156.044    6.168
  463.750    0.110    0.318   98.772  155.320    6.173
  464.000    0.116    0.314   99.724  153.124    6.063
  464.250    0.116    0.314  106.162  151.663    5.987
  464.500    0.108    0.310  112.790  151.359    5.901
  464.750    0.114    0.320  117.651  152.316    5.773
  465.000    0.120    0.331  121.314  154.112    5.712
  465.250    0.126    0.346  123.654  156.438    5.727
  465.500    0.124    0.342  111.996  157.497    5.852
  465.750    0.117    0.310  101.599  158.348    6.060
  466.000    0.113    0.281   95.048  159.095    6.334
  466.250    0.109    0.272   92.658  160.158    6.709
  466.500    0.093    0.271   93.358  160.379    6.527
  466.750    0.019    0.268   95.067  160.495    5.709
  467.000    0.029    0.264  100.433  161.031    5.062
  467.250    0.051    0.293  112.042  161.357    4.487
  467.500    0.107    0.351  117.786  161.473    3.955
  467.750    0.127    0.381  119.305  161.378    3.587
  468.000    0.137    0.419  121.203  161.285    3.385
  468.250    0.147    0.445  125.435  161.296    3.362
  468.500    0.145    0.423  126.576  161.414    3.410
  468.750    0.141    0.391  125.952  161.633    3.497
  469.000    0.134    0.383  124.130  161.749    3.608
  469.250    0.126    0.369  120.605  162.178    3.764
  469.500    0.123    0.367  118.342  162.716    3.949
  469.750    0.118    0.369  116.080  163.043    4.168
  470.000    0.105    0.351  110.789  163.052    4.508
  470.250    0.042    0.329  109.598  163.064    4.847
  470.500    0.050    0.326  112.441  162.759    5.154
  470.750    0.071    0.341  118.185  162.665    5.307
  471.000    0.106    0.357  122.795  162.465    5.342
  471.250    0.120    0.350  117.316  162.057    5.295
  471.500    0.109    0.342  117.701  162.067    5.239
  471.750    0.111    0.336  120.293  162.499    5.233
  472.000    0.121    0.388  123.578  162.824    5.317
  472.250    0.130    0.397  126.674  163.149    5.516
  472.500    0.128    0.356  124.599  162.952    5.701
  472.750    0.123    0.332  120.571  162.961    5.738
  473.000    0.116    0.296  121.081  163.077    5.720
  473.250    0.122    0.309  121.277  163.299    5.596
  473.500    0.123    0.327  120.149  163.625    5.403
  473.750    0.120    0.344  118.894  163.636    5.336
  474.000    0.112    0.356  117.703  163.751    5.452
  474.250    0.112    0.352  118.214  163.553    5.688
  474.500    0.112    0.361  119.103  163.562    6.048
  474.750    0.103    0.371  120.244  163.678    6.641
  475.000    0.062    0.280  121.701  163.794    7.432
  475.250    0.045    0.194  122.717  161.283    8.573
  475.500    0.024    0.170  123.543  156.356    9.612
  475.750    0.036    0.149  124.369  155.104   10.634
  476.000    0.032    0.159  124.753  154.485   10.970
  476.250    0.014    0.172  124.635  154.181   11.020
  476.500   -0.005    0.177  123.884  154.086   11.008
  476.750   -0.023    0.175  122.377  154.203   10.892
  477.000   -0.021    0.172  121.186  154.213   10.756
