~VERSION INFORMATION
 VERS.                 2.0:   CWLS LOG ASCII STANDARD -VERSION 2.0
 WRAP.                  NO:   ONE LINE PER DEPTH STEP
~WELL INFORMATION BLOCK
#MNEM.UNIT           DATA                    DESCRIPTION OF MNEMONIC
#---------    -------------------            -------------------------------
# Generated from Intellog Unique Number	CS_67_68/WELL/2162
WELL.         GLOBAL ATMORE                  : Well_name    - WELL
LOC .         00/03-20-067-16W4/0            : Location     - LOCATION
UWI .         00/03-20-067-16W4/0            : Uwi          - UNIQUE WELL ID
ENTR.         SP                             : Entered      - ENTERED BY
SRVC.         SCHLUMBERGER                   : Scn          - SERVICE COMPANY
STRT.M        370                            : top_depth    - START DEPTH
STOP.M        537                            : bot_depth    - STOP DEPTH
STEP.M        0.25                           : increment    - STEP LENGTH
 NULL. -999.2500:NULL Value
~CURVE INFORMATION BLOCK
#MNEM UNIT       ERCB CURVE CODE    CURVE DESCRIPTION
#-----------   ------------------   ----------------------------------
DEPT.M        00 001 00 00         : DEPTH        - DEPTH
ILD .OHMM     00 120 00 00         : RESD         - DEEP RESISTIVITY (DIL)
DPHI.V/V      00 890 00 00         : PHID         - DENSITY POROSITY (LIMESTONE)
NPHI.V/V      00 330 00 00         : PHIN         - NEUTRON POROSITY (LIMESTONE)
GR  .API      00 310 00 00         : GR           - GAMMA RAY
~PARAMETER INFORMATION
#MNEM.UNIT           DATA             DESCRIPTION OF MNEMONIC
#---------         -----------     ------------------------------
GL  .M        627.39               : gl           - GROUND LEVEL ELEVATION
EREF.M        630.39               : kb           - ELEVATION OF DEPTH REFERENCE
DATM.M        630.39               : datum        - DATUM ELEVATION
TDD .M        546                  : tdd          - TOTAL DEPTH DRILLER
RUN .         ONE                  : Run          - RUN NUMBER
ENG .         BILL                 : Engineer     - RECORDING ENGINEER
WIT .         JIM                  : Witness      - WITNESSED BY
MUD .         GEL                  : Mud_type     - MUD TYPE
MATR.         LIMESTONE            : Logunit      - NEUTRON MATRIX
TMAX.C        23                   : BHT          - MAXIMUM RECORDED TEMPERATURE
BHTD.M        543.8                : BHTDEP       - MAXIMUM RECORDED TEMPERATURE
MATR.         1                    : LOGUNIT      - NEUTRON MATRIX
RMT .C        25                   : MDTP         - TEMPERATURE OF MUD
NEUT.         1                    : NEUTRON      - NEUTRON TYPE
RESI.         0                    : RESIST       - RESISTIVITY TYPE
RMC .OHMM     0.25                 : RMC          - RESISTIVITY OF MUD CAKE
RMF .OHMM     0.25                 : RMF          - RESISTIVITY OF MUD FILTRATE
SUFT.C        15                   : SUFT         - SURFACE TEMPERATURE
~A  DEPTH     RESD     PHID     PHIN       GR
# ...
  457.000    2.747    0.240    0.400   89.472
  457.250    2.777    0.250    0.425   84.206
  457.500    2.834    0.258    0.437   87.178
  457.750    3.146    0.265    0.423   91.726
  458.000    3.546    0.248    0.352   90.579
  458.250    4.195    0.193    0.301   86.160
  458.500    4.605    0.129    0.294   83.499
  458.750    4.962    0.114    0.281   82.049
  459.000    5.158    0.126    0.271   81.386
  459.250    5.215    0.134    0.351   90.054
  459.500    5.164    0.155    0.388   98.539
  459.750    4.907    0.175    0.403  102.057
  460.000    4.611    0.190    0.394  102.848
  460.250    4.237    0.200    0.394  103.337
  460.500    4.041    0.207    0.396  103.160
  460.750    4.039    0.210    0.395  101.770
  461.000    4.168    0.208    0.403   99.896
  461.250    4.285    0.202    0.410   98.506
  461.500    4.397    0.190    0.405  101.418
  461.750    4.504    0.182    0.395  104.027
  462.000    4.665    0.181    0.389  101.911
  462.250    4.787    0.186    0.390  100.764
  462.500    4.876    0.186    0.390   99.920
  462.750    4.920    0.182    0.381   99.984
  463.000    4.836    0.179    0.377  100.654
  463.250    4.744    0.178    0.382  100.234
  463.500    4.628    0.185    0.390  102.541
  463.750    4.489    0.188    0.403  106.058
  464.000    4.404    0.183    0.419  110.545
  464.250    4.304    0.173    0.423  110.307
  464.500    4.215    0.174    0.407  104.495
  464.750    4.089    0.177    0.404  107.044
  465.000    3.996    0.177    0.417  110.803
  465.250    3.906    0.184    0.425  112.867
  465.500    3.846    0.189    0.415  111.235
  465.750    3.787    0.187    0.412  110.633
  466.000    3.750    0.202    0.421  113.848
  466.250    3.714    0.209    0.419  117.609
  466.500    3.691    0.200    0.410  119.309
  466.750    3.662    0.185    0.405  117.495
  467.000    3.702    0.180    0.418  115.076
  467.250    3.792    0.176    0.426  112.172
  467.500    3.848    0.177    0.416  114.902
  467.750    3.934    0.183    0.426  118.420
  468.000    4.006    0.187    0.436  113.880
  468.250    4.042    0.176    0.427  108.735
  468.500    4.094    0.177    0.418  104.801
  468.750    4.146    0.184    0.419  106.078
  469.000    4.199    0.183    0.425  109.838
  469.250    4.245    0.173    0.437  108.024
  469.500    4.283    0.172    0.378  104.696
  469.750    4.306    0.178    0.367  106.517
  470.000    4.312    0.180    0.392  108.096
  470.250    4.335    0.182    0.406  109.251
  470.500    4.325    0.186    0.416  107.074
  470.750    4.227    0.176    0.411  103.141
  471.000    4.009    0.167    0.391   98.964
  471.250    3.718    0.175    0.370  100.726
  471.500    3.547    0.178    0.369  104.970
  471.750    3.421    0.179    0.390  109.578
  472.000    3.306    0.175    0.408  115.216
  472.250    3.323    0.171    0.424  114.796
  472.500    3.372    0.172    0.430  106.985
  472.750    3.415    0.183    0.422  103.475
  473.000    3.459    0.195    0.416  104.874
  473.250    3.497    0.196    0.417  106.149
  473.500    3.548    0.187    0.419  106.395
  473.750    3.566    0.187    0.413  104.037
  474.000    3.592    0.203    0.407  102.526
  474.250    3.604    0.215    0.401  102.288
  474.500    3.630    0.219    0.400  102.958
  474.750    3.642    0.213    0.405  105.991
  475.000    3.640    0.208    0.407  107.146
  475.250    3.618    0.203    0.403  103.818
  475.500    3.550    0.200    0.410  105.640
  475.750    3.280    0.196    0.417  108.128
  476.000    3.111    0.200    0.418  105.648
  476.250    2.990    0.212    0.417   99.957
  476.500    2.927    0.220    0.417   94.933
  476.750    3.095    0.237    0.439   91.483
  477.000    3.911    0.240    0.381   85.066
  477.250    5.139    0.112    0.249   69.016
  477.500    6.080    0.083    0.231   64.052
  477.750    6.538    0.055    0.218   58.725
  478.000    6.672    0.034    0.206   54.609
  478.250    4.663    0.023    0.197   50.433
  478.500    3.647    0.162    0.281   49.589
  478.750    3.039    0.227    0.373   59.468
  479.000    2.705    0.251    0.410   67.832
  479.250    2.288    0.272    0.427   71.289
  479.500    2.216    0.286    0.439   71.778
  479.750    2.207    0.184    0.424   67.965
  480.000    2.316    0.158    0.355   64.395
  480.250    2.408    0.133    0.299   66.459
  480.500    2.398    0.266    0.321   69.067
  480.750    2.287    0.288    0.375   72.282
  481.000    2.113    0.303    0.405   73.558
  481.250    2.372    0.307    0.404   69.261
  481.500    2.719    0.296    0.403   71.567
  481.750    3.024    0.241    0.391   76.842
  482.000    3.246    0.173    0.289   80.965
  482.250    3.227    0.143    0.264   76.183
  482.500    2.931    0.247    0.310   80.974
  482.750    2.703    0.271    0.368   84.915
  483.000    2.842    0.287    0.405   87.039
  483.250    3.017    0.213    0.428   91.890
  483.500    3.250    0.166    0.408   95.953
  483.750    3.489    0.176    0.396   96.805
  484.000    3.675    0.183    0.390   96.688
  484.250    3.908    0.193    0.390   99.176
  484.500    4.274    0.211    0.402   97.423
  484.750    4.674    0.234    0.414   94.579
  485.000    5.169    0.248    0.423   93.311
  485.250    5.580    0.233    0.409   95.981
  485.500    5.978    0.218    0.394   95.379
  485.750    6.250    0.196    0.380   91.566
  486.000    6.236    0.171    0.368   90.844
  486.250    5.805    0.178    0.352   91.332
  486.500    5.167    0.190    0.333   91.882
  486.750    4.624    0.198    0.334   91.582
  487.000    4.272    0.181    0.350   89.587
  487.250    4.052    0.174    0.353   89.530
  487.500    3.836    0.189    0.329   99.652
  487.750    3.632    0.201    0.346  109.106
  488.000    3.556    0.214    0.386  114.805
  488.250    3.582    0.206    0.406  115.475
  488.500    3.607    0.199    0.416  109.845
  488.750    3.667    0.198    0.405  115.484
  489.000    3.728    0.203    0.398  116.336
  489.250    3.754    0.201    0.395  113.250
  489.500    3.824    0.195    0.407  109.861
  489.750    3.873    0.197    0.396  107.260
  490.000    3.915    0.203    0.406  106.901
  490.250    3.920    0.200    0.417  108.177
  490.500    3.948    0.193    0.422  106.243
  490.750    3.999    0.187    0.403  103.763
  491.000    4.050    0.184    0.391  105.766
  491.250    4.094    0.188    0.383  111.040
  491.500    4.146    0.183    0.401  112.316
  491.750    4.168    0.191    0.414  111.290
  492.000    4.143    0.196    0.410  111.173
  492.250    4.118    0.199    0.420  112.268
  492.500    4.032    0.206    0.424  111.182
  492.750    3.853    0.182    0.413  109.671
  493.000    3.600    0.169    0.410  108.403
  493.250    3.339    0.177    0.416  108.770
  493.500    3.051    0.199    0.425  111.984
  493.750    2.793    0.215    0.418  110.535
  494.000    2.599    0.222    0.423  109.751
  494.250    2.489    0.230    0.444  112.299
  494.500    2.428    0.247    0.511  115.151
  494.750    2.342    0.245    0.537  116.367
  495.000    2.285    0.241    0.535  117.340
  495.250    2.246    0.237    0.519  118.858
  495.500    2.232    0.229    0.506  120.195
  495.750    2.273    0.225    0.500  121.532
  496.000    2.377    0.220    0.485  123.171
  496.250    2.518    0.221    0.476  124.569
  496.500    2.662    0.231    0.481  122.453
  496.750    2.810    0.230    0.500  116.277
  497.000    2.988    0.212    0.507  111.737
  497.250    3.107    0.194    0.454  108.046
  497.500    3.224    0.181    0.425  111.019
  497.750    3.265    0.177    0.409  111.507
  498.000    3.168    0.173    0.440  113.935
  498.250    3.131    0.174    0.454  114.181
  498.500    3.225    0.185    0.445  110.914
  498.750    3.403    0.191    0.429  104.738
  499.000    3.565    0.185    0.412  101.531
  499.250    3.749    0.180    0.420   98.143
  499.500    3.956    0.168    0.421   95.481
  499.750    4.106    0.171    0.413   93.607
  500.000    4.261    0.197    0.413   91.733
  500.250    4.522    0.194    0.415   88.769
