~VERSION INFORMATION
 VERS.                 2.0:   CWLS LOG ASCII STANDARD -VERSION 2.0
 WRAP.                  NO:   ONE LINE PER DEPTH STEP
~WELL INFORMATION BLOCK
#MNEM.UNIT           DATA                    DESCRIPTION OF MNEMONIC
#---------    -------------------            -------------------------------
# Generated from Intellog Unique Number	CX_WELLS/WELL/1072
WELL.         07-22-088-18W4                 : Well_name    - WELL
LOC .         00/07-22-088-18W4/0            : Location     - LOCATION
UWI .         00/07-22-088-18W400            : Uwi          - UNIQUE WELL ID
ENTR.         DW                             : Entered      - ENTERED BY
SRVC.         SCHLUMBERGER                   : Scn          - SERVICE COMPANY
STRT.M        100                            : top_depth    - START DEPTH
STOP.M        205                            : bot_depth    - STOP DEPTH
STEP.M        0.25                           : increment    - STEP LENGTH
 NULL. -999.2500:NULL Value
~CURVE INFORMATION BLOCK
#MNEM UNIT       ERCB CURVE CODE    CURVE DESCRIPTION
#-----------   ------------------   ----------------------------------
DEPT.M        00 001 00 00         : DEPTH        - DEPTH
GR  .API      00 310 00 00         : GR           - GAMMA RAY
NPHI.V/V      00 330 00 00         : PHIN         - NEUTRON POROSITY (SANDSTONE)
DPHI.V/V      00 890 00 00         : PHID         - DENSITY POROSITY (SANDSTONE)
ILD .OHMM     00 120 00 00         : RESD         - DEEP RESISTIVITY (DIL)
~PARAMETER INFORMATION
#MNEM.UNIT           DATA             DESCRIPTION OF MNEMONIC
#---------         -----------     ------------------------------
GL  .M        499.66               : gl           - GROUND LEVEL ELEVATION
EREF.M        502.71               : kb           - ELEVATION OF DEPTH REFERENCE
DATM.M        502.71               : datum        - DATUM ELEVATION
TDD .M        211                  : tdd          - TOTAL DEPTH DRILLER
RUN .         ONE                  : Run          - RUN NUMBER
ENG .         BILL                 : Engineer     - RECORDING ENGINEER
WIT .         JIM                  : Witness      - WITNESSED BY
MUD .         GEL                  : Mud_type     - MUD TYPE
MATR.         SANDSTONE            : Logunit      - NEUTRON MATRIX
TMAX.C        28.8                 : BHT          - MAXIMUM RECORDED TEMPERATURE
BHTD.M        211                  : BHTDEP       - MAXIMUM RECORDED TEMPERATURE
MATR.         1                    : LOGUNIT      - NEUTRON MATRIX
RMT .C        25                   : MDTP         - TEMPERATURE OF MUD
NEUT.         1                    : NEUTRON      - NEUTRON TYPE
RESI.         0                    : RESIST       - RESISTIVITY TYPE
RMC .OHMM     0.25                 : RMC          - RESISTIVITY OF MUD CAKE
RMF .OHMM     0.25                 : RMF          - RESISTIVITY OF MUD FILTRATE
SUFT.C        15                   : SUFT         - SURFACE TEMPERATURE
~A  DEPTH       GR     PHIN     PHID     RESD
  100.000   98.122    0.581    0.240    3.967
  100.250   96.936    0.595    0.235    3.835
  100.500   94.001    0.610    0.230    3.771
  100.750   91.660    0.604    0.221    3.647
  101.000   91.628    0.599    0.192    3.651
  101.250   93.925    0.589    0.145    3.662
  101.500   96.809    0.570    0.110    3.738
  101.750   98.525    0.535    0.227    3.813
  102.000   98.494    0.546    0.238    3.893
  102.250   96.727    0.555    0.234    4.049
  102.500   94.373    0.566    0.230    4.293
  102.750   93.193    0.565    0.230    4.461
  103.000   91.994    0.563    0.241    4.635
  103.250   90.814    0.558    0.249    4.911
  103.500   90.214    0.555    0.256    5.011
  103.750   88.435    0.552    0.254    5.309
  104.000   87.261    0.544    0.240    5.625
  104.250   83.172    0.539    0.213    5.845
  104.500   77.915    0.532    0.180    6.311
  104.750   74.981    0.524    0.165    6.435
  105.000   74.375    0.512    0.146    6.952
  105.250   74.350    0.498    0.142    7.224
  105.500   73.163    0.490    0.180    7.654
  105.750   71.396    0.493    0.252    7.949
  106.000   70.204    0.486    0.251    8.265
  106.250   70.191    0.478    0.241    8.762
  106.500   69.004    0.476    0.229    9.105
  106.750   66.076    0.489    0.246    9.299
  107.000   61.400    0.485    0.252    9.487
  107.250   66.013    0.474    0.239    9.695
  107.500   68.891    0.486    0.216    9.717
  107.750   71.194    0.492    0.221    9.728
  108.000   73.491    0.489    0.223    9.577
  108.250   72.885    0.484    0.223    9.599
  108.500   70.538    0.496    0.233    9.440
  108.750   68.184    0.484    0.235    9.461
  109.000   65.843    0.456    0.233    9.492
  109.250   64.076    0.456    0.234    9.864
  109.500   64.044    0.463    0.241   10.842
  109.750   63.425    0.472    0.248   11.475
  110.000   62.832    0.471    0.252   12.612
  110.250   61.065    0.467    0.253   14.111
  110.500   58.718    0.465    0.253   15.519
  110.750   57.531    0.455    0.252   16.117
  111.000   55.764    0.447    0.254   17.077
  111.250   55.159    0.438    0.248   17.125
  111.500   55.133    0.430    0.232   17.153
  111.750   55.108    0.425    0.252   17.510
  112.000   55.083    0.418    0.273   17.549
  112.250   55.626    0.410    0.259   17.598
  112.500   56.181    0.403    0.227   17.627
  112.750   57.310    0.403    0.270   17.676
  113.000   58.453    0.419    0.280   17.384
  113.250   59.595    0.434    0.280   17.125
  113.500   60.730    0.430    0.261   16.526
  113.750   61.866    0.430    0.232   15.408
  114.000   64.157    0.431    0.238   14.877
  114.250   66.448    0.440    0.240   13.363
  114.500   67.596    0.452    0.208   12.431
  114.750   71.048    0.461    0.208   10.957
  115.000   73.345    0.472    0.200    9.836
  115.250   75.061    0.485    0.200    8.517
  115.500   76.204    0.494    0.202    7.646
  115.750   77.333    0.510    0.199    7.117
  116.000   78.469    0.522    0.196    6.276
  116.250   80.185    0.531    0.188    5.947
  116.500   82.476    0.544    0.185    5.443
  116.750   83.044    0.545    0.193    5.160
  117.000   85.335    0.540    0.218    4.892
  117.250   86.471    0.532    0.225    4.561
  117.500   83.542    0.526    0.230    4.566
  117.750   79.447    0.525    0.230    4.928
  118.000   75.945    0.514    0.223    5.513
  118.250   70.694    0.513    0.218    6.400
  118.500   65.444    0.507    0.221    8.607
  118.750   59.026    0.492    0.213    9.456
  119.000   56.085    0.475    0.211   11.191
  119.250   55.492    0.452    0.206   12.294
  119.500   55.467    0.444    0.223   13.259
  119.750   57.183    0.452    0.240   13.778
  120.000   60.061    0.462    0.248   14.065
  120.250   63.519    0.469    0.244   13.105
  120.500   67.551    0.467    0.242   11.765
  120.750   69.268    0.466    0.234   10.758
  121.000   71.565    0.471    0.222    9.652
  121.250   73.281    0.489    0.221    8.670
  121.500   73.836    0.494    0.227    8.219
  121.750   73.231    0.495    0.234    7.117
  122.000   72.631    0.495    0.237    6.750
  122.250   70.858    0.499    0.242    7.018
  122.500   67.923    0.505    0.248    7.714
  122.750   65.576    0.511    0.269    8.160
  123.000   62.067    0.505    0.270    9.477
  123.250   59.139    0.496    0.273   10.232
  123.500   58.539    0.490    0.289   10.244
  123.750   60.250    0.488    0.296   10.080
  124.000   62.553    0.488    0.291    9.561
  124.250   66.011    0.492    0.277    8.588
  124.500   70.624    0.493    0.238    8.142
  124.750   72.347    0.491    0.207    8.016
  125.000   71.154    0.483    0.201    8.178
  125.250   70.548    0.469    0.214    8.826
  125.500   69.942    0.450    0.209    9.880
  125.750   68.750    0.428    0.195   10.854
  126.000   68.724    0.418    0.186   11.700
  126.250   68.699    0.421    0.181   12.626
  126.500   68.100    0.423    0.186   13.135
  126.750   66.907    0.420    0.185   13.164
  127.000   65.720    0.422    0.185   12.486
  127.250   66.276    0.430    0.192   11.635
  127.500   69.147    0.441    0.197   11.228
  127.750   70.870    0.453    0.196   10.457
  128.000   72.592    0.467    0.192    9.919
  128.250   75.464    0.466    0.184    9.237
  128.500   77.748    0.466    0.181    8.929
  128.750   78.316    0.465    0.179    8.781
  129.000   78.865    0.468    0.175    8.651
  129.250   78.846    0.473    0.172    8.503
  129.500   78.240    0.475    0.171    8.367
  129.750   77.634    0.475    0.168    7.945
  130.000   75.861    0.475    0.163    7.814
  130.250   74.675    0.476    0.190    7.689
  130.500   74.069    0.480    0.199    7.432
  130.750   74.630    0.489    0.214    7.305
  131.000   78.663    0.499    0.228    7.188
  131.250   81.547    0.500    0.228    6.822
  131.500   86.746    0.504    0.200    6.591
  131.750   90.785    0.510    0.191    6.368
  132.000   96.559    0.529    0.168    6.040
  132.250   98.282    0.544    0.159    5.835
  132.500  100.579    0.542    0.169    5.634
  132.750  102.295    0.537    0.180    5.443
  133.000  102.257    0.533    0.189    5.163
  133.250  101.658    0.529    0.185    4.900
  133.500  101.052    0.537    0.156    5.002
  133.750   99.853    0.544    0.150    5.498
  134.000   99.254    0.538    0.140    5.713
  134.250   98.067    0.527    0.145    6.396
  134.500   95.720    0.515    0.155    7.026
  134.750   93.372    0.510    0.169    7.723
  135.000   91.605    0.502    0.179    8.484
  135.250   88.096    0.492    0.194    9.320
  135.500   83.427    0.468    0.217   10.428
  135.750   78.751    0.445    0.224   11.455
  136.000   75.829    0.431    0.235   12.355
  136.250   72.320    0.427    0.251   13.333
  136.500   68.225    0.432    0.256   13.370
  136.750   70.528    0.438    0.258   13.385
  137.000   78.050    0.448    0.254   12.704
  137.250   84.991    0.445    0.250   12.266
  137.500   86.708    0.442    0.247   11.436
  137.750   85.515    0.448    0.197   10.842
  138.000   83.161    0.451    0.186   10.469
  138.250   80.820    0.448    0.171   10.114
  138.500   79.634    0.438    0.161   10.330
  138.750   77.867    0.413    0.145   10.752
  139.000   78.422    0.408    0.164   10.770
  139.250   81.880    0.407    0.175   10.987
  139.500   84.758    0.416    0.178   11.216
  139.750   87.055    0.441    0.178   11.241
  140.000   88.184    0.462    0.178   11.475
  140.250   88.146    0.452    0.178   11.513
  140.500   87.547    0.434    0.180   11.532
  140.750   86.367    0.419    0.183   11.564
  141.000   83.432    0.411    0.188   11.590
  141.250   79.924    0.418    0.192   12.057
  141.500   77.002    0.430    0.196   12.300
  141.750   73.493    0.438    0.205   12.549
  142.000   70.565    0.435    0.216   13.055
  142.250   65.895    0.435    0.230   13.084
  142.500   69.353    0.439    0.247   13.348
  142.750   74.547    0.443    0.242   13.378
  143.000   73.360    0.435    0.233   13.415
  143.250   71.013    0.428    0.202   13.445
