~VERSION INFORMATION
 VERS.                 2.0:   CWLS LOG ASCII STANDARD -VERSION 2.0
 WRAP.                  NO:   ONE LINE PER DEPTH STEP
~WELL INFORMATION BLOCK
#MNEM.UNIT           DATA                    DESCRIPTION OF MNEMONIC
#---------    -------------------            -------------------------------
# Generated from Intellog Unique Number	CS_71_72/WELL/623
WELL.         BVI ET AL CHARRON              : Well_name    - WELL
LOC .         00/03-07-071-15W4/0            : Location     - LOCATION
UWI .         00/03-07-071-15W4/0            : Uwi          - UNIQUE WELL ID
ENTR.         SP                             : Entered      - ENTERED BY
SRVC.         SCHLUMBERGER                   : Scn          - SERVICE COMPANY
STRT.M        310                            : top_depth    - START DEPTH
STOP.M        500                            : bot_depth    - STOP DEPTH
STEP.M        0.25                           : increment    - STEP LENGTH
 NULL. -999.2500:NULL Value
~CURVE INFORMATION BLOCK
#MNEM UNIT       ERCB CURVE CODE    CURVE DESCRIPTION
#-----------   ------------------   ----------------------------------
DEPT.M        00 001 00 00         : DEPTH        - DEPTH
ILD .OHMM     00 120 00 00         : RESD         - DEEP RESISTIVITY (DIL)
DPHI.V/V      00 890 00 00         : PHID         - DENSITY POROSITY (LIMESTONE)
NPHI.V/V      00 330 00 00         : PHIN         - NEUTRON POROSITY (LIMESTONE)
GR  .API      00 310 00 00         : GR           - GAMMA RAY
~PARAMETER INFORMATION
#MNEM.UNIT           DATA             DESCRIPTION OF MNEMONIC
#---------         -----------     ------------------------------
GL  .M        599.2                : gl           - GROUND LEVEL ELEVATION
EREF.M        602.85               : kb           - ELEVATION OF DEPTH REFERENCE
DATM.M        599.2                : datum        - DATUM ELEVATION
TDD .M        503                  : tdd          - TOTAL DEPTH DRILLER
RUN .         ONE                  : Run          - RUN NUMBER
ENG .         BILL                 : Engineer     - RECORDING ENGINEER
WIT .         JIM                  : Witness      - WITNESSED BY
MUD .         GEL                  : Mud_type     - MUD TYPE
MATR.         LIMESTONE            : Logunit      - NEUTRON MATRIX
TMAX.C        19                   : BHT          - MAXIMUM RECORDED TEMPERATURE
BHTD.M        503                  : BHTDEP       - MAXIMUM RECORDED TEMPERATURE
MATR.         1                    : LOGUNIT      - NEUTRON MATRIX
RMT .C        25                   : MDTP         - TEMPERATURE OF MUD
NEUT.         1                    : NEUTRON      - NEUTRON TYPE
RESI.         0                    : RESIST       - RESISTIVITY TYPE
RMC .OHMM     0.25                 : RMC          - RESISTIVITY OF MUD CAKE
RMF .OHMM     0.25                 : RMF          - RESISTIVITY OF MUD FILTRATE
SUFT.C        15                   : SUFT         - SURFACE TEMPERATURE
~A  DEPTH     RESD     PHID     PHIN       GR
# ...
  397.000    4.358    0.255    0.418   91.299
  397.250    4.301    0.269    0.426   88.933
  397.500    4.261    0.270    0.449   86.018
  397.750    4.293    0.261    0.448   83.835
  398.000    4.358    0.257    0.444   83.844
  398.250    4.509    0.255    0.436   83.306
  398.500    4.816    0.239    0.374   82.829
  398.750    5.038    0.203    0.340   83.388
  399.000    5.261    0.200    0.368   86.629
  399.250    5.412    0.217    0.398   90.053
  399.500    5.474    0.228    0.410   91.221
  399.750    5.484    0.234    0.407   88.611
  400.000    5.464    0.229    0.418   85.878
  400.250    5.302    0.223    0.420   86.987
  400.500    5.193    0.219    0.419   87.974
  400.750    5.126    0.219    0.419   88.351
  401.000    5.068    0.216    0.420   88.663
  401.250    4.993    0.213    0.420   90.929
  401.500    4.890    0.211    0.419   91.062
  401.750    4.754    0.219    0.413   87.476
  402.000    4.468    0.228    0.407   87.912
  402.250    4.231    0.231    0.406   91.155
  402.500    4.183    0.221    0.426   93.238
  402.750    4.160    0.220    0.452   94.528
  403.000    4.160    0.224    0.446   94.964
  403.250    4.152    0.227    0.428   90.647
  403.500    4.605    0.242    0.418   85.416
  403.750    4.511    0.258    0.413   82.684
  404.000    4.419    0.264    0.397   82.145
  404.250    4.240    0.272    0.388   81.669
  404.500    4.177    0.283    0.391   81.313
  404.750    4.068    0.281    0.404   79.373
  405.000    4.007    0.278    0.415   75.909
  405.250    3.977    0.275    0.415   76.956
  405.500    3.896    0.277    0.425   84.037
  405.750    3.860    0.281    0.438   79.598
  406.000    3.766    0.283    0.452   74.184
  406.250    3.587    0.285    0.454   72.488
  406.500    3.520    0.289    0.446   77.009
  406.750    3.560    0.276    0.444   79.884
  407.000    3.704    0.264    0.439   81.174
  407.250    3.838    0.261    0.435   81.918
  407.500    3.897    0.259    0.428   81.562
  407.750    3.904    0.269    0.423   80.231
  408.000    3.882    0.281    0.427   80.241
  408.250    3.839    0.278    0.434   85.008
  408.500    3.775    0.272    0.428   88.004
  408.750    3.739    0.266    0.418   86.489
  409.000    3.768    0.264    0.411   85.829
  409.250    3.768    0.270    0.406   84.318
  409.500    3.811    0.292    0.415   82.377
  409.750    3.740    0.303    0.426   81.048
  410.000    3.430    0.298    0.437   82.032
  410.250    2.917    0.289    0.441   87.650
  410.500    2.773    0.276    0.431   95.585
  410.750    2.426    0.261    0.429  102.239
  411.000    2.155    0.274    0.496  107.063
  411.250    1.965    0.286    0.522  106.038
  411.500    1.965    0.280    0.542  107.572
  411.750    2.103    0.266    0.563  107.461
  412.000    2.385    0.260    0.583  105.459
  412.250    2.651    0.256    0.497  103.338
  412.500    3.047    0.260    0.451  101.581
  412.750    3.489    0.262    0.429   99.276
  413.000    3.741    0.256    0.425   96.969
  413.250    4.034    0.253    0.429   96.128
  413.500    4.173    0.258    0.438   98.209
  413.750    4.260    0.258    0.430  100.779
  414.000    4.293    0.245    0.415  102.374
  414.250    4.213    0.242    0.423  101.716
  414.500    4.126    0.246    0.429  100.566
  414.750    4.042    0.253    0.432   98.932
  415.000    3.974    0.259    0.436   97.421
  415.250    3.900    0.265    0.443   96.331
  415.500    3.820    0.270    0.451   93.782
  415.750    3.756    0.271    0.459   89.771
  416.000    3.778    0.270    0.468   85.454
  416.250    3.813    0.273    0.463   81.747
  416.500    3.857    0.259    0.465   78.588
  416.750    3.945    0.247    0.470   78.962
  417.000    3.982    0.242    0.471   83.789
  417.250    4.028    0.256    0.468   88.129
  417.500    3.945    0.278    0.467   89.478
  417.750    3.850    0.300    0.452   85.527
  418.000    3.618    0.312    0.427   79.441
  418.250    3.524    0.321    0.409   71.774
  418.500    3.465    0.326    0.395   66.297
  418.750    3.525    0.287    0.359   60.822
  419.000    3.779    0.184    0.310   56.263
  419.250    4.311    0.179    0.290   56.028
  419.500    4.562    0.251    0.353   60.367
  419.750    4.144    0.314    0.411   63.547
  420.000    3.408    0.335    0.426   65.445
  420.250    3.113    0.338    0.436   65.945
  420.500    2.915    0.333    0.432   65.408
  420.750    2.834    0.326    0.427   65.538
  421.000    2.829    0.319    0.424   67.383
  421.250    2.834    0.313    0.429   68.426
  421.500    2.839    0.306    0.437   69.594
  421.750    3.050    0.296    0.445   70.278
  422.000    3.050    0.295    0.430   69.798
  422.250    3.085    0.311    0.415   69.928
  422.500    3.126    0.254    0.415   78.655
  422.750    3.246    0.202    0.423   87.077
  423.000    3.377    0.194    0.431   92.085
  423.250    3.480    0.206    0.441   94.169
  423.500    3.587    0.220    0.448   91.680
  423.750    3.648    0.233    0.446   86.511
  424.000    3.655    0.249    0.442   83.048
  424.250    3.655    0.262    0.436   81.716
  424.500    3.690    0.271    0.434   82.458
  424.750    3.662    0.279    0.432   82.286
  425.000    3.648    0.282    0.432   82.053
  425.250    3.614    0.280    0.440   80.968
  425.500    3.587    0.282    0.436   79.821
  425.750    3.581    0.285    0.428   79.219
  426.000    3.615    0.289    0.434   77.461
  426.250    3.656    0.284    0.444   75.155
  426.500    3.697    0.271    0.445   72.180
  426.750    3.775    0.261    0.434   70.239
  427.000    3.825    0.271    0.424   68.849
  427.250    3.861    0.281    0.423   71.602
  427.500    3.891    0.286    0.425   74.172
  427.750    3.876    0.278    0.421   76.194
  428.000    3.862    0.272    0.424   76.631
  428.250    3.891    0.268    0.420   74.143
  428.500    3.958    0.265    0.413   71.654
  428.750    3.995    0.267    0.408   72.946
  429.000    4.110    0.260    0.398   78.319
  429.250    4.180    0.231    0.391   83.816
  429.500    4.292    0.220    0.403   87.055
  429.750    4.373    0.227    0.416   86.151
  430.000    4.373    0.222    0.425   83.238
  430.250    4.349    0.208    0.412   82.150
  430.500    4.173    0.211    0.403   86.549
  430.750    3.819    0.228    0.442   94.850
  431.000    3.503    0.240    0.479  101.503
  431.250    3.129    0.250    0.513  105.354
  431.500    2.974    0.229    0.497  107.193
  431.750    3.117    0.225    0.481  108.117
  432.000    3.237    0.236    0.473  105.141
  432.250    3.311    0.246    0.477   97.902
  432.500    3.412    0.237    0.495   95.166
  432.750    3.464    0.225    0.495   92.738
  433.000    3.451    0.220    0.475   96.406
  433.250    3.412    0.216    0.486   99.953
  433.500    3.393    0.213    0.508  102.827
  433.750    3.368    0.224    0.513  102.350
  434.000    3.318    0.237    0.512  100.349
  434.250    3.213    0.246    0.518  102.495
  434.500    3.003    0.253    0.523  103.052
  434.750    2.876    0.255    0.512  103.185
  435.000    2.812    0.237    0.498  102.160
  435.250    2.817    0.211    0.484  104.119
  435.500    2.986    0.200    0.475  106.630
  435.750    3.214    0.206    0.466  107.858
  436.000    3.578    0.230    0.459   96.472
  436.250    4.426    0.250    0.451   88.496
  436.500    5.273    0.260    0.450   81.315
  436.750    6.165    0.140    0.451   76.815
  437.000    7.221    0.081    0.413   70.487
  437.250    7.919    0.074    0.319   67.450
  437.500    7.699    0.111    0.256   73.799
  437.750    7.087    0.199    0.374   79.478
  438.000    6.085    0.184    0.389   86.072
  438.250    5.089    0.151    0.411   91.263
  438.500    4.469    0.163    0.429   90.785
  438.750    4.256    0.175    0.422   87.322
  439.000    4.337    0.152    0.387   90.502
  439.250    4.469    0.167    0.416   94.292
  439.500    4.512    0.186    0.430   94.790
  439.750    4.589    0.195    0.431   92.241
  440.000    4.606    0.183    0.426   90.424
  440.250    4.589    0.178    0.423   90.676
