~VERSION INFORMATION
 VERS.                 2.0:   CWLS LOG ASCII STANDARD -VERSION 2.0
 WRAP.                  NO:   ONE LINE PER DEPTH STEP
~WELL INFORMATION BLOCK
#MNEM.UNIT           DATA                    DESCRIPTION OF MNEMONIC
#---------    -------------------            -------------------------------
# Generated from Intellog Unique Number	CS_67_68/WELL/785
WELL.         CANADIAN HOMESTEAD OILS        : Well_name    - WELL
LOC .         00/07-36-068-10W4/0            : Location     - LOCATION
UWI .         00/07-36-068-10W4/0            : Uwi          - UNIQUE WELL ID
ENTR.         SP                             : Entered      - ENTERED BY
SRVC.         SCHLUMBERGER                   : Scn          - SERVICE COMPANY
STRT.M        445                            : top_depth    - START DEPTH
STOP.M        665                            : bot_depth    - STOP DEPTH
STEP.M        0.25                           : increment    - STEP LENGTH
 NULL. -999.2500:NULL Value
~CURVE INFORMATION BLOCK
#MNEM UNIT       ERCB CURVE CODE    CURVE DESCRIPTION
#-----------   ------------------   ----------------------------------
DEPT.M        00 001 00 00         : DEPTH        - DEPTH
ILD .OHMM     00 120 00 00         : RESD         - DEEP RESISTIVITY (DIL)
DPHI.V/V      00 890 00 00         : PHID         - DENSITY POROSITY (LIMESTONE)
NPHI.V/V      00 330 00 00         : PHIN         - NEUTRON POROSITY (LIMESTONE)
GR  .API      00 310 00 00         : GR           - GAMMA RAY
~PARAMETER INFORMATION
#MNEM.UNIT           DATA             DESCRIPTION OF MNEMONIC
#---------         -----------     ------------------------------
GL  .M        768.6                : gl           - GROUND LEVEL ELEVATION
EREF.M        761.69               : kb           - ELEVATION OF DEPTH REFERENCE
DATM.M        768.6                : datum        - DATUM ELEVATION
TDD .M        667                  : tdd          - TOTAL DEPTH DRILLER
RUN .         ONE                  : Run          - RUN NUMBER
ENG .         BILL                 : Engineer     - RECORDING ENGINEER
WIT .         JIM                  : Witness      - WITNESSED BY
MUD .         GEL                  : Mud_type     - MUD TYPE
MATR.         LIMESTONE            : Logunit      - NEUTRON MATRIX
TMAX.C        25                   : BHT          - MAXIMUM RECORDED TEMPERATURE
BHTD.M        667                  : BHTDEP       - MAXIMUM RECORDED TEMPERATURE
MATR.         1                    : LOGUNIT      - NEUTRON MATRIX
RMT .C        25                   : MDTP         - TEMPERATURE OF MUD
NEUT.         1                    : NEUTRON      - NEUTRON TYPE
RESI.         0                    : RESIST       - RESISTIVITY TYPE
RMC .OHMM     0.25                 : RMC          - RESISTIVITY OF MUD CAKE
RMF .OHMM     0.25                 : RMF          - RESISTIVITY OF MUD FILTRATE
SUFT.C        15                   : SUFT         - SURFACE TEMPERATURE
~A  DEPTH     RESD     PHID     PHIN       GR
  445.000    2.549    0.239    0.518   93.526
  445.250    2.559    0.248    0.507   92.257
  445.500    2.575    0.257    0.498   91.901
  445.750    2.590    0.251    0.493   92.215
  446.000    2.610    0.265    0.504   93.565
  446.250    2.630    0.258    0.516   95.525
  446.500    2.680    0.250    0.528   96.266
  446.750    2.721    0.258    0.536   97.311
  447.000    2.758    0.266    0.526   97.688
  447.250    2.785    0.255    0.520   98.428
  447.500    2.811    0.251    0.521   98.621
  447.750    2.838    0.243    0.514   97.716
  448.000    2.866    0.243    0.500   96.020
  448.250    2.921    0.257    0.491   94.263
  448.500    3.032    0.229    0.492   95.003
  448.750    3.165    0.208    0.514   95.866
  449.000    3.299    0.179    0.531   88.808
  449.250    3.393    0.132    0.529   82.603
  449.500    3.432    0.067    0.393   76.093
  449.750    3.408    0.031    0.398   80.673
  450.000    3.321    0.223    0.447   89.213
  450.250    3.154    0.225    0.472   92.879
  450.500    3.018    0.231    0.489   92.400
  450.750    2.930    0.252    0.499   95.701
  451.000    2.835    0.278    0.507   97.660
  451.250    2.732    0.242    0.536   98.706
  451.500    2.693    0.237    0.560   98.411
  451.750    2.689    0.241    0.558   96.961
  452.000    2.735    0.238    0.534   96.237
  452.250    2.798    0.232    0.520   95.758
  452.500    2.846    0.225    0.509   94.854
  452.750    2.879    0.214    0.499   94.255
  453.000    2.901    0.210    0.527   95.179
  453.250    2.924    0.227    0.546   95.981
  453.500    2.908    0.231    0.544   97.391
  453.750    2.893    0.228    0.531   97.707
  454.000    2.867    0.232    0.518   96.803
  454.250    2.810    0.232    0.507   94.498
  454.500    3.033    0.219    0.519   92.618
  454.750    3.392    0.241    0.539   90.190
  455.000    3.716    0.259    0.552   83.254
  455.250    3.938    0.267    0.552   71.930
  455.500    4.165    0.491    0.564   66.335
  455.750    4.348    0.517    0.606   78.104
  456.000    4.277    0.515    0.675   88.046
  456.250    3.634    0.515    0.694   93.417
  456.500    3.331    0.561    0.700   91.965
  456.750    3.077    0.603    0.682   81.067
  457.000    3.004    0.585    0.670   72.669
  457.250    2.999    0.531    0.653   74.872
  457.500    3.012    0.286    0.641   83.473
  457.750    3.098    0.237    0.612   91.588
  458.000    3.313    0.215    0.583   95.739
  458.250    3.589    0.205    0.534  100.745
  458.500    4.074    0.213    0.517  103.801
  458.750    4.497    0.226    0.489  102.654
  459.000    4.677    0.232    0.465   97.058
  459.250    4.873    0.220    0.443   89.757
  459.500    4.848    0.227    0.417   83.673
  459.750    4.657    0.238    0.408   78.930
  460.000    4.657    0.250    0.408   74.797
  460.250    4.659    0.274    0.403   73.466
  460.500    4.703    0.286    0.417   76.829
  460.750    4.820    0.294    0.430   81.286
  461.000    4.957    0.310    0.438   84.340
  461.250    5.099    0.275    0.433   87.641
  461.500    5.149    0.243    0.423   87.894
  461.750    5.112    0.224    0.415   81.567
  462.000    5.011    0.214    0.404   76.154
  462.250    4.911    0.230    0.404   78.540
  462.500    4.831    0.204    0.420   83.241
  462.750    4.752    0.219    0.417   87.760
  463.000    4.589    0.227    0.410   92.707
  463.250    4.359    0.123    0.416   96.249
  463.500    4.124    0.093    0.434  100.891
  463.750    3.916    0.090    0.455  103.640
  464.000    3.644    0.103    0.475  106.087
  464.250    3.435    0.124    0.492  109.327
  464.500    3.226    0.153    0.506  112.078
  464.750    3.029    0.173    0.511  113.306
  465.000    2.893    0.189    0.518  113.682
  465.250    2.809    0.192    0.527  114.484
  465.500    2.971    0.203    0.538  114.738
  465.750    3.435    0.214    0.537  114.076
  466.000    3.812    0.237    0.511  107.263
  466.250    4.169    0.263    0.501   99.718
  466.500    4.542    0.283    0.486   92.536
  466.750    4.760    0.295    0.486   80.422
  467.000    4.700    0.320    0.487   70.743
  467.250    4.406    0.343    0.447   63.442
  467.500    4.176    0.321    0.419   60.466
  467.750    4.040    0.324    0.419   63.035
  468.000    3.960    0.330    0.422   66.395
  468.250    3.917    0.333    0.409   60.009
  468.500    3.904    0.336    0.408   56.424
  468.750    3.884    0.340    0.416   55.214
  469.000    3.835    0.344    0.419   53.519
  469.250    3.801    0.345    0.412   51.518
  469.500    3.795    0.342    0.404   49.639
  469.750    3.976    0.336    0.411   47.517
  470.000    4.016    0.329    0.409   46.428
  470.250    4.023    0.331    0.402   45.953
  470.500    4.047    0.342    0.401   45.717
  470.750    4.056    0.334    0.409   45.665
  471.000    4.058    0.318    0.416   45.735
  471.250    4.074    0.314    0.405   46.112
  471.500    4.098    0.328    0.401   46.670
  471.750    4.107    0.333    0.403   47.349
  472.000    4.108    0.332    0.408   48.273
  472.250    4.095    0.335    0.410   49.319
  472.500    4.073    0.338    0.410   50.242
  472.750    4.067    0.351    0.413   51.044
  473.000    4.068    0.355    0.414   52.028
  473.250    4.070    0.348    0.422   53.806
  473.500    4.071    0.346    0.429   56.559
  473.750    4.102    0.356    0.432   58.577
  474.000    4.189    0.363    0.426   61.390
  474.250    4.300    0.354    0.428   64.629
  474.500    4.507    0.341    0.435   68.233
  474.750    4.592    0.337    0.445   70.923
  475.000    4.759    0.332    0.450   69.289
  475.250    4.849    0.326    0.429   71.249
  475.500    4.923    0.310    0.422   73.575
  475.750    4.943    0.295    0.422   74.679
  476.000    4.890    0.293    0.425   69.388
  476.250    4.847    0.307    0.427   66.718
  476.500    4.939    0.317    0.425   67.397
  476.750    5.089    0.317    0.425   72.038
  477.000    5.225    0.314    0.432   78.507
  477.250    5.325    0.304    0.447   82.964
  477.500    5.406    0.295    0.457   85.897
  477.750    5.665    0.297    0.464   83.470
  478.000    6.081    0.300    0.470   81.165
  478.250    6.431    0.294    0.447   78.311
  478.500    6.968    0.280    0.436   75.274
  478.750    7.411    0.235    0.416   72.116
  479.000    7.250    0.188    0.349   70.784
  479.250    5.936    0.165    0.329   70.856
  479.500    5.584    0.175    0.339   70.988
  479.750    5.225    0.242    0.388   74.227
  480.000    4.952    0.278    0.414   79.478
  480.250    4.651    0.296    0.438   82.594
  480.500    4.417    0.289    0.454   85.345
  480.750    4.265    0.288    0.470   84.927
  481.000    4.227    0.303    0.482   82.073
  481.250    4.268    0.302    0.495   82.997
  481.500    4.310    0.296    0.497   83.860
  481.750    4.368    0.302    0.485   83.871
  482.000    4.418    0.295    0.480   83.332
  482.250    4.427    0.290    0.479   83.220
  482.500    4.429    0.293    0.484   83.472
  482.750    4.430    0.286    0.488   82.873
  483.000    4.431    0.283    0.494   81.910
  483.250    4.408    0.296    0.500   81.614
  483.500    4.394    0.316    0.510   84.365
  483.750    4.354    0.306    0.485   86.994
  484.000    4.348    0.298    0.477   87.187
  484.250    4.341    0.298    0.470   86.649
  484.500    4.342    0.291    0.477   86.355
  484.750    4.344    0.277    0.501   86.789
  485.000    4.378    0.289    0.510   87.713
  485.250    4.420    0.293    0.510   89.429
  485.500    4.463    0.289    0.512   90.962
  485.750    4.531    0.279    0.505   91.825
  486.000    4.617    0.272    0.493   88.605
  486.250    4.714    0.268    0.485   84.715
  486.500    4.795    0.275    0.480   82.410
  486.750    4.988    0.281    0.479   79.738
  487.000    5.159    0.293    0.468   76.215
  487.250    5.376    0.296    0.452   75.127
  487.500    5.560    0.278    0.442   76.114
  487.750    5.719    0.264    0.436   76.975
  488.000    5.893    0.256    0.437   77.532
  488.250    5.939    0.267    0.442   77.606
