~VERSION INFORMATION
 VERS.                 2.0:   CWLS LOG ASCII STANDARD -VERSION 2.0
 WRAP.                  NO:   ONE LINE PER DEPTH STEP
~WELL INFORMATION BLOCK
#MNEM.UNIT           DATA                    DESCRIPTION OF MNEMONIC
#---------    -------------------            -------------------------------
# Generated from Intellog Unique Number	CS_71_72/WELL/768
WELL.         SULPETRO BRENDA IPIATIK        : Well_name    - WELL
LOC .         00/06-09-072-09W4/0            : Location     - LOCATION
UWI .         00/06-09-072-09W4/0            : Uwi          - UNIQUE WELL ID
ENTR.         SP                             : Entered      - ENTERED BY
SRVC.         SCHLUMBERGER                   : Scn          - SERVICE COMPANY
STRT.M        315                            : top_depth    - START DEPTH
STOP.M        510                            : bot_depth    - STOP DEPTH
STEP.M        0.25                           : increment    - STEP LENGTH
 NULL. -999.2500:NULL Value
~CURVE INFORMATION BLOCK
#MNEM UNIT       ERCB CURVE CODE    CURVE DESCRIPTION
#-----------   ------------------   ----------------------------------
DEPT.M        00 001 00 00         : DEPTH        - DEPTH
ILD .OHMM     00 120 00 00         : RESD         - DEEP RESISTIVITY (DIL)
DPHI.V/V      00 890 00 00         : PHID         - DENSITY POROSITY (LIMESTONE)
NPHI.V/V      00 330 00 00         : PHIN         - NEUTRON POROSITY (LIMESTONE)
GR  .API      00 310 00 00         : GR           - GAMMA RAY
~PARAMETER INFORMATION
#MNEM.UNIT           DATA             DESCRIPTION OF MNEMONIC
#---------         -----------     ------------------------------
GL  .M        678.34               : gl           - GROUND LEVEL ELEVATION
EREF.M        681.39               : kb           - ELEVATION OF DEPTH REFERENCE
DATM.M        678.34               : datum        - DATUM ELEVATION
TDD .M        519                  : tdd          - TOTAL DEPTH DRILLER
RUN .         ONE                  : Run          - RUN NUMBER
ENG .         BILL                 : Engineer     - RECORDING ENGINEER
WIT .         JIM                  : Witness      - WITNESSED BY
MUD .         GEL                  : Mud_type     - MUD TYPE
MATR.         LIMESTONE            : Logunit      - NEUTRON MATRIX
TMAX.C        28                   : BHT          - MAXIMUM RECORDED TEMPERATURE
BHTD.M        519                  : BHTDEP       - MAXIMUM RECORDED TEMPERATURE
MATR.         1                    : LOGUNIT      - NEUTRON MATRIX
RMT .C        25                   : MDTP         - TEMPERATURE OF MUD
NEUT.         1                    : NEUTRON      - NEUTRON TYPE
RESI.         0                    : RESIST       - RESISTIVITY TYPE
RMC .OHMM     0.25                 : RMC          - RESISTIVITY OF MUD CAKE
RMF .OHMM     0.25                 : RMF          - RESISTIVITY OF MUD FILTRATE
SUFT.C        15                   : SUFT         - SURFACE TEMPERATURE
~A  DEPTH     RESD     PHID     PHIN       GR
  315.000    2.654    0.198    0.432  113.565
  315.250    2.603    0.204    0.443  114.782
  315.500    2.600    0.204    0.464  116.608
  315.750    2.599    0.202    0.476  117.826
  316.000    2.696    0.206    0.437  116.008
  316.250    2.746    0.213    0.427  100.223
  316.500    2.902    0.206    0.420   88.688
  316.750    3.011    0.116    0.357   82.012
  317.000    3.067    0.081    0.383   81.408
  317.250    3.182    0.078    0.389   92.951
  317.500    3.364    0.104    0.431  100.850
  317.750    3.426    0.176    0.484  106.318
  318.000    3.554    0.209    0.471  109.966
  318.250    3.618    0.206    0.455  107.542
  318.500    3.617    0.196    0.464  105.723
  318.750    3.823    0.185    0.469  106.941
  319.000    3.893    0.170    0.474  106.338
  319.250    4.038    0.161    0.476  108.771
  319.500    4.036    0.161    0.404  108.169
  319.750    3.958    0.182    0.389  103.314
  320.000    3.810    0.201    0.379  100.281
  320.250    3.668    0.204    0.401  103.322
  320.500    3.400    0.197    0.420  105.754
  320.750    3.335    0.195    0.428  106.972
  321.000    3.210    0.197    0.415  106.369
  321.250    3.268    0.193    0.410  109.410
  321.500    3.455    0.191    0.421  110.628
  321.750    3.518    0.188    0.439  115.491
  322.000    3.583    0.187    0.449  107.599
  322.250    3.788    0.179    0.471  110.033
  322.500    3.857    0.174    0.444  114.895
  322.750    3.926    0.170    0.426  120.365
  323.000    3.999    0.172    0.425  119.760
  323.250    3.996    0.188    0.410  110.656
  323.500    3.993    0.194    0.419  110.659
  323.750    3.916    0.196    0.454  108.234
  324.000    3.840    0.188    0.448  112.490
  324.250    3.839    0.182    0.461  115.529
  324.500    3.982    0.181    0.423  115.533
  324.750    4.371    0.188    0.411  103.998
  325.000    4.890    0.213    0.401   82.748
  325.250    7.248    0.265    0.565   72.428
  325.500   10.742    0.443    0.477   66.966
  325.750   15.625    0.449    0.318   62.718
  326.000   23.160    0.391    0.231   65.760
  326.250   29.539    0.354    0.191   68.799
  326.500   33.031    0.329    0.176   74.270
  326.750   34.279    0.302    0.191   76.095
  327.000   34.893    0.278    0.198   77.920
  327.250   34.877    0.263    0.204   75.496
  327.500   34.200    0.285    0.208   74.285
  327.750   32.919    0.320    0.208   74.288
  328.000   32.291    0.331    0.218   76.115
  328.250   30.501    0.327    0.225   76.725
  328.500   28.274    0.317    0.236   77.943
  328.750   25.723    0.311    0.227   78.554
  329.000   24.302    0.312    0.222   78.559
  329.250   21.697    0.315    0.214   76.741
  329.500   19.741    0.291    0.232   76.137
  329.750   17.630    0.240    0.243   78.570
  330.000   14.876    0.189    0.265   85.255
  330.250   13.535    0.155    0.297   88.901
  330.500   12.550    0.139    0.330   92.549
  330.750   11.201    0.192    0.358   94.983
  331.000   10.582    0.202    0.341   99.237
  331.250   10.185    0.203    0.336  102.277
  331.500   10.180    0.203    0.333   98.030
  331.750   10.364    0.209    0.344   93.177
  332.000   10.554    0.214    0.351   90.751
  332.250   10.749    0.224    0.355   93.791
  332.500   10.741    0.228    0.353   97.438
  332.750   10.535    0.230    0.347  102.302
  333.000    9.765    0.210    0.344  104.735
  333.250    9.224    0.206    0.341  104.738
  333.500    9.392    0.198    0.337  100.490
  333.750    9.387    0.219    0.331   97.458
  334.000    8.541    0.238    0.320   95.640
  334.250    7.207    0.257    0.337  105.361
  334.500    6.199    0.279    0.364  110.222
  334.750    5.640    0.209    0.411  121.158
  335.000    5.327    0.185    0.421  126.020
  335.250    5.126    0.168    0.413  117.522
  335.500    5.124    0.150    0.403  112.060
  335.750    5.025    0.144    0.392  110.242
  336.000    5.117    0.139    0.388  114.499
  336.250    5.019    0.147    0.397  115.716
  336.500    4.923    0.156    0.407  112.684
  336.750    4.826    0.162    0.400  112.079
  337.000    4.734    0.165    0.411  119.979
  337.250    4.643    0.160    0.406  123.018
  337.500    4.640    0.156    0.386  114.521
  337.750    4.815    0.161    0.373  109.666
  338.000    5.384    0.163    0.383  105.419
  338.250    5.801    0.162    0.401   97.528
  338.500    6.864    0.176    0.413   87.208
  338.750   10.171    0.198    0.400   64.742
  339.000   12.499    0.216    0.376   38.632
  339.250   17.180    0.233    0.353   32.564
  339.500   18.508    0.248    0.357   30.746
  339.750   19.935    0.262    0.363   32.571
  340.000   19.928    0.272    0.374   33.183
  340.250   20.286    0.276    0.362   30.151
  340.500   19.899    0.271    0.329   28.333
  340.750   19.509    0.266    0.314   33.196
  341.000   19.500    0.259    0.315   34.413
  341.250   19.125    0.272    0.324   34.417
  341.500   18.070    0.286    0.343   38.065
  341.750   17.069    0.294    0.340   42.928
  342.000   15.239    0.289    0.319   59.328
  342.250   13.352    0.272    0.300   72.692
  342.500   12.614    0.244    0.337   85.450
  342.750   11.475    0.210    0.363   95.169
  343.000   11.048    0.179    0.381  109.140
  343.250   10.242    0.149    0.352  114.003
  343.500    9.145    0.100    0.314  104.290
  343.750    8.165    0.065    0.303   98.221
  344.000    7.291    0.074    0.322  100.654
  344.250    6.270    0.106    0.342  110.376
  344.500    5.597    0.134    0.348  115.237
  344.750    5.092    0.150    0.368  117.671
  345.000    4.902    0.158    0.404  117.675
  345.250    4.631    0.161    0.423  118.892
  345.500    4.542    0.164    0.428  123.755
  345.750    4.802    0.168    0.424  126.187
  346.000    5.472    0.166    0.432  126.798
  346.250    6.236    0.164    0.442  121.338
  346.500    8.259    0.190    0.441  115.267
  346.750   11.144    0.208    0.418  101.304
  347.000   14.480    0.232    0.369   95.843
  347.250   16.197    0.259    0.358   97.061
  347.500   15.587    0.283    0.350   98.279
  347.750   15.005    0.300    0.343   97.675
  348.000   13.910    0.292    0.350   95.250
  348.250   12.894    0.278    0.358  101.328
  348.500   12.183    0.260    0.377  103.760
  348.750   11.292    0.239    0.382  101.943
  349.000   11.077    0.233    0.381   95.875
  349.250   11.493    0.229    0.385   91.626
  349.500   11.918    0.227    0.367   84.343
  349.750   12.369    0.224    0.353   77.666
  350.000   12.837    0.208    0.334   70.384
  350.250   13.319    0.191    0.303   66.136
  350.500   13.560    0.168    0.289   75.856
  350.750   13.049    0.149    0.294   84.971
  351.000   12.562    0.225    0.343   92.870
  351.250   11.866    0.250    0.371   95.910
  351.500   11.423    0.244    0.385   99.558
  351.750   10.391    0.220    0.355  101.382
  352.000    9.632    0.208    0.340  104.422
  352.250    9.273    0.197    0.329  109.285
  352.500    8.758    0.198    0.351  110.503
  352.750    8.590    0.202    0.372  108.686
  353.000    8.424    0.197    0.386  102.617
  353.250    8.580    0.203    0.393   97.155
  353.500    8.736    0.216    0.411   96.550
  353.750    8.897    0.229    0.422  105.666
  354.000    9.055    0.245    0.415  106.275
  354.250    9.221    0.250    0.422  108.101
  354.500    9.046    0.246    0.437  103.247
  354.750    9.039    0.245    0.441   96.570
  355.000    8.864    0.245    0.420   92.323
  355.250    8.695    0.251    0.402   95.363
  355.500    8.526    0.255    0.394   94.760
  355.750    8.208    0.250    0.416  100.838
  356.000    7.901    0.234    0.435   96.591
  356.250    7.603    0.229    0.432   94.772
  356.500    7.458    0.225    0.435   92.953
  356.750    7.592    0.225    0.454   91.136
  357.000    7.732    0.214    0.452   91.749
  357.250    7.728    0.211    0.465   92.358
  357.500    8.016    0.207    0.480   94.184
  357.750    8.164    0.223    0.499   96.617
  358.000    8.468    0.230    0.473  103.910
  358.250    8.624    0.241    0.433  106.342
