~VERSION INFORMATION
 VERS.                 2.0:   CWLS LOG ASCII STANDARD -VERSION 2.0
 WRAP.                  NO:   ONE LINE PER DEPTH STEP
~WELL INFORMATION BLOCK
#MNEM.UNIT           DATA                    DESCRIPTION OF MNEMONIC
#---------    -------------------            -------------------------------
# Generated from Intellog Unique Number	CN_91_93/WELL/3193
WELL.         PARAMOUNT RESOURCES LTD.       : Well_name    - WELL
LOC .         00/06-02-092-19W4/0            : Location     - LOCATION
UWI .         00/06-02-092-19W4/0            : Uwi          - UNIQUE WELL ID
ENTR.         JOETTE                         : Entered      - ENTERED BY
SRVC.         COMPUTALOG                     : Scn          - SERVICE COMPANY
DATE.         04/14/92                       : Date         - LOG DATE
STRT.M        100                            : top_depth    - START DEPTH
STOP.M        267                            : bot_depth    - STOP DEPTH
STEP.M        0.25                           : increment    - STEP LENGTH
 NULL. -999.2500:NULL Value
~CURVE INFORMATION BLOCK
#MNEM UNIT       ERCB CURVE CODE    CURVE DESCRIPTION
#-----------   ------------------   ----------------------------------
DEPT.M        00 001 00 00         : DEPTH        - DEPTH
CALI.MM       00 280 01 00         : CAL          - CALIPER
GR  .API      00 310 00 00         : GR           - GAMMA RAY
NPHI.V/V      00 330 00 00         : PHIN         - NEUTRON POROSITY (SANDSTONE)
DPHI.V/V      00 890 00 00         : PHID         - DENSITY POROSITY (SANDSTONE)
ILD .OHMM     00 120 00 00         : RESD         - DEEP RESISTIVITY (DIL)
~PARAMETER INFORMATION
#MNEM.UNIT           DATA             DESCRIPTION OF MNEMONIC
#---------         -----------     ------------------------------
GL  .M        527.02               : gl           - GROUND LEVEL ELEVATION
EREF.M        530.82               : kb           - ELEVATION OF DEPTH REFERENCE
DATM.M        530.82               : datum        - DATUM ELEVATION
TDD .M        267.5                : tdd          - TOTAL DEPTH DRILLER
RUN .         ONE                  : Run          - RUN NUMBER
ENG .         JO                   : Engineer     - RECORDING ENGINEER
WIT .         TIM                  : Witness      - WITNESSED BY
MUD .         GEL                  : Mud_type     - MUD TYPE
MATR.         SANDSTONE            : Logunit      - NEUTRON MATRIX
TMAX.C        22                   : BHT          - MAXIMUM RECORDED TEMPERATURE
BHTD.M        267.5                : BHTDEP       - MAXIMUM RECORDED TEMPERATURE
RMT .C        11.1                 : MDTP         - TEMPERATURE OF MUD
MUDD.KG/M     1130                 : MWT          - MUD DENSITY
NEUT.         1                    : NEUTRON      - NEUTRON TYPE
RESI.         0                    : RESIST       - RESISTIVITY TYPE
RM  .OHMM     1.8                  : RM           - RESISTIVITY OF MUD
RMC .OHMM     1.8                  : RMC          - RESISTIVITY OF MUD CAKE
RMF .OHMM     5                    : RMF          - RESISTIVITY OF MUD FILTRATE
SUFT.C        4                    : SUFT         - SURFACE TEMPERATURE
~A  DEPTH      CAL       GR     PHIN     PHID     RESD
  100.000  206.292   72.865    0.488    0.274    9.554
  100.250  224.871   69.800    0.480    0.294    9.740
  100.500  244.467   61.803    0.481    0.307   10.942
  100.750  263.034   53.813    0.492    0.323   12.782
  101.000  278.514   55.069    0.491    0.347   14.643
  101.250  268.272   66.209    0.448    0.289   15.823
  101.500  242.598   79.818    0.431    0.259   14.922
  101.750  228.241   85.403    0.553    0.247   12.280
  102.000  226.242   95.932    0.588    0.244   10.106
  102.250  230.404  100.906    0.593    0.258    8.156
  102.500  233.526  100.317    0.552    0.285    7.544
  102.750  222.256   99.118    0.415    0.311    6.453
  103.000  215.113   98.515    0.454    0.304    6.452
  103.250  211.033   96.081    0.504    0.293    6.450
  103.500  210.051   92.398    0.529    0.293    6.324
  103.750  215.242   92.426    0.562    0.298    6.322
  104.000  221.463   92.462    0.578    0.289    7.384
  104.250  227.695   90.631    0.580    0.281    8.297
  104.500  219.499   79.547    0.569    0.287    9.505
  104.750  209.258   69.081    0.532    0.245   10.888
  105.000  199.016   61.084    0.535    0.217   11.767
  105.250  188.775   60.495    0.512    0.229   13.479
  105.500  184.706   66.087    0.431    0.295   15.442
  105.750  173.436   69.812    0.434    0.347   18.036
  106.000  169.368   76.013    0.426    0.307   16.361
  106.250  177.646   87.785    0.450    0.262   13.464
  106.500  189.022   89.034    0.468    0.227   11.520
  106.750  193.185   92.156    0.489    0.159   10.248
  107.000  201.463   92.184    0.522    0.191    8.939
  107.250  207.695   98.385    0.556    0.214    8.268
  107.500  211.858  102.118    0.515    0.232    7.949
  107.750  213.962  101.529    0.533    0.241    7.948
  108.000  216.067  105.268    0.556    0.243    7.643
  108.250  218.172  104.679    0.521    0.250    7.207
  108.500  216.162  102.238    0.428    0.249    6.930
  108.750  212.082  103.501    0.439    0.245    6.928
  109.000  215.227  107.843    0.518    0.239    7.062
  109.250  220.407  106.651    0.519    0.242    7.199
  109.500  223.552  104.203    0.501    0.245    7.196
  109.750  222.571  102.379    0.482    0.247    7.055
  110.000  221.589   99.931    0.435    0.237    6.918
  110.250  225.751   96.263    0.436    0.231    6.915
  110.500  224.770   96.901    0.478    0.242    6.913
  110.750  215.545  100.633    0.476    0.253    7.471
  111.000  206.344  103.131    0.447    0.258    7.917
  111.250  206.391   99.455    0.460    0.146    8.390
  111.500  213.641   93.928    0.480    0.141    8.388
  111.750  220.890   90.252    0.475    0.157    8.551
  112.000  227.110   92.757    0.437    0.197    7.908
  112.250  229.227   99.583    0.440    0.213    7.605
  112.500  225.159  103.308    0.387    0.240    7.033
  112.750  229.321  106.430    0.497    0.244    7.031
  113.000  229.357  102.747    0.487    0.260    7.029
  113.250  221.173   97.837    0.493    0.252    7.026
  113.500  217.104  100.959    0.493    0.233    7.163
  113.750  226.411  102.839    0.488    0.238    7.022
  114.000  230.574  104.719    0.483    0.247    6.753
  114.250  230.621  107.217    0.419    0.253    6.368
  114.500  227.582  108.480    0.440    0.252    6.619
  114.750  227.641  106.032    0.471    0.240    7.582
  115.000  227.676   99.269    0.486    0.217    8.519
  115.250  227.723   90.655    0.484    0.194    9.206
  115.500  226.753   85.127    0.420    0.183    8.851
  115.750  222.685   83.928    0.395    0.200    8.511
  116.000  219.634   90.740    0.434    0.220    7.720
  116.250  219.693   98.793    0.453    0.241    6.867
  116.500  217.682  106.847    0.460    0.252    6.351
  116.750  207.429  114.297    0.491    0.257    6.227
  117.000  199.245  115.560    0.500    0.240    6.348
  117.250  199.292  116.823    0.485    0.228    6.994
  117.500  205.524  114.992    0.460    0.224    7.558
  117.750  210.716   98.970    0.460    0.225    7.556
  118.000  216.936   89.732    0.514    0.159    6.988
  118.250  229.341   89.760    0.523    0.124    6.216
  118.500  227.331  100.290    0.382    0.143    5.639
  118.750  226.349  107.726    0.440    0.151    5.114
  119.000  226.396  111.458    0.598    0.270    4.730
  119.250  225.414  115.815    0.627    0.293    4.916
  119.500  207.959  118.305    0.646    0.292    5.971
  119.750  194.643  122.044    0.501    0.274    8.149
  120.000  194.690  102.311    0.503    0.248   10.491
  120.250  200.910   81.351    0.530    0.214   13.507
  120.500  203.015   65.939    0.547    0.233   16.403
  120.750  199.975   59.177    0.544    0.284   19.921
  121.000  206.184   54.266    0.499    0.333   22.819
  121.250  214.462   52.443    0.460    0.348   21.942
  121.500  223.781   55.557    0.413    0.344   20.690
  121.750  228.984   61.149    0.373    0.329   20.289
  122.000  230.060   63.646    0.387    0.322   20.680
  122.250  230.119   65.527    0.417    0.321   21.918
  122.500  228.085   71.111    0.433    0.328   22.780
  122.750  223.000   76.085    0.451    0.329   22.775
  123.000  216.862   73.637    0.418    0.166   24.135
  123.250  209.707   66.874    0.261    0.087   24.127
  123.500  211.812   64.433    0.259    0.062   23.657
  123.750  205.686   68.166    0.313    0.113   21.880
  124.000  204.704   68.811    0.418    0.239   19.845
  124.250  209.895   62.056    0.377    0.314   19.839
  124.500  214.058   64.546    0.361    0.293   20.224
  124.750  202.788   65.192    0.359    0.285   21.431
  125.000  197.690   60.282    0.427    0.305   21.846
  125.250  195.691   59.693    0.479    0.328   19.816
  125.500  200.883   72.685    0.481    0.323   16.628
  125.750  207.103   89.388    0.433    0.295   14.792
  126.000  211.254  106.708    0.459    0.264    9.452
  126.250  212.330   99.939    0.494    0.258    9.088
  126.500  213.406   77.744    0.518    0.271   10.211
  126.750  216.540   70.378    0.500    0.295   11.251
  127.000  220.726   71.017    0.477    0.305   12.890
  127.250  222.843   69.803    0.498    0.293   15.055
  127.500  221.837   58.102    0.498    0.292   16.590
  127.750  212.637   51.340    0.501    0.302   19.005
  128.000  210.626   51.986    0.493    0.307   22.197
  128.250  209.644   53.873    0.477    0.302   23.527
  128.500  208.663   53.894    0.426    0.314   24.454
  128.750  204.606   53.305    0.386    0.325   22.180
  129.000  202.572   61.359    0.419    0.324   19.351
  129.250  199.532   71.264    0.495    0.244   16.882
  129.500  203.707   79.325    0.488    0.168   15.311
  129.750  208.886   78.729    0.337    0.104   15.307
  130.000  219.222   73.201    0.225    0.060   15.008
  130.250  220.310   67.063    0.225    0.103   14.153
  130.500  220.357   70.788    0.451    0.231   14.711
  130.750  223.491   67.113    0.474    0.300   18.217
  131.000  226.613   56.029    0.428    0.310   21.279
  131.250  226.684   56.675    0.442    0.312   23.905
  131.500  225.678   59.172    0.447    0.323   23.898
  131.750  225.726   59.215    0.453    0.317   23.429
  132.000  228.859   58.612    0.466    0.274   21.670
  132.250  229.947   58.647    0.425    0.268   19.275
  132.500  227.948   61.762    0.371    0.281   18.536
  132.750  226.967   67.963    0.391    0.303   17.823
  133.000  227.014   65.522    0.409    0.229   17.818
  133.250  227.061   52.580    0.425    0.178   18.882
  133.500  222.992   55.084    0.396    0.206   17.808
  133.750  218.912   61.903    0.393    0.271   15.841
  134.000  217.931   69.957    0.371    0.319   13.292
  134.250  217.978   78.010    0.437    0.311   11.596
  134.500  216.996   88.533    0.453    0.300   11.151
  134.750  214.985   92.272    0.463    0.294   10.515
  135.000  220.189   94.770    0.446    0.301   10.111
  135.250  224.351   97.267    0.464    0.301    9.351
  135.500  226.456  102.234    0.505    0.296    8.318
  135.750  225.474  109.060    0.541    0.288    7.693
  136.000  223.464  114.020    0.513    0.283    7.115
  136.250  220.424  120.839    0.457    0.270    6.709
