~VERSION INFORMATION
 VERS.                 2.0:   CWLS LOG ASCII STANDARD -VERSION 2.0
 WRAP.                  NO:   ONE LINE PER DEPTH STEP
~WELL INFORMATION BLOCK
#MNEM.UNIT           DATA                    DESCRIPTION OF MNEMONIC
#---------    -------------------            -------------------------------
# Generated from Intellog Unique Number	CS_69_70/WELL/812
WELL.         CANADIAN WORLDWIDE ENERGY      : Well_name    - WELL
LOC .         00/07-06-069-09W4/0            : Location     - LOCATION
UWI .         00/07-06-069-09W4/0            : Uwi          - UNIQUE WELL ID
ENTR.         SP                             : Entered      - ENTERED BY
SRVC.         SCHLUMBERGER                   : Scn          - SERVICE COMPANY
STRT.M        475                            : top_depth    - START DEPTH
STOP.M        685                            : bot_depth    - STOP DEPTH
STEP.M        0.25                           : increment    - STEP LENGTH
 NULL. -999.2500:NULL Value
~CURVE INFORMATION BLOCK
#MNEM UNIT       ERCB CURVE CODE    CURVE DESCRIPTION
#-----------   ------------------   ----------------------------------
DEPT.M        00 001 00 00         : DEPTH        - DEPTH
ILD .OHMM     00 120 00 00         : RESD         - DEEP RESISTIVITY (DIL)
DPHI.V/V      00 890 00 00         : PHID         - DENSITY POROSITY (LIMESTONE)
NPHI.V/V      00 330 00 00         : PHIN         - NEUTRON POROSITY (LIMESTONE)
GR  .API      00 310 00 00         : GR           - GAMMA RAY
~PARAMETER INFORMATION
#MNEM.UNIT           DATA             DESCRIPTION OF MNEMONIC
#---------         -----------     ------------------------------
GL  .M        785.99               : gl           - GROUND LEVEL ELEVATION
EREF.M        789.09               : kb           - ELEVATION OF DEPTH REFERENCE
DATM.M        785.99               : datum        - DATUM ELEVATION
TDD .M        680                  : tdd          - TOTAL DEPTH DRILLER
RUN .         ONE                  : Run          - RUN NUMBER
ENG .         BILL                 : Engineer     - RECORDING ENGINEER
WIT .         JIM                  : Witness      - WITNESSED BY
MUD .         GEL                  : Mud_type     - MUD TYPE
MATR.         LIMESTONE            : Logunit      - NEUTRON MATRIX
TMAX.C        25                   : BHT          - MAXIMUM RECORDED TEMPERATURE
BHTD.M        680                  : BHTDEP       - MAXIMUM RECORDED TEMPERATURE
MATR.         1                    : LOGUNIT      - NEUTRON MATRIX
RMT .C        25                   : MDTP         - TEMPERATURE OF MUD
NEUT.         1                    : NEUTRON      - NEUTRON TYPE
RESI.         0                    : RESIST       - RESISTIVITY TYPE
RMC .OHMM     0.25                 : RMC          - RESISTIVITY OF MUD CAKE
RMF .OHMM     0.25                 : RMF          - RESISTIVITY OF MUD FILTRATE
SUFT.C        15                   : SUFT         - SURFACE TEMPERATURE
~A  DEPTH     RESD     PHID     PHIN       GR
# ...
  605.500    5.406    0.022    0.223   62.699
  605.750    5.063    0.057    0.307   77.418
  606.000    4.689    0.180    0.365   91.344
  606.250    4.485    0.231    0.421  100.567
  606.500    4.355    0.239    0.479  106.248
  606.750    4.237    0.218    0.469  107.165
  607.000    4.130    0.225    0.456  103.317
  607.250    4.055    0.235    0.450   98.982
  607.500    4.013    0.237    0.437   94.524
  607.750    3.986    0.233    0.409   92.265
  608.000    3.951    0.225    0.388  102.709
  608.250    3.984    0.212    0.407  111.199
  608.500    4.026    0.205    0.425  113.216
  608.750    4.067    0.195    0.440   97.092
  609.000    4.063    0.179    0.416   82.863
  609.250    3.930    0.195    0.388   74.496
  609.500    3.709    0.229    0.415   82.253
  609.750    3.521    0.243    0.419  100.210
  610.000    3.471    0.224    0.421  101.921
  610.250    3.480    0.223    0.424   96.852
  610.500    3.510    0.217    0.417   93.555
  610.750    3.552    0.221    0.428   90.807
  611.000    3.542    0.234    0.435   88.365
  611.250    3.498    0.236    0.427   85.800
  611.500    3.442    0.225    0.418   79.938
  611.750    3.380    0.219    0.406   78.717
  612.000    3.339    0.213    0.394   91.482
  612.250    3.267    0.233    0.385   96.735
  612.500    3.189    0.247    0.440   99.851
  612.750    2.031    0.236    0.486  100.767
  613.000    1.899    0.250    0.511  100.340
  613.250    1.875    0.259    0.525   96.738
  613.500    1.870    0.250    0.524   94.173
  613.750    1.889    0.250    0.525  100.953
  614.000    1.923    0.253    0.519  105.351
  614.250    1.954    0.255    0.509  102.970
  614.500    1.982    0.249    0.501  101.566
  614.750    2.041    0.240    0.518  102.177
  615.000    2.109    0.233    0.542  100.468
  615.250    2.247    0.249    0.528   92.407
  615.500    2.439    0.248    0.445   90.453
  615.750    2.673    0.239    0.434   92.286
  616.000    3.065    0.232    0.446   91.859
  616.250    3.469    0.232    0.454   95.280
  616.500    3.695    0.229    0.445   97.662
  616.750    4.073    0.220    0.428   94.731
  617.000    4.372    0.188    0.405   91.190
  617.250    4.622    0.146    0.390   88.076
  617.500    4.924    0.133    0.409   85.816
  617.750    5.166    0.146    0.401   83.985
  618.000    5.170    0.081    0.355   89.604
  618.250    4.936    0.082    0.311   97.056
  618.500    4.615    0.181    0.334  100.111
  618.750    4.123    0.194    0.386  103.470
  619.000    3.468    0.192    0.432  107.074
  619.250    2.972    0.197    0.472  111.595
  619.500    2.513    0.203    0.498  113.855
  619.750    2.146    0.210    0.513  111.168
  620.000    2.151    0.215    0.505  110.314
  620.250    2.253    0.220    0.500  111.597
  620.500    2.387    0.223    0.482  111.537
  620.750    2.467    0.214    0.469  110.438
  621.000    2.451    0.205    0.466  108.912
  621.250    2.415    0.199    0.461  111.172
  621.500    2.368    0.220    0.471  114.043
  621.750    2.312    0.215    0.493  118.503
  622.000    2.271    0.205    0.520  120.824
  622.250    2.260    0.206    0.527  117.588
  622.500    2.258    0.215    0.533  115.756
  622.750    2.255    0.214    0.517  115.940
  623.000    2.252    0.213    0.517  115.269
  623.250    2.284    0.222    0.535  113.865
  623.500    2.438    0.235    0.526  109.651
  623.750    2.987    0.234    0.497  100.613
  624.000    3.537    0.229    0.447   93.834
  624.250    4.142    0.224    0.407   87.055
  624.500    4.643    0.214    0.383   83.086
  624.750    5.147    0.198    0.386   87.484
  625.000    5.663    0.186    0.389   88.645
  625.250    5.941    0.187    0.380   82.661
  625.500    6.389    0.157    0.357   75.149
  625.750    6.704    0.146    0.329   68.615
  626.000    6.902    0.226    0.337   69.165
  626.250    7.013    0.259    0.350   73.502
  626.500    6.471    0.280    0.371   74.419
  626.750    6.073    0.268    0.388   73.809
  627.000    6.159    0.248    0.395   73.565
  627.250    6.048    0.237    0.389   73.810
  627.500    5.332    0.214    0.327   72.467
  627.750    4.605    0.102    0.313   76.315
  628.000    3.807    0.126    0.329   84.867
  628.250    3.408    0.181    0.369   92.257
  628.500    3.284    0.206    0.437   99.343
  628.750    3.545    0.210    0.471  100.748
  629.000    3.982    0.222    0.475   95.313
  629.250    4.523    0.239    0.418   90.977
  629.500    5.081    0.250    0.389   91.833
  629.750    5.600    0.251    0.363   97.941
  630.000    6.022    0.226    0.359  106.676
  630.250    6.165    0.208    0.379  113.456
  630.500    5.699    0.269    0.237   92.691
  630.750    4.650    0.366    0.215   76.629
  631.000    3.737    0.381    0.193   81.454
  631.250    2.881    0.340    0.203   99.106
  631.500    2.588    0.311    0.253  106.374
  631.750    2.586    0.293    0.326   85.304
  632.000    2.642    0.295    0.336   67.715
  632.250    2.736    0.303    0.340   51.470
  632.500    2.822    0.305    0.341   44.996
  632.750    2.956    0.301    0.338   41.516
  633.000    3.137    0.299    0.333   44.692
  633.250    3.464    0.301    0.334   65.153
  633.500    3.825    0.302    0.335   88.423
  633.750    4.462    0.301    0.334  105.891
  634.000    4.927    0.290    0.367  118.046
  634.250    5.229    0.266    0.406  118.169
  634.500    5.174    0.240    0.435  121.590
  634.750    5.033    0.243    0.456  126.904
  635.000    5.352    0.240    0.479  128.981
  635.250    5.723    0.249    0.414  111.514
  635.500    6.016    0.242    0.370   98.933
  635.750    6.507    0.183    0.363   89.712
  636.000    6.800    0.102    0.364   89.529
  636.250    7.150    0.071    0.344   94.904
  636.500    7.461    0.119    0.347   98.386
  636.750    7.566    0.199    0.360   93.623
  637.000    7.600    0.236    0.362   90.631
  637.250    7.591    0.264    0.385   88.616
  637.500    7.512    0.273    0.386   87.884
  637.750    7.322    0.270    0.375   83.121
  638.000    7.123    0.257    0.356   77.442
  638.250    6.890    0.238    0.317   70.174
  638.500    6.564    0.223    0.294   72.496
  638.750    6.243    0.209    0.287   84.223
  639.000    6.005    0.203    0.307   90.697
  639.250    5.863    0.196    0.307   98.516
  639.500    5.835    0.190    0.301  109.876
  639.750    5.840    0.189    0.338  115.435
  640.000    5.855    0.201    0.357  118.550
  640.250    5.827    0.187    0.371  115.680
  640.500    5.755    0.187    0.351   98.275
  640.750    5.685    0.216    0.320   84.045
  641.000    5.572    0.226    0.306   84.656
  641.250    5.451    0.191    0.298   86.856
  641.500    5.313    0.176    0.302   76.840
  641.750    5.159    0.224    0.324   67.802
  642.000    4.962    0.258    0.340   58.213
  642.250    4.764    0.287    0.350   46.854
  642.500    4.696    0.305    0.339   56.993
  642.750    4.655    0.254    0.323   72.202
  643.000    4.830    0.230    0.314   82.890
  643.250    5.077    0.223    0.327   89.915
  643.500    5.367    0.212    0.335   96.695
  643.750    5.579    0.190    0.376  104.391
  644.000    5.563    0.143    0.406  111.293
  644.250    5.371    0.085    0.423  119.539
  644.500    5.060    0.112    0.436  126.074
  644.750    4.802    0.142    0.476  126.808
  645.000    4.456    0.129    0.483  129.007
  645.250    4.351    0.116    0.480  134.138
  645.500    4.396    0.132    0.497  135.544
  645.750    4.501    0.155    0.464  128.398
  646.000    4.556    0.181    0.403  115.268
  646.250    4.415    0.205    0.352  104.947
  646.500    4.081    0.204    0.339   93.221
  646.750    3.809    0.238    0.367   75.693
  647.000    3.805    0.280    0.383   67.204
  647.250    3.880    0.298    0.371   68.976
  647.500    3.973    0.296    0.357   72.397
  647.750    4.059    0.264    0.360   78.505
  648.000    4.172    0.257    0.368   82.537
  648.250    4.263    0.255    0.355   84.859
  648.500    4.414    0.248    0.354   88.463
  648.750    4.650    0.232    0.362   94.571
