~VERSION INFORMATION
 VERS.                 2.0:   CWLS LOG ASCII STANDARD -VERSION 2.0
 WRAP.                  NO:   ONE LINE PER DEPTH STEP
~WELL INFORMATION BLOCK
#MNEM.UNIT           DATA                    DESCRIPTION OF MNEMONIC
#---------    -------------------            -------------------------------
# Generated from Intellog Unique Number	CS_71_72/WELL/772
WELL.         KIRBY                          : Well_name    - WELL
LOC .         00/06-20-071-05W4/0            : Location     - LOCATION
UWI .         00/06-20-071-05W4/0            : Uwi          - UNIQUE WELL ID
ENTR.         SP                             : Entered      - ENTERED BY
SRVC.         SCHLUMBERGER                   : Scn          - SERVICE COMPANY
STRT.M        310                            : top_depth    - START DEPTH
STOP.M        555                            : bot_depth    - STOP DEPTH
STEP.M        0.25                           : increment    - STEP LENGTH
 NULL. -999.2500:NULL Value
~CURVE INFORMATION BLOCK
#MNEM UNIT       ERCB CURVE CODE    CURVE DESCRIPTION
#-----------   ------------------   ----------------------------------
DEPT.M        00 001 00 00         : DEPTH        - DEPTH
ILD .OHMM     00 120 00 00         : RESD         - DEEP RESISTIVITY (DIL)
DPHI.V/V      00 890 00 00         : PHID         - DENSITY POROSITY (LIMESTONE)
NPHI.V/V      00 330 00 00         : PHIN         - NEUTRON POROSITY (LIMESTONE)
GR  .API      00 310 00 00         : GR           - GAMMA RAY
~PARAMETER INFORMATION
#MNEM.UNIT           DATA             DESCRIPTION OF MNEMONIC
#---------         -----------     ------------------------------
GL  .M        678.2                : gl           - GROUND LEVEL ELEVATION
EREF.M        681.5                : kb           - ELEVATION OF DEPTH REFERENCE
DATM.M        678.2                : datum        - DATUM ELEVATION
TDD .M        555                  : tdd          - TOTAL DEPTH DRILLER
RUN .         ONE                  : Run          - RUN NUMBER
ENG .         BILL                 : Engineer     - RECORDING ENGINEER
WIT .         JIM                  : Witness      - WITNESSED BY
MUD .         GEL                  : Mud_type     - MUD TYPE
MATR.         LIMESTONE            : Logunit      - NEUTRON MATRIX
TMAX.C        20.5                 : BHT          - MAXIMUM RECORDED TEMPERATURE
BHTD.M        555                  : BHTDEP       - MAXIMUM RECORDED TEMPERATURE
MATR.         1                    : LOGUNIT      - NEUTRON MATRIX
RMT .C        25                   : MDTP         - TEMPERATURE OF MUD
NEUT.         1                    : NEUTRON      - NEUTRON TYPE
RESI.         0                    : RESIST       - RESISTIVITY TYPE
RMC .OHMM     0.25                 : RMC          - RESISTIVITY OF MUD CAKE
RMF .OHMM     0.25                 : RMF          - RESISTIVITY OF MUD FILTRATE
SUFT.C        15                   : SUFT         - SURFACE TEMPERATURE
~A  DEPTH     RESD     PHID     PHIN       GR
# ...
  353.500    8.950    0.253    0.437   88.567
  353.750    8.959    0.250    0.445   90.103
  354.000    9.017    0.273    0.458   80.935
  354.250    9.024    0.287    0.469   70.366
  354.500    9.084    0.304    0.474   62.960
  354.750    9.159    0.316    0.455   58.052
  355.000    9.218    0.323    0.434   56.852
  355.250    9.175    0.309    0.419   57.050
  355.500    8.995    0.309    0.394   57.979
  355.750    8.449    0.309    0.410   60.003
  356.000    7.922    0.290    0.391   68.171
  356.250    7.581    0.262    0.376   80.781
  356.500    7.377    0.240    0.369   90.653
  356.750    7.206    0.227    0.403   95.356
  357.000    6.935    0.221    0.435   97.623
  357.250    6.600    0.218    0.436   99.283
  357.500    6.363    0.217    0.427  100.516
  357.750    6.217    0.219    0.438  100.046
  358.000    6.164    0.225    0.490   98.723
  358.250    6.191    0.223    0.493   97.036
  358.500    6.256    0.230    0.485   95.958
  358.750    6.391    0.237    0.476   95.184
  359.000    6.504    0.238    0.481   94.592
  359.250    6.620    0.242    0.470   93.027
  359.500    6.930    0.240    0.462   90.002
  359.750    7.295    0.233    0.473   93.669
  360.000    7.679    0.250    0.478   94.172
  360.250    7.948    0.268    0.457   87.618
  360.500    8.121    0.285    0.446   83.985
  360.750    8.265    0.293    0.434   84.550
  361.000    8.319    0.291    0.415   85.722
  361.250    8.373    0.282    0.409   86.469
  361.500    8.522    0.276    0.412   85.696
  361.750    8.838    0.269    0.420   82.791
  362.000    9.030    0.265    0.427   79.523
  362.250    9.036    0.264    0.436   76.680
  362.500    8.780    0.271    0.446   78.219
  362.750    8.576    0.264    0.435   84.136
  363.000    8.378    0.242    0.420   87.316
  363.250    8.414    0.219    0.415   86.299
  363.500    8.874    0.231    0.436   79.319
  363.750   10.411    0.255    0.446   73.313
  364.000   13.893    0.272    0.451   69.740
  364.250   18.541    0.242    0.455   63.978
  364.500   23.003    0.161    0.290   52.376
  364.750   25.043    0.084    0.237   46.916
  365.000   20.833    0.016    0.204   43.770
  365.250   16.202    0.009    0.177   43.300
  365.500   13.008    0.022    0.233   43.925
  365.750    9.819    0.073    0.328   47.655
  366.000    8.559    0.210    0.397   51.749
  366.250    7.950    0.263    0.421   54.378
  366.500    7.808    0.296    0.417   56.646
  366.750    7.757    0.290    0.407   57.575
  367.000    7.764    0.298    0.415   57.227
  367.250    7.785    0.313    0.421   58.766
  367.500    7.777    0.322    0.425   63.164
  367.750    7.683    0.316    0.429   65.490
  368.000    7.561    0.307    0.436   67.210
  368.250    7.611    0.303    0.445   66.801
  368.500    8.072    0.307    0.459   62.802
  368.750    8.902    0.318    0.473   58.015
  369.000   11.086    0.327    0.462   54.744
  369.250   13.450    0.336    0.445   49.777
  369.500   14.807    0.263    0.224   46.811
  369.750   14.277    0.041    0.167   44.392
  370.000   12.329    0.003    0.135   42.097
  370.250   10.908    0.009    0.163   47.407
  370.500    9.508    0.047    0.327   55.942
  370.750    8.210    0.163    0.358   60.825
  371.000    7.223    0.279    0.382   63.151
  371.250    6.622    0.291    0.406   64.021
  371.500    6.445    0.288    0.420   59.354
  371.750    6.379    0.300    0.427   52.620
  372.000    6.349    0.316    0.425   49.957
  372.250    6.341    0.326    0.420   52.590
  372.500    6.311    0.323    0.417   55.648
  372.750    6.281    0.313    0.414   58.709
  373.000    6.276    0.304    0.415   61.895
  373.250    6.271    0.306    0.417   63.551
  373.500    6.252    0.312    0.409   63.380
  373.750    6.211    0.316    0.408   64.007
  374.000    6.169    0.319    0.415   66.397
  374.250    6.094    0.324    0.428   68.546
  374.500    6.260    0.317    0.438   68.802
  374.750    6.127    0.311    0.441   68.088
  375.000    5.952    0.306    0.432   66.888
  375.250    5.891    0.308    0.428   66.357
  375.500    5.929    0.322    0.426   65.825
  375.750    6.046    0.329    0.429   65.660
  376.000    6.189    0.311    0.422   67.501
  376.250    6.275    0.304    0.417   66.484
  376.500    6.400    0.300    0.413   66.563
  376.750    6.381    0.300    0.413   68.951
  377.000    6.233    0.297    0.426   68.968
  377.250    5.998    0.292    0.435   67.161
  377.500    5.772    0.288    0.444   66.873
  377.750    5.494    0.293    0.456   66.162
  378.000    5.397    0.305    0.472   63.072
  378.250    5.350    0.318    0.459   57.858
  378.500    5.417    0.330    0.433   56.415
  378.750    5.512    0.331    0.423   56.554
  379.000    5.570    0.323    0.443   57.424
  379.250    5.543    0.317    0.459   57.866
  379.500    5.395    0.318    0.451   58.432
  379.750    5.152    0.334    0.441   58.995
  380.000    4.812    0.337    0.464   58.646
  380.250    4.520    0.337    0.478   56.897
  380.500    4.262    0.338    0.478   56.182
  380.750    4.147    0.320    0.452   62.466
  381.000    4.043    0.301    0.425   68.204
  381.250    3.899    0.286    0.438   69.739
  381.500    3.787    0.289    0.462   71.094
  381.750    3.686    0.292    0.468   68.373
  382.000    3.553    0.296    0.456   64.313
  382.250    3.458    0.299    0.451   59.769
  382.500    3.341    0.300    0.454   55.957
  382.750    3.464    0.297    0.441   53.843
  383.000    3.500    0.296    0.427   53.005
  383.250    3.569    0.301    0.406   56.672
  383.500    3.667    0.298    0.393   60.157
  383.750    3.795    0.288    0.382   62.728
  384.000    3.914    0.280    0.402   66.216
  384.250    3.917    0.273    0.415   70.614
  384.500    3.672    0.267    0.401   73.612
  384.750    3.348    0.258    0.389   74.900
  385.000    3.074    0.252    0.389   76.073
  385.250    2.835    0.268    0.422   67.877
  385.500    2.687    0.292    0.438   53.902
  385.750    2.586    0.316    0.413   43.941
  386.000    2.489    0.331    0.387   40.066
  386.250    2.417    0.334    0.379   40.266
  386.500    2.358    0.335    0.396   42.837
  386.750    2.351    0.334    0.406   43.947
  387.000    2.339    0.338    0.397   43.173
  387.250    2.360    0.342    0.391   44.471
  387.500    2.357    0.344    0.398   45.215
  387.750    2.363    0.336    0.411   45.900
  388.000    2.366    0.339    0.418   44.153
  388.250    2.367    0.347    0.420   44.595
  388.500    2.378    0.348    0.403   50.640
  388.750    2.381    0.345    0.390   52.172
  389.000    2.373    0.344    0.397   52.432
  389.250    2.371    0.345    0.423   48.558
  389.500    2.342    0.348    0.430   46.263
  389.750    2.319    0.352    0.414   44.698
  390.000    2.320    0.351    0.406   44.106
  390.250    2.330    0.350    0.402   45.341
  390.500    2.390    0.355    0.402   46.632
  390.750    2.469    0.353    0.404   48.052
  391.000    2.599    0.335    0.403   48.857
  391.250    2.752    0.325    0.406   49.118
  391.500    2.805    0.317    0.417   48.646
  391.750    2.808    0.315    0.424   47.323
  392.000    2.764    0.321    0.423   44.788
  392.250    2.745    0.327    0.427   44.559
  392.500    2.669    0.325    0.423   46.583
  392.750    2.729    0.324    0.438   49.343
  393.000    2.696    0.326    0.460   49.599
  393.250    2.704    0.332    0.462   47.728
  393.500    2.716    0.336    0.438   49.572
  393.750    2.739    0.322    0.412   51.656
  394.000    2.798    0.312    0.403   52.950
  394.250    2.859    0.306    0.421   52.540
  394.500    2.920    0.318    0.434   51.281
  394.750    2.978    0.320    0.432   51.357
  395.000    2.947    0.316    0.416   55.086
  395.250    3.108    0.319    0.423   57.717
  395.500    3.248    0.332    0.450   58.039
  395.750    3.343    0.341    0.476   53.675
  396.000    3.434    0.329    0.440   56.125
  396.250    3.542    0.299    0.404   61.378
  396.500    3.659    0.273    0.400   66.077
  396.750    3.795    0.254    0.419   70.471
