~VERSION INFORMATION
 VERS.                 2.0:   CWLS LOG ASCII STANDARD -VERSION 2.0
 WRAP.                  NO:   ONE LINE PER DEPTH STEP
~WELL INFORMATION BLOCK
#MNEM.UNIT           DATA                    DESCRIPTION OF MNEMONIC
#---------    -------------------            -------------------------------
# Generated from Intellog Unique Number	CS_67_68/WELL/2172
WELL.         MANNVILLE ET AL ATMORE         : Well_name    - WELL
LOC .         00/06-31-067-15W4/0            : Location     - LOCATION
UWI .         00/06-31-067-15W4/0            : Uwi          - UNIQUE WELL ID
ENTR.         SP                             : Entered      - ENTERED BY
SRVC.         SCHLUMBERGER                   : Scn          - SERVICE COMPANY
STRT.M        359.664                        : top_depth    - START DEPTH
STOP.M        536.914                        : bot_depth    - STOP DEPTH
STEP.M        0.25                           : increment    - STEP LENGTH
 NULL. -999.2500:NULL Value
~CURVE INFORMATION BLOCK
#MNEM UNIT       ERCB CURVE CODE    CURVE DESCRIPTION
#-----------   ------------------   ----------------------------------
DEPT.M        00 001 00 00         : DEPTH        - DEPTH
CALI.MM       00 280 01 00         : CAL          - CALIPER
GR  .API      00 310 00 00         : GR           - GAMMA RAY
DPHI.V/V      00 890 00 00         : PHID         - DENSITY POROSITY (SANDSTONE)
NPHI.V/V      00 330 00 00         : PHIN         - NEUTRON POROSITY (SANDSTONE)
ILD .OHMM     00 120 00 00         : RESD         - DEEP RESISTIVITY (DIL)
~PARAMETER INFORMATION
#MNEM.UNIT           DATA             DESCRIPTION OF MNEMONIC
#---------         -----------     ------------------------------
GL  .M        606.095              : gl           - GROUND LEVEL ELEVATION
EREF.M        607.162              : kb           - ELEVATION OF DEPTH REFERENCE
DATM.M        607.162              : datum        - DATUM ELEVATION
TDD .M        539.496              : tdd          - TOTAL DEPTH DRILLER
RUN .         ONE                  : Run          - RUN NUMBER
ENG .         BILL                 : Engineer     - RECORDING ENGINEER
WIT .         JIM                  : Witness      - WITNESSED BY
MUD .         GEL                  : Mud_type     - MUD TYPE
MATR.         SANDSTONE            : Logunit      - NEUTRON MATRIX
TMAX.C        17.7778              : BHT          - MAXIMUM RECORDED TEMPERATURE
BHTD.M        539.496              : BHTDEP       - MAXIMUM RECORDED TEMPERATURE
MATR.         1                    : LOGUNIT      - NEUTRON MATRIX
RMT .C        25                   : MDTP         - TEMPERATURE OF MUD
NEUT.         1                    : NEUTRON      - NEUTRON TYPE
RESI.         0                    : RESIST       - RESISTIVITY TYPE
RMC .OHMM     0.25                 : RMC          - RESISTIVITY OF MUD CAKE
RMF .OHMM     0.25                 : RMF          - RESISTIVITY OF MUD FILTRATE
SUFT.C        15                   : SUFT         - SURFACE TEMPERATURE
~A  DEPTH      CAL       GR     PHID     PHIN     RESD
# ...
  469.164  160.348   70.963    0.265    0.429    2.038
  469.414  161.574   70.932    0.262    0.415    2.096
  469.664  163.263   69.932    0.243    0.401    2.280
  469.914  163.718   69.528    0.218    0.374    2.573
  470.164  163.795   69.767    0.191    0.338    2.962
  470.414  162.228   72.179    0.182    0.335    3.322
  470.664  160.448   76.039    0.194    0.358    3.599
  470.914  159.474   79.648    0.162    0.379    3.773
  471.164  160.946   82.311    0.221    0.402    3.796
  471.414  163.419   84.048    0.258    0.413    3.427
  471.664  164.807   86.181    0.276    0.423    3.056
  471.914  164.792   88.536    0.260    0.431    2.838
  472.164  164.495   91.331    0.247    0.433    2.633
  472.414  164.573   93.243    0.237    0.435    2.467
  472.664  164.902   95.087    0.227    0.434    2.432
  472.914  165.631   96.665    0.184    0.431    2.539
  473.164  166.283   98.192    0.172    0.431    2.700
  473.414  166.971  100.393    0.161    0.436    2.924
  473.664  167.184  102.576    0.152    0.438    3.074
  473.914  167.830  105.293    0.144    0.445    3.175
  474.164  168.091  109.011    0.158    0.455    3.322
  474.414  168.047  112.758    0.175    0.445    3.490
  474.664  167.835  116.069    0.177    0.434    3.631
  474.914  167.121  117.542    0.168    0.431    3.738
  475.164  166.334  114.012    0.177    0.444    3.805
  475.414  165.603  113.689    0.181    0.449    3.872
  475.664  165.411  113.780    0.169    0.447    3.894
  475.914  165.381  112.995    0.149    0.436    3.913
  476.164  165.461  112.814    0.137    0.428    3.923
  476.414  165.142  113.902    0.151    0.431    3.926
  476.664  165.336  113.614    0.168    0.442    3.911
  476.914  166.308  112.332    0.181    0.451    3.908
  477.164  167.854  115.074    0.189    0.456    3.884
  477.414  169.259  118.361    0.180    0.451    3.808
  477.664  171.469  120.889    0.170    0.466    3.669
  477.914  175.438  123.458    0.192    0.490    3.472
  478.164  176.635  125.100    0.206    0.509    3.314
  478.414  176.531  122.999    0.206    0.506    3.169
  478.664  177.355  118.469    0.217    0.517    2.972
  478.914  179.127  120.854    0.221    0.523    2.824
  479.164  180.938  122.928    0.209    0.521    2.699
  479.414  182.300  124.843    0.202    0.511    2.584
  479.664  182.734  125.537    0.198    0.521    2.507
  479.914  182.739  124.797    0.210    0.532    2.449
  480.164  182.114  122.789    0.199    0.519    2.428
  480.414  181.837  121.574    0.201    0.511    2.428
  480.664  183.357  121.636    0.204    0.510    2.458
  480.914  181.999  121.887    0.205    0.506    2.485
  481.164  175.564  121.468    0.193    0.501    2.602
  481.414  171.527  119.888    0.179    0.474    2.790
  481.664  169.550  118.391    0.172    0.445    3.029
  481.914  168.562  120.725    0.176    0.428    3.202
  482.164  168.184  121.872    0.178    0.445    3.293
  482.414  167.997  121.604    0.176    0.457    3.322
  482.664  167.506  117.405    0.174    0.450    3.317
  482.914  166.529  112.814    0.176    0.436    3.330
  483.164  165.843  109.417    0.184    0.425    3.401
  483.414  165.221  107.052    0.191    0.422    3.587
  483.664  164.232  104.744    0.200    0.421    3.774
  483.914  164.076  102.433    0.202    0.415    3.955
  484.164  164.135  100.916    0.169    0.408    4.092
  484.414  165.095  102.980    0.129    0.402    4.192
  484.664  166.471  106.390    0.131    0.396    4.290
  484.914  168.294  108.905    0.126    0.402    4.421
  485.164  169.225  107.390    0.138    0.412    4.547
  485.414  169.245  101.248    0.108    0.406    4.737
  485.664  168.764   95.061    0.071    0.383    5.085
  485.914  168.953   91.481    0.054    0.344    5.610
  486.164  169.135   89.191    0.099    0.316    6.172
  486.414  169.368   93.609    0.134    0.390    6.486
  486.664  169.238   97.217    0.166    0.422    6.514
  486.914  168.718   99.040    0.183    0.433    6.100
  487.164  167.266   99.916    0.172    0.423    5.679
  487.414  166.108  100.595    0.158    0.420    5.225
  487.664  165.299  101.027    0.152    0.418    4.952
  487.914  164.961  101.727    0.157    0.418    4.725
  488.164  165.705  103.094    0.165    0.418    4.523
  488.414  166.790  105.182    0.165    0.416    4.438
  488.664  167.832  107.048    0.158    0.411    4.351
  488.914  168.110  107.931    0.154    0.404    4.343
  489.164  166.648  108.250    0.156    0.399    4.349
  489.414  165.018  108.667    0.151    0.396    4.357
  489.664  164.805  108.901    0.144    0.402    4.360
  489.914  164.770  109.388    0.139    0.407    4.354
  490.164  165.036  110.059    0.137    0.401    4.353
  490.414  165.439  110.601    0.155    0.404    4.328
  490.664  165.931  110.825    0.163    0.409    4.325
  490.914  166.171  110.481    0.167    0.407    4.283
  491.164  166.518  109.615    0.172    0.400    4.264
  491.414  166.417  108.675    0.182    0.392    4.254
  491.664  166.437  107.672    0.189    0.393    4.276
  491.914  166.582  107.163    0.174    0.396    4.322
  492.164  164.721  106.752    0.162    0.410    4.330
  492.414  160.943  107.901    0.153    0.422    4.327
  492.664  160.037  106.184    0.144    0.428    4.346
  492.914  160.834  107.290    0.137    0.428    4.371
  493.164  162.383  108.682    0.140    0.426    4.391
  493.414  164.179  108.771    0.144    0.435    4.433
  493.664  165.918  107.058    0.137    0.441    4.463
  493.914  166.794  109.484    0.129    0.438    4.513
  494.164  166.473  111.618    0.138    0.434    4.543
  494.414  165.740  113.401    0.149    0.429    4.561
  494.664  164.529  113.344    0.171    0.422    4.564
  494.914  163.377  111.094    0.165    0.414    4.611
  495.164  162.474  109.515    0.160    0.404    4.647
  495.414  161.901  108.132    0.164    0.393    4.655
  495.664  161.867  109.381    0.158    0.386    4.655
  495.914  161.843  112.653    0.164    0.388    4.654
  496.164  162.438  114.343    0.160    0.391    4.662
  496.414  163.069  114.088    0.158    0.392    4.682
  496.664  163.997  113.036    0.156    0.396    4.462
  496.914  165.071  112.015    0.151    0.408    3.997
  497.164  166.680  111.386    0.150    0.412    3.510
  497.414  168.350  109.489    0.163    0.417    3.060
  497.664  169.947  107.674    0.170    0.431    2.723
  497.914  171.988  108.741    0.190    0.442    2.478
  498.164  176.046  109.382    0.214    0.469    2.263
  498.414  178.708  109.446    0.220    0.505    2.113
  498.664  180.110  109.535    0.215    0.541    2.053
  498.914  180.728  110.572    0.205    0.540    2.029
  499.164  181.218  111.636    0.197    0.530    2.024
  499.414  182.066  112.989    0.215    0.519    2.080
  499.664  183.212  112.920    0.229    0.503    2.148
  499.914  183.849  113.118    0.215    0.490    2.239
  500.164  182.903  113.148    0.196    0.501    2.405
  500.414  182.636  111.640    0.178    0.515    2.623
  500.664  181.554  109.805    0.166    0.514    2.860
  500.914  178.772  108.469    0.162    0.473    3.103
  501.164  173.359  108.370    0.151    0.434    3.381
  501.414  170.371  108.771    0.136    0.405    3.611
  501.664  167.154  109.233    0.154    0.405    3.735
  501.914  166.968  109.782    0.146    0.401    3.827
  502.164  167.896  109.803    0.132    0.393    3.830
  502.414  169.217  108.064    0.118    0.409    3.826
  502.664  170.958  107.269    0.104    0.428    3.809
  502.914  171.970  108.782    0.091    0.439    3.741
  503.164  173.588  111.547    0.102    0.442    3.676
  503.414  174.716  114.386    0.126    0.446    3.581
  503.664  175.721  117.403    0.130    0.454    3.399
  503.914  174.887  119.625    0.126    0.462    3.263
  504.164  172.279  121.583    0.133    0.452    3.164
  504.414  171.141  121.752    0.121    0.458    3.132
  504.664  170.971  119.387    0.103    0.462    3.088
  504.914  171.624  116.665    0.134    0.457    3.046
  505.164  172.571  116.734    0.141    0.457    2.986
  505.414  173.295  118.134    0.139    0.465    2.905
