~VERSION INFORMATION
 VERS.                 2.0:   CWLS LOG ASCII STANDARD -VERSION 2.0
 WRAP.                  NO:   ONE LINE PER DEPTH STEP
~WELL INFORMATION BLOCK
#MNEM.UNIT           DATA                    DESCRIPTION OF MNEMONIC
#---------    -------------------            -------------------------------
# Generated from Intellog Unique Number	CW_79_81/WELL/532
WELL.         HB AMOCO PELICAN               : Well_name    - WELL
LOC .         00/07-01-079-24W4/0            : Location     - LOCATION
UWI .         00/07-01-079-24W4/0            : Uwi          - UNIQUE WELL ID
ENTR.         MAX                            : Entered      - ENTERED BY
SRVC.         WESTERN ATLAS                  : Scn          - SERVICE COMPANY
STRT.M        304.8                          : top_depth    - START DEPTH
STOP.M        524.3                          : bot_depth    - STOP DEPTH
STEP.M        0.25                           : increment    - STEP LENGTH
 NULL. -999.2500:NULL Value
~CURVE INFORMATION BLOCK
#MNEM UNIT       ERCB CURVE CODE    CURVE DESCRIPTION
#-----------   ------------------   ----------------------------------
DEPT.M        00 001 00 00         : DEPTH        - DEPTH
ILD .OHMM     00 120 00 00         : RESD         - DEEP RESISTIVITY (DIL)
NPHI.V/V      00 330 00 00         : PHIN         - NEUTRON POROSITY (SANDSTONE)
DPHI.V/V      00 890 00 00         : PHID         - DENSITY POROSITY (SANDSTONE)
CALI.MM       00 280 01 00         : CAL          - CALIPER
GR  .API      00 310 00 00         : GR           - GAMMA RAY
~PARAMETER INFORMATION
#MNEM.UNIT           DATA             DESCRIPTION OF MNEMONIC
#---------         -----------     ------------------------------
GL  .M        583.387              : gl           - GROUND LEVEL ELEVATION
EREF.M        587.045              : kb           - ELEVATION OF DEPTH REFERENCE
DATM.M        583.387              : datum        - DATUM ELEVATION
TDD .M        484.937              : tdd          - TOTAL DEPTH DRILLER
RUN .         ONE                  : Run          - RUN NUMBER
ENG .         BILL                 : Engineer     - RECORDING ENGINEER
WIT .         JIM                  : Witness      - WITNESSED BY
MUD .         GEL                  : Mud_type     - MUD TYPE
MATR.         SANDSTONE            : Logunit      - NEUTRON MATRIX
TMAX.C        43.3333              : BHT          - MAXIMUM RECORDED TEMPERATURE
BHTD.M        484.937              : BHTDEP       - MAXIMUM RECORDED TEMPERATURE
RMT .C        20                   : MDTP         - TEMPERATURE OF MUD
MUDD.KG/M     9200                 : MWT          - MUD DENSITY
NEUT.         1                    : NEUTRON      - NEUTRON TYPE
RESI.         0                    : RESIST       - RESISTIVITY TYPE
RM  .OHMM     1.6                  : RM           - RESISTIVITY OF MUD
RMC .OHMM     0.25                 : RMC          - RESISTIVITY OF MUD CAKE
RMF .OHMM     1.6                  : RMF          - RESISTIVITY OF MUD FILTRATE
SUFT.C        -20.5556             : SUFT         - SURFACE TEMPERATURE
~A  DEPTH     RESD     PHIN     PHID      CAL       GR
# ...
  414.300   11.142    0.389    0.190  182.187   91.903
  414.550   11.041    0.381    0.194  183.169   93.089
  414.800   10.941    0.377    0.196  183.136   92.772
  415.050   10.842    0.388    0.199  183.103   95.158
  415.300   10.745    0.387    0.204  183.077   93.638
  415.550   10.647    0.395    0.198  182.542   91.217
  415.800   10.455    0.378    0.185  181.501   91.799
  416.050   10.173    0.357    0.178  180.459   94.188
  416.300   10.173    0.360    0.176  179.418   95.072
  416.550    9.990    0.362    0.176  179.389   95.059
  416.800    9.991    0.364    0.176  179.359   94.137
  417.050    9.992    0.374    0.176  179.828   92.922
  417.300    9.901    0.368    0.176  180.312   90.800
  417.550    9.993    0.357    0.176  180.785   91.085
  417.800    9.903    0.361    0.176  180.759   92.870
  418.050    9.724    0.368    0.172  180.722   93.755
  418.300    9.548    0.379    0.172  180.696   94.340
  418.550    9.376    0.379    0.172  180.667   94.326
  418.800    9.377    0.363    0.172  180.128   94.307
  419.050    9.463    0.365    0.170  179.596   94.291
  419.300    9.816    0.369    0.167  179.061   94.272
  419.550   10.089    0.376    0.167  178.020   94.258
  419.800   10.276    0.386    0.162  176.975   94.540
  420.050   10.277    0.395    0.160  176.436   95.425
  420.300   10.184    0.393    0.158  176.410   95.710
  420.550    9.730    0.385    0.149  176.373   95.090
  420.800    8.800    0.378    0.148  176.347   95.378
  421.050    8.181    0.387    0.143  176.322   95.961
  421.300    8.033    0.387    0.136  176.794   96.243
  421.550    8.033    0.384    0.136  176.768   96.228
  421.800    8.108    0.376    0.138  177.245   97.412
  422.050    8.108    0.368    0.139  177.721   98.899
  422.300    8.258    0.359    0.136  177.721   97.678
  422.550    8.645    0.345    0.130  177.658   96.459
  422.800    8.645    0.342    0.129  177.629   96.142
  423.050    8.886    0.339    0.131  177.596   96.129
  423.300    9.302    0.334    0.129  177.060   97.311
  423.550    9.388    0.337    0.123  177.031   99.403
  423.800    8.727    0.339    0.128  177.001   97.280
  424.050    8.112    0.345    0.151  176.976   98.464
  424.300    7.680    0.340    0.179  175.931  101.156
  424.550    7.473    0.350    0.206  173.874  102.643
  424.800    7.542    0.350    0.203  171.312  101.722
  425.050    7.823    0.361    0.189  170.279   99.002
  425.300    8.041    0.359    0.175  168.732   95.377
  425.550    8.041    0.366    0.161  168.699   92.949
  425.800    8.418    0.362    0.156  169.179   92.937
  426.050    9.393    0.361    0.151  170.663   90.816
  426.300   10.387    0.355    0.142  172.147   87.192
  426.550   12.132    0.370    0.139  173.639   83.567
  426.800   15.407    0.381    0.193  175.192   81.768
  427.050   16.915    0.374    0.234  175.274   87.795
  427.300   18.404    0.388    0.236  175.323   87.834
  427.550   18.944    0.396    0.233  175.388   82.482
  427.800   18.796    0.400    0.229  174.938   75.639
  428.050   17.812    0.384    0.234  174.513   75.972
  428.300   16.267    0.363    0.239  174.578   78.710
  428.550   14.854    0.358    0.223  174.136   81.444
  428.800   13.691    0.372    0.201  174.202   82.984
  429.050   13.214    0.375    0.149  173.752   87.809
  429.300   12.871    0.360    0.155  173.817   95.937
  429.550   12.657    0.337    0.148  174.397   98.974
  429.800   12.674    0.344    0.132  174.970   96.612
  430.050   12.687    0.344    0.109  175.043   89.764
  430.300   12.587    0.338    0.095  174.078   82.013
  430.550   12.263    0.337    0.130  173.636   81.457
  430.800   11.944    0.340    0.228  173.211   85.688
  431.050   11.011    0.357    0.227  172.769   83.630
  431.300   10.336    0.358    0.205  172.834   83.374
  431.550   10.352    0.353    0.188  172.891   84.910
  431.800   10.365    0.355    0.213  172.957   85.547
  432.050   10.282    0.367    0.199  173.030   84.692
  432.300   10.202    0.365    0.175  173.087   83.524
  432.550    9.846    0.358    0.190  173.169   81.167
  432.800    9.247    0.355    0.227  172.711   79.109
  433.050    9.089    0.358    0.181  172.277   77.356
  433.300    9.016    0.357    0.106  172.350   74.994
  433.550    8.785    0.332    0.092  172.416   72.642
  433.800    8.476    0.314    0.139  172.489   76.269
  434.050    7.260    0.321    0.165  172.546   80.809
  434.300    7.135    0.348    0.178  172.104   80.543
  434.550    7.081    0.349    0.178  171.663   81.789
  434.800    7.027    0.346    0.186  171.221   83.315
  435.050    6.843    0.347    0.192  170.779   86.049
  435.300    6.485    0.360    0.194  170.346   89.685
  435.550    5.977    0.371    0.194  169.904   88.531
  435.800    5.716    0.365    0.182  169.953   85.271
  436.050    5.722    0.360    0.174  170.034   81.417
  436.300    5.784    0.369    0.175  170.100   85.053
  436.550    5.952    0.376    0.177  170.165   84.198
  436.800    6.071    0.382    0.177  170.230   82.430
  437.050    6.082    0.378    0.176  170.287   80.977
  437.300    5.977    0.355    0.175  170.361   82.807
  437.550    5.665    0.352    0.171  169.968   87.037
  437.800    5.517    0.351    0.166  169.984   88.892
  438.050    5.276    0.356    0.158  169.551   89.525
  438.300    5.091    0.366    0.157  169.608   91.659
  438.550    4.870    0.364    0.154  169.681   92.586
  438.800    4.531    0.363    0.148  169.738   89.935
  439.050    4.292    0.361    0.146  169.305   89.374
  439.300    4.066    0.359    0.145  169.362   88.809
  439.550    3.925    0.361    0.153  168.421   87.660
  439.800    3.858    0.366    0.151  167.979   88.587
  440.050    3.900    0.378    0.152  167.537   92.822
  440.300    4.015    0.386    0.152  167.096   93.460
  440.550    4.288    0.388    0.151  166.662   93.798
  440.800    4.621    0.374    0.150  166.711   95.638
  441.050    5.073    0.364    0.149  166.286   97.473
  441.300    5.674    0.369    0.153  165.852   95.116
  441.550    6.894    0.375    0.160  165.410   95.154
  441.800    7.500    0.365    0.151  165.475   97.588
  442.050    8.009    0.357    0.148  165.524   96.135
  442.300    8.321    0.349    0.153  165.598   93.478
  442.550    8.321    0.353    0.162  165.655   94.116
  442.800    8.504    0.357    0.160  165.720   95.052
  443.050    8.591    0.353    0.157  165.287   94.193
  443.300    8.601    0.351    0.157  164.346   92.130
  443.550    8.615    0.350    0.153  163.397   90.672
  443.800    8.624    0.346    0.153  162.939   90.715
  444.050    8.556    0.341    0.149  162.522   89.855
  444.300    8.490    0.344    0.137  162.571   88.692
  444.550    8.345    0.359    0.135  162.652   90.527
  444.800    8.280    0.365    0.160  162.211   95.361
  445.050    8.216    0.366    0.162  162.259   96.298
  445.300    8.227    0.372    0.155  162.259   96.037
  445.550    8.471    0.357    0.152  162.423   93.086
  445.800    9.046    0.356    0.144  162.455   91.922
  446.050    9.750    0.381    0.148  162.537   93.462
  446.300   12.180    0.378    0.145  162.602   93.805
  446.550   12.654    0.383    0.140  163.681   92.037
  446.800   13.388    0.388    0.157  165.276   90.878
  447.050   14.701    0.385    0.172  166.846   90.617
  447.300   15.843    0.373    0.185  168.441   90.670
  447.550   17.554    0.353    0.193  169.021   90.699
  447.800   19.634    0.347    0.199  169.577   86.845
  448.050   21.758    0.343    0.189  169.135   85.097
  448.300   24.108    0.347    0.165  168.693   83.030
  448.550   24.585    0.329    0.038  168.268   78.273
  448.800   21.246    0.312    0.034  167.818   74.723
  449.050   15.701    0.284    0.086  167.393   76.862
  449.300   12.041    0.283    0.117  166.951   79.596
  449.550   11.407    0.317    0.150  166.509   83.821
  449.800   10.418    0.342    0.151  166.051   89.250
  450.050    9.874    0.348    0.151  165.609   92.891
  450.300    9.797    0.353    0.149  165.167   94.726
  450.550    9.797    0.362    0.148  164.726   96.556
