~VERSION INFORMATION
 VERS.                 2.0:   CWLS LOG ASCII STANDARD -VERSION 2.0
 WRAP.                  NO:   ONE LINE PER DEPTH STEP
~WELL INFORMATION BLOCK
#MNEM.UNIT           DATA                    DESCRIPTION OF MNEMONIC
#---------    -------------------            -------------------------------
# Generated from Intellog Unique Number	CS_71_72/WELL/769
WELL.         PEX PHILLIPS AEC GRIST         : Well_name    - WELL
LOC .         00/06-12-072-08W4/0            : Location     - LOCATION
UWI .         00/06-12-072-08W4/0            : Uwi          - UNIQUE WELL ID
ENTR.         SP                             : Entered      - ENTERED BY
SRVC.         SCHLUMBERGER                   : Scn          - SERVICE COMPANY
STRT.M        310                            : top_depth    - START DEPTH
STOP.M        535                            : bot_depth    - STOP DEPTH
STEP.M        0.25                           : increment    - STEP LENGTH
 NULL. -999.2500:NULL Value
~CURVE INFORMATION BLOCK
#MNEM UNIT       ERCB CURVE CODE    CURVE DESCRIPTION
#-----------   ------------------   ----------------------------------
DEPT.M        00 001 00 00         : DEPTH        - DEPTH
ILD .OHMM     00 120 00 00         : RESD         - DEEP RESISTIVITY (DIL)
DPHI.V/V      00 890 00 00         : PHID         - DENSITY POROSITY (LIMESTONE)
NPHI.V/V      00 330 00 00         : PHIN         - NEUTRON POROSITY (LIMESTONE)
GR  .API      00 310 00 00         : GR           - GAMMA RAY
~PARAMETER INFORMATION
#MNEM.UNIT           DATA             DESCRIPTION OF MNEMONIC
#---------         -----------     ------------------------------
GL  .M        675.8                : gl           - GROUND LEVEL ELEVATION
EREF.M        679.3                : kb           - ELEVATION OF DEPTH REFERENCE
DATM.M        675.8                : datum        - DATUM ELEVATION
TDD .M        544                  : tdd          - TOTAL DEPTH DRILLER
RUN .         ONE                  : Run          - RUN NUMBER
ENG .         BILL                 : Engineer     - RECORDING ENGINEER
WIT .         JIM                  : Witness      - WITNESSED BY
MUD .         GEL                  : Mud_type     - MUD TYPE
MATR.         LIMESTONE            : Logunit      - NEUTRON MATRIX
TMAX.C        22.5                 : BHT          - MAXIMUM RECORDED TEMPERATURE
BHTD.M        544                  : BHTDEP       - MAXIMUM RECORDED TEMPERATURE
MATR.         1                    : LOGUNIT      - NEUTRON MATRIX
RMT .C        25                   : MDTP         - TEMPERATURE OF MUD
NEUT.         1                    : NEUTRON      - NEUTRON TYPE
RESI.         0                    : RESIST       - RESISTIVITY TYPE
RMC .OHMM     0.25                 : RMC          - RESISTIVITY OF MUD CAKE
RMF .OHMM     0.25                 : RMF          - RESISTIVITY OF MUD FILTRATE
SUFT.C        15                   : SUFT         - SURFACE TEMPERATURE
~A  DEPTH     RESD     PHID     PHIN       GR
# ...
  397.000    2.331    0.266    0.540  100.625
  397.250    2.332    0.268    0.541  100.633
  397.500    2.378    0.269    0.557   98.814
  397.750    2.665    0.257    0.577   98.216
  398.000    2.768    0.247    0.591   97.612
  398.250    3.043    0.244    0.604   95.794
  398.500    3.540    0.263    0.615   93.970
  398.750    3.892    0.268    0.586   90.323
  399.000    4.197    0.267    0.574   89.109
  399.250    4.975    0.270    0.552   84.852
  399.500    5.266    0.279    0.515   82.420
  399.750    5.789    0.278    0.496   79.990
  400.000    6.015    0.273    0.482   80.002
  400.250    6.135    0.264    0.469   80.009
  400.500    6.025    0.261    0.456   79.407
  400.750    6.031    0.261    0.447   78.198
  401.000    6.149    0.258    0.463   80.036
  401.250    6.273    0.260    0.472   82.481
  401.500    6.276    0.269    0.447   78.836
  401.750    6.283    0.270    0.438   78.230
  402.000    6.288    0.263    0.443   78.240
  402.250    6.174    0.259    0.453   79.467
  402.500    6.066    0.260    0.451   77.038
  402.750    6.070    0.265    0.450   77.046
  403.000    6.077    0.263    0.467   81.325
  403.250    6.081    0.262    0.449   83.161
  403.500    6.199    0.264    0.446   80.731
  403.750    6.205    0.262    0.457   77.694
  404.000    6.209    0.258    0.462   77.090
  404.250    6.099    0.254    0.456   81.977
  404.500    5.770    0.257    0.462   84.424
  404.750    5.160    0.260    0.475   81.995
  405.000    4.614    0.265    0.470   82.003
  405.250    4.204    0.260    0.465   86.893
  405.500    3.831    0.257    0.471   88.728
  405.750    3.833    0.260    0.511   91.786
  406.000    4.295    0.260    0.590   89.967
  406.250    4.902    0.280    0.567   83.878
  406.500    5.388    0.307    0.547   77.789
  406.750    5.812    0.287    0.525   74.747
  407.000    6.637    0.277    0.504   72.927
  407.250    7.027    0.277    0.493   72.326
  407.500    7.301    0.289    0.488   72.945
  407.750    7.584    0.298    0.491   74.173
  408.000    7.589    0.309    0.490   73.571
  408.250    7.595    0.314    0.478   70.531
  408.500    7.606    0.305    0.468   72.981
  408.750    7.612    0.298    0.480   69.940
  409.000    7.616    0.293    0.486   67.510
  409.250    7.479    0.293    0.471   71.178
  409.500    7.487    0.288    0.463   76.066
  409.750    7.354    0.264    0.457   77.901
  410.000    7.089    0.251    0.444   79.740
  410.250    6.961    0.244    0.459   78.533
  410.500    6.836    0.243    0.467   79.148
  410.750    6.718    0.259    0.483   81.596
  411.000    6.850    0.284    0.490   84.045
  411.250    6.853    0.288    0.474   84.663
  411.500    7.123    0.249    0.465   83.453
  411.750    7.543    0.240    0.459   81.021
  412.000    7.836    0.251    0.474   78.591
  412.250    8.455    0.254    0.469   79.210
  412.500    9.122    0.211    0.459   79.220
  412.750    9.476    0.124    0.464   76.790
  413.000   10.225    0.097    0.442   73.141
  413.250   10.622    0.087    0.385   70.099
  413.500   10.834    0.093    0.317   68.887
  413.750    9.332    0.125    0.318   73.166
  414.000    8.190    0.167    0.436   76.832
  414.250    7.602    0.219    0.473   82.333
  414.500    6.800    0.228    0.489   84.169
  414.750    6.554    0.236    0.487   84.176
  415.000    6.436    0.240    0.479   82.965
  415.250    6.444    0.239    0.470   82.973
  415.500    6.448    0.231    0.460   85.424
  415.750    6.452    0.224    0.454   86.652
  416.000    6.337    0.212    0.458   86.659
  416.250    6.343    0.204    0.475   86.059
  416.500    6.230    0.214    0.485   85.457
  416.750    6.236    0.229    0.490   86.075
  417.000    6.126    0.230    0.494   86.695
  417.250    6.131    0.226    0.505   84.266
  417.500    6.021    0.235    0.510   83.663
  417.750    6.027    0.232    0.493   83.061
  418.000    5.919    0.216    0.486   85.511
  418.250    5.923    0.210    0.474   86.130
  418.500    5.816    0.240    0.482   85.530
  418.750    5.502    0.235    0.488   84.927
  419.000    4.740    0.219    0.492   84.328
  419.250    4.399    0.208    0.489   83.724
  419.500    3.719    0.227    0.478   83.125
  419.750    3.388    0.229    0.477   84.354
  420.000    3.205    0.244    0.514   86.191
  420.250    3.148    0.273    0.551   88.028
  420.500    3.153    0.280    0.584   87.427
  420.750    3.154    0.275    0.569   85.608
  421.000    3.278    0.258    0.546   86.834
  421.250    3.406    0.231    0.536   91.118
  421.500    3.473    0.242    0.544   92.344
  421.750    3.609    0.253    0.549   92.350
  422.000    3.821    0.264    0.543   92.359
  422.250    3.895    0.275    0.560   89.929
  422.500    4.125    0.279    0.542   86.890
  422.750    4.451    0.274    0.514   83.242
  423.000    4.625    0.252    0.487   82.636
  423.250    4.806    0.243    0.517   80.817
  423.500    4.808    0.258    0.501   79.605
  423.750    4.813    0.274    0.532   74.735
  424.000    4.639    0.285    0.526   69.258
  424.250    4.643    0.299    0.493   68.656
  424.500    4.648    0.302    0.477   71.714
  424.750    4.652    0.285    0.479   74.163
  425.000    4.654    0.281    0.483   74.170
  425.250    4.746    0.275    0.478   74.178
  425.500    5.025    0.270    0.488   72.971
  425.750    4.844    0.261    0.500   72.367
  426.000    4.670    0.255    0.488   71.158
  426.250    4.588    0.294    0.502   69.948
  426.500    4.590    0.317    0.522   68.734
  426.750    4.770    0.321    0.540   66.914
  427.000    5.050    0.324    0.550   65.095
  427.250    5.554    0.332    0.485   62.666
  427.500    5.770    0.333    0.473   59.626
  427.750    5.883    0.308    0.462   56.586
  428.000    6.112    0.263    0.369   54.153
  428.250    6.003    0.243    0.335   51.722
  428.500    5.896    0.211    0.372   52.950
  428.750    5.579    0.298    0.445   62.108
  429.000    5.480    0.327    0.492   66.384
  429.250    5.384    0.321    0.483   70.051
  429.500    5.287    0.295    0.465   71.888
  429.750    5.390    0.272    0.463   72.508
  430.000    5.497    0.252    0.479   69.469
  430.250    5.711    0.266    0.467   67.648
  430.500    6.163    0.273    0.457   74.975
  430.750    6.284    0.274    0.449   76.810
  431.000    6.290    0.287    0.462   70.115
  431.250    6.178    0.306    0.464   67.682
  431.500    6.185    0.289    0.452   70.741
  431.750    6.188    0.275    0.444   73.798
  432.000    6.192    0.278    0.452   74.416
  432.250    6.084    0.285    0.466   68.941
  432.500    6.089    0.283    0.475   67.727
  432.750    5.980    0.290    0.452   67.125
  433.000    5.984    0.294    0.441   68.353
  433.250    5.876    0.296    0.471   73.243
  433.500    5.560    0.281    0.452   75.691
  433.750    5.359    0.243    0.436   77.528
  434.000    5.072    0.237    0.428   76.927
  434.250    4.797    0.246    0.419   75.716
  434.500    4.538    0.258    0.465   72.677
  434.750    4.374    0.254    0.492   73.294
  435.000    4.216    0.242    0.499   80.010
  435.250    4.066    0.235    0.505   84.286
  435.500    3.992    0.236    0.496   83.078
  435.750    3.921    0.265    0.477   80.037
  436.000    3.779    0.278    0.465   76.996
  436.250    3.782    0.260    0.448   80.055
  436.500    4.004    0.247    0.538   81.891
  436.750    4.571    0.264    0.560   76.416
  437.000    5.121    0.282    0.549   72.763
  437.250    5.421    0.271    0.511   67.893
  437.500    5.741    0.270    0.492   67.294
  437.750    5.852    0.274    0.469   69.130
  438.000    6.082    0.274    0.459   72.188
  438.250    6.089    0.263    0.459   73.422
  438.500    6.091    0.258    0.451   73.429
  438.750    5.763    0.262    0.443   73.435
  439.000    5.451    0.257    0.433   73.442
  439.250    4.875    0.244    0.434   75.892
  439.500    4.199    0.232    0.525   77.729
  439.750    3.685    0.269    0.558   82.013
  440.000    3.174    0.291    0.581   83.849
  440.250    2.838    0.304    0.588   85.073
