~VERSION INFORMATION
 VERS.                 2.0:   CWLS LOG ASCII STANDARD -VERSION 2.0
 WRAP.                  NO:   ONE LINE PER DEPTH STEP
~WELL INFORMATION BLOCK
#MNEM.UNIT           DATA                    DESCRIPTION OF MNEMONIC
#---------    -------------------            -------------------------------
# Generated from Intellog Unique Number	CW_82_90/WELL/3055
WELL.         06-28-087-22W4                 : Well_name    - WELL
LOC .         00/06-28-087-22W4/0            : Location     - LOCATION
UWI .         00/06-28-087-22W4/0            : Uwi          - UNIQUE WELL ID
ENTR.         MAX                            : Entered      - ENTERED BY
SRVC.         SCHLUMBERGER                   : Scn          - SERVICE COMPANY
STRT.M        106.68                         : top_depth    - START DEPTH
STOP.M        303.68                         : bot_depth    - STOP DEPTH
STEP.M        0.25                           : increment    - STEP LENGTH
 NULL. -999.2500:NULL Value
~CURVE INFORMATION BLOCK
#MNEM UNIT       ERCB CURVE CODE    CURVE DESCRIPTION
#-----------   ------------------   ----------------------------------
DEPT.M        00 001 00 00         : DEPTH        - DEPTH
GR  .API      00 310 00 00         : GR           - GAMMA RAY
CALI.MM       00 280 01 00         : CAL          - CALIPER
DPHI.V/V      00 890 00 00         : PHID         - DENSITY POROSITY (SANDSTONE)
NPHI.V/V      00 330 00 00         : PHIN         - NEUTRON POROSITY (SANDSTONE)
ILD .OHMM     00 120 00 00         : RESD         - DEEP RESISTIVITY (DIL)
~PARAMETER INFORMATION
#MNEM.UNIT           DATA             DESCRIPTION OF MNEMONIC
#---------         -----------     ------------------------------
GL  .M        536.448              : gl           - GROUND LEVEL ELEVATION
EREF.M        539.801              : kb           - ELEVATION OF DEPTH REFERENCE
DATM.M        536.448              : datum        - DATUM ELEVATION
TDD .M        307.238              : tdd          - TOTAL DEPTH DRILLER
RUN .         ONE                  : Run          - RUN NUMBER
ENG .         BILL                 : Engineer     - RECORDING ENGINEER
WIT .         JIM                  : Witness      - WITNESSED BY
MUD .         GEL                  : Mud_type     - MUD TYPE
MATR.         SANDSTONE            : Logunit      - NEUTRON MATRIX
TMAX.C        20                   : BHT          - MAXIMUM RECORDED TEMPERATURE
BHTD.M        307.238              : BHTDEP       - MAXIMUM RECORDED TEMPERATURE
MATR.         1                    : LOGUNIT      - NEUTRON MATRIX
RMT .C        17.2222              : MDTP         - TEMPERATURE OF MUD
NEUT.         1                    : NEUTRON      - NEUTRON TYPE
RESI.         0                    : RESIST       - RESISTIVITY TYPE
RMC .OHMM     1.12                 : RMC          - RESISTIVITY OF MUD CAKE
RMF .OHMM     1.23                 : RMF          - RESISTIVITY OF MUD FILTRATE
SUFT.C        -15                  : SUFT         - SURFACE TEMPERATURE
~A  DEPTH       GR      CAL     PHID     PHIN     RESD
# ...
  143.180   38.553  232.295    0.333    0.442   49.152
  143.430   40.307  232.795    0.331    0.460   49.112
  143.680   42.061  232.803    0.330    0.483   48.185
  143.930   45.858  232.810    0.330    0.511   46.441
  144.180   52.572  233.805    0.329    0.544   21.255
  144.430   61.327  234.306    0.296    0.562   13.735
  144.680   65.418  233.820    0.272    0.547   10.644
  144.930   64.837  231.357    0.260    0.552    8.631
  145.180   63.091  232.352    0.252    0.556    7.665
  145.430   63.095  232.853    0.262    0.555    7.589
  145.680   56.098  232.861    0.295    0.532    8.303
  145.930   48.517  232.867    0.269    0.494    9.170
  146.180   45.897  232.381    0.242    0.406   10.596
  146.430   46.485  231.400    0.209    0.417   12.356
  146.680   48.531  230.421    0.183    0.465   15.491
  146.930   51.452  229.440    0.281    0.498   17.900
  147.180   56.415  229.446    0.274    0.501   20.128
  147.430   63.421  230.443    0.259    0.505   18.368
  147.680   68.968  230.944    0.242    0.490   13.978
  147.930   70.723  230.951    0.249    0.506   11.131
  148.180   71.895  230.957    0.263    0.534    9.975
  148.430   71.607  230.965    0.260    0.551    9.185
  148.680   71.028  230.972    0.260    0.571    8.457
  148.930   70.449  231.473    0.254    0.571    8.149
  149.180   69.578  231.482    0.256    0.563    7.998
  149.430   69.290  231.487    0.260    0.572    7.918
  149.680   70.462  231.495    0.262    0.569    7.841
  149.930   71.633  231.996    0.261    0.574    7.765
  150.180   69.886  232.991    0.256    0.559    7.759
  150.430   68.724  233.988    0.259    0.557    7.683
  150.680   68.144  233.993    0.262    0.557    7.818
  150.930   67.857  234.496    0.258    0.542    7.956
  151.180   66.403  234.502    0.265    0.513    8.244
  151.430   65.240  234.510    0.265    0.494    8.698
  151.680   62.328  234.518    0.263    0.518    9.093
  151.930   60.581  233.538    0.251    0.561    9.425
  152.180   58.835  232.555    0.229    0.573    9.767
  152.430   56.506  232.069    0.220    0.557   10.306
  152.680   51.259  231.583    0.223    0.558   10.875
  152.930   51.555  230.602    0.316    0.545   12.008
  153.180   60.602  230.116    0.292    0.532   14.388
  153.430   69.067  230.122    0.276    0.547   14.773
  153.680   75.489  231.611    0.262    0.567   13.120
  153.930   77.828  234.088    0.246    0.586    8.479
  154.180   72.580  234.096    0.244    0.571    5.189
  154.430   68.209  233.609    0.249    0.551    5.425
  154.680   67.047  233.123    0.261    0.544    6.680
  154.930   67.051  233.623    0.268    0.552    7.050
  155.180   67.055  233.632    0.272    0.564    7.644
  155.430   68.226  234.134    0.265    0.568    8.065
  155.680   70.856  234.139    0.247    0.571    8.133
  155.930   73.194  234.146    0.239    0.583    7.981
  156.180   74.074  234.154    0.231    0.589    7.416
  156.430   72.911  234.161    0.235    0.591    6.467
  156.680   69.706  234.170    0.271    0.577    5.538
  156.930   50.748  234.177    0.269    0.562    5.053
  157.180   38.792  234.677    0.268    0.513    5.142
  157.430   31.503  234.684    0.269    0.432    5.730
  157.680   29.173  234.198    0.299    0.443    7.056
  157.930   27.719  230.748    0.346    0.467    9.427
  158.180   26.849  229.766    0.346    0.480   13.302
  158.430   26.562  229.280    0.347    0.484   19.286
  158.680   26.565  229.783    0.352    0.488   33.840
  158.930   27.153  229.788    0.357    0.495   57.777
  159.180   28.325  230.290    0.359    0.502   56.179
  159.430   29.788  230.790    0.360    0.494   49.884
  159.680   30.667  230.798    0.351    0.483   45.937
  159.930   30.671  232.287    0.351    0.495   43.474
  160.180   30.675  232.788    0.359    0.506   41.131
  160.430   30.387  232.302    0.362    0.498   39.997
  160.680   29.809  231.814    0.362    0.507   39.607
  160.930   29.522  231.823    0.358    0.496   39.221
  161.180   29.234  232.323    0.361    0.480   39.185
  161.430   28.947  232.330    0.362    0.478   39.521
  161.680   28.659  232.338    0.363    0.504   40.212
  161.930   28.663  231.852    0.364    0.518   40.546
  162.180   28.959  230.872    0.358    0.534   40.890
  162.430   29.256  229.396    0.349    0.521   40.860
  162.680   29.259  228.414    0.341    0.506   40.462
  162.930   28.972  227.928    0.339    0.497   40.428
  163.180   28.393  226.948    0.328    0.505   40.395
  163.430   28.689  226.955    0.319    0.515   40.366
  163.680   30.152  227.456    0.318    0.495   40.337
  163.930   30.740  227.959    0.324    0.476   39.947
  164.180   30.453  227.470    0.339    0.484   40.275
  164.430   30.456  226.984    0.354    0.476   40.609
  164.680   30.460  226.496    0.356    0.492   40.583
  164.930   30.465  226.012    0.346    0.505   40.550
  165.180   30.178  226.017    0.349    0.513   40.517
  165.430   29.890  225.530    0.363    0.530   40.488
  165.680   28.145  225.538    0.352    0.509   40.462
  165.930   27.857  226.535    0.342    0.467   40.801
  166.180   28.736  228.022    0.343    0.474   40.772
  166.430   30.199  230.499    0.354    0.495   41.110
  166.680   31.663  229.520    0.352    0.512   41.833
  166.930   32.250  229.526    0.353    0.495   42.184
  167.180   31.962  229.534    0.353    0.482   43.313
  167.430   31.966  231.024    0.349    0.462   44.079
  167.680   31.387  232.018    0.343    0.447   44.449
  167.930   30.225  233.014    0.336    0.445   44.822
  168.180   30.229  234.503    0.327    0.422   45.602
  168.430   30.233  235.499    0.286    0.374   46.404
  168.680   28.780  235.013    0.241    0.340   48.961
  168.930   27.617  227.115    0.005    0.133   51.207
  169.180   26.454  227.617    0.005    0.107   56.544
  169.430   25.583  228.612    0.006    0.111   70.887
  169.680   25.588  228.618    0.006    0.122   85.722
  169.930   26.467  228.132    0.020    0.161  106.525
  170.180   27.930  227.647    0.160    0.241  136.017
  170.430   29.977  227.653    0.212    0.306  191.915
  170.680   30.855  227.660    0.259    0.359  179.951
  170.930   31.443  227.669    0.300    0.431  148.607
  171.180   31.740  227.674    0.348    0.495  104.201
  171.430   31.743  227.682    0.348    0.496   80.759
  171.680   32.039  227.690    0.345    0.482   44.725
  171.930   32.920  227.697    0.342    0.483   38.294
  172.180   33.215  227.705    0.351    0.478   36.568
  172.430   33.803  228.205    0.355    0.503   35.559
  172.680   33.807  228.212    0.359    0.498   35.215
  172.930   34.103  228.714    0.355    0.493   34.238
  173.180   34.983  229.709    0.347    0.494   33.601
  173.430   37.320  229.716    0.352    0.507   33.573
  173.680   42.576  229.724    0.347    0.507   33.243
  173.930   47.248  230.224    0.333    0.526   31.741
  174.180   52.211  230.725    0.316    0.544   30.593
  174.430   58.050  231.227    0.286    0.554   29.480
  174.680   57.471  231.234    0.207    0.515   27.892
  174.930   55.141  231.241    0.166    0.529   23.888
  175.180   56.896  231.249    0.236    0.558   15.297
  175.430   68.278  231.750    0.249    0.569   11.537
  175.680   75.867  235.215    0.198    0.563    9.021
  175.930   87.540  237.692    0.221    0.556    6.927
  176.180   89.295  239.181    0.225    0.549    6.208
  176.430   89.300  240.670    0.235    0.565    5.034
  176.680   88.720  241.667    0.241    0.576    4.272
  176.930   88.141  241.673    0.235    0.596    3.933
  177.180   87.562  241.680    0.226    0.599    3.790
  177.430   86.982  241.193    0.224    0.599    3.753
  177.680   83.778  240.707    0.219    0.599    3.785
  177.930   78.240  241.208    0.230    0.597    3.851
  178.180   76.785  241.709    0.246    0.593    3.918
  178.430   79.998  242.210    0.249    0.599    3.951
  178.680   82.045  242.712    0.237    0.599    3.949
  178.930   79.716  243.214    0.244    0.599    3.945
  179.180   75.344  243.220    0.245    0.582    3.978
  179.430   73.015  243.227    0.244    0.561    4.085
