~VERSION INFORMATION
 VERS.                 2.0:   CWLS LOG ASCII STANDARD -VERSION 2.0
 WRAP.                  NO:   ONE LINE PER DEPTH STEP
~WELL INFORMATION BLOCK
#MNEM.UNIT           DATA                    DESCRIPTION OF MNEMONIC
#---------    -------------------            -------------------------------
# Generated from Intellog Unique Number	CW_76_78/WELL/198
WELL.         GAO GERO MCMULLEN 06-24        : Well_name    - WELL
LOC .         00/06-24-077-01W5/0            : Location     - LOCATION
UWI .         00/06-24-077-01W5/0            : Uwi          - UNIQUE WELL ID
ENTR.         JJ                             : Entered      - ENTERED BY
SRVC.         WESTERN ATLAS                  : Scn          - SERVICE COMPANY
DATE.         12 FEB 71                      : Date         - LOG DATE
STRT.M        497.434                        : top_depth    - START DEPTH
STOP.M        624.934                        : bot_depth    - STOP DEPTH
STEP.M        0.25                           : increment    - STEP LENGTH
 NULL. -999.2500:NULL Value
~CURVE INFORMATION BLOCK
#MNEM UNIT       ERCB CURVE CODE    CURVE DESCRIPTION
#-----------   ------------------   ----------------------------------
DEPT.M        00 001 00 00         : DEPTH        - DEPTH
DELT.US/F     00 520 00 00         : DELT         - SONIC TRAVEL TIME
GR  .API      00 310 00 00         : GR           - GAMMA RAY
CALI.MM       00 280 01 00         : CAL          - CALIPER
ILD .OHMM     00 120 00 00         : RESD         - DEEP RESISTIVITY (DIL)
~PARAMETER INFORMATION
#MNEM.UNIT           DATA             DESCRIPTION OF MNEMONIC
#---------         -----------     ------------------------------
GL  .M        680.618              : gl           - GROUND LEVEL ELEVATION
EREF.M        683.362              : kb           - ELEVATION OF DEPTH REFERENCE
DATM.M        680.618              : datum        - DATUM ELEVATION
TDD .M        637.032              : tdd          - TOTAL DEPTH DRILLER
RUN .         ONE                  : Run          - RUN NUMBER
ENG .         GILEY                : Engineer     - RECORDING ENGINEER
WIT .         MCARTHUR             : Witness      - WITNESSED BY
MUD .         GEL                  : Mud_type     - MUD TYPE
MATR.         SANDSTONE            : Logunit      - NEUTRON MATRIX
TMAX.C        22.2222              : BHT          - MAXIMUM RECORDED TEMPERATURE
BHTD.M        636.422              : BHTDEP       - MAXIMUM RECORDED TEMPERATURE
RMT .C        17.7778              : MDTP         - TEMPERATURE OF MUD
MUDD.KG/M     1152                 : MWT          - MUD DENSITY
NEUT.         1                    : NEUTRON      - NEUTRON TYPE
RESI.         0                    : RESIST       - RESISTIVITY TYPE
RM  .OHMM     3                    : RM           - RESISTIVITY OF MUD
RMC .OHMM     0                    : RMC          - RESISTIVITY OF MUD CAKE
RMF .OHMM     2.8                  : RMF          - RESISTIVITY OF MUD FILTRATE
SUFT.C        5                    : SUFT         - SURFACE TEMPERATURE
~A  DEPTH     DELT       GR      CAL     RESD
# ...
  540.934  322.345   73.498  210.758    9.842
  541.184  323.375   74.523  211.592    8.796
  541.434  368.322   80.988  211.712    8.048
  541.684  393.519   81.967  211.934    7.670
  541.934  397.926   80.207  212.769    7.298
  542.184  376.279   79.287  212.889    7.039
  542.434  369.578   80.444  213.217    6.687
  542.684  378.989   82.751  213.640    6.351
  542.934  385.149   81.521  213.665    6.016
  543.184  336.544   80.114  213.169    5.837
  543.434  352.318   80.918  212.776    5.732
  543.684  362.834   83.934  211.985    5.740
  543.934  370.291   86.107  211.492    5.768
  544.184  376.650   88.502  211.002    5.865
  544.434  384.110   89.925  210.604    6.028
  544.684  385.791   90.375  209.404    6.185
  544.934  390.065   90.031  208.911    6.287
  545.184  394.540   89.816  208.418    6.256
  545.434  390.956   88.323  208.023    6.078
  545.684  385.161   86.958  207.434    5.897
  545.934  382.812   86.347  206.633    5.863
  546.184  375.657   88.038  205.734    5.901
  546.434  334.522   88.220  205.753    5.962
  546.684  351.337   84.028  206.076    6.059
  546.934  347.623   84.080  207.316    6.128
  547.184  330.851   87.315  209.383    6.303
  547.434  329.022   89.092  210.417    6.544
  547.684  352.336   85.697  211.362    6.777
  547.934  335.173   81.151  211.376    7.051
  548.184  282.733   81.113  210.574    7.224
  548.434  273.823   83.420  208.758    7.424
  548.684  291.483   85.153  208.064    7.439
  548.934  353.582   85.649  207.369    7.241
  549.184  351.035   84.906  207.279    7.022
  549.434  339.656   84.381  207.093    6.826
  549.684  351.729   82.799  207.723    6.646
  549.934  360.749   81.126  208.872    6.532
  550.184  373.604   80.825  209.495    6.465
  550.434  351.895   82.114  210.644    6.432
  550.684  339.995   86.632  210.045    6.448
  550.934  367.790   85.446  208.942    6.485
  551.184  377.717   84.304  209.366    6.504
  551.434  370.627   87.451  210.512    6.443
  551.684  373.346   92.412  211.243    6.341
  551.934  392.824   94.320  211.675    6.206
  552.184  388.654   94.858  211.792    6.186
  552.434  387.867   94.336  212.321    6.246
  552.684  392.209   90.541  212.747    6.339
  552.934  388.688   85.112  213.276    6.671
  553.184  382.377   83.883  213.395    7.376
  553.434  358.069   82.519  213.309    9.069
  553.684  252.746   79.079  212.921   10.915
  553.934  224.929   76.833  212.838   14.005
  554.184  249.021   76.840  212.041   14.933
  554.434  354.194   76.848  211.036   15.025
  554.684  354.117   74.690  210.439   16.699
  554.934  348.454   69.923  209.749   34.314
  555.184  254.501   64.051  209.256   41.538
  555.434  236.884   60.653  208.563   54.555
  555.684  237.458   64.553  208.276   72.481
  555.934  235.499   65.665  207.886   43.800
  556.184  225.548   66.293  207.492   26.449
  556.434  243.988   68.379  206.691   17.607
  556.684  285.233   73.338  205.789   12.082
  556.934  317.512   77.812  204.486   10.149
  557.184  352.843   79.941  203.989    9.450
  557.434  357.250   76.679  203.904    9.168
  557.684  317.024   75.447  206.680    9.041
  557.934  260.492   77.357  208.433    8.540
  558.184  326.424   80.415  208.351    8.055
  558.434  342.461   81.619  205.305    7.313
  558.684  329.846   80.476  203.791    6.831
  558.934  326.456   83.756  206.065    7.086
  559.184  341.260   81.465  207.505    7.201
  559.434  351.383   80.102  208.341    7.212
  559.684  354.100   82.056  208.767    7.088
  559.934  359.157   85.291  208.583    6.978
  560.184  365.645   85.519  208.602    6.535
  560.434  364.399   86.191  209.540    6.033
  560.684  359.776   88.675  210.677    5.709
  560.934  373.344   91.248  211.411    5.885
  561.184  382.364   93.422  211.434    6.375
  561.434  388.916   94.358  210.632    7.023
  561.684  384.875   91.138  208.713    7.929
  561.934  347.835   83.321  206.178    9.830
  562.184  290.263   76.962  202.519   12.821
  562.434  270.437   72.726  199.783   48.299
  562.684  301.806   66.986  201.944   49.084
  562.934  314.919   68.232  204.208   66.541
  563.184  207.712   69.389  203.716   85.111
  563.434  235.052   69.795  201.691  114.966
  563.684  324.566   70.822  201.506  156.121
  563.934  252.377   72.509  203.771   50.886
  564.184  281.277   75.257  205.626   49.718
  564.434  307.969   80.616  208.096   38.976
  564.684  329.788   83.673  209.955   23.508
  564.934  331.206   84.612  209.972   18.957
  565.184  318.722   85.193  209.988   15.929
  565.434  314.294   86.085  210.011   13.336
  565.684  340.919   87.596  210.228   11.636
  565.934  343.246   90.478  210.664   10.958
  566.184  340.573   90.795  210.883   10.839
  566.434  339.976   85.586  211.106   10.778
  566.684  341.073   86.390  211.223   10.539
  566.934  343.463   88.433  211.244    9.881
  567.184  344.105   90.650  210.647    8.593
  567.434  345.456   93.179  209.950    7.209
  567.684  351.165   96.635  208.949    6.276
  567.934  375.647  101.020  207.640    6.193
  568.184  375.896   95.722  205.616    6.749
  568.434  340.804   88.745  204.206    7.179
  568.684  288.364   82.829  204.122    7.889
  568.934  267.629   77.532  204.347    8.300
  569.184  324.529   79.840  204.872    8.022
  569.434  364.538   80.687  205.101    6.875
  569.684  378.302   81.271  204.908    6.910
  569.934  356.071   81.234  204.319    7.345
  570.184  358.074   80.533  203.722    7.774
  570.434  356.052   80.188  202.721    8.189
  570.684  315.436   82.009  202.021    7.715
  570.934  310.357   84.316  201.735    6.979
  571.184  334.775   85.960  202.366    6.184
  571.434  383.360   87.560  204.225    5.488
  571.684  376.592   89.026  206.180    5.370
  571.934  370.474   91.112  207.221    5.587
  572.184  372.414   90.368  206.933    5.661
  572.434  387.734   81.312  205.825    5.558
  572.684  381.553   73.894  204.212    5.417
  572.934  375.695   59.973  202.905    5.103
  573.184  375.165   49.901  202.210    4.846
  573.434  371.320   41.597  202.227    4.721
  573.684  367.282   36.211  202.446    4.602
  573.934  367.661   31.399  202.058    4.536
  574.184  366.482   27.562  202.280    4.479
  574.434  364.392   25.049  202.912    4.442
  574.684  370.294   26.473  203.443    4.451
  574.934  374.440   31.388  203.461    4.588
  575.184  374.302   33.915  203.274    4.665
  575.434  370.913   30.874  203.093    4.722
  575.684  364.536   29.023  203.107    4.818
  575.934  359.456   28.458  203.433    5.011
  576.184  366.332   28.424  203.553    5.546
  576.434  371.520   29.049  203.875    5.976
  576.684  379.370   30.606  203.994    6.689
  576.934  392.159   31.762  203.911    6.920
  577.184  386.819   32.259  203.931    6.799
  577.434  383.887   32.044  203.849    6.242
  577.684  383.226   31.608  203.968    5.217
  577.934  375.938   30.422  204.088    4.661
  578.184  365.467   28.972  204.926    4.284
  578.434  361.300   29.111  205.247    4.065
  578.684  361.028   32.039  205.269    3.960
  578.934  361.215   34.346  204.875    3.904
  579.184  361.592   35.945  204.385    3.857
  579.434  360.998   37.367  204.096    3.929
  579.684  360.728   38.481  203.808    4.050
  579.934  360.260   39.727  203.118    4.083
  580.184  357.391   42.298  202.927    4.124
  580.434  354.263   47.612  203.151    4.107
  580.684  352.174   47.842  205.007    4.138
  580.934  363.598   42.632  205.738    4.193
  581.184  367.874   37.246  205.348    4.272
  581.434  366.630   40.791  204.548    4.408
  581.684  364.800   42.788  203.549    4.483
  581.934  365.960   45.141  204.283    4.560
  582.184  365.429   47.402  205.121    4.579
  582.434  362.107   50.417  205.751    4.599
  582.684  360.861   53.741  205.462    4.715
  582.934  350.846   57.374  205.271    4.806
  583.184  373.184   59.240  204.580    4.889
  583.434  372.000   60.839  204.087    4.927
  583.684  368.354   63.809  203.696    4.999
  583.934  376.076   66.558  203.408    5.236
  584.184  377.037   66.566  203.430    5.468
