~VERSION INFORMATION
 VERS.                 2.0:   CWLS LOG ASCII STANDARD -VERSION 2.0
 WRAP.                  NO:   ONE LINE PER DEPTH STEP
~WELL INFORMATION BLOCK
#MNEM.UNIT           DATA                    DESCRIPTION OF MNEMONIC
#---------    -------------------            -------------------------------
# Generated from Intellog Unique Number	CW_70_72/WELL/2897
NULL.         -999.25                        : NULL_VALUE
WELL.         MESA SULPETRO CROOKED          : Well_name    - WELL              
LOC .         03-06-070-22W4                 : Location     - LOCATION          
UWI .         00/03-06-070-22W4/0            : Uwi          - UNIQUE WELL ID    
ENTR.         MAX                            : Entered      - ENTERED BY        
SRVC.         SCHLUMBERGER                   : Scn          - SERVICE COMPANY   
DATE.         06 MAR 79                      : Date         - LOG DATE
STRT.M        425                            : top_depth    - START DEPTH       
STOP.M        580                            : bot_depth    - STOP DEPTH        
STEP.M        0.25                           : increment    - STEP LENGTH       
~CURVE INFORMATION BLOCK
#MNEM UNIT       ERCB CURVE CODE    CURVE DESCRIPTION
#-----------   ------------------   ----------------------------------
DEPT.M        00 001 00 00         : DEPTH        - DEPTH                       
GR  .API      00 310 00 00         : GR           - GAMMA RAY                   
ILD .OHMM     00 120 00 00         : RESD         - DEEP RESISTIVITY (DIL)      
NPHI.V/V      00 330 00 00         : PHIN         - NEUTRON POROSITY (SANDSTONE)
DPHI.V/V      00 890 00 00         : PHID         - DENSITY POROSITY (SANDSTONE)
CALI.MM       00 280 01 00         : CAL          - CALIPER                     
~PARAMETER INFORMATION       
#MNEM.UNIT           DATA             DESCRIPTION OF MNEMONIC
#---------         -----------     ------------------------------
GL  .M        633.4                : gl           - GROUND LEVEL ELEVATION      
EREF.M        637.8                : kb           - ELEVATION OF DEPTH REFERENCE
DATM.M        633.4                : datum        - DATUM ELEVATION             
TDD .M        611                  : tdd          - TOTAL DEPTH DRILLER         
RUN .         ONE                  : Run          - RUN NUMBER                  
ENG .         BILL                 : Engineer     - RECORDING ENGINEER          
WIT .         JIM                  : Witness      - WITNESSED BY                
MUD .         GEL                  : Mud_type     - MUD TYPE                    
MATR.         SANDSTONE            : Logunit      - NEUTRON MATRIX              
TMAX.C        26                   : BHT          - MAXIMUM RECORDED TEMPERATURE
BHTD.M        611                  : BHTDEP       - MAXIMUM RECORDED TEMPERATURE
RMT .C        20                   : MDTP         - TEMPERATURE OF MUD          
MUDD.KG/M     1120                 : MWT          - MUD DENSITY                 
NEUT.         1                    : NEUTRON      - NEUTRON TYPE                
RESI.         0                    : RESIST       - RESISTIVITY TYPE            
RM  .OHMM     4.32                 : RM           - RESISTIVITY OF MUD          
RMC .OHMM     0.25                 : RMC          - RESISTIVITY OF MUD CAKE     
RMF .OHMM     5.21                 : RMF          - RESISTIVITY OF MUD FILTRATE 
SUFT.C        -10                  : SUFT         - SURFACE TEMPERATURE         
~A  DEPTH       GR     RESD     PHIN     PHID      CAL
# ...
  498.000   85.692    3.693    0.456    0.261  157.625
  498.250   85.976    3.657    0.451    0.251  157.610
  498.500   85.672    3.690    0.448    0.239  157.596
  498.750   80.029    3.970    0.442    0.225  158.067
  499.000   74.680    4.310    0.425    0.196  158.057
  499.250   74.672    5.420    0.396    0.190  158.038
  499.500   72.883    6.105    0.368    0.152  158.021
  499.750   69.908    7.068    0.332    0.139  158.991
  500.000   67.823    8.969    0.347    0.122  159.470
  500.250   64.254   11.382    0.320    0.099  162.910
  500.500   62.466   13.670    0.257    0.085  164.378
  500.750   64.530   13.918    0.208    0.073  163.867
  501.000   68.672   12.693    0.236    0.085  163.357
  501.250   79.630    9.996    0.260    0.132  162.350
  501.500   83.476    6.673    0.368    0.165  162.331
  501.750   90.581    5.304    0.403    0.183  162.318
  502.000   96.204    4.453    0.443    0.196  161.808
  502.250   96.192    4.175    0.464    0.191  160.799
  502.500   97.961    4.098    0.462    0.191  161.770
  502.750   96.766    4.059    0.455    0.197  163.732
  503.000   94.681    4.095    0.457    0.210  163.711
  503.250   94.373    4.019    0.456    0.238  162.708
  503.500   97.624    3.873    0.453    0.221  160.717
  503.750   97.613    3.836    0.443    0.205  161.195
  504.000   96.713    3.835    0.443    0.189  162.658
  504.250   96.705    3.977    0.450    0.181  163.138
  504.500   95.214    4.162    0.450    0.183  164.105
  504.750   92.534    4.277    0.449    0.189  165.573
  505.000   90.151    4.315    0.453    0.205  165.557
  505.250   90.734    4.354    0.456    0.210  164.057
  505.500   92.799    4.195    0.451    0.206  161.570
  505.750   96.941    4.006    0.433    0.190  163.528
  506.000   98.710    3.860    0.427    0.175  166.478
  506.250   98.995    3.754    0.449    0.173  167.942
  506.500  100.173    3.787    0.457    0.185  167.927
  506.750   98.974    3.856    0.447    0.195  167.911
  507.000   97.484    3.926    0.457    0.218  167.894
  507.250   95.100    3.925    0.457    0.235  164.912
  507.500   93.609    3.852    0.442    0.241  160.941
  507.750   90.634    3.781    0.439    0.248  159.442
  508.000   86.770    3.745    0.445    0.257  159.425
  508.250   86.462    3.609    0.446    0.260  159.406
  508.500   86.157    3.575    0.442    0.259  159.390
  508.750   84.960    3.640    0.444    0.246  159.867
  509.000   83.466    3.880    0.431    0.219  161.335
  509.250   82.568    4.061    0.420    0.190  161.812
  509.500   81.371    4.173    0.397    0.184  162.288
  509.750   82.548    4.171    0.396    0.191  163.749
  510.000   85.798    4.057    0.416    0.206  163.735
  510.250   88.754    3.945    0.440    0.200  163.720
  510.500   94.377    3.872    0.440    0.201  164.198
  510.750   97.628    3.801    0.425    0.204  165.663
  511.000  104.734    3.834    0.419    0.192  167.125
  511.250  110.357    3.976    0.440    0.186  168.595
  511.500  111.829    4.162    0.475    0.187  172.035
  511.750  109.447    4.276    0.465    0.199  172.018
  512.000  105.582    4.236    0.453    0.212  169.035
  512.250  108.834    4.007    0.455    0.217  169.022
  512.500  109.416    3.723    0.489    0.223  172.464
  512.750  107.925    3.213    0.516    0.211  178.373
  513.000  109.988    2.674    0.540    0.234  183.794
  513.250  112.645    2.483    0.566    0.250  189.211
  513.500  114.416    2.438    0.578    0.258  188.208
  513.750  116.184    2.459    0.557    0.245  183.250
  514.000  115.879    2.695    0.526    0.226  177.304
  514.250  112.607    3.035    0.502    0.213  172.840
  514.500  109.631    3.579    0.461    0.201  170.845
  514.750  108.139    3.994    0.427    0.172  169.346
  515.000  111.688    4.417    0.449    0.159  166.362
  515.250  110.787    4.416    0.444    0.170  166.346
  515.500  106.625    4.294    0.447    0.172  168.307
  515.750  102.762    4.215    0.471    0.183  170.267
  516.000   98.305    4.370    0.463    0.192  168.768
  516.250   93.848    4.617    0.431    0.177  164.302
  516.500   91.169    5.012    0.389    0.158  157.860
  516.750   90.861    5.057    0.380    0.144  157.351
  517.000   92.038    5.009    0.371    0.142  158.817
  517.250   94.105    4.827    0.373    0.162  160.779
  517.500   98.838    4.567    0.380    0.172  159.770
  517.750  103.273    4.281    0.407    0.183  157.281
  518.000  107.710    4.125    0.419    0.189  156.280
  518.250  105.032    4.049    0.413    0.188  158.240
  518.500  104.429    4.048    0.407    0.182  161.188
  518.750  107.385    4.084    0.420    0.163  165.616
  519.000  107.671    4.235    0.429    0.154  172.517
  519.250  104.694    4.432    0.451    0.182  175.961
  519.500  103.795    4.432    0.438    0.212  175.447
  519.750  102.005    4.511    0.444    0.207  174.940
  520.000  100.220    4.552    0.442    0.193  177.392
  520.250   96.649    4.509    0.434    0.180  179.352
  520.500   94.269    4.633    0.428    0.178  178.841
  520.750   90.996    5.030    0.419    0.183  177.834
  521.000   90.097    5.361    0.406    0.190  177.815
  521.250   91.569    5.459    0.393    0.175  176.320
  521.500   97.194    5.508    0.375    0.147  169.384
  521.750  100.146    5.456    0.411    0.148  172.828
  522.000  100.137    5.355    0.451    0.178  178.247
  522.250   99.832    5.066    0.454    0.183  181.195
  522.500   98.930    4.749    0.440    0.185  181.178
  522.750   98.921    4.535    0.439    0.175  181.159
  523.000  100.689    4.410    0.436    0.192  182.131
  523.250  103.347    4.574    0.428    0.193  181.126
  523.500  103.337    4.657    0.427    0.186  179.131
  523.750  103.624    4.570    0.429    0.179  176.644
  524.000  104.799    4.404    0.432    0.183  174.653
  524.250  101.530    4.283    0.432    0.188  174.632
  524.500   98.555    4.243    0.434    0.181  175.113
  524.750   97.359    4.202    0.435    0.182  176.085
  525.000   96.755    4.163    0.432    0.191  177.057
  525.250   95.558    4.162    0.448    0.185  178.024
  525.500   94.362    4.315    0.451    0.160  175.539
  525.750   92.871    4.435    0.434    0.157  170.581
  526.000   89.006    4.515    0.433    0.151  166.609
  526.250   82.770    4.769    0.432    0.153  165.108
  526.500   76.831    5.084    0.405    0.147  165.096
  526.750   75.930    5.129    0.380    0.151  165.079
  527.000   82.444    4.943    0.380    0.178  163.580
  527.250   85.693    4.896    0.405    0.220  162.081
  527.500   77.678    5.171    0.396    0.233  161.570
  527.750   67.293    5.878    0.359    0.249  161.551
  528.000   60.464    6.266    0.359    0.238  161.535
  528.250   57.488    6.866    0.373    0.190  162.506
  528.500   54.513    8.096    0.359    0.164  162.982
  528.750   53.018   10.181    0.344    0.133  162.963
  529.000   54.493   12.004    0.298    0.103  162.946
  529.250   58.041   12.335    0.264    0.069  163.918
  529.500   58.622   11.354    0.275    0.101  163.903
  529.750   59.501    9.361    0.297    0.136  162.406
  530.000   62.160    6.664    0.313    0.222  160.901
  530.250   67.190    6.247    0.329    0.239  160.889
  530.500   71.035    5.594    0.409    0.243  161.860
  530.750   83.478    4.828    0.416    0.229  161.843
  531.000   95.030    4.363    0.409    0.212  162.815
  531.250  102.135    4.053    0.412    0.187  166.257
  531.500  105.979    3.870    0.441    0.184  168.217
  531.750  103.300    3.834    0.461    0.198  171.165
  532.000   93.804    3.903    0.469    0.227  175.099
  532.250   89.346    4.238    0.466    0.233  173.600
  532.500   85.778    4.686    0.453    0.233  171.609
  532.750   83.987    5.088    0.442    0.222  171.589
  533.000   84.869    5.086    0.443    0.222  173.548
  533.250   85.155    4.992    0.442    0.229  172.049
  533.500   85.738    4.855    0.436    0.214  168.080
  533.750   87.802    4.678    0.435    0.205  167.077
  534.000   91.944    4.678    0.442    0.225  169.037
  534.250   94.305    4.633    0.451    0.238  174.455
