~VERSION INFORMATION
 VERS.                 2.0:   CWLS LOG ASCII STANDARD -VERSION 2.0
 WRAP.                  NO:   ONE LINE PER DEPTH STEP
~WELL INFORMATION BLOCK
#MNEM.UNIT           DATA                    DESCRIPTION OF MNEMONIC
#---------    -------------------            -------------------------------
# Generated from Intellog Unique Number	CW_70_72/WELL/903
NULL.         -999.25                        : NULL_VALUE
WELL.         CHIEFTAIN ET AL SMITH 07-19    : Well_name    - WELL              
LOC .         07-19-071-26W4                 : Location     - LOCATION          
UWI .         00/07-19-071-26W4/0            : Uwi          - UNIQUE WELL ID    
ENTR.         JAYE                           : Entered      - ENTERED BY        
SRVC.         SCHLUMBERGER                   : Scn          - SERVICE COMPANY   
DATE.         13 JUNE 76                     : Date         - LOG DATE          
STRT.M        445.008                        : top_depth    - START DEPTH       
STOP.M        702.258                        : bot_depth    - STOP DEPTH        
STEP.M        0.25                           : increment    - STEP LENGTH       
~CURVE INFORMATION BLOCK
#MNEM UNIT       ERCB CURVE CODE    CURVE DESCRIPTION
#-----------   ------------------   ----------------------------------
DEPT.M        00 001 00 00         : DEPTH        - DEPTH                       
DPHI.V/V      00 890 00 00         : PHID         - DENSITY POROSITY (SANDSTONE)
NPHI.V/V      00 330 00 00         : PHIN         - NEUTRON POROSITY (SANDSTONE)
GR  .API      00 310 00 00         : GR           - GAMMA RAY                   
CALI.MM       00 280 01 00         : CAL          - CALIPER                     
ILD .OHMM     00 120 00 00         : RESD         - DEEP RESISTIVITY (DIL)      
~PARAMETER INFORMATION       
#MNEM.UNIT           DATA             DESCRIPTION OF MNEMONIC
#---------         -----------     ------------------------------
GL  .M        633.374              : gl           - GROUND LEVEL ELEVATION      
EREF.M        636.422              : kb           - ELEVATION OF DEPTH REFERENCE
DATM.M        633.374              : datum        - DATUM ELEVATION             
TDD .M        627.888              : tdd          - TOTAL DEPTH DRILLER         
RUN .         ONE                  : Run          - RUN NUMBER                  
BASE.         EDM                  : Branch       - HOME BASE OF LOGGING UNIT   
MUD .         GEL CHEM             : Mud_type     - MUD TYPE                    
MATR.         SANDSTONE            : Logunit      - NEUTRON MATRIX              
TMAX.C        27.2222              : BHT          - MAXIMUM RECORDED TEMPERATURE
BHTD.M        627.888              : BHTDEP       - MAXIMUM RECORDED TEMPERATURE
RMT .C        16.6667              : MDTP         - TEMPERATURE OF MUD          
MUDD.KG/M     0                    : MWT          - MUD DENSITY                 
NEUT.         1                    : NEUTRON      - NEUTRON TYPE                
RESI.         0                    : RESIST       - RESISTIVITY TYPE            
RM  .OHMM     4.87                 : RM           - RESISTIVITY OF MUD          
RMC .OHMM     0                    : RMC          - RESISTIVITY OF MUD CAKE     
RMF .OHMM     3.87                 : RMF          - RESISTIVITY OF MUD FILTRATE 
SUFT.C        -17.7778             : SUFT         - SURFACE TEMPERATURE         
~A  DEPTH     PHID     PHIN       GR      CAL     RESD
# ...
  554.508    0.254    0.409   65.077  154.141    3.467
  554.758    0.256    0.413   64.722  154.072    3.472
  555.008    0.262    0.413   63.805  154.098    3.463
  555.258    0.264    0.404   61.335  154.446    3.430
  555.508    0.267    0.390   61.353  155.005    3.328
  555.758    0.268    0.393   61.872  155.977    3.170
  556.008    0.266    0.415   61.271  156.646    2.975
  556.258    0.260    0.422   60.230  156.671    2.823
  556.508    0.265    0.425   60.065  156.496    2.704
  556.758    0.278    0.432   61.016  156.322    2.590
  557.008    0.276    0.441   62.594  156.143    2.532
  557.258    0.272    0.446   63.925  156.075    2.498
  557.508    0.273    0.445   63.197  156.000    2.392
  557.758    0.273    0.438   61.844  155.826    2.245
  558.008    0.268    0.423   59.559  155.866    2.183
  558.258    0.261    0.407   58.458  155.997    2.189
  558.508    0.256    0.405   58.041  155.926    2.288
  558.758    0.263    0.408   59.369  155.858    2.422
  559.008    0.266    0.403   62.131  155.884    2.502
  559.258    0.260    0.403   64.395  155.706    2.620
  559.508    0.256    0.418   63.292  155.740    2.835
  559.758    0.253    0.411   62.190  155.775    3.012
  560.008    0.249    0.380   61.590  156.230    3.364
  560.258    0.236    0.356   60.237  156.263    3.413
  560.508    0.214    0.317   56.454  156.187    3.179
  560.758    0.191    0.380   56.599  156.114    2.849
  561.008    0.153    0.407   58.364  155.841    2.734
  561.258    0.214    0.417   61.875  155.658    2.628
  561.508    0.221    0.418   64.573  155.481    2.545
  561.758    0.231    0.425   66.775  155.001    2.544
  562.008    0.246    0.415   68.976  154.713    2.658
  562.258    0.262    0.405   70.866  154.329    2.767
  562.508    0.249    0.408   71.196  153.947    2.817
  562.758    0.226    0.413   69.161  153.871    2.816
  563.008    0.245    0.407   68.807  153.794    2.799
  563.258    0.260    0.407   70.696  153.941    2.797
  563.508    0.255    0.398   72.898  153.968    2.853
  563.758    0.236    0.406   73.478  154.000    2.905
  564.008    0.222    0.416   74.745  153.927    2.936
  564.258    0.252    0.409   77.260  153.653    2.978
  564.508    0.259    0.404   79.645  153.265    3.021
  564.758    0.248    0.410   82.657  152.982    3.020
  565.008    0.227    0.414   82.676  152.706    3.080
  565.258    0.216    0.418   79.706  152.735    3.195
  565.508    0.249    0.420   81.534  152.775    3.283
  565.758    0.255    0.417   83.421  153.011    3.380
  566.008    0.242    0.411   86.745  153.357    3.304
  566.258    0.229    0.398   91.317  153.812    3.106
  566.508    0.209    0.387   93.205  154.052    2.926
  566.758    0.189    0.409   91.479  154.505    2.808
  567.008    0.196    0.444   90.943  154.743    2.760
  567.258    0.219    0.444   93.141  154.880    2.728
  567.508    0.245    0.438   96.462  155.123    2.716
  567.758    0.241    0.436  100.536  155.368    2.751
  568.008    0.228    0.437  101.736  155.610    2.858
  568.258    0.235    0.436   93.405  155.855    3.048
  568.508    0.237    0.426   81.834  155.777    3.184
  568.758    0.241    0.414   81.606  156.021    3.255
  569.008    0.241    0.402   84.120  156.478    3.289
  569.258    0.221    0.409   84.701  156.721    3.293
  569.508    0.219    0.419   85.032  156.851    3.304
  569.758    0.211    0.426   84.745  157.098    3.339
  570.008    0.204    0.427   84.447  157.863    3.374
  570.258    0.229    0.431   84.654  159.046    3.430
  570.508    0.222    0.441   85.110  160.542    3.492
  570.758    0.210    0.446   85.691  161.308    3.608
  571.008    0.214    0.439   86.458  161.759    3.687
  571.258    0.208    0.445   86.977  161.898    3.754
  571.508    0.200    0.434   86.810  161.827    3.801
  571.758    0.193    0.426   86.145  161.862    3.835
  572.008    0.200    0.422   84.357  161.579    3.839
  572.258    0.204    0.415   83.256  161.610    3.802
  572.508    0.193    0.417   86.705  161.227    3.765
  572.758    0.187    0.429   89.713  160.107    3.749
  573.008    0.201    0.437   90.607  157.212    3.761
  573.258    0.193    0.438   90.439  155.254    3.780
  573.508    0.186    0.433   90.898  157.908    3.764
  573.758    0.186    0.423   91.041  160.660    3.769
  574.008    0.190    0.413   90.499  161.634    3.774
  574.258    0.194    0.409   89.398  161.041    3.765
  574.508    0.200    0.403   86.613  159.608    3.742
  574.758    0.208    0.398   84.952  157.966    3.706
  575.008    0.197    0.397   85.034  155.696    3.670
  575.258    0.222    0.400   86.487  154.476    3.648
  575.508    0.210    0.407   88.315  154.093    3.612
  575.758    0.211    0.409   87.710  153.806    3.604
  576.008    0.226    0.410   84.864  153.839    3.595
  576.258    0.220    0.417   83.762  153.979    3.580
  576.508    0.209    0.412   83.469  154.010    3.552
  576.758    0.205    0.404   85.174  153.835    3.517
  577.008    0.217    0.411   86.627  154.598    3.489
  577.258    0.223    0.400   87.145  157.038    3.475
  577.508    0.217    0.382   86.916  159.376    3.511
  577.758    0.206    0.396   87.309  159.721    3.608
  578.008    0.194    0.407   88.325  159.550    3.701
  578.258    0.189    0.410   88.595  159.374    3.889
  578.508    0.194    0.417   88.240  159.090    4.109
  578.758    0.201    0.428   85.022  158.915    4.382
  579.008    0.210    0.440   81.613  158.948    4.708
  579.258    0.223    0.443   78.952  158.773    5.067
  579.508    0.246    0.435   78.287  158.697    5.344
  579.758    0.259    0.429   79.803  158.732    5.656
  580.008    0.251    0.441   83.563  158.661    5.867
  580.258    0.237    0.429   87.882  158.377    5.841
  580.508    0.217    0.400   80.735  157.260    5.678
  580.758    0.204    0.372   72.341  155.304    5.419
  581.008    0.175    0.358   72.364  154.604    5.133
  581.258    0.142    0.345   74.440  156.626    4.755
  581.508    0.119    0.357   77.263  158.649    4.300
  581.758    0.139    0.382   80.212  159.836    4.043
  582.008    0.168    0.406   81.541  160.075    3.931
  582.258    0.189    0.426   81.562  160.111    3.943
  582.508    0.200    0.427   80.771  159.826    4.045
  582.758    0.208    0.428   79.856  159.654    4.321
  583.008    0.213    0.431   79.438  159.685    4.952
  583.258    0.222    0.434   78.835  159.614    5.272
  583.508    0.234    0.423   76.987  159.649    5.519
  583.758    0.232    0.378   72.581  159.373    5.650
  584.008    0.197    0.355   70.171  159.087    5.564
  584.258    0.171    0.334   70.690  158.702    5.409
  584.508    0.153    0.355   73.950  158.420    5.228
  584.758    0.138    0.379   73.658  158.136    5.035
  585.008    0.187    0.378   70.376  157.752    4.868
  585.258    0.213    0.361   70.521  157.572    4.586
  585.508    0.210    0.356   71.661  157.713    4.409
  585.758    0.202    0.362   73.176  157.954    4.099
  586.008    0.187    0.371   77.061  157.885    3.927
  586.258    0.170    0.382   80.883  158.128    3.747
  586.508    0.167    0.400   84.828  158.575    3.683
  586.758    0.183    0.411   85.223  158.927    3.681
  587.008    0.195    0.411   84.182  159.170    3.679
  587.258    0.201    0.406   84.640  159.411    3.711
  587.508    0.204    0.408   84.659  159.858    3.793
  587.758    0.197    0.414   82.809  160.524    3.927
  588.008    0.192    0.416   80.398  160.868    4.133
  588.258    0.189    0.412   78.611  161.005    4.255
  588.508    0.184    0.397   77.946  160.932    4.389
  588.758    0.174    0.383   78.339  160.862    4.485
  589.008    0.167    0.375   78.611  160.580    4.584
  589.258    0.166    0.375   78.692  160.093    4.650
  589.508    0.166    0.382   79.023  159.708    4.673
  589.758    0.167    0.382   79.854  159.428    4.705
  590.008    0.170    0.380   80.745  159.040    4.755
  590.258    0.170    0.384   80.704  159.072    4.806
  590.508    0.169    0.387   80.163  158.899    4.866
  590.758    0.173    0.385   79.746  158.933    4.891
