~VERSION INFORMATION
 VERS.                 2.0:   CWLS LOG ASCII STANDARD -VERSION 2.0
 WRAP.                  NO:   ONE LINE PER DEPTH STEP
~WELL INFORMATION BLOCK
#MNEM.UNIT           DATA                    DESCRIPTION OF MNEMONIC
#---------    -------------------            -------------------------------
# Generated from Intellog Unique Number	CC_80_83/WELL/1173
NULL.         -999.25                        : NULL_VALUE
WELL.         NOVALTA NEWBY                  : Well_name    - WELL
LOC .         07-06-083-04W4                 : Location     - LOCATION          
UWI .         00/07-06-083-04W4/0            : Uwi          - UNIQUE WELL ID    
ENTR.         DW                             : Entered      - ENTERED BY        
SRVC.         COMPUTALOG                     : Scn          - SERVICE COMPANY   
DATE.         26 JAN 84                      : Date         - LOG DATE
STRT.M        65                             : top_depth    - START DEPTH       
STOP.M        323.899                        : bot_depth    - STOP DEPTH        
STEP.M        0.3                            : increment    - STEP LENGTH       
~CURVE INFORMATION BLOCK
#MNEM UNIT       ERCB CURVE CODE    CURVE DESCRIPTION
#-----------   ------------------   ----------------------------------
DEPT.M        00 001 00 00         : DEPTH        - DEPTH                       
DPHI.V/V      00 890 00 00         : PHID         - DENSITY POROSITY (LIMESTONE)
NPHI.V/V      00 330 00 00         : PHIN         - NEUTRON POROSITY (LIMESTONE)
GR  .API      00 310 00 00         : GR           - GAMMA RAY                   
ILD .OHMM     00 120 00 00         : RESD         - DEEP RESISTIVITY (DIL)      
~PARAMETER INFORMATION       
#MNEM.UNIT           DATA             DESCRIPTION OF MNEMONIC
#---------         -----------     ------------------------------
GL  .M        462.5                : gl           - GROUND LEVEL ELEVATION      
EREF.M        465.5                : kb           - ELEVATION OF DEPTH REFERENCE
DATM.M        465.5                : datum        - DATUM ELEVATION             
TDD .M        325                  : tdd          - TOTAL DEPTH DRILLER         
RUN .         ONE                  : Run          - RUN NUMBER                  
ENG .         BILL                 : Engineer     - RECORDING ENGINEER          
WIT .         JIM                  : Witness      - WITNESSED BY                
MUD .         GEL                  : Mud_type     - MUD TYPE                    
MATR.         LIMESTONE            : Logunit      - NEUTRON MATRIX              
TMAX.C        26                   : BHT          - MAXIMUM RECORDED TEMPERATURE
BHTD.M        325                  : BHTDEP       - MAXIMUM RECORDED TEMPERATURE
MATR.         1                    : LOGUNIT      - NEUTRON MATRIX              
RMT .C        25                   : MDTP         - TEMPERATURE OF MUD          
NEUT.         1                    : NEUTRON      - NEUTRON TYPE                
RESI.         0                    : RESIST       - RESISTIVITY TYPE            
RMC .OHMM     0.25                 : RMC          - RESISTIVITY OF MUD CAKE     
RMF .OHMM     0.25                 : RMF          - RESISTIVITY OF MUD FILTRATE 
SUFT.C        15                   : SUFT         - SURFACE TEMPERATURE         
~A  DEPTH     PHID     PHIN       GR     RESD
# ...
  169.401    0.286    0.442   95.104    7.755
  169.701    0.288    0.434   93.870    8.206
  170.001    0.288    0.434   86.546    8.848
  170.301    0.291    0.452   84.701    9.187
  170.601    0.303    0.431   90.168    9.361
  170.901    0.324    0.421   93.806    9.012
  171.201    0.327    0.436   96.228    8.514
  171.501    0.317    0.430   97.430    8.043
  171.801    0.296    0.442   99.242    8.042
  172.101    0.275    0.467  104.101    8.349
  172.401    0.269    0.463  107.740    8.669
  172.701    0.268    0.429  109.549    9.002
  173.001    0.264    0.377  108.926    9.346
  173.301    0.267    0.370  108.910    9.703
  173.601    0.270    0.395  104.632    9.702
  173.901    0.263    0.440  104.613    9.341
  174.201    0.256    0.457  105.817    8.659
  174.501    0.279    0.460  102.147    8.180
  174.801    0.293    0.430  105.176    7.584
  175.101    0.284    0.412  107.599    6.899
  175.401    0.260    0.442  108.804    6.641
  175.701    0.253    0.476  106.350    6.640
  176.001    0.249    0.443  103.289    7.026
  176.301    0.254    0.412   97.183    7.434
  176.601    0.273    0.396   94.121    7.575
  176.901    0.281    0.399   93.497    7.718
  177.201    0.277    0.428   96.527    7.291
  177.501    0.273    0.470  108.695    5.596
  177.801    0.273    0.474  114.771    4.545
  178.101    0.276    0.481  107.444    4.135
  178.401    0.278    0.485  103.166    3.833
  178.701    0.276    0.464  106.196    3.832
  179.001    0.275    0.451  110.440    3.831
  179.301    0.275    0.469  110.429    3.830
  179.601    0.280    0.506  109.801    3.830
  179.901    0.290    0.515  104.307    4.539
  180.201    0.304    0.445   91.501    5.586
  180.501    0.312    0.411   93.918    5.800
  180.801    0.309    0.415  101.213    5.081
  181.101    0.307    0.466  108.509    3.290
  181.401    0.302    0.482  116.411    3.050
  181.701    0.284    0.482  112.739    3.351
  182.001    0.275    0.464  109.681    4.124
  182.301    0.265    0.439  114.534    4.981
  182.601    0.263    0.433  113.911    6.015
  182.901    0.260    0.426   91.969    6.736
  183.201    0.192    0.408   79.770    7.127
  183.501    0.258    0.395   80.365    7.261
  183.801    0.321    0.412   83.995    6.991
  184.101    0.339    0.438   83.986    6.859
  184.401    0.349    0.452   83.365    6.603
  184.701    0.348    0.456   83.343    6.602
  185.001    0.341    0.430   83.333    6.477
  185.301    0.339    0.414   82.100    6.476
  185.601    0.339    0.412   80.253    6.474
  185.901    0.338    0.424   82.670    6.723
  186.201    0.333    0.435   83.270    6.981
  186.501    0.310    0.433   82.036    7.248
  186.801    0.256    0.412   77.757    7.246
  187.101    0.187    0.442   83.225    6.976
  187.401    0.231    0.468  101.482    6.467
  187.701    0.268    0.420  107.557    5.995
  188.001    0.278    0.396  107.539    5.772
  188.301    0.278    0.415  105.697    5.771
  188.601    0.276    0.434  103.243    5.770
  188.901    0.271    0.444  102.620    5.991
  189.201    0.267    0.432  103.824    6.104
  189.501    0.276    0.425  105.027    6.219
  189.801    0.282    0.430  106.228    6.218
  190.101    0.272    0.401  108.040    5.874
  190.401    0.267    0.394  108.026    5.344
  190.701    0.303    0.433  103.749    4.259
  191.001    0.322    0.507   97.030    2.606
  191.301    0.324    0.510   93.362    2.370
  191.601    0.324    0.484   90.909    2.370
  191.901    0.317    0.479   92.719    2.508
  192.201    0.305    0.472   93.316    2.756
  192.501    0.282    0.435   85.988    3.144
  192.801    0.266    0.441   87.192    3.455
  193.101    0.266    0.468   89.610    3.797
  193.401    0.264    0.431   92.031    4.017
  193.701    0.258    0.388   93.236    4.171
  194.001    0.253    0.377   95.051    4.498
  194.301    0.254    0.377   99.293    4.670
  194.601    0.263    0.384   99.891    4.669
  194.901    0.280    0.411   95.004    4.581
  195.201    0.305    0.440  103.516    3.864
  195.501    0.323    0.471  113.245    3.515
  195.801    0.315    0.446  101.042    3.259
  196.101    0.269    0.422   99.813    3.021
  196.401    0.258    0.451   98.578    2.964
  196.701    0.268    0.482   97.956    2.908
  197.001    0.276    0.475  104.639    2.907
  197.301    0.276    0.456  107.060    2.962
  197.601    0.252    0.451   99.128    3.075
  197.901    0.245    0.449   97.894    3.133
  198.201    0.249    0.486  106.403    3.133
  198.501    0.266    0.512  111.873    3.074
  198.801    0.273    0.486  107.591    3.132
  199.101    0.276    0.462  106.354    3.131
  199.401    0.278    0.444  108.776    3.014
  199.701    0.278    0.484  109.979    3.071
  200.001    0.269    0.496  108.748    3.129
  200.301    0.255    0.486  105.688    3.311
  200.601    0.254    0.458   99.581    3.570
  200.901    0.258    0.444   97.129    3.778
  201.201    0.258    0.438  104.422    3.922
  201.501    0.256    0.425  103.799    3.996
  201.801    0.249    0.410   99.515    3.996
  202.101    0.249    0.414  100.723    4.071
  202.401    0.243    0.420  102.530    4.227
  202.701    0.248    0.362   94.600    4.645
  203.001    0.298    0.296   74.483    5.300
  203.301    0.328    0.252   64.113    6.282
  203.601    0.396    0.204   53.132    8.497
  203.901    0.428    0.091   44.590   13.883
  204.201    0.450    0.038   33.000   19.501
  204.501    0.425    0.040   28.721   25.885
  204.801    0.423    0.041   28.698   37.055
  205.101    0.493    0.042   29.298   41.492
  205.401    0.502    0.051   34.154   40.708
  205.701    0.498    0.070   37.794   42.268
  206.001    0.471    0.112   34.736   43.886
  206.301    0.045    0.112   29.236   42.252
  206.601    0.347    0.096   31.657   33.044
  206.901    0.406    0.122   41.998   25.361
  207.201    0.442    0.135   52.945   19.464
  207.501    0.448    0.119   55.975   16.110
  207.801    0.449    0.106   55.351   14.935
  208.101    0.453    0.105   51.682   14.653
  208.401    0.456    0.121   49.230   13.329
  208.701    0.443    0.257   79.062   10.039
  209.001    0.260    0.314   96.100    7.143
  209.301    0.236    0.352  104.614    5.587
  209.601    0.230    0.369  113.125    4.894
  209.901    0.235    0.352  107.020    5.378
  210.201    0.364    0.128   73.502    7.004
  210.501    0.484    0.089   55.822    7.411
  210.801    0.476    0.243   53.978    7.135
  211.101    0.276    0.289   88.075    6.614
  211.401    0.242    0.350  105.719    4.533
  211.701    0.222    0.371  108.754    3.751
  212.001    0.215    0.385  106.910    3.750
  212.301    0.210    0.398  102.021    3.750
  212.602    0.207    0.390  101.396    3.821
  212.902    0.208    0.395  101.382    3.820
  213.202    0.221    0.405  100.146    3.748
  213.502    0.228    0.389  100.741    3.677
  213.802    0.227    0.371  101.335    3.540
  214.102    0.220    0.367  104.362    3.408
  214.402    0.215    0.397  106.783    3.344
  214.702    0.215    0.409  105.549    3.100
  215.002    0.241    0.392   97.009    2.873
  215.302    0.268    0.370   91.511    2.565
  215.602    0.268    0.355   89.057    2.333
  215.902    0.280    0.360   84.172    2.163
  216.202    0.308    0.342   65.881    1.825
  216.502    0.307    0.336   64.037    1.757
  216.802    0.285    0.345   68.285    1.824
  217.102    0.264    0.366   73.145    1.894
  217.402    0.261    0.385   89.573    2.042
  217.702    0.272    0.389   91.387    2.120
  218.002    0.285    0.380   72.489    2.120
  218.302    0.282    0.362   71.865    2.080
  218.602    0.268    0.346   82.198    2.041
  218.902    0.263    0.338   84.013    2.079
  219.202    0.268    0.343   83.391    2.118
  219.502    0.276    0.348   74.847    2.078
  219.802    0.286    0.343   69.958    1.753
  220.102    0.306    0.331   65.072    1.507
  220.402    0.318    0.319   52.874    1.397
  220.702    0.326    0.332   47.376    1.345
  221.002    0.326    0.331   47.963    1.319
  221.302    0.316    0.331   50.995    1.344
