~VERSION INFORMATION
 VERS.                 2.0:   CWLS LOG ASCII STANDARD -VERSION 2.0
 WRAP.                  NO:   ONE LINE PER DEPTH STEP
~WELL INFORMATION BLOCK
#MNEM.UNIT           DATA                    DESCRIPTION OF MNEMONIC
#---------    -------------------            -------------------------------
# Generated from Intellog Unique Number	CS_77_79/WELL/872
WELL.         CHRISTINA                      : Well_name    - WELL
LOC .         00/06-11-079-09W4/0            : Location     - LOCATION
UWI .         00/06-11-079-09W4/0            : Uwi          - UNIQUE WELL ID
ENTR.         JHS                            : Entered      - ENTERED BY
SRVC.         SCHLUMBERGER                   : Scn          - SERVICE COMPANY
STRT.M        198.12                         : top_depth    - START DEPTH
STOP.M        420.37                         : bot_depth    - STOP DEPTH
STEP.M        0.25                           : increment    - STEP LENGTH
 NULL. -999.2500:NULL Value
~CURVE INFORMATION BLOCK
#MNEM UNIT       ERCB CURVE CODE    CURVE DESCRIPTION
#-----------   ------------------   ----------------------------------
DEPT.M        00 001 00 00         : DEPTH        - DEPTH
RHOB.KG/M3    00 350 00 00         : DENS         - BULK DENSITY
GR  .API      00 310 00 00         : GR           - GAMMA RAY
DPHI.V/V      00 890 00 00         : PHID         - DENSITY POROSITY (SANDSTONE)
NPHI.V/V      00 330 00 00         : PHIN         - NEUTRON POROSITY (SANDSTONE)
ILD .OHMM     00 120 00 00         : RESD         - DEEP RESISTIVITY (DIL)
~PARAMETER INFORMATION
#MNEM.UNIT           DATA             DESCRIPTION OF MNEMONIC
#---------         -----------     ------------------------------
GL  .M        637.733              : gl           - GROUND LEVEL ELEVATION
EREF.M        640.385              : kb           - ELEVATION OF DEPTH REFERENCE
DATM.M        640.385              : datum        - DATUM ELEVATION
TDD .M        431.292              : tdd          - TOTAL DEPTH DRILLER
RUN .         ONE                  : Run          - RUN NUMBER
ENG .         BILL                 : Engineer     - RECORDING ENGINEER
WIT .         JIM                  : Witness      - WITNESSED BY
MUD .         GEL                  : Mud_type     - MUD TYPE
MATR.         SANDSTONE            : Logunit      - NEUTRON MATRIX
TMAX.C        23.8889              : BHT          - MAXIMUM RECORDED TEMPERATURE
BHTD.M        431.292              : BHTDEP       - MAXIMUM RECORDED TEMPERATURE
MATR.         1                    : LOGUNIT      - NEUTRON MATRIX
RMT .C        25                   : MDTP         - TEMPERATURE OF MUD
NEUT.         1                    : NEUTRON      - NEUTRON TYPE
RESI.         0                    : RESIST       - RESISTIVITY TYPE
RMC .OHMM     0.25                 : RMC          - RESISTIVITY OF MUD CAKE
RMF .OHMM     0.25                 : RMF          - RESISTIVITY OF MUD FILTRATE
SUFT.C        15                   : SUFT         - SURFACE TEMPERATURE
~A  DEPTH     DENS       GR     PHID     PHIN     RESD
  198.120    0.000   94.581    0.278    0.625    3.552
  198.370    0.000   89.958    0.274    0.626    3.551
  198.620    0.000   87.759    0.291    0.626    3.548
  198.870    0.000   89.749    0.303    0.628    3.613
  199.120    0.000   90.499    0.294    0.627    3.615
  199.370    0.000   90.731    0.277    0.626    3.615
  199.620    0.000   94.422    0.290    0.625    3.621
  199.870    0.000   95.128    0.294    0.626    3.543
  200.120    0.000   92.653    0.291    0.626    3.549
  200.370    0.000   90.148    0.296    0.626    3.547
  200.620    0.000   89.963    0.301    0.626    3.523
  200.870    0.000   92.307    0.291    0.625    3.484
  201.120    0.000   92.542    0.292    0.625    3.483
  201.370    0.000   90.780    0.301    0.624    3.488
  201.620    0.000   89.883    0.307    0.624    3.420
  201.870    0.000   88.407    0.317    0.624    3.380
  202.120    0.000   90.906    0.317    0.624    3.345
  202.370    0.000   91.167    0.305    0.625    3.292
  202.620    0.000   90.278    0.310    0.625    3.260
  202.870    0.000   92.539    0.320    0.626    3.227
  203.120    0.000   94.906    0.332    0.627    3.171
  203.370    0.000   97.291    0.324    0.627    3.147
  203.620    0.000   96.426    0.304    0.627    3.112
  203.870    0.000   95.316    0.308    0.628    3.099
  204.120    0.000   94.534    0.323    0.627    3.113
  204.370    0.000   92.309    0.328    0.627    3.115
  204.620    0.000   88.219    0.311    0.627    3.109
  204.870    0.000   82.913    0.290    0.626    3.179
  205.120    0.000   78.655    0.258    0.626    3.169
  205.370    0.000   76.572    0.218    0.626    3.229
  205.620    0.000   82.448    0.194    0.626    3.293
  205.870    0.000   86.269    0.268    0.625    3.343
  206.120    0.000   86.059    0.293    0.625    3.350
  206.370    0.000   85.841    0.302    0.625    3.354
  206.620    0.000   85.865    0.295    0.625    3.465
  206.870    0.000   86.791    0.279    0.624    3.463
  207.120    0.000   89.454    0.269    0.622    3.610
  207.370    0.000   89.999    0.263    0.622    3.669
  207.620    0.000   89.909    0.262    0.622    3.783
  207.870    0.000   87.655    0.265    0.622    3.949
  208.120    0.000   85.909    0.263    0.622    3.980
  208.370    0.000   88.695    0.262    0.622    4.199
  208.620    0.000   91.167    0.261    0.621    4.320
  208.870    0.000   91.308    0.257    0.616    4.463
  209.120    0.000   89.766    0.244    0.605    4.512
  209.370    0.000   86.175    0.229    0.591    4.656
  209.620    0.000   85.062    0.224    0.572    4.753
  209.870    0.000   83.358    0.215    0.532    4.744
  210.120    0.000   86.691    0.222    0.571    4.674
  210.370    0.000   91.008    0.232    0.613    4.655
  210.620    0.000   93.706    0.227    0.616    4.653
  210.870    0.000   94.442    0.223    0.618    4.562
  211.120    0.000   92.800    0.240    0.619    4.566
  211.370    0.000   89.098    0.253    0.619    4.571
  211.620    0.000   85.383    0.268    0.619    4.484
  211.870    0.000   90.394    0.263    0.619    4.382
  212.120    0.000   95.303    0.248    0.617    4.255
  212.370    0.000   97.683    0.238    0.617    4.166
  212.620    0.000   99.252    0.250    0.616    4.081
  212.870    0.000   99.383    0.267    0.615    4.147
  213.120    0.000   97.342    0.267    0.614    4.300
  213.370    0.000   92.956    0.260    0.611    4.574
  213.620    0.000   90.239    0.259    0.590    4.867
  213.870    0.000   90.563    0.265    0.568    5.042
  214.120    0.000   90.784    0.260    0.575    5.003
  214.370    0.000   89.489    0.269    0.579    4.854
  214.620    0.000   89.550    0.241    0.575    4.706
  214.870    0.000   89.641    0.220    0.606    4.641
  215.120    0.000   88.101    0.235    0.619    4.822
  215.370    0.000   84.733    0.261    0.618    5.282
  215.620    0.000   77.933    0.262    0.596    6.163
  215.870    0.000   62.140    0.280    0.552    7.054
  216.120    0.000   61.300    0.304    0.505    8.284
  216.370    0.000   66.959    0.302    0.484    8.852
  216.620    0.000   70.569    0.282    0.474    8.749
  216.870    0.000   75.846    0.279    0.529    8.045
  217.120    0.000   81.531    0.256    0.582    7.459
  217.370    0.000   84.374    0.249    0.580    7.355
  217.620    0.000   83.671    0.254    0.554    7.344
  217.870    0.000   81.611    0.260    0.527    7.819
  218.120    0.000   81.286    0.265    0.522    8.468
  218.370    0.000   80.257    0.268    0.505    9.442
  218.620    0.000   77.875    0.279    0.498   10.047
  218.870    0.000   80.997    0.295    0.551   10.426
  219.120    0.000   83.101    0.285    0.572   10.928
  219.370    0.000   79.742    0.280    0.571   11.450
  219.620    0.000   71.354    0.273    0.540   12.316
  219.870    0.000   69.811    0.290    0.517   13.316
  220.120    0.000   71.580    0.328    0.550   14.002
  220.370    0.000   83.042    0.342    0.583   13.953
  220.620    0.000   96.078    0.297    0.611   13.694
  220.870    0.000  101.554    0.260    0.578   12.619
  221.120    0.000  101.860    0.257    0.548   12.291
  221.370    0.000  100.655    0.267    0.510   12.138
  221.620    0.000   95.926    0.252    0.498   12.566
  221.870    0.000   86.222    0.254    0.502   14.316
  222.120    0.000   67.799    0.298    0.557   15.827
  222.370    0.000   52.059    0.328    0.585   17.516
  222.620    0.000   44.890    0.357    0.557   20.281
  222.870    0.000   42.564    0.344    0.507   25.804
  223.120    0.000   43.413    0.348    0.512   28.029
  223.370    0.000   45.739    0.358    0.486   27.761
  223.620    0.000   47.624    0.341    0.459   25.550
  223.870    0.000   51.714    0.336    0.448   23.359
  224.120    0.000   59.247    0.321    0.454   21.762
  224.370    0.000   66.916    0.311    0.447   21.208
  224.620    0.000   70.165    0.303    0.453   21.575
  224.870    0.000   65.506    0.286    0.442   22.901
  225.120    0.000   63.158    0.262    0.433   24.346
  225.370    0.000   61.129    0.226    0.399   26.711
  225.620    0.000   60.113    0.211    0.389   28.216
  225.870    0.000   54.634    0.308    0.436   29.011
  226.120    0.000   50.939    0.306    0.448   28.560
  226.370    0.000   45.781    0.287    0.426   26.172
  226.620    0.000   44.695    0.275    0.424   24.594
  226.870    0.000   48.057    0.314    0.453   22.819
  227.120    0.000   53.677    0.330    0.484   21.908
  227.370    0.000   56.113    0.330    0.495   21.619
  227.620    0.000   56.155    0.342    0.489   21.864
  227.870    0.000   57.269    0.344    0.480   22.127
  228.120    0.000   61.382    0.352    0.464   23.235
  228.370    0.000   62.962    0.348    0.459   23.252
  228.620    0.000   62.165    0.346    0.469   23.254
  228.870    0.000   60.181    0.352    0.503   23.261
  229.120    0.000   58.780    0.343    0.535   23.391
  229.370    0.000   57.403    0.341    0.529   24.141
  229.620    0.000   57.888    0.340    0.506   24.539
  229.870    0.000   63.785    0.338    0.475   25.066
  230.120    0.000   65.231    0.346    0.479   25.012
  230.370    0.000   66.755    0.361    0.465   25.008
  230.620    0.000   70.242    0.349    0.456   25.009
  230.870    0.000   71.921    0.341    0.469   24.996
  231.120    0.000   74.780    0.355    0.471   24.744
  231.370    0.000   77.603    0.347    0.481   24.490
  231.620    0.000   79.438    0.335    0.516   24.100
  231.870    0.000   73.340    0.258    0.517   23.383
  232.120    0.000   66.863    0.172    0.510   23.147
  232.370    0.000   68.832    0.140    0.471   21.625
  232.620    0.000   81.336    0.241    0.479   21.032
  232.870    0.000   84.616    0.304    0.462   20.408
  233.120    0.000   84.067    0.280    0.469   20.403
  233.370    0.000   74.089    0.272    0.562   21.086
  233.620    0.000   59.491    0.273    0.526   22.735
  233.870    0.000   42.045    0.277    0.487   24.346
  234.120    0.000   36.622    0.294    0.392   26.576
  234.370    0.000   43.145    0.264    0.355   26.509
