~VERSION INFORMATION
 VERS.                 2.0:   CWLS LOG ASCII STANDARD -VERSION 2.0
 WRAP.                  NO:   ONE LINE PER DEPTH STEP
~WELL INFORMATION BLOCK
#MNEM.UNIT           DATA                    DESCRIPTION OF MNEMONIC
#---------    -------------------            -------------------------------
# Generated from Intellog Unique Number	CW_70_72/WELL/3002
NULL.         -999.25                        : NULL_VALUE
WELL.         CDN-SUP MI5TSUE 04-03          : Well_name    - WELL              
LOC .         04-03-070-03W5                 : Location     - LOCATION          
UWI .         00/04-03-070-03W5/0            : Uwi          - UNIQUE WELL ID    
ENTR.         JAYE                           : Entered      - ENTERED BY        
SRVC.         SCHLUMBERGER                   : Scn          - SERVICE COMPANY   
DATE.         8 SEPT 80                      : Date         - LOG DATE          
STRT.M        495                            : top_depth    - START DEPTH       
STOP.M        705                            : bot_depth    - STOP DEPTH        
STEP.M        0.25                           : increment    - STEP LENGTH       
~CURVE INFORMATION BLOCK
#MNEM UNIT       ERCB CURVE CODE    CURVE DESCRIPTION
#-----------   ------------------   ----------------------------------
DEPT.M        00 001 00 00         : DEPTH        - DEPTH                       
ILD .OHMM     00 120 00 00         : RESD         - DEEP RESISTIVITY (DIL)      
CALI.MM       00 280 01 00         : CAL          - CALIPER                     
GR  .API      00 310 00 00         : GR           - GAMMA RAY                   
NPHI.V/V      00 330 00 00         : PHIN         - NEUTRON POROSITY (SANDSTONE)
DPHI.V/V      00 890 00 00         : PHID         - DENSITY POROSITY (SANDSTONE)
~PARAMETER INFORMATION       
#MNEM.UNIT           DATA             DESCRIPTION OF MNEMONIC
#---------         -----------     ------------------------------
GL  .M        614                  : gl           - GROUND LEVEL ELEVATION      
EREF.M        621                  : kb           - ELEVATION OF DEPTH REFERENCE
DATM.M        614                  : datum        - DATUM ELEVATION             
TDD .M        1710.5               : tdd          - TOTAL DEPTH DRILLER         
RUN .         ONE                  : Run          - RUN NUMBER                  
ENG .         IRELAND              : Engineer     - RECORDING ENGINEER          
WIT .         KELLY                : Witness      - WITNESSED BY                
BASE.         EDMONTON             : Branch       - HOME BASE OF LOGGING UNIT   
MUD .         GEL BENEX            : Mud_type     - MUD TYPE                    
MATR.         SANDSTONE            : Logunit      - NEUTRON MATRIX              
TMAX.C        44                   : BHT          - MAXIMUM RECORDED TEMPERATURE
BHTD.M        1708.5               : BHTDEP       - MAXIMUM RECORDED TEMPERATURE
RMT .C        17.8                 : MDTP         - TEMPERATURE OF MUD          
MUDD.KG/M     1110                 : MWT          - MUD DENSITY                 
NEUT.         1                    : NEUTRON      - NEUTRON TYPE                
RESI.         0                    : RESIST       - RESISTIVITY TYPE            
RM  .OHMM     1.9                  : RM           - RESISTIVITY OF MUD          
RMC .OHMM     0.25                 : RMC          - RESISTIVITY OF MUD CAKE     
RMF .OHMM     0.99                 : RMF          - RESISTIVITY OF MUD FILTRATE 
SUFT.C        0                    : SUFT         - SURFACE TEMPERATURE         
~A  DEPTH     RESD      CAL       GR     PHIN     PHID
# ...
  641.000    4.231  248.408   57.974    0.333    0.222
  641.250    4.460  251.586   59.511    0.366    0.251
  641.500    4.472  253.119   61.047    0.433    0.276
  641.750    4.337  254.243   62.399    0.435    0.285
  642.000    4.113  254.957   64.981    0.423    0.267
  642.250    3.872  255.260   65.595    0.419    0.263
  642.500    3.653  255.563   64.668    0.414    0.271
  642.750    3.548  255.555   64.296    0.419    0.267
  643.000    3.453  255.860   66.263    0.430    0.261
  643.250    3.337  255.958   66.752    0.419    0.267
  643.500    3.278  255.645   67.550    0.425    0.269
  643.750    3.215  255.946   68.471    0.424    0.267
  644.000    3.140  255.944   68.160    0.411    0.262
  644.250    3.096  256.247   66.309    0.403    0.261
  644.500    3.059  256.344   65.752    0.407    0.264
  644.750    3.062  256.440   64.517    0.408    0.263
  645.000    3.064  256.539   64.084    0.405    0.258
  645.250    3.078  257.149   64.820    0.408    0.251
  645.500    3.097  258.685   66.479    0.408    0.247
  645.750    3.112  264.939   67.400    0.410    0.240
  646.000    3.166  270.990   68.874    0.416    0.239
  646.250    3.198  275.602   69.795    0.415    0.238
  646.500    3.189  276.418   68.499    0.416    0.244
  646.750    3.197  273.848   67.141    0.424    0.252
  647.000    3.176  266.043   68.247    0.431    0.243
  647.250    3.191  264.704   68.982    0.416    0.232
  647.500    3.210  266.546   68.918    0.394    0.228
  647.750    3.243  268.080   68.669    0.405    0.246
  648.000    3.276  268.486   66.449    0.418    0.246
  648.250    3.291  266.531   65.769    0.421    0.247
  648.500    3.306  265.602   67.305    0.421    0.257
  648.750    3.364  266.727   67.549    0.425    0.244
  649.000    3.379  269.081   66.868    0.422    0.232
  649.250    3.388  271.642   66.988    0.415    0.223
  649.500    3.378  273.074   68.894    0.406    0.242
  649.750    3.343  274.608   67.598    0.399    0.239
  650.000    3.321  275.116   64.886    0.400    0.225
  650.250    3.374  275.828   63.097    0.378    0.206
  650.500    3.471  275.927   64.263    0.379    0.200
  650.750    3.585  276.333   65.246    0.386    0.207
  651.000    3.662  275.814   65.736    0.385    0.214
  651.250    3.720  275.194   62.654    0.383    0.218
  651.500    3.715  274.367   64.375    0.391    0.207
  651.750    3.746  274.055   67.513    0.394    0.205
  652.000    3.742  272.305   69.049    0.392    0.213
  652.250    3.697  269.017   69.477    0.382    0.209
  652.500    3.720  266.240   70.028    0.389    0.201
  652.750    3.787  264.697   70.949    0.387    0.185
  653.000    3.804  262.742   71.685    0.372    0.188
  653.250    3.849  261.197   72.667    0.382    0.199
  653.500    3.902  259.755   73.834    0.401    0.202
  653.750    3.941  258.005   74.570    0.388    0.198
  654.000    3.989  256.461   74.259    0.382    0.194
  654.250    3.992  254.301   73.332    0.386    0.185
  654.500    3.987  252.448   70.989    0.387    0.173
  654.750    4.088  250.699   68.584    0.366    0.151
  655.000    4.439  251.003   66.981    0.333    0.106
  655.250    4.955  251.100   67.531    0.279    0.097
  655.500    5.626  250.684   69.068    0.301    0.138
  655.750    6.018  250.371   70.297    0.315    0.163
  656.000    6.439  250.469   71.772    0.332    0.161
  656.250    6.626  249.746   73.924    0.343    0.126
  656.500    6.533  248.920   76.692    0.323    0.109
  656.750    6.406  249.325   79.891    0.300    0.148
  657.000    6.077  251.475   85.183    0.282    0.175
  657.250    5.699  260.810   90.845    0.341    0.203
  657.500    4.994  258.238   89.303    0.379    0.197
  657.750    4.994  249.408   88.191    0.376    0.163
  658.000    4.497  247.453   91.760    0.360    0.153
  658.250    4.510  246.935   94.774    0.355    0.142
  658.500    4.727  245.083   93.847    0.351    0.130
  658.750    5.181  240.254   89.288    0.344    0.118
  659.000    5.460  239.940   83.927    0.336    0.102
  659.250    5.640  242.194   77.275    0.357    0.123
  659.500    5.479  240.034   67.604    0.368    0.097
  659.750    5.235  241.158   65.015    0.257    0.053
  660.000    5.288  246.796   71.354    0.237    0.085
  660.250    5.700  250.589   81.695    0.308    0.105
  660.500    5.898  253.355   84.525    0.347    0.130
  660.750    5.924  254.274   85.692    0.377    0.138
  661.000    5.485  253.858   88.522    0.377    0.130
  661.250    5.097  253.237   88.088    0.374    0.112
  661.500    4.790  253.437   86.976    0.374    0.117
  661.750    4.723  253.741   88.143    0.394    0.128
  662.000    4.710  253.940   92.204    0.401    0.140
  662.250    4.635  254.243   90.662    0.396    0.134
  662.500    4.613  255.265   87.149    0.390    0.116
  662.750    4.625  257.107   83.267    0.384    0.117
  663.000    4.578  258.539   80.555    0.378    0.134
  663.250    4.607  259.663   81.106    0.373    0.141
  663.500    4.689  260.069   82.827    0.367    0.111
  663.750    4.735  259.858   85.410    0.371    0.097
  664.000    4.801  260.161   86.392    0.375    0.111
  664.250    4.885  261.490   83.187    0.370    0.124
  664.500    5.009  262.511   79.613    0.352    0.120
  664.750    5.144  263.738   79.980    0.347    0.129
  665.000    5.402  264.451   82.809    0.354    0.138
  665.250    5.600  265.678   86.439    0.357    0.140
  665.500    5.807  266.904   86.004    0.350    0.134
  665.750    5.886  267.515   83.231    0.337    0.123
  666.000    5.967  268.126   78.486    0.344    0.097
  666.250    6.006  268.531   79.592    0.337    0.107
  666.500    5.988  268.833   81.559    0.321    0.135
  666.750    5.927  269.547   86.236    0.338    0.138
  667.000    5.791  271.800   92.514    0.348    0.134
  667.250    5.688  273.334   98.360    0.352    0.130
  667.500    5.547  274.355   99.527    0.356    0.130
  667.750    5.390  274.967   94.475    0.363    0.135
  668.000    5.275  275.988   94.903    0.372    0.135
  668.250    5.163  278.959   93.976    0.376    0.157
  668.500    5.091  298.248   89.725    0.383    0.248
  668.750    4.946  323.386   81.224    0.398    0.272
  669.000    4.562  335.901   75.002    0.483    0.303
  669.250    3.503  330.765   69.950    0.595    0.394
  669.500    2.173  358.367   65.945    0.637    0.495
  669.750    1.684  390.381   61.139    0.666    0.644
  670.000    1.459  429.887   56.887    0.706    0.712
  670.250    1.414  468.777   60.209    0.732    0.738
  670.500    1.429  481.395   65.132    0.667    0.738
  670.750    1.470  290.608   73.072    0.601    0.545
  671.000    1.541  272.747   74.178    0.568    0.459
  671.250    1.763  275.102   73.744    0.524    0.140
  671.500    2.038  281.870   77.743    0.401    0.123
  671.750    2.674  283.097   79.772    0.381    0.145
  672.000    3.553  279.397   75.397    0.402    0.171
  672.250    4.264  272.414   72.747    0.407    0.089
  672.500    4.995  277.027   75.638    0.324    0.114
  672.750    5.027  280.921   80.437    0.344    0.108
  673.000    4.884  283.790   83.883    0.378    0.113
  673.250    4.590  285.632   88.128    0.405    0.168
  673.500    4.393  291.375   89.234    0.427    0.221
  673.750    4.129  292.088   86.952    0.455    0.260
  674.000    4.033  287.259   83.563    0.457    0.241
  674.250    4.066  288.076   80.050    0.430    0.181
  674.500    4.161  302.438   82.694    0.398    0.226
  674.750    4.211  310.848   82.938    0.407    0.254
  675.000    4.184  304.070   82.627    0.431    0.261
  675.250    4.148  292.365   83.855    0.437    0.252
  675.500    4.091  289.077   84.776    0.426    0.243
  675.750    4.063  293.177   84.403    0.416    0.197
  676.000    4.036  298.918   83.846    0.407    0.235
  676.250    4.100  297.168   82.674    0.398    0.290
  676.500    4.149  294.187   82.301    0.407    0.290
  676.750    3.994  292.746   82.360    0.436    0.253
  677.000    3.816  292.330   82.357    0.429    0.232
  677.250    3.728  291.299   82.662    0.439    0.229
