~VERSION INFORMATION
 VERS.                 2.0:   CWLS LOG ASCII STANDARD -VERSION 2.0
 WRAP.                  NO:   ONE LINE PER DEPTH STEP
~WELL INFORMATION BLOCK
#MNEM.UNIT           DATA                    DESCRIPTION OF MNEMONIC
#---------    -------------------            -------------------------------
# Generated from Intellog Unique Number	CS_77_79/WELL/873
WELL.         CDN-SUP PORTAGE                : Well_name    - WELL
LOC .         00/06-12-078-15W4/0            : Location     - LOCATION
UWI .         00/06-12-078-15W4/0            : Uwi          - UNIQUE WELL ID
ENTR.         JHS                            : Entered      - ENTERED BY
SRVC.         SCHLUMBERGER                   : Scn          - SERVICE COMPANY
STRT.M        220                            : top_depth    - START DEPTH
STOP.M        459                            : bot_depth    - STOP DEPTH
STEP.M        0.25                           : increment    - STEP LENGTH
 NULL. -999.2500:NULL Value
~CURVE INFORMATION BLOCK
#MNEM UNIT       ERCB CURVE CODE    CURVE DESCRIPTION
#-----------   ------------------   ----------------------------------
DEPT.M        00 001 00 00         : DEPTH        - DEPTH
DPHI.V/V      00 890 00 00         : PHID         - DENSITY POROSITY (LIMESTONE)
NPHI.V/V      00 330 00 00         : PHIN         - NEUTRON POROSITY (LIMESTONE)
GR  .API      00 310 00 00         : GR           - GAMMA RAY
ILD .OHMM     00 120 00 00         : RESD         - DEEP RESISTIVITY (DIL)
~PARAMETER INFORMATION
#MNEM.UNIT           DATA             DESCRIPTION OF MNEMONIC
#---------         -----------     ------------------------------
GL  .M        620.5                : gl           - GROUND LEVEL ELEVATION
EREF.M        624.85               : kb           - ELEVATION OF DEPTH REFERENCE
DATM.M        624.85               : datum        - DATUM ELEVATION
TDD .M        506                  : tdd          - TOTAL DEPTH DRILLER
RUN .         ONE                  : Run          - RUN NUMBER
ENG .         BILL                 : Engineer     - RECORDING ENGINEER
WIT .         JIM                  : Witness      - WITNESSED BY
MUD .         GEL                  : Mud_type     - MUD TYPE
MATR.         LIMESTONE            : Logunit      - NEUTRON MATRIX
TMAX.C        23                   : BHT          - MAXIMUM RECORDED TEMPERATURE
BHTD.M        506                  : BHTDEP       - MAXIMUM RECORDED TEMPERATURE
MATR.         1                    : LOGUNIT      - NEUTRON MATRIX
RMT .C        25                   : MDTP         - TEMPERATURE OF MUD
NEUT.         1                    : NEUTRON      - NEUTRON TYPE
RESI.         0                    : RESIST       - RESISTIVITY TYPE
RMC .OHMM     0.25                 : RMC          - RESISTIVITY OF MUD CAKE
RMF .OHMM     0.25                 : RMF          - RESISTIVITY OF MUD FILTRATE
SUFT.C        15                   : SUFT         - SURFACE TEMPERATURE
~A  DEPTH     PHID     PHIN       GR     RESD
# ...
  307.000    0.311    0.446   51.238   12.628
  307.250    0.306    0.460   51.254   12.877
  307.500    0.309    0.476   51.879   12.885
  307.750    0.312    0.453   50.664   12.892
  308.000    0.317    0.442   49.444   13.147
  308.250    0.320    0.446   48.229   13.154
  308.500    0.316    0.441   48.244   13.162
  308.750    0.312    0.434   49.485   13.171
  309.000    0.310    0.425   48.270   13.180
  309.250    0.316    0.417   48.898   13.189
  309.500    0.318    0.416   47.067   12.950
  309.750    0.317    0.428   46.462   12.959
  310.000    0.318    0.426   46.476   12.964
  310.250    0.322    0.446   45.261   12.972
  310.500    0.322    0.459   45.886   12.981
  310.750    0.313    0.464   47.129   12.745
  311.000    0.307    0.480   47.758   12.755
  311.250    0.312    0.484   50.229   12.762
  311.500    0.322    0.458   50.856   12.771
  311.750    0.324    0.441   47.181   13.022
  312.000    0.324    0.436   49.040   13.029
  312.250    0.329    0.447   51.510   13.286
  312.500    0.319    0.451   50.293   13.294
  312.750    0.304    0.443   47.233   13.303
  313.000    0.296    0.453   47.862   13.309
  313.250    0.301    0.427   42.956   13.318
  313.500    0.317    0.430   39.896   13.325
  313.750    0.335    0.432   39.908   13.335
  314.000    0.328    0.410   41.154   13.094
  314.250    0.323    0.393   43.009   13.101
  314.500    0.318    0.416   46.094   13.108
  314.750    0.312    0.436   52.257   13.118
  315.000    0.299    0.438   55.957   12.880
  315.250    0.291    0.455   58.430   12.647
  315.500    0.285    0.467   59.058   11.957
  315.750    0.285    0.456   58.455   10.888
  316.000    0.287    0.437   57.238    9.368
  316.250    0.282    0.461   57.252    7.909
  316.500    0.250    0.480   62.182    6.553
  316.750    0.181    0.488   67.727    5.855
  317.000    0.196    0.499   78.194    5.433
  317.250    0.235    0.502   74.517    5.041
  317.500    0.239    0.514   73.299    4.504
  317.750    0.250    0.489   78.847    4.100
  318.000    0.248    0.483   81.934    3.664
  318.250    0.261    0.530   84.406    3.464
  318.500    0.262    0.541   85.032    3.600
  318.750    0.229    0.522   78.898    4.518
  319.000    0.216    0.500   77.680    5.669
  319.250    0.208    0.476   83.843    6.982
  319.500    0.201    0.474   82.625    7.394
  319.750    0.196    0.468   79.564    7.399
  320.000    0.197    0.499   79.576    7.403
  320.250    0.193    0.501   80.206    7.269
  320.500    0.191    0.474   79.603    7.137
  320.750    0.196    0.453   79.618    7.008
  321.000    0.198    0.458   83.319    6.882
  321.250    0.190    0.475   86.406    7.016
  321.500    0.183    0.477   88.876    7.155
  321.750    0.187    0.469   88.891    7.296
  322.000    0.197    0.462   86.446    7.300
  322.250    0.208    0.465   85.841    7.035
  322.500    0.186    0.468   86.471    6.777
  322.750    0.176    0.456   87.099    6.288
  323.000    0.178    0.448   87.725    5.619
  323.250    0.184    0.463   87.123    5.312
  323.500    0.187    0.498   88.984    4.930
  323.750    0.197    0.518   90.226    4.933
  324.000    0.210    0.502   88.391    5.126
  324.250    0.210    0.487   84.105    5.427
  324.500    0.205    0.476   84.117    5.748
  324.750    0.201    0.492   83.515    5.861
  325.000    0.203    0.486   79.836    6.205
  325.250    0.214    0.476   78.005    6.696
  325.500    0.216    0.477   73.716    7.646
  325.750    0.220    0.480   71.269    8.408
  326.000    0.230    0.484   69.438    7.951
  326.250    0.239    0.466   70.065    7.103
  326.500    0.243    0.459   74.997    5.060
  326.750    0.238    0.469   82.387    3.471
  327.000    0.229    0.493   90.392    2.667
  327.250    0.231    0.531   94.093    2.383
  327.500    0.237    0.574   94.722    2.296
  327.750    0.233    0.593   95.965    2.342
  328.000    0.227    0.567   95.363    2.433
  328.250    0.222    0.542   93.531    2.577
  328.500    0.218    0.554   92.313    2.627
  328.750    0.222    0.540   92.940    2.629
  329.000    0.240    0.537   89.881    2.582
  329.250    0.249    0.584   92.967    2.535
  329.500    0.244    0.578   96.053    2.489
  329.750    0.240    0.568   96.066    2.538
  330.000    0.238    0.568   99.155    2.637
  330.250    0.238    0.574  101.011    2.740
  330.500    0.236    0.570   96.106    2.901
  330.750    0.229    0.558   88.741    3.190
  331.000    0.215    0.537   89.371    3.508
  331.250    0.208    0.519   90.613    3.715
  331.500    0.198    0.501   90.010    3.860
  331.750    0.198    0.495   86.950    4.011
  332.000    0.195    0.490   90.652    4.411
  332.250    0.201    0.536   94.971    4.851
  332.500    0.218    0.547   96.209    5.435
  332.750    0.231    0.529   77.782    6.324
  333.000    0.248    0.505   71.032    7.501
  333.250    0.273    0.482   63.051    8.247
  333.500    0.277    0.469   53.842    9.069
  333.750    0.268    0.442   49.554    9.605
  334.000    0.269    0.424   47.721    9.792
  334.250    0.283    0.415   48.964    9.799
  334.500    0.292    0.429   51.436    9.806
  334.750    0.281    0.429   50.219    9.811
  335.000    0.274    0.418   50.848    9.635
  335.250    0.273    0.418   52.704    9.639
  335.500    0.281    0.427   53.331    9.645
  335.750    0.289    0.431   53.348    9.652
  336.000    0.285    0.432   53.358    9.843
  336.250    0.286    0.435   53.372    9.849
  336.500    0.300    0.433   51.539    9.855
  336.750    0.300    0.439   52.170    9.859
  337.000    0.292    0.436   53.411    9.868
  337.250    0.286    0.426   50.349    9.687
  337.500    0.279    0.416   52.822    9.335
  337.750    0.290    0.410   55.292    9.165
  338.000    0.298    0.427   57.151    9.000
  338.250    0.297    0.456   57.781    8.673
  338.500    0.292    0.454   60.252    8.515
  338.750    0.293    0.440   62.107    8.519
  339.000    0.291    0.449   65.196    8.367
  339.250    0.283    0.451   65.206    8.370
  339.500    0.281    0.448   63.989    8.536
  339.750    0.281    0.440   66.465    8.381
  340.000    0.275    0.433   67.704    8.387
  340.250    0.262    0.439   68.332    8.392
  340.500    0.255    0.453   70.805    8.240
  340.750    0.261    0.449   72.662    8.246
  341.000    0.270    0.451   72.062    8.096
  341.250    0.268    0.459   72.073    8.100
  341.500    0.262    0.462   72.088    8.259
  341.750    0.261    0.454   70.257    8.265
  342.000    0.262    0.461   67.810    8.270
  342.250    0.268    0.483   64.134    7.530
  342.500    0.270    0.450   65.378    6.728
  342.750    0.260    0.438   72.152    6.243
  343.000    0.247    0.444   79.541    5.903
  343.250    0.240    0.460   78.942    5.796
  343.500    0.239    0.472   77.107    5.911
  343.750    0.236    0.469   74.662    6.142
  344.000    0.233    0.478   74.676    6.262
  344.250    0.233    0.491   77.764    6.507
  344.500    0.232    0.457   78.388    6.635
  344.750    0.226    0.439   76.559    6.516
  345.000    0.219    0.457   73.497    6.277
  345.250    0.214    0.480   79.658    6.049
  345.500    0.219    0.489   84.588    6.053
  345.750    0.224    0.504   85.834    6.289
  346.000    0.229    0.500   76.622    6.786
  346.250    0.236    0.476   69.873    7.323
  346.500    0.240    0.459   69.278    7.902
  346.750    0.238    0.454   69.900    8.212
  347.000    0.245    0.469   70.528    8.216
  347.250    0.244    0.457   71.772    7.917
  347.500    0.236    0.438   73.626    7.629
  347.750    0.225    0.413   78.559    7.213
  348.000    0.219    0.403   81.646    6.692
  348.250    0.212    0.439   82.888    6.329
  348.500    0.205    0.431   83.515    6.214
  348.750    0.196    0.436   87.831    6.102
  349.000    0.193    0.452   91.532    5.991
  349.250    0.195    0.476   87.861    5.882
  349.500    0.196    0.476   85.414    5.886
  349.750    0.199    0.460   84.809    5.890
  350.000    0.206    0.491   85.714    5.758
  350.250    0.206    0.488   84.488    5.762
