~VERSION INFORMATION
 VERS.                 2.0:   CWLS LOG ASCII STANDARD -VERSION 2.0
 WRAP.                  NO:   ONE LINE PER DEPTH STEP
~WELL INFORMATION BLOCK
#MNEM.UNIT           DATA                    DESCRIPTION OF MNEMONIC
#---------    -------------------            -------------------------------
# Generated from Intellog Unique Number	CS_69_70/WELL/805
WELL.         HUSKY OIL OPERATIONS           : Well_name    - WELL
LOC .         00/06-22-069-06W4/0            : Location     - LOCATION
UWI .         00/06-22-069-06W4/0            : Uwi          - UNIQUE WELL ID
ENTR.         SP                             : Entered      - ENTERED BY
SRVC.         SCHLUMBERGER                   : Scn          - SERVICE COMPANY
STRT.M        350                            : top_depth    - START DEPTH
STOP.M        585                            : bot_depth    - STOP DEPTH
STEP.M        0.25                           : increment    - STEP LENGTH
 NULL. -999.2500:NULL Value
~CURVE INFORMATION BLOCK
#MNEM UNIT       ERCB CURVE CODE    CURVE DESCRIPTION
#-----------   ------------------   ----------------------------------
DEPT.M        00 001 00 00         : DEPTH        - DEPTH
ILD .OHMM     00 120 00 00         : RESD         - DEEP RESISTIVITY (DIL)
DPHI.V/V      00 890 00 00         : PHID         - DENSITY POROSITY (LIMESTONE)
NPHI.V/V      00 330 00 00         : PHIN         - NEUTRON POROSITY (LIMESTONE)
GR  .API      00 310 00 00         : GR           - GAMMA RAY
~PARAMETER INFORMATION
#MNEM.UNIT           DATA             DESCRIPTION OF MNEMONIC
#---------         -----------     ------------------------------
GL  .M        710.5                : gl           - GROUND LEVEL ELEVATION
EREF.M        714.2                : kb           - ELEVATION OF DEPTH REFERENCE
DATM.M        710.5                : datum        - DATUM ELEVATION
TDD .M        591                  : tdd          - TOTAL DEPTH DRILLER
RUN .         ONE                  : Run          - RUN NUMBER
ENG .         BILL                 : Engineer     - RECORDING ENGINEER
WIT .         JIM                  : Witness      - WITNESSED BY
MUD .         GEL                  : Mud_type     - MUD TYPE
MATR.         LIMESTONE            : Logunit      - NEUTRON MATRIX
TMAX.C        27                   : BHT          - MAXIMUM RECORDED TEMPERATURE
BHTD.M        591                  : BHTDEP       - MAXIMUM RECORDED TEMPERATURE
MATR.         1                    : LOGUNIT      - NEUTRON MATRIX
RMT .C        25                   : MDTP         - TEMPERATURE OF MUD
NEUT.         1                    : NEUTRON      - NEUTRON TYPE
RESI.         0                    : RESIST       - RESISTIVITY TYPE
RMC .OHMM     0.25                 : RMC          - RESISTIVITY OF MUD CAKE
RMF .OHMM     0.25                 : RMF          - RESISTIVITY OF MUD FILTRATE
SUFT.C        15                   : SUFT         - SURFACE TEMPERATURE
~A  DEPTH     RESD     PHID     PHIN       GR
# ...
  524.000   19.431    0.175    0.345   98.273
  524.250   26.220    0.189    0.367   99.881
  524.500   33.197    0.197    0.386   98.735
  524.750   40.865    0.188    0.412   70.514
  525.000   48.364    0.241    0.434   56.199
  525.250   54.723    0.273    0.395   45.006
  525.500   59.084    0.293    0.253   35.162
  525.750   63.435    0.163    0.229   32.546
  526.000   66.344    0.059    0.234   30.970
  526.250   66.584    0.263    0.285   33.196
  526.500   60.508    0.291    0.329   34.986
  526.750   44.164    0.307    0.340   35.187
  527.000   36.340    0.268    0.310   34.408
  527.250   29.567    0.238    0.322   31.607
  527.500   26.126    0.249    0.341   39.221
  527.750   22.698    0.288    0.344   48.792
  528.000   20.665    0.297    0.348   56.099
  528.250   19.533    0.295    0.358   59.239
  528.500   25.196    0.291    0.366   59.931
  528.750   27.930    0.283    0.383   57.621
  529.000   35.098    0.298    0.354   65.601
  529.250   45.447    0.310    0.341   77.194
  529.500   63.309    0.281    0.363   64.961
  529.750   90.366    0.239    0.379   45.010
  530.000  112.497    0.284    0.379   29.102
  530.250  124.926    0.311    0.358   20.360
  530.500  128.950    0.332    0.347   19.826
  530.750  116.747    0.341    0.345   19.661
  531.000   93.402    0.343    0.356   19.432
  531.250   70.379    0.341    0.359   18.285
  531.500   47.748    0.343    0.352   20.201
  531.750   32.032    0.347    0.347   24.996
  532.000   24.455    0.347    0.336   31.384
  532.250   18.952    0.338    0.328   43.773
  532.500   15.800    0.326    0.345   70.924
  532.750   14.712    0.292    0.365   76.088
  533.000   14.037    0.254    0.376   72.919
  533.250   13.801    0.258    0.365   78.388
  533.500   13.670    0.252    0.355   88.144
  533.750   14.486    0.230    0.367   87.732
  534.000   15.379    0.217    0.360   77.950
  534.250   15.994    0.251    0.355   70.677
  534.500   15.519    0.270    0.350   64.080
  534.750   13.357    0.281    0.346   68.385
  535.000   12.840    0.267    0.343   77.590
  535.250   12.791    0.249    0.345   85.386
  535.500   13.503    0.228    0.360   87.732
  535.750   14.772    0.218    0.371   81.500
  536.000   16.871    0.224    0.366   77.107
  536.250   19.670    0.237    0.360   73.510
  536.500   21.478    0.249    0.372   68.321
  536.750   22.253    0.261    0.379   56.273
  537.000   21.352    0.271    0.374   47.775
  537.250   19.882    0.286    0.363   46.507
  537.500   17.567    0.302    0.352   55.467
  537.750   16.205    0.301    0.345   63.751
  538.000   16.203    0.284    0.353   61.748
  538.250   17.201    0.280    0.359   67.584
  538.500   18.090    0.274    0.362   85.731
  538.750   18.260    0.266    0.361   83.788
  539.000   18.223    0.264    0.359   70.514
  539.250   16.969    0.273    0.363   64.406
  539.500   15.334    0.284    0.363   64.607
  539.750   17.979    0.293    0.365   73.261
  540.000   21.318    0.263    0.380   70.278
  540.250   24.669    0.250    0.397   59.146
  540.500   26.635    0.276    0.407   49.547
  540.750   27.961    0.298    0.415   42.581
  541.000   28.220    0.315    0.402   33.594
  541.250   25.453    0.329    0.369   43.596
  541.500   23.131    0.310    0.350   49.800
  541.750   21.987    0.298    0.350   54.410
  542.000   21.295    0.284    0.367   49.405
  542.250   21.251    0.273    0.380   43.727
  542.500   21.249    0.292    0.367   42.459
  542.750   21.527    0.309    0.359   42.475
  543.000   21.973    0.313    0.352   42.002
  543.250   22.723    0.306    0.354   39.876
  543.500   23.676    0.299    0.360   38.239
  543.750   25.089    0.292    0.360   40.584
  544.000   27.088    0.288    0.357   41.213
  544.250   29.412    0.290    0.355   37.985
  544.500   31.637    0.298    0.360   36.041
  544.750   34.544    0.304    0.364   35.077
  545.000   36.197    0.313    0.365   34.360
  545.250   37.573    0.323    0.363   31.498
  545.500   37.498    0.328    0.358   28.453
  545.750   33.822    0.321    0.353   29.817
  546.000   30.507    0.315    0.351   31.981
  546.250   29.936    0.310    0.348   34.200
  546.500   34.126    0.304    0.346   35.627
  546.750   37.614    0.301    0.358   34.602
  547.000   43.364    0.299    0.364   29.658
  547.250   51.514    0.300    0.368   26.245
  547.500   61.656    0.307    0.374   26.447
  547.750   76.898    0.316    0.379   25.485
  548.000   83.656    0.327    0.377   22.194
  548.250   95.366    0.332    0.369   19.209
  548.500  111.603    0.338    0.368   18.614
  548.750  123.240    0.344    0.368   20.897
  549.000  135.325    0.355    0.407   22.384
  549.250  145.836    0.365    0.432   17.932
  549.500  142.040    0.360    0.389   17.641
  549.750   74.412    0.354    0.370   18.761
  550.000   43.295    0.351    0.357   24.720
  550.250   31.481    0.340    0.340   35.089
  550.500   25.760    0.325    0.329   47.969
  550.750   20.302    0.303    0.321   57.847
  551.000   17.311    0.265    0.318   63.132
  551.250   17.309    0.230    0.323   65.354
  551.500   19.257    0.190    0.364   61.269
  551.750   25.262    0.211    0.376   50.751
  552.000   28.002    0.246    0.365   47.704
  552.250   33.329    0.274    0.368   41.596
  552.500   40.798    0.290    0.389   26.545
  552.750   47.924    0.318    0.379   20.990
  553.000   51.743    0.336    0.373   18.924
  553.250   49.834    0.343    0.382   19.125
  553.500   43.053    0.355    0.398   21.779
  553.750   35.961    0.360    0.405   24.428
  554.000   32.013    0.343    0.383   27.139
  554.250   29.365    0.327    0.363   29.424
  554.500   27.965    0.319    0.352   29.869
  554.750   27.035    0.308    0.350   30.437
  555.000   24.939    0.297    0.357   32.046
  555.250   21.748    0.294    0.359   35.250
  555.500   17.895    0.290    0.365   37.532
  555.750   14.948    0.281    0.392   37.551
  556.000   12.509    0.269    0.394   30.339
  556.250   10.140    0.300    0.381   24.170
  556.500    8.406    0.321    0.368   23.207
  556.750    7.526    0.349    0.358   23.348
  557.000    6.538    0.345    0.365   21.281
  557.250    6.250    0.355    0.390   17.440
  557.500    6.042    0.356    0.365   17.028
  557.750    6.030    0.331    0.348   18.088
  558.000    6.097    0.314    0.338   19.023
  558.250    6.165    0.318    0.340   19.346
  558.500    6.176    0.324    0.342   19.303
  558.750    6.083    0.329    0.339   19.502
  559.000    6.256    0.326    0.332   21.848
  559.250    6.445    0.321    0.324   24.069
  559.500    6.616    0.317    0.318   25.128
  559.750    6.803    0.307    0.317   36.415
  560.000    7.128    0.288    0.326   67.365
  560.250    7.399    0.265    0.352   72.037
  560.500    7.524    0.237    0.367   62.560
  560.750    7.623    0.260    0.348   51.368
  561.000    7.883    0.290    0.332   57.206
  561.250    8.244    0.289    0.317   70.146
  561.500    8.290    0.254    0.317   81.617
  561.750    8.305    0.228    0.322   88.555
  562.000    8.211    0.204    0.328   96.045
  562.250    7.863    0.170    0.333  102.739
  562.500    7.106    0.147    0.362   91.854
  562.750    6.231    0.258    0.371   78.334
  563.000    5.781    0.290    0.364   45.888
  563.250    5.403    0.311    0.370   39.352
  563.500    5.233    0.335    0.374   32.509
  563.750    5.049    0.350    0.367   31.239
  564.000    4.908    0.358    0.361   32.911
  564.250    4.890    0.357    0.358   35.011
  564.500    4.853    0.355    0.367   35.334
  564.750    4.816    0.349    0.380   34.616
  565.000    4.788    0.356    0.388   35.062
  565.250    4.752    0.360    0.386   35.753
  565.500    4.724    0.360    0.374   35.709
  565.750    4.724    0.356    0.363   34.197
  566.000    4.626    0.350    0.358   32.680
  566.250    4.574    0.346    0.366   28.655
  566.500    4.506    0.345    0.374   31.185
  566.750    4.422    0.351    0.375   33.834
  567.000    4.323    0.356    0.376   32.688
  567.250    4.266    0.360    0.386   30.501
