~VERSION INFORMATION
 VERS.                 2.0:   CWLS LOG ASCII STANDARD -VERSION 2.0
 WRAP.                  NO:   ONE LINE PER DEPTH STEP
~WELL INFORMATION BLOCK
#MNEM.UNIT           DATA                    DESCRIPTION OF MNEMONIC
#---------    -------------------            -------------------------------
# Generated from Intellog Unique Number	CS_69_70/WELL/853
WELL.         AMERICAN NATURAL GAS           : Well_name    - WELL
LOC .         00/08-09-070-18W4/0            : Location     - LOCATION
UWI .         00/08-09-070-18W4/0            : Uwi          - UNIQUE WELL ID
ENTR.         SP                             : Entered      - ENTERED BY
SRVC.         SCHLUMBERGER                   : Scn          - SERVICE COMPANY
STRT.M        280                            : top_depth    - START DEPTH
STOP.M        470                            : bot_depth    - STOP DEPTH
STEP.M        0.25                           : increment    - STEP LENGTH
 NULL. -999.2500:NULL Value
~CURVE INFORMATION BLOCK
#MNEM UNIT       ERCB CURVE CODE    CURVE DESCRIPTION
#-----------   ------------------   ----------------------------------
DEPT.M        00 001 00 00         : DEPTH        - DEPTH
DPHI.V/V      00 890 00 00         : PHID         - DENSITY POROSITY (LIMESTONE)
NPHI.V/V      00 330 00 00         : PHIN         - NEUTRON POROSITY (LIMESTONE)
GR  .API      00 310 00 00         : GR           - GAMMA RAY
ILD .OHMM     00 120 00 00         : RESD         - DEEP RESISTIVITY (DIL)
~PARAMETER INFORMATION
#MNEM.UNIT           DATA             DESCRIPTION OF MNEMONIC
#---------         -----------     ------------------------------
GL  .M        553.6                : gl           - GROUND LEVEL ELEVATION
EREF.M        556.9                : kb           - ELEVATION OF DEPTH REFERENCE
DATM.M        553.6                : datum        - DATUM ELEVATION
TDD .M        471                  : tdd          - TOTAL DEPTH DRILLER
RUN .         ONE                  : Run          - RUN NUMBER
ENG .         BILL                 : Engineer     - RECORDING ENGINEER
WIT .         JIM                  : Witness      - WITNESSED BY
MUD .         GEL                  : Mud_type     - MUD TYPE
MATR.         LIMESTONE            : Logunit      - NEUTRON MATRIX
TMAX.C        18                   : BHT          - MAXIMUM RECORDED TEMPERATURE
BHTD.M        471                  : BHTDEP       - MAXIMUM RECORDED TEMPERATURE
MATR.         1                    : LOGUNIT      - NEUTRON MATRIX
RMT .C        25                   : MDTP         - TEMPERATURE OF MUD
NEUT.         1                    : NEUTRON      - NEUTRON TYPE
RESI.         0                    : RESIST       - RESISTIVITY TYPE
RMC .OHMM     0.25                 : RMC          - RESISTIVITY OF MUD CAKE
RMF .OHMM     0.25                 : RMF          - RESISTIVITY OF MUD FILTRATE
SUFT.C        15                   : SUFT         - SURFACE TEMPERATURE
~A  DEPTH     PHID     PHIN       GR     RESD
  280.000    0.283    0.506   92.392    2.388
  280.250    0.282    0.477   90.092    2.435
  280.500    0.272    0.448   90.943    2.479
  280.750    0.271    0.443   94.078    2.539
  281.000    0.272    0.455   90.602    2.664
  281.250    0.263    0.469   91.946    2.752
  281.500    0.255    0.451   94.589    2.834
  281.750    0.258    0.448   90.122    2.880
  282.000    0.265    0.468   88.129    2.927
  282.250    0.275    0.484   88.732    2.958
  282.500    0.279    0.492   89.829    2.966
  282.750    0.255    0.469   90.616    3.009
  283.000    0.236    0.460   91.344    3.046
  283.250    0.245    0.450   92.437    3.095
  283.500    0.234    0.449   92.362    3.157
  283.750    0.229    0.469   91.174    3.226
  284.000    0.229    0.436   89.798    3.341
  284.250    0.224    0.459   91.204    3.460
  284.500    0.231    0.473   94.402    3.583
  284.750    0.230    0.463   89.501    3.648
  285.000    0.230    0.439   85.777    3.685
  285.250    0.228    0.441   83.725    3.704
  285.500    0.259    0.461   81.547    3.679
  285.750    0.262    0.455   81.841    3.615
  286.000    0.253    0.463   84.666    3.466
  286.250    0.248    0.481   85.889    3.262
  286.500    0.244    0.496   87.356    3.215
  286.750    0.247    0.451   89.254    3.135
  287.000    0.242    0.445   90.169    3.052
  287.250    0.235    0.440   88.114    3.005
  287.500    0.221    0.440   92.548    3.020
  287.750    0.218    0.466   94.200    3.069
  288.000    0.225    0.475   85.100    3.076
  288.250    0.225    0.481   86.260    3.096
  288.500    0.223    0.475   82.597    3.100
  288.750    0.228    0.469   92.036    3.080
  289.000    0.234    0.477   89.859    3.044
  289.250    0.239    0.476   87.928    3.001
  289.500    0.243    0.472   88.778    2.953
  289.750    0.247    0.470   84.558    2.913
  290.000    0.244    0.454   83.801    2.878
  290.250    0.232    0.450   81.685    2.859
  290.500    0.226    0.442   78.642    2.798
  290.750    0.238    0.455   77.822    2.708
  291.000    0.249    0.417   76.508    2.665
  291.250    0.189    0.387   67.285    2.828
  291.500    0.086    0.361   55.959    3.012
  291.750    0.069    0.323   49.949    3.281
  292.000    0.218    0.344   41.405    3.608
  292.250    0.270    0.360   55.045    4.096
  292.500    0.298    0.378   62.140    4.737
  292.750    0.489    0.492   61.135    5.358
  293.000    0.326    0.424   59.513    5.696
  293.250    0.290    0.372   69.137    5.865
  293.500    0.274    0.349   75.056    5.601
  293.750    0.266    0.349   73.990    5.125
  294.000    0.258    0.366   78.795    4.707
  294.250    0.248    0.374   80.572    4.511
  294.500    0.240    0.380   72.582    4.309
  294.750    0.271    0.382   67.500    4.147
  295.000    0.292    0.397   62.352    4.036
  295.250    0.300    0.406   59.497    3.973
  295.500    0.304    0.405   65.414    3.941
  295.750    0.292    0.378   70.281    3.910
  296.000    0.278    0.385   72.181    3.911
  296.250    0.266    0.389   72.289    3.900
  296.500    0.263    0.382   73.878    3.877
  296.750    0.264    0.382   75.102    3.902
  297.000    0.266    0.367   75.952    3.943
  297.250    0.266    0.354   77.234    4.015
  297.500    0.264    0.363   80.185    4.134
  297.750    0.261    0.372   81.714    4.232
  298.000    0.249    0.356   84.542    4.390
  298.250    0.242    0.348   82.918    4.529
  298.500    0.254    0.356   77.342    4.697
  298.750    0.265    0.367   69.970    4.928
  299.000    0.276    0.329   63.960    5.288
  299.250    0.234    0.313   71.857    5.558
  299.500    0.208    0.307   79.629    5.777
  299.750    0.195    0.307   77.141    5.905
  300.000    0.200    0.309   68.346    5.944
  300.250    0.203    0.315   65.614    5.906
  300.500    0.206    0.322   75.425    5.736
  300.750    0.202    0.331   72.938    5.562
  301.000    0.196    0.341   70.945    5.406
  301.250    0.194    0.334   72.844    5.429
  301.500    0.172    0.338   73.880    5.480
  301.750    0.151    0.341   70.341    5.472
  302.000    0.206    0.362   76.260    5.406
  302.250    0.236    0.380   83.598    5.125
  302.500    0.235    0.398   89.081    4.786
  302.750    0.238    0.395   92.156    4.422
  303.000    0.282    0.413   94.182    4.318
  303.250    0.249    0.430   97.566    4.195
  303.500    0.217    0.420   97.180    4.167
  303.750    0.208    0.414   95.867    4.140
  304.000    0.250    0.434   99.312    4.038
  304.250    0.269    0.445   99.111    3.930
  304.500    0.297    0.444   99.526    3.846
  304.750    0.243    0.445  103.159    3.814
  305.000    0.188    0.419   93.996    3.748
  305.250    0.158    0.416   94.722    3.716
  305.500    0.214    0.445   99.959    3.657
  305.750    0.252    0.459  102.291    3.607
  306.000    0.259    0.444  105.121    3.485
  306.250    0.267    0.454   97.256    3.340
  306.500    0.273    0.472   91.802    3.149
  306.750    0.258    0.408  100.130    3.111
  307.000    0.241    0.390  105.491    3.145
  307.250    0.261    0.399   95.711    3.219
  307.500    0.272    0.409   82.593    3.507
  307.750    0.263    0.390   69.104    3.783
  308.000    0.196    0.379   73.971    4.152
  308.250    0.208    0.389   77.169    4.464
  308.500    0.192    0.380   78.576    4.588
  308.750    0.221    0.385   74.296    4.567
  309.000    0.256    0.391   68.161    4.538
  309.250    0.261    0.381   63.387    4.474
  309.500    0.254    0.389   69.799    4.454
  309.750    0.251    0.395   73.677    4.492
  310.000    0.225    0.400   77.122    4.573
  310.250    0.205    0.402   80.009    4.789
  310.500    0.187    0.396   82.468    4.977
  310.750    0.168    0.415   86.038    5.135
  311.000    0.171    0.432   91.027    5.160
  311.250    0.190    0.425   94.472    5.100
  311.500    0.187    0.424   91.492    5.018
  311.750    0.182    0.431   93.392    4.874
  312.000    0.166    0.428   95.910    4.682
  312.250    0.206    0.432   99.171    4.574
  312.500    0.246    0.427   95.938    4.665
  312.750    0.236    0.402   92.835    4.867
  313.000    0.229    0.364   89.542    5.032
  313.250    0.234    0.343   89.529    5.160
  313.500    0.237    0.364   85.002    5.273
  313.750    0.246    0.376   77.196    5.319
  314.000    0.256    0.363   73.289    5.356
  314.250    0.251    0.353   72.284    5.380
  314.500    0.233    0.344   79.312    5.575
  314.750    0.220    0.345   83.998    5.651
  315.000    0.209    0.363   89.418    5.873
  315.250    0.204    0.376   91.566    6.013
  315.500    0.208    0.377   87.102    6.099
  315.750    0.212    0.376   85.295    6.140
  316.000    0.204    0.375   84.167    6.170
  316.250    0.201    0.374   79.517    6.211
  316.500    0.205    0.373   78.264    6.252
  316.750    0.207    0.372   83.441    6.132
  317.000    0.204    0.389   87.503    5.911
  317.250    0.201    0.402   91.074    5.743
  317.500    0.207    0.421   95.321    5.663
  317.750    0.216    0.408   95.987    5.659
  318.000    0.220    0.383  101.533    5.664
  318.250    0.214    0.368  105.659    5.724
  318.500    0.222    0.380  109.043    5.816
  318.750    0.239    0.394   93.576    5.899
  319.000    0.243    0.387   87.195    5.962
  319.250    0.229    0.382   83.841    5.946
  319.500    0.205    0.378   88.028    5.852
  319.750    0.183    0.378   93.019    5.631
  320.000    0.195    0.391   97.083    5.220
  320.250    0.197    0.419  101.703    4.766
  320.500    0.199    0.431  102.306    4.319
  320.750    0.177    0.445   97.902    3.981
  321.000    0.237    0.468  105.674    3.705
  321.250    0.221    0.429  111.096    3.591
  321.500    0.207    0.411  101.440    3.575
  321.750    0.231    0.410   95.182    3.592
  322.000    0.253    0.432   94.546    3.638
  322.250    0.248    0.428   91.010    3.732
  322.500    0.201    0.395   80.550    3.864
  322.750    0.187    0.391   75.158    4.015
  323.000    0.198    0.399   80.456    4.220
  323.250    0.216    0.396   81.616    4.461
