~VERSION INFORMATION
 VERS.                 2.0:   CWLS LOG ASCII STANDARD -VERSION 2.0
 WRAP.                  NO:   ONE LINE PER DEPTH STEP
~WELL INFORMATION BLOCK
#MNEM.UNIT           DATA                    DESCRIPTION OF MNEMONIC
#---------    -------------------            -------------------------------
# Generated from Intellog Unique Number	CW_79_81/WELL/2460
WELL.         GULF PELICAN                   : Well_name    - WELL
LOC .         00/07-21-081-21W4/0            : Location     - LOCATION
UWI .         00/07-21-081-21W4/0            : Uwi          - UNIQUE WELL ID
ENTR.         MAX                            : Entered      - ENTERED BY
SRVC.         SCHLUMBERGER                   : Scn          - SERVICE COMPANY
STRT.M        185                            : top_depth    - START DEPTH
STOP.M        429.75                         : bot_depth    - STOP DEPTH
STEP.M        0.25                           : increment    - STEP LENGTH
 NULL. -999.2500:NULL Value
~CURVE INFORMATION BLOCK
#MNEM UNIT       ERCB CURVE CODE    CURVE DESCRIPTION
#-----------   ------------------   ----------------------------------
DEPT.M        00 001 00 00         : DEPTH        - DEPTH
ILD .OHMM     00 120 00 00         : RESD         - DEEP RESISTIVITY (DIL)
NPHI.V/V      00 330 00 00         : PHIN         - NEUTRON POROSITY (SANDSTONE)
DPHI.V/V      00 890 00 00         : PHID         - DENSITY POROSITY (SANDSTONE)
GR  .API      00 310 00 00         : GR           - GAMMA RAY
CALI.MM       00 280 01 00         : CAL          - CALIPER
~PARAMETER INFORMATION
#MNEM.UNIT           DATA             DESCRIPTION OF MNEMONIC
#---------         -----------     ------------------------------
GL  .M        613.45               : gl           - GROUND LEVEL ELEVATION
EREF.M        616.75               : kb           - ELEVATION OF DEPTH REFERENCE
DATM.M        613.45               : datum        - DATUM ELEVATION
TDD .M        432                  : tdd          - TOTAL DEPTH DRILLER
RUN .         ONE                  : Run          - RUN NUMBER
ENG .         BILL                 : Engineer     - RECORDING ENGINEER
WIT .         JIM                  : Witness      - WITNESSED BY
MUD .         GEL                  : Mud_type     - MUD TYPE
MATR.         SANDSTONE            : Logunit      - NEUTRON MATRIX
TMAX.C        19.4                 : BHT          - MAXIMUM RECORDED TEMPERATURE
BHTD.M        432                  : BHTDEP       - MAXIMUM RECORDED TEMPERATURE
MATR.         1                    : LOGUNIT      - NEUTRON MATRIX
RMT .C        17.8                 : MDTP         - TEMPERATURE OF MUD
NEUT.         1                    : NEUTRON      - NEUTRON TYPE
RESI.         0                    : RESIST       - RESISTIVITY TYPE
RMC .OHMM     2.81                 : RMC          - RESISTIVITY OF MUD CAKE
RMF .OHMM     2.05                 : RMF          - RESISTIVITY OF MUD FILTRATE
SUFT.C        -20                  : SUFT         - SURFACE TEMPERATURE
~A  DEPTH     RESD     PHIN     PHID       GR      CAL
# ...
  404.000   44.558    0.362    0.269   54.078  212.176
  404.250   52.135    0.376    0.273   52.417  209.408
  404.500   58.063    0.385    0.280   50.757  207.823
  404.750   60.753    0.390    0.289   49.924  207.025
  405.000   59.508    0.394    0.296   50.331  207.212
  405.250   53.671    0.398    0.291   52.124  209.414
  405.500   47.968    0.385    0.270   52.857  210.635
  405.750   45.911    0.379    0.265   53.797  211.411
  406.000   43.703    0.383    0.276   54.559  213.075
  406.250   41.850    0.390    0.288   54.788  214.247
  406.500   40.438    0.395    0.294   54.546  213.843
  406.750   38.798    0.396    0.290   55.090  211.238
  407.000   36.532    0.389    0.279   59.023  212.048
  407.250   31.503    0.380    0.265   61.852  214.791
  407.500   29.960    0.383    0.263   63.796  216.061
  407.750   29.099    0.393    0.269   66.035  216.447
  408.000   25.849    0.406    0.276   69.042  216.634
  408.250   17.917    0.411    0.273   73.612  217.573
  408.500   13.551    0.408    0.259   78.776  218.383
  408.750   11.082    0.402    0.236   85.150  219.947
  409.000    9.246    0.398    0.199   91.703  221.217
  409.250    8.018    0.396    0.185   96.305  222.191
  409.500    7.069    0.397    0.196   97.657  223.263
  409.750    5.783    0.410    0.209   95.532  225.712
  410.000    4.631    0.437    0.225   96.757  228.166
  410.250    4.272    0.467    0.241  100.059  232.094
  410.500    4.916    0.473    0.224  100.349  225.092
  410.750    6.051    0.462    0.193   98.452  219.763
  411.000    7.277    0.443    0.162   95.256  220.246
  411.250    8.806    0.411    0.139   91.457  222.285
  411.500    9.011    0.360    0.118   90.219  222.684
  411.750    7.712    0.335    0.104   98.484  221.886
  412.000    6.883    0.351    0.108  105.863  221.087
  412.250    6.119    0.381    0.136  112.002  220.683
  412.500    5.534    0.408    0.174  115.422  220.673
  412.750    5.423    0.430    0.189  112.835  220.661
  413.000    5.466    0.423    0.203  109.381  220.648
  413.250    5.627    0.437    0.206  108.666  220.243
  413.500    5.982    0.445    0.205  107.065  219.545
  413.750    6.826    0.443    0.194  102.450  219.141
  414.000    8.455    0.430    0.183   93.937  219.131
  414.250   11.317    0.401    0.195   81.040  219.118
  414.500   14.626    0.360    0.204   76.849  219.108
  414.750   16.640    0.359    0.210   77.315  219.097
  415.000   17.518    0.353    0.204   78.844  219.087
  415.250   17.456    0.343    0.184   81.437  218.880
  415.500   16.797    0.335    0.159   84.562  218.179
  415.750   15.470    0.338    0.149   86.859  216.263
  416.000   14.244    0.345    0.147   85.376  214.613
  416.250   13.633    0.348    0.154   87.260  214.208
  416.500   12.977    0.351    0.157   86.662  215.575
  416.750   11.817    0.359    0.158   85.947  216.745
  417.000    9.973    0.373    0.161   86.592  216.932
  417.250    7.598    0.392    0.170   89.627  216.526
  417.500    6.943    0.420    0.189   91.836  216.516
  417.750    6.695    0.432    0.176   92.064  216.900
  418.000    6.637    0.424    0.173   92.295  216.692
  418.250    6.758    0.408    0.169   92.526  216.484
  418.500    7.129    0.392    0.164   92.519  216.474
  418.750    8.071    0.385    0.162   91.064  216.462
  419.000    8.647    0.375    0.166   87.366  216.452
  419.250    9.032    0.353    0.184   71.528  215.652
  419.500   10.613    0.312    0.216   65.789  214.559
  419.750   13.033    0.282    0.244   64.601  213.761
  420.000   16.048    0.280    0.258   64.949  213.848
  420.250   20.855    0.320    0.262   66.409  215.820
  420.500   22.515    0.336    0.269   66.649  217.861
  420.750   21.870    0.328    0.273   65.224  219.427
  421.000   21.361    0.337    0.287   66.281  219.516
  421.250   20.979    0.351    0.288   69.701  219.308
  421.500   20.942    0.366    0.275   73.417  219.297
  421.750   22.345    0.383    0.269   72.426  219.285
  422.000   26.070    0.382    0.289   67.496  219.277
  422.250   27.625    0.383    0.292   69.616  219.265
  422.500   27.894    0.387    0.280   72.445  219.550
  422.750   26.673    0.392    0.253   75.866  219.737
  423.000   24.335    0.396    0.223   79.169  219.925
  423.250   21.448    0.395    0.221   81.248  220.781
  423.500   20.969    0.396    0.219   82.225  221.179
  423.750   21.903    0.402    0.223   79.621  221.170
  424.000   24.736    0.408    0.250   74.003  219.978
  424.250   27.408    0.410    0.281   67.026  218.589
  424.500   29.124    0.404    0.301   60.165  217.889
  424.750   33.030    0.381    0.308   53.934  218.826
  425.000   34.318    0.354    0.295   49.986  219.637
  425.250   33.578    0.360    0.283   50.213  220.809
  425.500   31.773    0.362    0.282   50.446  221.094
  425.750   28.616    0.359    0.274   53.160  220.887
  426.000   25.407    0.353    0.256   57.880  220.679
  426.250   23.748    0.361    0.244   61.181  220.978
  426.500   24.299    0.370    0.249   61.175  220.558
  426.750   27.259    0.369    0.259   59.514  220.547
  427.000   32.667    0.362    0.274   58.031  220.537
  427.250   37.285    0.355    0.289   56.370  220.330
  427.500   37.907    0.349    0.301   54.827  220.024
  427.750   35.496    0.345    0.310   54.398  220.012
  428.000   31.960    0.334    0.320   54.638  220.002
  428.250   29.262    0.328    0.296   56.758  219.991
  428.500   29.604    0.335    0.244   59.055  219.979
  428.750   31.040    0.333    0.189   60.467  219.968
  429.000   31.852    0.318    0.146   60.285  219.959
  429.250   29.906    0.295    0.116   57.559  219.946
  429.500   28.159    0.277    0.113   54.599  219.935
  429.750   27.151    0.239    0.105   51.757  219.531
