~VERSION INFORMATION
 VERS.                 2.0:   CWLS LOG ASCII STANDARD -VERSION 2.0
 WRAP.                  NO:   ONE LINE PER DEPTH STEP
~WELL INFORMATION BLOCK
#MNEM.UNIT           DATA                    DESCRIPTION OF MNEMONIC
#---------    -------------------            -------------------------------
# Generated from Intellog Unique Number	CS_69_70/WELL/785
WELL.         HUSKY OIL OPERATIONS           : Well_name    - WELL
LOC .         00/06-32-069-04W4/0            : Location     - LOCATION
UWI .         00/06-32-069-04W4/0            : Uwi          - UNIQUE WELL ID
ENTR.         SP                             : Entered      - ENTERED BY
SRVC.         SCHLUMBERGER                   : Scn          - SERVICE COMPANY
STRT.M        310                            : top_depth    - START DEPTH
STOP.M        540                            : bot_depth    - STOP DEPTH
STEP.M        0.25                           : increment    - STEP LENGTH
 NULL. -999.2500:NULL Value
~CURVE INFORMATION BLOCK
#MNEM UNIT       ERCB CURVE CODE    CURVE DESCRIPTION
#-----------   ------------------   ----------------------------------
DEPT.M        00 001 00 00         : DEPTH        - DEPTH
ILD .OHMM     00 120 00 00         : RESD         - DEEP RESISTIVITY (DIL)
DPHI.V/V      00 890 00 00         : PHID         - DENSITY POROSITY (LIMESTONE)
NPHI.V/V      00 330 00 00         : PHIN         - NEUTRON POROSITY (LIMESTONE)
GR  .API      00 310 00 00         : GR           - GAMMA RAY
~PARAMETER INFORMATION
#MNEM.UNIT           DATA             DESCRIPTION OF MNEMONIC
#---------         -----------     ------------------------------
GL  .M        685.9                : gl           - GROUND LEVEL ELEVATION
EREF.M        689.6                : kb           - ELEVATION OF DEPTH REFERENCE
DATM.M        685.9                : datum        - DATUM ELEVATION
TDD .M        547                  : tdd          - TOTAL DEPTH DRILLER
RUN .         ONE                  : Run          - RUN NUMBER
ENG .         BILL                 : Engineer     - RECORDING ENGINEER
WIT .         JIM                  : Witness      - WITNESSED BY
MUD .         GEL                  : Mud_type     - MUD TYPE
MATR.         LIMESTONE            : Logunit      - NEUTRON MATRIX
TMAX.C        22                   : BHT          - MAXIMUM RECORDED TEMPERATURE
BHTD.M        547                  : BHTDEP       - MAXIMUM RECORDED TEMPERATURE
MATR.         1                    : LOGUNIT      - NEUTRON MATRIX
RMT .C        25                   : MDTP         - TEMPERATURE OF MUD
NEUT.         1                    : NEUTRON      - NEUTRON TYPE
RESI.         0                    : RESIST       - RESISTIVITY TYPE
RMC .OHMM     0.25                 : RMC          - RESISTIVITY OF MUD CAKE
RMF .OHMM     0.25                 : RMF          - RESISTIVITY OF MUD FILTRATE
SUFT.C        15                   : SUFT         - SURFACE TEMPERATURE
~A  DEPTH     RESD     PHID     PHIN       GR
# ...
  353.500    7.079    0.296    0.470   77.596
  353.750    7.242    0.290    0.405   69.971
  354.000    7.451    0.302    0.382   64.951
  354.250    8.309    0.322    0.366   59.931
  354.500   11.300    0.335    0.324   52.004
  354.750   14.393    0.367    0.246   49.104
  355.000   16.414    0.402    0.233   53.535
  355.250   18.202    0.435    0.240   57.420
  355.500   19.079    0.426    0.229   61.245
  355.750   20.189    0.440    0.220   63.616
  356.000   20.347    0.461    0.211   53.265
  356.250   19.569    0.475    0.201   47.154
  356.500   18.470    0.489    0.191   43.225
  356.750   15.263    0.503    0.184   44.324
  357.000   10.676    0.461    0.220   46.634
  357.250    8.593    0.401    0.272   49.429
  357.500    7.075    0.372    0.353   51.921
  357.750    6.138    0.355    0.392   49.203
  358.000    5.446    0.349    0.414   46.607
  358.250    5.199    0.355    0.413   47.706
  358.500    5.085    0.357    0.403   50.320
  358.750    5.067    0.355    0.407   51.417
  359.000    5.117    0.351    0.430   51.547
  359.250    5.176    0.337    0.437   52.949
  359.500    5.236    0.330    0.417   55.623
  359.750    5.277    0.325    0.402   60.175
  360.000    5.279    0.324    0.405   63.757
  360.250    5.212    0.326    0.421   62.251
  360.500    5.136    0.332    0.411   63.593
  360.750    5.099    0.339    0.417   67.478
  361.000    5.072    0.344    0.413   71.606
  361.250    5.055    0.341    0.407   74.825
  361.500    5.056    0.343    0.427   74.894
  361.750    5.115    0.334    0.438   73.812
  362.000    5.175    0.327    0.446   75.637
  362.250    5.225    0.324    0.444   77.524
  362.500    5.275    0.324    0.433   78.319
  362.750    5.317    0.318    0.422   75.965
  363.000    5.399    0.316    0.413   70.219
  363.250    5.431    0.316    0.407   66.470
  363.500    5.342    0.307    0.423   64.358
  363.750    5.156    0.300    0.450   63.457
  364.000    4.931    0.308    0.458   61.527
  364.250    4.760    0.316    0.460   58.749
  364.500    4.639    0.326    0.444   55.608
  364.750    4.495    0.329    0.434   55.010
  365.000    4.454    0.341    0.432   54.654
  365.250    4.414    0.344    0.443   54.541
  365.500    4.407    0.339    0.437   54.853
  365.750    4.492    0.336    0.436   55.285
  366.000    4.553    0.336    0.440   52.083
  366.250    4.580    0.326    0.436   48.820
  366.500    4.564    0.319    0.416   46.466
  366.750    4.548    0.326    0.395   44.779
  367.000    4.499    0.338    0.380   43.392
  367.250    4.475    0.346    0.400   41.947
  367.500    4.451    0.340    0.397   41.288
  367.750    4.420    0.337    0.386   42.993
  368.000    4.380    0.340    0.395   44.334
  368.250    4.308    0.345    0.402   45.252
  368.500    4.277    0.349    0.409   44.350
  368.750    4.254    0.354    0.406   41.754
  369.000    4.216    0.357    0.398   39.824
  369.250    4.209    0.359    0.415   38.621
  369.500    4.195    0.362    0.428   37.901
  369.750    4.173    0.365    0.426   37.304
  370.000    4.166    0.366    0.414   37.373
  370.250    4.144    0.359    0.409   38.168
  370.500    4.115    0.353    0.404   38.541
  370.750    4.093    0.350    0.418   38.791
  371.000    4.063    0.347    0.431   38.860
  371.250    4.042    0.350    0.423   38.869
  371.500    4.013    0.351    0.407   38.877
  371.750    3.969    0.355    0.395   38.643
  372.000    3.919    0.361    0.437   38.227
  372.250    3.877    0.368    0.443   40.234
  372.500    3.849    0.361    0.424   43.150
  372.750    3.814    0.357    0.410   45.097
  373.000    3.794    0.357    0.412   45.833
  373.250    3.795    0.360    0.415   45.235
  373.500    3.789    0.362    0.406   43.365
  373.750    3.790    0.363    0.404   42.344
  374.000    3.785    0.362    0.417   42.836
  374.250    3.793    0.360    0.427   42.724
  374.500    3.794    0.357    0.436   42.005
  374.750    3.802    0.356    0.431   41.408
  375.000    3.810    0.361    0.421   41.355
  375.250    3.804    0.366    0.413   41.788
  375.500    3.806    0.368    0.407   42.523
  375.750    3.800    0.365    0.400   43.440
  376.000    3.808    0.362    0.395   44.297
  376.250    3.809    0.360    0.403   42.791
  376.500    3.810    0.357    0.410   41.708
  376.750    3.819    0.356    0.413   41.111
  377.000    3.827    0.360    0.432   40.757
  377.250    3.821    0.365    0.446   40.946
  377.500    3.829    0.371    0.435   41.559
  377.750    3.824    0.375    0.420   42.417
  378.000    3.825    0.376    0.410   43.396
  378.250    3.811    0.370    0.408   43.887
  378.500    3.827    0.366    0.413   44.624
  378.750    3.836    0.366    0.412   44.692
  379.000    3.837    0.367    0.402   44.155
  379.250    3.867    0.360    0.396   43.617
  379.500    3.890    0.356    0.391   43.505
  379.750    3.905    0.352    0.387   43.998
  380.000    3.936    0.350    0.399   44.915
  380.250    3.974    0.349    0.404   45.711
  380.500    4.174    0.353    0.403   45.900
  380.750    4.769    0.350    0.386   42.698
  381.000    5.338    0.226    0.295   43.251
  381.250    5.712    0.207    0.286   45.925
  381.500    5.618    0.326    0.339   47.811
  381.750    5.098    0.356    0.394   48.607
  382.000    4.627    0.371    0.458   49.039
  382.250    4.375    0.358    0.471   50.624
  382.500    4.208    0.349    0.461   52.206
  382.750    4.093    0.339    0.455   54.699
  383.000    4.048    0.333    0.451   55.798
  383.250    4.042    0.347    0.445   54.111
  383.500    4.043    0.361    0.447   53.391
  383.750    4.045    0.368    0.446   53.581
  384.000    4.030    0.368    0.443   54.680
  384.250    4.009    0.369    0.445   56.263
  384.500    3.988    0.368    0.434   58.513
  384.750    3.974    0.362    0.435   62.096
  385.000    3.938    0.357    0.459   64.224
  385.250    3.932    0.354    0.471   65.504
  385.500    3.933    0.354    0.478   59.334
  385.750    3.942    0.357    0.474   52.132
  386.000    3.951    0.360    0.460   52.262
  386.250    3.952    0.363    0.447   54.028
  386.500    3.953    0.361    0.446   55.974
  386.750    3.969    0.360    0.454   57.315
  387.000    3.963    0.361    0.460   58.597
  387.250    3.957    0.365    0.450   58.726
  387.500    3.951    0.367    0.441   58.006
  387.750    3.937    0.368    0.431   57.106
  388.000    3.938    0.365    0.432   56.145
  388.250    3.962    0.362    0.430   55.790
  388.500    4.015    0.365    0.431   57.131
  388.750    4.054    0.366    0.444   58.775
  389.000    4.094    0.362    0.450   61.085
  389.250    4.134    0.357    0.439   64.183
  389.500    4.189    0.353    0.433   67.767
  389.750    4.246    0.351    0.437   71.047
  390.000    4.336    0.363    0.460   72.811
  390.250    4.386    0.386    0.474   67.791
  390.500    4.420    0.367    0.479   63.801
  390.750    4.438    0.344    0.466   62.718
  391.000    4.498    0.327    0.456   67.210
  391.250    4.576    0.331    0.468   70.248
  391.500    4.638    0.344    0.513   72.619
  391.750    4.674    0.353    0.535   69.718
  392.000    4.720    0.351    0.520   61.730
  392.250    4.739    0.347    0.476   56.952
  392.500    4.741    0.353    0.449   53.811
  392.750    4.698    0.359    0.436   53.275
  393.000    4.655    0.362    0.424   53.284
  393.250    4.588    0.362    0.414   53.049
  393.500    4.529    0.357    0.411   52.874
  393.750    4.480    0.351    0.426   53.126
  394.000    4.448    0.347    0.438   52.709
  394.250    4.441    0.345    0.448   50.719
  394.500    4.459    0.347    0.435   50.120
  394.750    4.478    0.348    0.456   50.432
  395.000    4.505    0.345    0.450   51.349
  395.250    4.506    0.344    0.432   52.811
  395.500    4.550    0.345    0.435   55.123
  395.750    4.585    0.350    0.430   56.948
  396.000    4.604    0.345    0.418   55.865
  396.250    4.605    0.337    0.405   51.996
  396.500    4.606    0.336    0.429   48.916
  396.750    4.599    0.351    0.446   47.955
