~VERSION INFORMATION
 VERS.                 2.0:   CWLS LOG ASCII STANDARD -VERSION 2.0
 WRAP.                  NO:   ONE LINE PER DEPTH STEP
~WELL INFORMATION BLOCK
#MNEM.UNIT           DATA                    DESCRIPTION OF MNEMONIC
#---------    -------------------            -------------------------------
# Generated from Intellog Unique Number	CS_77_79/WELL/834
WELL.         CANOXY WINIFRED                : Well_name    - WELL
LOC .         00/01-28-078-02W4/0            : Location     - LOCATION
UWI .         00/01-28-078-02W4/0            : Uwi          - UNIQUE WELL ID
ENTR.         JHS                            : Entered      - ENTERED BY
SRVC.         SCHLUMBERGER                   : Scn          - SERVICE COMPANY
STRT.M        158.496                        : top_depth    - START DEPTH
STOP.M        426.496                        : bot_depth    - STOP DEPTH
STEP.M        0.25                           : increment    - STEP LENGTH
 NULL. -999.2500:NULL Value
~CURVE INFORMATION BLOCK
#MNEM UNIT       ERCB CURVE CODE    CURVE DESCRIPTION
#-----------   ------------------   ----------------------------------
DEPT.M        00 001 00 00         : DEPTH        - DEPTH
GR  .API      00 310 00 00         : GR           - GAMMA RAY
DPHI.V/V      00 890 00 00         : PHID         - DENSITY POROSITY (SANDSTONE)
NPHI.V/V      00 330 00 00         : PHIN         - NEUTRON POROSITY (SANDSTONE)
ILD .OHMM     00 120 00 00         : RESD         - DEEP RESISTIVITY (DIL)
~PARAMETER INFORMATION
#MNEM.UNIT           DATA             DESCRIPTION OF MNEMONIC
#---------         -----------     ------------------------------
GL  .M        570.89               : gl           - GROUND LEVEL ELEVATION
EREF.M        574.243              : kb           - ELEVATION OF DEPTH REFERENCE
DATM.M        574.243              : datum        - DATUM ELEVATION
TDD .M        434.34               : tdd          - TOTAL DEPTH DRILLER
RUN .         ONE                  : Run          - RUN NUMBER
ENG .         BILL                 : Engineer     - RECORDING ENGINEER
WIT .         JIM                  : Witness      - WITNESSED BY
MUD .         GEL                  : Mud_type     - MUD TYPE
MATR.         SANDSTONE            : Logunit      - NEUTRON MATRIX
TMAX.C        21.1111              : BHT          - MAXIMUM RECORDED TEMPERATURE
BHTD.M        434.34               : BHTDEP       - MAXIMUM RECORDED TEMPERATURE
MATR.         1                    : LOGUNIT      - NEUTRON MATRIX
RMT .C        25                   : MDTP         - TEMPERATURE OF MUD
NEUT.         1                    : NEUTRON      - NEUTRON TYPE
RESI.         0                    : RESIST       - RESISTIVITY TYPE
RMC .OHMM     0.25                 : RMC          - RESISTIVITY OF MUD CAKE
RMF .OHMM     0.25                 : RMF          - RESISTIVITY OF MUD FILTRATE
SUFT.C        15                   : SUFT         - SURFACE TEMPERATURE
~A  DEPTH       GR     PHID     PHIN     RESD
# ...
  201.996   77.520    0.318    0.405   19.236
  202.246   76.082    0.313    0.399   18.117
  202.496   79.182    0.310    0.403   17.288
  202.746   83.967    0.319    0.414   17.272
  202.996   88.717    0.319    0.422   17.264
  203.246   92.965    0.311    0.427   18.181
  203.496   92.767    0.308    0.431   18.738
  203.746   91.285    0.311    0.432   19.017
  203.996   89.850    0.313    0.433   18.488
  204.246   86.158    0.314    0.436   17.953
  204.496   83.204    0.313    0.431   17.715
  204.746   83.580    0.312    0.429   17.758
  204.996   84.157    0.319    0.426   17.815
  205.246   83.377    0.325    0.428   18.720
  205.496   80.246    0.331    0.433   20.056
  205.746   76.477    0.324    0.436   22.266
  205.996   76.201    0.316    0.416   23.501
  206.246   79.742    0.316    0.402   22.409
  206.496   84.219    0.302    0.401   19.046
  206.746   88.095    0.281    0.394   16.847
  206.996   91.291    0.275    0.393   16.166
  207.246   89.184    0.277    0.404   18.099
  207.496   75.493    0.291    0.420   21.888
  207.746   57.843    0.313    0.401   26.474
  207.996   42.475    0.344    0.395   30.433
  208.246   41.502    0.314    0.390   33.445
  208.496   42.805    0.297    0.400   34.372
  208.746   43.308    0.301    0.405   34.034
  208.996   42.534    0.320    0.402   33.068
  209.246   42.882    0.338    0.399   31.489
  209.496   45.017    0.339    0.394   29.887
  209.746   48.655    0.331    0.388   28.670
  209.996   55.342    0.343    0.390   27.871
  210.246   60.123    0.340    0.403   25.789
  210.496   63.910    0.350    0.414   23.827
  210.746   67.512    0.353    0.409   22.828
  210.996   69.027    0.342    0.404   22.708
  211.246   67.538    0.330    0.417   24.254
  211.496   68.160    0.340    0.420   25.270
  211.746   70.174    0.356    0.422   26.597
  211.996   78.035    0.370    0.428   26.560
  212.246   84.388    0.366    0.431   25.912
  212.496   87.384    0.355    0.422   23.470
  212.746   90.455    0.353    0.421   22.222
  212.996   92.445    0.348    0.432   19.861
  213.246   93.283    0.333    0.449   18.338
  213.496   96.838    0.323    0.447   16.414
  213.746  101.861    0.315    0.440   15.306
  213.996  104.482    0.323    0.440   14.314
  214.246  105.788    0.322    0.447   13.915
  214.496  109.919    0.311    0.436   13.431
  214.746  115.495    0.322    0.424   12.643
  214.996  118.244    0.285    0.421   12.103
  215.246  122.022    0.287    0.428   11.198
  215.496  123.668    0.293    0.431   10.791
  215.746  121.875    0.280    0.431   10.467
  215.996  121.614    0.275    0.420   10.425
  216.246  123.702    0.256    0.411   10.455
  216.496  123.267    0.257    0.407   10.045
  216.746  119.693    0.270    0.412   10.086
  216.996  116.749    0.277    0.430   10.094
  217.246  118.174    0.275    0.451   10.443
  217.496  119.691    0.267    0.453   11.622
  217.746  118.354    0.269    0.435   13.326
  217.996  114.921    0.282    0.421   15.051
  218.246  110.084    0.301    0.439   17.359
  218.496  105.146    0.325    0.431   17.910
  218.746  102.092    0.332    0.429   17.480
  218.996   97.288    0.335    0.432   16.469
  219.246   95.103    0.325    0.432   15.373
  219.496   99.385    0.311    0.423   14.079
  219.746  107.454    0.308    0.409   13.503
  219.996  113.975    0.296    0.407   13.633
  220.246  117.304    0.292    0.426   14.110
  220.496  118.338    0.283    0.438   14.794
  220.746  117.213    0.279    0.448   15.080
  220.996  115.252    0.276    0.451   14.292
  221.246  112.426    0.283    0.458   12.411
  221.496  109.311    0.289    0.438   10.453
  221.746  107.657    0.294    0.429    9.974
  221.996  107.465    0.290    0.443   12.349
  222.246  105.001    0.286    0.471   14.714
  222.496  100.889    0.298    0.453   17.277
  222.746   94.202    0.323    0.438   19.898
  222.996   86.477    0.351    0.439   22.363
  223.246   82.653    0.343    0.441   23.283
  223.496   87.849    0.341    0.436   24.366
  223.746   93.130    0.347    0.425   24.288
  223.996   91.723    0.356    0.423   23.581
  224.246   87.143    0.358    0.427   23.073
  224.496   84.023    0.361    0.432   22.659
  224.746   84.918    0.359    0.430   22.301
  224.996   85.790    0.348    0.433   21.609
  225.246   84.779    0.343    0.451   21.156
  225.496   83.493    0.342    0.446   20.158
  225.746   84.683    0.338    0.443   19.699
  225.996   86.477    0.333    0.426   19.390
  226.246   90.304    0.327    0.411   19.209
  226.496   94.262    0.330    0.417   19.030
  226.746   95.564    0.325    0.429   18.467
  226.996   96.192    0.304    0.441   18.065
  227.246   93.686    0.280    0.437   18.120
  227.496   86.708    0.264    0.442   18.112
  227.746   84.227    0.271    0.436   18.657
  227.996   88.081    0.293    0.424   18.863
  228.246   87.520    0.276    0.437   19.473
  228.496   82.163    0.271    0.445   20.030
  228.746   76.989    0.281    0.448   19.654
  228.996   71.797    0.274    0.434   19.487
  229.246   75.099    0.280    0.409   18.899
  229.496   82.646    0.300    0.400   18.379
  229.746   83.497    0.309    0.401   17.372
  229.996   83.492    0.308    0.401   16.040
  230.246   86.584    0.311    0.413   13.586
  230.496   89.705    0.309    0.413    9.644
  230.746   95.204    0.286    0.425    8.977
  230.996  100.444    0.273    0.454    9.299
  231.246  101.957    0.281    0.455   10.714
  231.496   96.272    0.312    0.419   12.794
  231.746   83.529    0.348    0.402   14.606
  231.996   70.346    0.352    0.397   15.501
  232.246   68.285    0.343    0.398   14.947
  232.496   71.490    0.328    0.403   13.779
  232.746   82.893    0.316    0.401   11.325
  232.996   89.021    0.303    0.401   10.415
  233.246   93.824    0.317    0.438   10.889
  233.496   91.533    0.364    0.484   13.877
  233.746   84.179    0.340    0.470   17.151
  233.996   76.354    0.332    0.442   20.433
  234.246   73.221    0.341    0.434   22.566
  234.496   73.280    0.354    0.436   23.285
  234.746   74.422    0.353    0.446   23.299
  234.996   76.334    0.356    0.446   23.046
  235.246   75.624    0.356    0.449   22.377
  235.496   71.713    0.350    0.455   21.683
  235.746   70.481    0.349    0.447   20.756
  235.996   70.751    0.346    0.434   20.176
  236.246   70.955    0.351    0.444   19.641
  236.496   69.005    0.354    0.454   19.416
  236.746   66.324    0.356    0.468   18.999
  236.996   65.125    0.369    0.481   18.656
  237.246   60.836    0.360    0.463   18.449
  237.496   58.171    0.355    0.464   18.389
  237.746   59.310    0.355    0.456   18.398
  237.996   61.527    0.365    0.445   18.428
  238.246   63.059    0.375    0.438   18.523
  238.496   62.992    0.380    0.444   18.816
  238.746   61.902    0.380    0.458   19.033
  238.996   58.572    0.379    0.463   19.187
  239.246   58.318    0.372    0.447   19.535
  239.496   55.742    0.367    0.440   19.599
  239.746   56.072    0.367    0.442   19.622
  239.996   55.235    0.362    0.447   19.956
  240.246   52.122    0.363    0.437   20.041
  240.496   50.026    0.373    0.418   20.075
  240.746   50.113    0.381    0.404   20.101
  240.996   50.042    0.381    0.400   20.117
  241.246   51.307    0.380    0.404   20.152
  241.496   52.921    0.377    0.410   20.202
  241.746   55.843    0.373    0.423   19.712
  241.996   56.200    0.370    0.416   19.506
  242.246   55.655    0.372    0.420   19.119
  242.496   54.370    0.380    0.430   19.136
  242.746   53.905    0.389    0.440   18.878
  242.996   54.197    0.387    0.442   18.495
  243.246   54.564    0.380    0.434   18.543
  243.496   54.152    0.376    0.429   18.223
  243.746   54.150    0.379    0.431   18.160
  243.996   55.852    0.386    0.438   17.964
  244.246   57.583    0.383    0.439   17.547
  244.496   60.986    0.380    0.435   16.704
  244.746   66.481    0.378    0.435   15.640
  244.996   73.774    0.359    0.438   12.741
  245.246   89.320    0.332    0.442    8.519
