~VERSION INFORMATION
 VERS.                 2.0:   CWLS LOG ASCII STANDARD -VERSION 2.0
 WRAP.                  NO:   ONE LINE PER DEPTH STEP
~WELL INFORMATION BLOCK
#MNEM.UNIT           DATA                    DESCRIPTION OF MNEMONIC
#---------    -------------------            -------------------------------
# Generated from Intellog Unique Number	CW_70_72/WELL/3008
NULL.         -999.25                        : NULL_VALUE
WELL.         CHIEFCO ET AL RANCH 06-18      : Well_name    - WELL              
LOC .         06-18-070-26W4                 : Location     - LOCATION          
UWI .         00/06-18-070-26W4/0            : Uwi          - UNIQUE WELL ID    
ENTR.         J                              : Entered      - ENTERED BY        
SRVC.         SCHLUMBERGER                   : Scn          - SERVICE COMPANY   
DATE.         9 AUG 76                       : Date         - LOG DATE          
STRT.M        454.152                        : top_depth    - START DEPTH       
STOP.M        710.152                        : bot_depth    - STOP DEPTH        
STEP.M        0.25                           : increment    - STEP LENGTH       
~CURVE INFORMATION BLOCK
#MNEM UNIT       ERCB CURVE CODE    CURVE DESCRIPTION
#-----------   ------------------   ----------------------------------
DEPT.M        00 001 00 00         : DEPTH        - DEPTH                       
ILD .OHMM     00 120 00 00         : RESD         - DEEP RESISTIVITY (DIL)      
CALI.MM       00 280 01 00         : CAL          - CALIPER                     
GR  .API      00 310 00 00         : GR           - GAMMA RAY                   
NPHI.V/V      00 330 00 00         : PHIN         - NEUTRON POROSITY (SANDSTONE)
DPHI.V/V      00 890 00 00         : PHID         - DENSITY POROSITY (SANDSTONE)
~PARAMETER INFORMATION       
#MNEM.UNIT           DATA             DESCRIPTION OF MNEMONIC
#---------         -----------     ------------------------------
GL  .M        623.316              : gl           - GROUND LEVEL ELEVATION      
EREF.M        626.059              : kb           - ELEVATION OF DEPTH REFERENCE
DATM.M        623.316              : datum        - DATUM ELEVATION             
TDD .M        723.9                : tdd          - TOTAL DEPTH DRILLER         
RUN .         ONE                  : Run          - RUN NUMBER                  
ENG .         MUNRO/SEDGWICK       : Engineer     - RECORDING ENGINEER          
BASE.         EDM                  : Branch       - HOME BASE OF LOGGING UNIT   
MUD .         GEL                  : Mud_type     - MUD TYPE                    
MATR.         SANDSTONE            : Logunit      - NEUTRON MATRIX              
TMAX.C        28.3333              : BHT          - MAXIMUM RECORDED TEMPERATURE
BHTD.M        722.681              : BHTDEP       - MAXIMUM RECORDED TEMPERATURE
RMT .C        22.2222              : MDTP         - TEMPERATURE OF MUD          
MUDD.KG/M     1116                 : MWT          - MUD DENSITY                 
NEUT.         1                    : NEUTRON      - NEUTRON TYPE                
RESI.         0                    : RESIST       - RESISTIVITY TYPE            
RM  .OHMM     3.29                 : RM           - RESISTIVITY OF MUD          
RMC .OHMM     2.5                  : RMC          - RESISTIVITY OF MUD CAKE     
RMF .OHMM     3.04                 : RMF          - RESISTIVITY OF MUD FILTRATE 
SUFT.C        -17.7778             : SUFT         - SURFACE TEMPERATURE         
~A  DEPTH     RESD      CAL       GR     PHIN     PHID
# ...
  490.652    3.528  159.530  106.744    0.476    0.219
  490.902    3.847  180.250  100.235    0.494    0.209
  491.152    4.171  185.550   94.935    0.495    0.218
  491.402    4.640  169.497   90.123    0.460    0.220
  491.652    4.958  158.879   83.853    0.466    0.173
  491.902    5.042  152.786   77.951    0.473    0.190
  492.152    4.915  149.358   74.653    0.449    0.217
  492.402    4.739  146.551   71.718    0.384    0.248
  492.652    4.333  144.566   69.276    0.352    0.268
  492.902    3.868  143.504   68.710    0.351    0.312
  493.152    3.478  143.069   71.119    0.357    0.315
  493.402    3.010  142.919   74.972    0.376    0.309
  493.652    2.711  142.889   78.839    0.401    0.287
  493.902    2.525  141.944   80.148    0.421    0.277
  494.152    2.448  142.103   80.010    0.441    0.272
  494.402    2.382  142.165   78.408    0.462    0.283
  494.652    2.374  142.147   76.568    0.482    0.301
  494.902    2.392  142.200   76.064    0.445    0.297
  495.152    2.432  141.965   76.467    0.422    0.287
  495.402    2.478  142.438   79.783    0.408    0.283
  495.652    2.576  143.546   84.132    0.403    0.282
  495.902    2.687  144.840   87.322    0.417    0.260
  496.152    2.809  145.832   87.730    0.428    0.248
  496.402    2.925  146.717   85.522    0.440    0.241
  496.652    3.002  146.996   80.838    0.458    0.249
  496.902    3.063  147.372   77.053    0.465    0.253
  497.152    3.115  148.053   79.159    0.460    0.251
  497.402    3.139  149.147   86.237    0.446    0.248
  497.652    3.134  150.651   91.065    0.448    0.218
  497.902    3.106  151.749   91.831    0.461    0.189
  498.152    3.107  152.029   89.503    0.467    0.213
  498.402    3.068  151.894   89.244    0.449    0.235
  498.652    3.046  151.848   90.374    0.447    0.191
  498.902    3.024  151.616   87.202    0.486    0.196
  499.152    3.058  151.375   82.691    0.463    0.247
  499.402    3.121  150.819   86.133    0.438    0.243
  499.652    3.180  147.922   88.714    0.425    0.225
  499.902    3.275  147.058   90.151    0.431    0.200
  500.152    3.373  146.618   90.678    0.425    0.188
  500.402    3.387  146.888   92.543    0.448    0.185
  500.652    3.253  148.386   93.492    0.458    0.197
  500.902    3.074  150.718   94.132    0.443    0.204
  501.152    2.905  153.552   91.444    0.425    0.188
  501.402    2.685  156.499   92.697    0.438    0.177
  501.652    2.561  158.316   94.555    0.458    0.191
  501.902    2.363  158.799   90.410    0.476    0.215
  502.152    2.140  155.472   70.436    0.474    0.246
  502.402    2.026  145.573   62.295    0.430    0.310
  502.652    2.042  143.585   59.902    0.420    0.304
  502.902    2.267  143.140   66.312    0.428    0.289
  503.152    2.699  142.284   67.986    0.446    0.287
  503.402    3.104  143.182   68.452    0.453    0.293
  503.652    3.403  144.683   70.371    0.446    0.315
  503.902    3.543  147.127   75.756    0.458    0.315
  504.152    3.473  149.552   79.978    0.520    0.330
  504.402    3.158  152.197   83.599    0.588    0.351
  504.652    2.924  154.095   87.822    0.508    0.332
  504.902    2.654  157.355   93.441    0.444    0.208
  505.152    2.494  159.060   91.418    0.437    0.188
  505.402    2.366  159.136   86.731    0.435    0.185
  505.652    2.268  155.816   82.717    0.431    0.199
  505.902    2.265  151.763   80.201    0.425    0.226
  506.152    2.424  149.993   76.480    0.426    0.261
  506.402    2.557  151.391   72.153    0.455    0.266
  506.652    2.610  148.695   68.007    0.474    0.281
  506.902    2.498  147.732   71.989    0.444    0.303
  507.152    2.255  150.568   79.854    0.449    0.293
  507.402    2.088  153.821   79.711    0.477    0.269
  507.652    1.955  154.914   67.924    0.479    0.261
  507.902    1.844  151.302   53.585    0.450    0.267
  508.152    1.791  147.967   45.501    0.422    0.276
  508.402    1.762  144.739   44.210    0.418    0.281
  508.652    1.753  142.865   44.374    0.432    0.285
  508.902    1.805  142.219   45.015    0.427    0.292
  509.152    1.856  141.865   45.538    0.411    0.292
  509.402    1.994  141.743   45.879    0.414    0.266
  509.652    2.302  141.488   46.834    0.415    0.278
  509.902    2.627  141.770   45.172    0.413    0.291
  510.152    3.060  141.638   44.123    0.409    0.274
  510.402    3.518  141.304   47.025    0.404    0.262
  510.652    3.943  141.567   49.729    0.400    0.273
  510.902    3.774  142.353   51.648    0.389    0.276
  511.152    3.356  143.542   48.710    0.331    0.257
  511.402    2.729  145.247   43.171    0.282    0.206
  511.652    2.100  149.226   42.668    0.222    0.134
  511.902    1.729  152.676   43.926    0.249    0.102
  512.152    1.572  152.133   45.533    0.339    0.124
  512.402    1.524  148.297   48.189    0.370    0.255
  512.652    1.491  145.600   49.555    0.393    0.298
  512.902    1.489  143.825   50.815    0.402    0.306
  513.152    1.489  143.171   52.673    0.406    0.312
  513.402    1.490  142.221   55.264    0.409    0.323
  513.652    1.474  141.962   57.548    0.415    0.312
  513.902    1.444  141.531   59.410    0.421    0.313
  514.152    1.416  141.094   58.653    0.426    0.323
  514.402    1.403  141.359   54.092    0.430    0.315
  514.652    1.396  141.613   52.000    0.443    0.310
  514.902    1.389  141.790   49.133    0.450    0.313
  515.152    1.399  141.464   46.505    0.441    0.312
  515.402    1.405  141.516   45.144    0.445    0.304
  515.652    1.410  141.692   45.560    0.438    0.308
  515.902    1.413  142.055   48.149    0.419    0.314
  516.152    1.419  142.433   50.182    0.406    0.317
  516.402    1.429  142.927   51.864    0.411    0.316
  516.652    1.440  143.098   52.447    0.427    0.311
  516.902    1.446  143.153   53.214    0.436    0.308
  517.152    1.438  143.541   53.863    0.442    0.310
  517.402    1.433  143.609   52.929    0.452    0.315
  517.652    1.431  143.687   50.792    0.454    0.322
  517.902    1.434  143.436   51.684    0.440    0.317
  518.152    1.444  143.512   53.170    0.434    0.313
  518.402    1.450  143.458   56.134    0.434    0.311
  518.652    1.453  143.216   57.442    0.436    0.306
  518.902    1.459  143.291   58.627    0.436    0.301
  519.152    1.462  142.965   55.579    0.436    0.300
  519.402    1.484  143.242   55.579    0.437    0.310
  519.652    1.509  143.001   53.484    0.438    0.304
  519.902    1.557  143.041   54.002    0.438    0.319
  520.152    1.572  142.821   54.654    0.436    0.320
  520.402    1.622  142.575   56.525    0.433    0.319
  520.652    1.749  142.230   57.331    0.424    0.317
  520.902    1.804  142.002   58.590    0.423    0.305
  521.152    1.925  141.946   60.327    0.434    0.302
  521.402    2.197  141.728   58.908    0.444    0.297
  521.652    2.568  141.793   57.008    0.423    0.286
  521.902    2.980  141.531   59.178    0.412    0.271
  522.152    3.340  140.990   60.791    0.437    0.284
  522.402    3.472  141.050   61.691    0.414    0.276
  522.652    3.447  142.063   61.360    0.389    0.231
  522.902    3.299  143.663   59.393    0.367    0.206
  523.152    3.135  145.982   59.867    0.345    0.184
  523.402    2.935  146.565   61.846    0.326    0.172
  523.652    2.708  142.364   63.643    0.353    0.199
  523.902    2.449  141.980   64.594    0.398    0.224
  524.152    2.210  143.285   64.444    0.424    0.267
  524.402    1.923  145.091   64.489    0.411    0.253
  524.652    1.607  145.573   63.865    0.397    0.238
  524.902    1.427  144.094   62.932    0.381    0.222
  525.152    1.300  142.647   61.638    0.379    0.221
  525.402    1.239  142.694   60.410    0.393    0.269
  525.652    1.233  143.582   59.411    0.418    0.276
  525.902    1.240  145.091   60.786    0.446    0.334
  526.152    1.256  146.080   62.038    0.458    0.351
  526.402    1.273  146.354   62.744    0.450    0.356
  526.652    1.289  146.117   62.056    0.449    0.340
  526.902    1.290  145.468   60.223    0.456    0.344
