~VERSION INFORMATION
 VERS.                 2.0:   CWLS LOG ASCII STANDARD -VERSION 2.0
 WRAP.                  NO:   ONE LINE PER DEPTH STEP
~WELL INFORMATION BLOCK
#MNEM.UNIT           DATA                    DESCRIPTION OF MNEMONIC
#---------    -------------------            -------------------------------
# Generated from Intellog Unique Number	CW_70_72/WELL/3002
NULL.         -999.25                        : NULL_VALUE
WELL.         CDN-SUP MI5TSUE 04-03          : Well_name    - WELL              
LOC .         04-03-070-03W5                 : Location     - LOCATION          
UWI .         00/04-03-070-03W5/0            : Uwi          - UNIQUE WELL ID    
ENTR.         JAYE                           : Entered      - ENTERED BY        
SRVC.         SCHLUMBERGER                   : Scn          - SERVICE COMPANY   
DATE.         8 SEPT 80                      : Date         - LOG DATE          
STRT.M        495                            : top_depth    - START DEPTH       
STOP.M        705                            : bot_depth    - STOP DEPTH        
STEP.M        0.25                           : increment    - STEP LENGTH       
~CURVE INFORMATION BLOCK
#MNEM UNIT       ERCB CURVE CODE    CURVE DESCRIPTION
#-----------   ------------------   ----------------------------------
DEPT.M        00 001 00 00         : DEPTH        - DEPTH                       
ILD .OHMM     00 120 00 00         : RESD         - DEEP RESISTIVITY (DIL)      
CALI.MM       00 280 01 00         : CAL          - CALIPER                     
GR  .API      00 310 00 00         : GR           - GAMMA RAY                   
NPHI.V/V      00 330 00 00         : PHIN         - NEUTRON POROSITY (SANDSTONE)
DPHI.V/V      00 890 00 00         : PHID         - DENSITY POROSITY (SANDSTONE)
~PARAMETER INFORMATION       
#MNEM.UNIT           DATA             DESCRIPTION OF MNEMONIC
#---------         -----------     ------------------------------
GL  .M        614                  : gl           - GROUND LEVEL ELEVATION      
EREF.M        621                  : kb           - ELEVATION OF DEPTH REFERENCE
DATM.M        614                  : datum        - DATUM ELEVATION             
TDD .M        1710.5               : tdd          - TOTAL DEPTH DRILLER         
RUN .         ONE                  : Run          - RUN NUMBER                  
ENG .         IRELAND              : Engineer     - RECORDING ENGINEER          
WIT .         KELLY                : Witness      - WITNESSED BY                
BASE.         EDMONTON             : Branch       - HOME BASE OF LOGGING UNIT   
MUD .         GEL BENEX            : Mud_type     - MUD TYPE                    
MATR.         SANDSTONE            : Logunit      - NEUTRON MATRIX              
TMAX.C        44                   : BHT          - MAXIMUM RECORDED TEMPERATURE
BHTD.M        1708.5               : BHTDEP       - MAXIMUM RECORDED TEMPERATURE
RMT .C        17.8                 : MDTP         - TEMPERATURE OF MUD          
MUDD.KG/M     1110                 : MWT          - MUD DENSITY                 
NEUT.         1                    : NEUTRON      - NEUTRON TYPE                
RESI.         0                    : RESIST       - RESISTIVITY TYPE            
RM  .OHMM     1.9                  : RM           - RESISTIVITY OF MUD          
RMC .OHMM     0.25                 : RMC          - RESISTIVITY OF MUD CAKE     
RMF .OHMM     0.99                 : RMF          - RESISTIVITY OF MUD FILTRATE 
SUFT.C        0                    : SUFT         - SURFACE TEMPERATURE         
~A  DEPTH     RESD      CAL       GR     PHIN     PHID
# ...
  677.500    3.808  290.165   80.627    0.425    0.256
  677.750    4.044  287.902   81.486    0.391    0.213
  678.000    4.223  286.358   82.283    0.375    0.130
  678.250    4.435  286.251   83.388    0.365    0.116
  678.500    4.737  289.529   86.403    0.371    0.132
  678.750    4.965  286.446   83.690    0.393    0.131
  679.000    5.272  274.023   77.468    0.382    0.078
  679.250    5.425  286.436   76.357    0.303    0.110
  679.500    5.429  302.646   81.095    0.320    0.207
  679.750    5.246  298.125   85.341    0.419    0.320
  680.000    4.874  287.857   84.722    0.465    0.297
  680.250    4.229  276.460   79.424    0.474    0.156
  680.500    4.049  267.014   67.783    0.407    0.058
  680.750    4.299  272.141   68.026    0.254    0.114
  681.000    4.773  282.296   73.873    0.258    0.171
  681.250    5.069  296.761   80.828    0.348    0.217
  681.500    4.852  316.049   83.657    0.454    0.336
  681.750    4.386  314.711   83.778    0.494    0.373
  682.000    3.540  296.951   83.159    0.513    0.295
  682.250    2.976  290.070   86.173    0.525    0.231
  682.500    3.017  284.523   87.647    0.515    0.182
  682.750    3.313  278.977   86.228    0.370    0.154
  683.000    3.658  273.532   84.563    0.355    0.128
  683.250    4.247  270.757   83.821    0.348    0.122
  683.500    4.714  265.313   83.449    0.344    0.114
  683.750    5.185  261.510   82.953    0.329    0.107
  684.000    5.683  261.813   82.026    0.315    0.097
  684.250    6.080  265.399   80.422    0.325    0.085
  684.500    6.361  263.342   77.402    0.348    0.023
  684.750    6.450  262.414   80.293    0.360    0.058
  685.000    6.338  264.974   81.645    0.342    0.127
  685.250    6.168  269.280   82.257    0.344    0.163
  685.500    5.827  277.280   82.562    0.373    0.236
  685.750    5.170  282.200   82.067    0.415    0.248
  686.000    4.690  271.523   80.278    0.440    0.212
  686.250    4.549  264.744   76.519    0.422    0.200
  686.500    4.603  262.790   75.038    0.408    0.187
  686.750    4.753  271.404   77.559    0.388    0.148
  687.000    4.909  277.044   80.328    0.372    0.177
  687.250    4.718  278.271   82.049    0.405    0.198
  687.500    4.319  274.674   83.093    0.435    0.182
  687.750    3.818  270.974   83.644    0.457    0.216
  688.000    3.387  270.456   84.626    0.475    0.245
  688.250    3.409  269.425   83.576    0.498    0.244
  688.500    3.742  264.597   82.219    0.451    0.217
  688.750    4.368  244.067   78.829    0.424    0.161
  689.000    5.553  235.748   67.496    0.395    0.130
  689.250    7.657  230.305   62.136    0.364    0.152
  689.500    9.414  227.016   58.192    0.341    0.165
  689.750   10.147  227.524   54.864    0.338    0.127
  690.000    9.949  233.471   57.016    0.325    0.105
  690.250   10.277  238.392   58.922    0.334    0.134
  690.500   10.812  231.409   54.547    0.358    0.153
  690.750   11.126  223.193   54.606    0.346    0.176
  691.000   10.611  222.265   58.790    0.327    0.194
  691.250   10.026  232.111   65.930    0.313    0.134
  691.500    9.492  240.214   73.377    0.321    0.116
  691.750    8.969  243.493   77.931    0.320    0.115
  692.000    8.521  242.770   76.203    0.309    0.126
  692.250    8.113  241.534   75.708    0.302    0.125
  692.500    7.970  241.015   79.523    0.305    0.106
  692.750    7.946  240.805   79.828    0.298    0.095
  693.000    7.969  239.979   72.312    0.287    0.118
  693.250    7.959  239.256   64.366    0.291    0.140
  693.500    7.936  239.147   60.361    0.300    0.161
  693.750    7.942  239.245   60.480    0.306    0.143
  694.000    7.847  238.829   63.495    0.311    0.158
  694.250    7.751  239.234   65.401    0.315    0.178
  694.500    7.600  239.127   65.460    0.322    0.168
  694.750    7.397  238.198   66.565    0.321    0.141
  695.000    7.200  237.065   69.579    0.316    0.125
  695.250    7.341  236.239   73.086    0.306    0.101
  695.500    7.695  235.824   78.317    0.305    0.076
  695.750    8.172  235.203   81.331    0.350    0.060
  696.000    8.471  234.172   76.156    0.335    0.052
  696.250    8.750  232.831   75.968    0.259    0.070
  696.500    8.954  231.904   77.197    0.287    0.088
  696.750    9.044  229.949   81.565    0.311    0.099
  697.000    8.705  227.378   82.978    0.320    0.098
  697.250    9.159  223.062   70.476    0.334    0.082
  697.500   10.910  221.724   46.705    0.355    0.043
  697.750   15.328  220.076   34.571    0.318    0.015
  698.000   18.602  220.483   39.556    0.151    0.040
  698.250   18.174  222.221   57.964    0.183    0.055
  698.500   16.547  222.320   67.320    0.256    0.073
  698.750   15.899  220.468   69.042    0.278    0.096
  699.000   15.853  216.562   72.610    0.308    0.124
  699.250   15.952  212.042   65.095    0.339    0.187
  699.500   16.266  207.726   57.764    0.320    0.159
  699.750   16.643  208.953   58.685    0.274    0.130
  700.000   17.094  210.898   64.038    0.267    0.119
  700.250   17.107  211.508   66.930    0.297    0.137
  700.500   15.233  211.093   69.390    0.301    0.142
  700.750   13.097  210.882   73.389    0.300    0.145
  701.000   12.170  210.776   76.157    0.305    0.150
  701.250   11.165  210.975   76.893    0.320    0.158
  701.500   10.707  211.278   75.904    0.325    0.146
  701.750   10.230  211.787   77.318    0.322    0.121
  702.000    9.315  211.885   80.086    0.312    0.097
  702.250    8.705  211.777   88.704    0.304    0.080
  702.500    8.409  209.309   81.311    0.313    0.081
  702.750    8.400  204.582   69.240    0.359    0.042
  703.000   17.288  202.833   45.037    0.318    0.020
  703.250   23.975  200.878   27.547    0.078   -0.008
  703.500   32.941  199.950   21.510    0.064   -0.008
  703.750   47.409  198.917   18.059    0.063   -0.009
  704.000   75.266  198.606   17.316    0.063   -0.010
  704.250   86.083  198.703   17.806    0.063   -0.013
  704.500   87.110  198.493   18.173    0.064   -0.020
  704.750   85.109  198.385   19.832    0.066   -0.028
  705.000   81.920  198.688   20.383    0.066   -0.031
