~VERSION INFORMATION
 VERS.                 2.0:   CWLS LOG ASCII STANDARD -VERSION 2.0
 WRAP.                  NO:   ONE LINE PER DEPTH STEP
~WELL INFORMATION BLOCK
#MNEM.UNIT           DATA                    DESCRIPTION OF MNEMONIC
#---------    -------------------            -------------------------------
# Generated from Intellog Unique Number	CS_71_72/WELL/810
WELL.         BVI ET AL CHARRON              : Well_name    - WELL
LOC .         00/07-12-071-15W4/0            : Location     - LOCATION
UWI .         00/07-12-071-15W4/0            : Uwi          - UNIQUE WELL ID
ENTR.         SP                             : Entered      - ENTERED BY
SRVC.         SCHLUMBERGER                   : Scn          - SERVICE COMPANY
STRT.M        305                            : top_depth    - START DEPTH
STOP.M        510                            : bot_depth    - STOP DEPTH
STEP.M        0.25                           : increment    - STEP LENGTH
 NULL. -999.2500:NULL Value
~CURVE INFORMATION BLOCK
#MNEM UNIT       ERCB CURVE CODE    CURVE DESCRIPTION
#-----------   ------------------   ----------------------------------
DEPT.M        00 001 00 00         : DEPTH        - DEPTH
ILD .OHMM     00 120 00 00         : RESD         - DEEP RESISTIVITY (DIL)
DPHI.V/V      00 890 00 00         : PHID         - DENSITY POROSITY (LIMESTONE)
NPHI.V/V      00 330 00 00         : PHIN         - NEUTRON POROSITY (LIMESTONE)
GR  .API      00 310 00 00         : GR           - GAMMA RAY
~PARAMETER INFORMATION
#MNEM.UNIT           DATA             DESCRIPTION OF MNEMONIC
#---------         -----------     ------------------------------
GL  .M        618.3                : gl           - GROUND LEVEL ELEVATION
EREF.M        621.8                : kb           - ELEVATION OF DEPTH REFERENCE
DATM.M        618.3                : datum        - DATUM ELEVATION
TDD .M        517                  : tdd          - TOTAL DEPTH DRILLER
RUN .         ONE                  : Run          - RUN NUMBER
ENG .         BILL                 : Engineer     - RECORDING ENGINEER
WIT .         JIM                  : Witness      - WITNESSED BY
MUD .         GEL                  : Mud_type     - MUD TYPE
MATR.         LIMESTONE            : Logunit      - NEUTRON MATRIX
TMAX.C        27                   : BHT          - MAXIMUM RECORDED TEMPERATURE
BHTD.M        517                  : BHTDEP       - MAXIMUM RECORDED TEMPERATURE
MATR.         1                    : LOGUNIT      - NEUTRON MATRIX
RMT .C        25                   : MDTP         - TEMPERATURE OF MUD
NEUT.         1                    : NEUTRON      - NEUTRON TYPE
RESI.         0                    : RESIST       - RESISTIVITY TYPE
RMC .OHMM     0.25                 : RMC          - RESISTIVITY OF MUD CAKE
RMF .OHMM     0.25                 : RMF          - RESISTIVITY OF MUD FILTRATE
SUFT.C        15                   : SUFT         - SURFACE TEMPERATURE
~A  DEPTH     RESD     PHID     PHIN       GR
# ...
  348.500    4.140    0.227    0.450  107.593
  348.750    4.140    0.236    0.458  103.670
  349.000    4.117    0.260    0.473  100.532
  349.250    4.017    0.282    0.454   97.213
  349.500    3.883    0.276    0.451   97.340
  349.750    3.883    0.269    0.467   95.169
  350.000    3.964    0.266    0.448   91.367
  350.250    4.100    0.265    0.432   86.357
  350.500    4.225    0.269    0.425   84.125
  350.750    4.378    0.277    0.431   91.323
  351.000    4.545    0.268    0.439   96.948
  351.250    4.597    0.257    0.429   99.915
  351.500    4.683    0.247    0.432   97.140
  351.750    4.718    0.249    0.452   82.882
  352.000    4.622    0.267    0.441   71.043
  352.250    4.502    0.274    0.437   74.191
  352.500    4.385    0.276    0.452   77.158
  352.750    4.351    0.282    0.455   78.431
  353.000    4.467    0.285    0.456   80.310
  353.250    4.779    0.275    0.457   80.618
  353.500    5.161    0.264    0.453   78.689
  353.750    5.574    0.249    0.472   76.579
  354.000    6.031    0.227    0.496   72.293
  354.250    6.332    0.085    0.404   67.221
  354.500    6.416    0.100    0.282   67.287
  354.750    6.133    0.166    0.398   75.694
  355.000    5.583    0.236    0.431   82.831
  355.250    5.044    0.256    0.442   86.885
  355.500    4.618    0.259    0.447   90.396
  355.750    4.464    0.265    0.452   92.214
  356.000    4.464    0.256    0.458   92.642
  356.250    4.472    0.250    0.469   91.801
  356.500    4.489    0.243    0.477   89.993
  356.750    4.522    0.251    0.469   86.373
  357.000    4.582    0.265    0.463   83.900
  357.250    4.625    0.280    0.456   81.850
  357.500    4.625    0.294    0.455   82.641
  357.750    4.616    0.293    0.458   85.366
  358.000    4.555    0.281    0.456   88.272
  358.250    4.563    0.272    0.459   89.788
  358.500    4.546    0.266    0.448   89.734
  358.750    4.520    0.250    0.443   89.981
  359.000    4.512    0.223    0.458   91.256
  359.250    4.494    0.218    0.455   91.442
  359.500    4.494    0.249    0.422   89.272
  359.750    4.511    0.271    0.396   87.464
  360.000    4.545    0.271    0.425   83.843
  360.250    4.587    0.280    0.445   79.194
  360.500    4.647    0.292    0.461   78.535
  360.750    4.691    0.281    0.468   85.792
  361.000    4.708    0.263    0.456   94.561
  361.250    4.717    0.236    0.455   99.462
  361.500    4.673    0.236    0.466  101.099
  361.750    4.400    0.244    0.480  101.104
  362.000    4.151    0.250    0.472   99.659
  362.250    4.058    0.243    0.466   97.186
  362.500    4.182    0.216    0.469   94.895
  362.750    4.399    0.222    0.528   94.659
  363.000    4.795    0.242    0.498   95.812
  363.250    4.877    0.239    0.462   97.087
  363.500    5.247    0.243    0.455   98.300
  363.750    5.397    0.235    0.445   99.635
  364.000    5.571    0.228    0.435  100.487
  364.250    5.634    0.227    0.449   97.169
  364.500    5.709    0.236    0.458   94.091
  364.750    5.751    0.244    0.440   92.042
  365.000    5.751    0.236    0.415   95.734
  365.250    5.740    0.227    0.401   97.310
  365.500    5.697    0.220    0.404   93.509
  365.750    5.476    0.235    0.405   90.371
  366.000    5.156    0.239    0.424   84.575
  366.250    4.756    0.233    0.434   78.717
  366.500    4.379    0.255    0.441   69.960
  366.750    4.024    0.284    0.446   63.196
  367.000    3.839    0.328    0.432   56.734
  367.250    3.697    0.341    0.417   51.300
  367.500    3.753    0.322    0.402   57.167
  367.750    3.948    0.308    0.394   62.552
  368.000    4.083    0.287    0.389   69.448
  368.250    4.271    0.268    0.383   73.924
  368.500    4.510    0.261    0.384   78.523
  368.750    4.825    0.259    0.390   81.429
  369.000    5.124    0.263    0.399   85.061
  369.250    5.310    0.266    0.398   88.451
  369.500    5.544    0.253    0.385   89.604
  369.750    5.745    0.237    0.374   88.703
  370.000    5.897    0.227    0.434   86.170
  370.250    5.941    0.271    0.530   85.994
  370.500    5.919    0.334    0.542   90.894
  370.750    5.776    0.316    0.509   95.311
  371.000    5.594    0.257    0.466   97.190
  371.250    5.479    0.212    0.450   96.833
  371.500    5.257    0.207    0.470   93.153
  371.750    5.063    0.215    0.484   90.739
  372.000    4.831    0.216    0.476   86.213
  372.250    4.365    0.218    0.455   80.234
  372.500    4.283    0.231    0.450   71.839
  372.750    4.079    0.257    0.457   65.921
  373.000    3.921    0.322    0.457   63.147
  373.250    3.812    0.337    0.450   64.119
  373.500    3.734    0.344    0.442   66.663
  373.750    3.671    0.357    0.445   67.695
  374.000    3.637    0.366    0.444   68.063
  374.250    3.589    0.356    0.456   66.074
  374.500    3.555    0.350    0.465   64.811
  374.750    3.528    0.346    0.469   64.573
  375.000    3.502    0.344    0.461   64.337
  375.250    3.469    0.347    0.453   63.799
  375.500    3.449    0.350    0.451   63.442
  375.750    3.455    0.350    0.453   63.205
  376.000    3.475    0.345    0.446   63.331
  376.250    3.494    0.339    0.457   63.820
  376.500    3.520    0.342    0.471   65.216
  376.750    3.560    0.346    0.485   67.396
  377.000    3.600    0.346    0.494   69.637
  377.250    3.738    0.342    0.481   72.906
  377.500    3.888    0.343    0.466   77.324
  377.750    4.074    0.331    0.456   81.197
  378.000    4.222    0.293    0.454   85.795
  378.250    4.294    0.259    0.458   90.938
  378.500    4.383    0.249    0.462   88.344
  378.750    4.416    0.259    0.456   80.493
  379.000    4.358    0.272    0.444   74.757
  379.250    4.213    0.288    0.432   72.465
  379.500    4.134    0.304    0.415   71.987
  379.750    4.073    0.297    0.421   72.416
  380.000    3.989    0.292    0.438   73.388
  380.250    3.966    0.285    0.451   75.146
  380.500    3.974    0.277    0.450   76.783
  380.750    4.034    0.270    0.446   78.057
  381.000    4.071    0.271    0.452   79.272
  381.250    4.094    0.267    0.449   81.635
  381.500    4.125    0.262    0.454   83.391
  381.750    4.125    0.258    0.471   85.150
  382.000    4.070    0.254    0.487   87.331
  382.250    3.980    0.251    0.486   85.583
  382.500    3.869    0.250    0.466   85.287
  382.750    3.761    0.259    0.459   85.534
  383.000    3.684    0.263    0.456   85.963
  383.250    3.636    0.260    0.451   86.391
  383.500    3.575    0.253    0.470   86.275
  383.750    3.534    0.242    0.510   85.373
  384.000    3.514    0.259    0.533   82.357
  384.250    3.514    0.279    0.537   78.736
  384.500    3.520    0.295    0.502   72.518
  384.750    3.553    0.328    0.460   68.231
  385.000    3.580    0.333    0.438   63.642
  385.250    3.600    0.332    0.435   57.967
  385.500    3.593    0.334    0.443   57.005
  385.750    3.579    0.335    0.449   57.253
  386.000    3.552    0.336    0.425   58.045
  386.250    3.512    0.336    0.426   58.472
  386.500    3.479    0.334    0.444   58.841
  386.750    3.434    0.335    0.438   58.603
  387.000    3.408    0.347    0.427   57.218
  387.250    3.395    0.359    0.438   54.987
  387.500    3.376    0.365    0.443   54.207
  387.750    3.363    0.363    0.447   54.515
  388.000    3.344    0.360    0.447   55.971
  388.250    3.344    0.356    0.428   56.822
  388.500    3.350    0.349    0.431   57.492
  388.750    3.356    0.345    0.438   57.920
  389.000    3.375    0.342    0.440   58.168
  389.250    3.419    0.339    0.443   57.327
  389.500    3.471    0.346    0.452   57.634
  389.750    3.543    0.352    0.447   58.304
  390.000    3.583    0.352    0.445   59.034
  390.250    3.671    0.347    0.449   58.194
  390.500    3.678    0.341    0.443   58.561
  390.750    3.636    0.337    0.438   61.770
  391.000    3.398    0.334    0.439   68.544
  391.250    3.242    0.316    0.442   77.192
  391.500    3.164    0.245    0.419   83.664
  391.750    3.254    0.237    0.455   87.597
