~VERSION INFORMATION
 VERS.                 2.0:   CWLS LOG ASCII STANDARD -VERSION 2.0
 WRAP.                  NO:   ONE LINE PER DEPTH STEP
~WELL INFORMATION BLOCK
#MNEM.UNIT           DATA                    DESCRIPTION OF MNEMONIC
#---------    -------------------            -------------------------------
# Generated from Intellog Unique Number	CS_73_76/WELL/956
WELL.         CANADIAN WORLDWIDE ENERGY      : Well_name    - WELL
LOC .         00/02-26-076-04W4/0            : Location     - LOCATION
UWI .         00/02-26-076-04W4/0            : Uwi          - UNIQUE WELL ID
ENTR.         SP                             : Entered      - ENTERED BY
SRVC.         SCHLUMBERGER                   : Scn          - SERVICE COMPANY
STRT.M        200                            : top_depth    - START DEPTH
STOP.M        450                            : bot_depth    - STOP DEPTH
STEP.M        0.25                           : increment    - STEP LENGTH
 NULL. -999.2500:NULL Value
~CURVE INFORMATION BLOCK
#MNEM UNIT       ERCB CURVE CODE    CURVE DESCRIPTION
#-----------   ------------------   ----------------------------------
DEPT.M        00 001 00 00         : DEPTH        - DEPTH
ILD .OHMM     00 120 00 00         : RESD         - DEEP RESISTIVITY (DIL)
GR  .API      00 310 00 00         : GR           - GAMMA RAY
NPHI.V/V      00 330 00 00         : PHIN         - NEUTRON POROSITY (LIMESTONE)
DPHI.V/V      00 890 00 00         : PHID         - DENSITY POROSITY (LIMESTONE)
~PARAMETER INFORMATION
#MNEM.UNIT           DATA             DESCRIPTION OF MNEMONIC
#---------         -----------     ------------------------------
GL  .M        587.6                : gl           - GROUND LEVEL ELEVATION
EREF.M        591.1                : kb           - ELEVATION OF DEPTH REFERENCE
DATM.M        587.6                : datum        - DATUM ELEVATION
TDD .M        460                  : tdd          - TOTAL DEPTH DRILLER
RUN .         ONE                  : Run          - RUN NUMBER
ENG .         BILL                 : Engineer     - RECORDING ENGINEER
WIT .         JIM                  : Witness      - WITNESSED BY
MUD .         GEL                  : Mud_type     - MUD TYPE
MATR.         LIMESTONE            : Logunit      - NEUTRON MATRIX
TMAX.C        23                   : BHT          - MAXIMUM RECORDED TEMPERATURE
BHTD.M        460                  : BHTDEP       - MAXIMUM RECORDED TEMPERATURE
MATR.         1                    : LOGUNIT      - NEUTRON MATRIX
RMT .C        25                   : MDTP         - TEMPERATURE OF MUD
NEUT.         1                    : NEUTRON      - NEUTRON TYPE
RESI.         0                    : RESIST       - RESISTIVITY TYPE
RMC .OHMM     0.25                 : RMC          - RESISTIVITY OF MUD CAKE
RMF .OHMM     0.25                 : RMF          - RESISTIVITY OF MUD FILTRATE
SUFT.C        15                   : SUFT         - SURFACE TEMPERATURE
~A  DEPTH     RESD       GR     PHIN     PHID
  200.000    3.036   97.937    0.567    0.236
  200.250    3.038   99.801    0.578    0.296
  200.500    2.928  102.907    0.590    0.292
  200.750    2.822  106.012    0.582    0.303
  201.000    2.824  101.680    0.567    0.297
  201.250    2.880   96.107    0.557    0.297
  201.500    2.938   93.634    0.521    0.304
  201.750    2.940   94.260    0.516    0.304
  202.000    2.942   96.745    0.514    0.299
  202.250    2.944   96.752    0.503    0.305
  202.500    3.002   96.139    0.520    0.292
  202.750    3.005   97.385    0.547    0.297
  203.000    3.064   98.629    0.534    0.282
  203.250    3.010   98.016    0.521    0.267
  203.500    3.068   97.403    0.532    0.251
  203.750    3.071   97.410    0.499    0.265
  204.000    3.131   97.416    0.467    0.279
  204.250    3.135   98.041    0.477    0.287
  204.500    3.136   99.906    0.509    0.292
  204.750    3.080   99.913    0.554    0.292
  205.000    3.083   97.439    0.548    0.252
  205.250    3.085   93.728    0.517    0.213
  205.500    3.147   92.494    0.512    0.146
  205.750    3.148   94.979    0.511    0.146
  206.000    3.150   99.325    0.471    0.211
  206.250    3.153  101.810    0.488    0.257
  206.500    3.097  103.675    0.516    0.261
  206.750    3.099  109.260    0.536    0.261
  207.000    3.101  109.266    0.532    0.263
  207.250    3.162  108.032    0.511    0.260
  207.500    3.286  104.941    0.511    0.253
  207.750    3.415  107.426    0.531    0.244
  208.000    3.483  111.151    0.488    0.242
  208.250    3.485  114.876    0.473    0.244
  208.500    3.487  106.825    0.488    0.246
  208.750    3.489  102.491    0.502    0.262
  209.000    3.428  101.878    0.510    0.248
  209.250    3.304  101.884    0.510    0.237
  209.500    3.244  104.370    0.507    0.239
  209.750    3.126  107.477    0.494    0.242
  210.000    3.129  108.720    0.501    0.246
  210.250    3.132  107.487    0.518    0.248
  210.500    3.193  104.395    0.527    0.253
  210.750    3.319  103.780    0.511    0.251
  211.000    3.581  104.407    0.473    0.230
  211.250    3.936   88.296    0.431    0.218
  211.500    4.168   72.806    0.399    0.221
  211.750    4.414   75.294    0.379    0.236
  212.000    4.501   90.175    0.379    0.254
  212.250    4.677   98.858    0.400    0.238
  212.500    5.047  102.585    0.441    0.237
  212.750    5.983   87.715    0.436    0.242
  213.000    6.702   75.943    0.381    0.247
  213.250    8.408   46.817    0.357    0.259
  213.500    9.600   26.369    0.342    0.271
  213.750    9.974   34.432    0.334    0.276
  214.000   10.561   50.555    0.329    0.198
  214.250   11.184   57.999    0.362    0.191
  214.500   12.066   52.427    0.401    0.199
  214.750   13.519   53.053    0.389    0.225
  215.000   14.865   52.438    0.378    0.326
  215.250   15.740   51.206    0.364    0.312
  215.500   16.357   53.070    0.372    0.319
  215.750   16.679   59.895    0.382    0.319
  216.000   16.692   69.199    0.382    0.302
  216.250   16.393   74.164    0.367    0.291
  216.500   16.101   77.889    0.368    0.277
  216.750   16.117   79.755    0.384    0.283
  217.000   16.123   81.001    0.393    0.289
  217.250   15.539   81.628    0.400    0.280
  217.500   15.262   82.873    0.404    0.270
  217.750   14.709   85.358    0.403    0.271
  218.000   14.175   89.703    0.392    0.272
  218.250   13.407   89.710    0.376    0.271
  218.500   12.922   92.196    0.378    0.260
  218.750   12.454   94.682    0.395    0.243
  219.000   11.779   97.166    0.405    0.249
  219.250   11.142   97.173    0.394    0.252
  219.500   10.739   99.038    0.382    0.251
  219.750   10.953  100.284    0.407    0.245
  220.000   11.170   99.670    0.407    0.241
  220.250   11.603   97.198    0.412    0.249
  220.500   13.001   96.583    0.425    0.261
  220.750   13.767   94.731    0.430    0.285
  221.000   14.856   91.637    0.434    0.310
  221.250   15.435   94.123    0.418    0.311
  221.500   16.039   95.368    0.396    0.293
  221.750   16.057   96.615    0.381    0.283
  222.000   16.064  100.340    0.384    0.269
  222.250   15.482  100.346    0.392    0.261
  222.500   15.208   94.774    0.408    0.277
  222.750   14.933   94.161    0.417    0.284
  223.000   14.666   97.265    0.390    0.264
  223.250   14.676  100.371    0.372    0.246
  223.500   14.687   99.758    0.367    0.241
  223.750   15.262   81.168    0.370    0.267
  224.000   15.563   57.620    0.383    0.311
  224.250   15.578   51.428    0.401    0.328
  224.500   15.590   53.913    0.416    0.337
  224.750   15.597   63.837    0.435    0.329
  225.000   15.320   81.199    0.421    0.319
  225.250   15.046   91.122    0.409    0.305
  225.500   14.231   98.567    0.410    0.286
  225.750   13.208   98.573    0.413    0.270
  226.000   12.259   96.722    0.395    0.275
  226.250   11.379   96.106    0.388    0.269
  226.500   10.762   94.252    0.413    0.252
  226.750   10.372   96.739    0.453    0.230
  227.000    9.811   99.225    0.465    0.235
  227.250    9.106  101.709    0.467    0.242
  227.500    8.612  111.014    0.469    0.243
  227.750    7.994  112.878    0.465    0.237
  228.000    7.705  101.108    0.411    0.238
  228.250    8.007   83.138    0.398    0.257
  228.500    9.142   71.987    0.393    0.306
  228.750   10.241   62.698    0.385    0.322
  229.000   11.691   59.604    0.365    0.320
  229.250   13.347   57.130    0.353    0.311
  229.500   15.240   54.657    0.347    0.338
  229.750   16.135   55.902    0.384    0.347
  230.000   16.453   69.546    0.391    0.317
  230.250   15.562   84.427    0.389    0.270
  230.500   13.652   78.235    0.385    0.247
  230.750   12.438   71.424    0.379    0.267
  231.000   12.213   68.333    0.359    0.261
  231.250   11.770   67.097    0.353    0.261
  231.500   11.559   65.863    0.362    0.275
  231.750   11.787   68.970    0.380    0.271
  232.000   12.021   84.471    0.389    0.247
  232.250   11.586   94.395    0.396    0.232
  232.500   10.554  106.179    0.405    0.219
  232.750    9.795  106.184    0.429    0.216
  233.000    8.594  116.109    0.489    0.202
  233.250    7.538  122.313    0.482    0.192
  233.500    6.996  126.038    0.467    0.194
  233.750    6.254  128.524    0.475    0.207
  234.000    5.697  130.390    0.487    0.212
  234.250    5.388  128.539    0.476    0.221
  234.500    4.908  127.302    0.479    0.227
  234.750    4.556  123.590    0.503    0.229
  235.000    4.228  121.736    0.520    0.227
  235.250    3.924  123.603    0.547    0.223
  235.500    3.782  123.609    0.571    0.232
  235.750    3.511  123.614    0.555    0.240
  236.000    3.321  119.283    0.510    0.243
  236.250    3.323  117.429    0.471    0.235
  236.500    3.723  114.955    0.442    0.224
  236.750    4.252  111.242    0.444    0.207
  237.000    4.586  104.430    0.456    0.242
  237.250    5.437   91.419    0.482    0.315
  237.500    6.326   78.410    0.511    0.399
  237.750    7.498   74.696    0.516    0.419
  238.000    9.230   71.603    0.483    0.334
  238.250   10.738   70.991    0.453    0.310
  238.500   12.030   70.376    0.426    0.294
  238.750   13.480   56.746    0.421    0.312
  239.000   14.273   53.032    0.412    0.327
  239.250   15.111   59.237    0.402    0.337
  239.500   16.307   66.683    0.398    0.340
  239.750   16.630   68.547    0.414    0.323
  240.000   16.962   71.033    0.420    0.312
  240.250   17.294   74.138    0.415    0.305
  240.500   16.987   80.963    0.407    0.295
  240.750   16.995   87.167    0.404    0.294
  241.000   16.380   87.793    0.410    0.292
  241.250   16.086   78.501    0.411    0.291
  241.500   16.101   74.170    0.413    0.312
  241.750   16.734   74.175    0.414    0.322
  242.000   17.059   77.281    0.395    0.317
  242.250   17.398   78.526    0.388    0.303
  242.500   17.415   83.491    0.379    0.294
  242.750   17.098   84.740    0.384    0.294
  243.000   17.110   84.746    0.399    0.298
  243.250   16.805   83.510    0.416    0.293
