~VERSION INFORMATION
 VERS.                 2.0:   CWLS LOG ASCII STANDARD -VERSION 2.0
 WRAP.                  NO:   ONE LINE PER DEPTH STEP
~WELL INFORMATION BLOCK
#MNEM.UNIT           DATA                    DESCRIPTION OF MNEMONIC
#---------    -------------------            -------------------------------
# Generated from Intellog Unique Number	CW_76_78/WELL/554
WELL.         AMOCO ROCK 07-06               : Well_name    - WELL
LOC .         00/07-06-077-23W4/0            : Location     - LOCATION
UWI .         00/07-06-077-23W4/0            : Uwi          - UNIQUE WELL ID
ENTR.         jj                             : Entered      - ENTERED BY
SRVC.         WESTERN ATLAS                  : Scn          - SERVICE COMPANY
DATE.         12 MAR 78                      : Date         - LOG DATE
STRT.M        524.256                        : top_depth    - START DEPTH
STOP.M        765.006                        : bot_depth    - STOP DEPTH
STEP.M        0.25                           : increment    - STEP LENGTH
 NULL. -999.2500:NULL Value
~CURVE INFORMATION BLOCK
#MNEM UNIT       ERCB CURVE CODE    CURVE DESCRIPTION
#-----------   ------------------   ----------------------------------
DEPT.M        00 001 00 00         : DEPTH        - DEPTH
ILD .OHMM     00 120 00 00         : RESD         - DEEP RESISTIVITY (DIL)
DPHI.V/V      00 890 00 00         : PHID         - DENSITY POROSITY (SANDSTONE)
NPHI.V/V      00 330 00 00         : PHIN         - NEUTRON POROSITY (SANDSTONE)
GR  .API      00 310 00 00         : GR           - GAMMA RAY
CALI.MM       00 280 01 00         : CAL          - CALIPER
~PARAMETER INFORMATION
#MNEM.UNIT           DATA             DESCRIPTION OF MNEMONIC
#---------         -----------     ------------------------------
GL  .M        828.294              : gl           - GROUND LEVEL ELEVATION
EREF.M        832.104              : kb           - ELEVATION OF DEPTH REFERENCE
DATM.M        828.294              : datum        - DATUM ELEVATION
TDD .M        789.432              : tdd          - TOTAL DEPTH DRILLER
RUN .         ONE                  : Run          - RUN NUMBER
ENG .         BURLET               : Engineer     - RECORDING ENGINEER
WIT .         MCDONALD             : Witness      - WITNESSED BY
BASE.         EDMONTON             : Branch       - HOME BASE OF LOGGING UNIT
MUD .         GEL BENDEX           : Mud_type     - MUD TYPE
MATR.         SANDSTONE            : Logunit      - NEUTRON MATRIX
TMAX.C        32.7778              : BHT          - MAXIMUM RECORDED TEMPERATURE
BHTD.M        788.213              : BHTDEP       - MAXIMUM RECORDED TEMPERATURE
RMT .C        20.5556              : MDTP         - TEMPERATURE OF MUD
MUDD.KG/M     1080                 : MWT          - MUD DENSITY
NEUT.         1                    : NEUTRON      - NEUTRON TYPE
RESI.         0                    : RESIST       - RESISTIVITY TYPE
RM  .OHMM     2.43                 : RM           - RESISTIVITY OF MUD
RMC .OHMM     3.7                  : RMC          - RESISTIVITY OF MUD CAKE
RMF .OHMM     2.9                  : RMF          - RESISTIVITY OF MUD FILTRATE
SUFT.C        4.5                  : SUFT         - SURFACE TEMPERATURE
~A  DEPTH     RESD     PHID     PHIN       GR      CAL
# ...
  743.256   10.999    0.075    0.200   57.237  238.149
  743.506   10.630    0.154    0.304   59.090  238.021
  743.756   10.158    0.169    0.347   64.677  237.576
  744.006    9.582    0.151    0.361   64.474  237.132
  744.256    8.660    0.089    0.370   57.803  237.003
  744.506    7.870    0.136    0.380   58.039  237.292
  744.756    7.047    0.178    0.389   64.309  237.483
  745.006    6.404    0.172    0.397   73.819  237.774
  745.256    6.097    0.172    0.403   82.331  237.856
  745.506    6.069    0.166    0.409   87.793  238.147
  745.756    6.133    0.158    0.415   89.023  238.015
  746.006    6.540    0.182    0.419   83.221  237.890
  746.256    7.514    0.275    0.422   63.666  237.758
  746.506    8.239    0.317    0.425   58.487  236.894
  746.756    8.869    0.321    0.428   50.756  235.922
  747.006    9.095    0.316    0.433   49.000  235.055
  747.256    8.806    0.304    0.438   51.661  235.138
  747.506    8.169    0.289    0.439   57.000  235.956
  747.756    7.382    0.285    0.438   59.599  236.776
  748.006    6.598    0.278    0.443   63.632  237.700
  748.256    5.985    0.260    0.451   74.385  238.520
  748.506    5.541    0.195    0.464   88.249  239.233
  748.756    5.385    0.324    0.470   98.130  239.842
  749.006    5.512    0.364    0.467   87.349  240.343
  749.256    5.966    0.412    0.457   68.354  240.637
  749.506    6.292    0.324    0.420   77.924  240.931
  749.756    6.381    0.291    0.409   91.353  241.328
  750.006    6.259    0.258    0.404   74.474  241.623
  750.256    6.105    0.214    0.401   66.991  242.022
  750.506    6.032    0.223    0.406   74.383  242.630
  750.756    6.051    0.230    0.416   75.673  243.339
  751.006    6.068    0.231    0.428   74.229  243.423
  751.256    6.029    0.239    0.430   78.199  243.297
  751.506    6.003    0.343    0.419   86.152  242.534
  751.756    5.976    0.316    0.399   94.352  241.981
  752.006    5.959    0.257    0.381   91.849  241.433
  752.256    5.922    0.196    0.373   86.173  240.671
  752.506    5.863    0.201    0.368   78.503  240.017
  752.756    5.804    0.205    0.367   71.582  239.355
  753.006    5.704    0.210    0.365   63.850  239.442
  753.256    5.553    0.201    0.362   61.534  239.841
  753.506    5.385    0.193    0.356   59.963  240.660
  753.756    5.273    0.193    0.351   62.438  241.896
  754.006    5.124    0.198    0.352   69.519  242.615
  754.256    4.997    0.190    0.359   76.040  243.329
  754.506    4.938    0.172    0.371   81.442  244.043
  754.756    4.889    0.163    0.385   87.838  244.440
  755.006    4.821    0.176    0.407   93.300  244.311
  755.256    4.721    0.163    0.415   92.040  243.864
  755.506    4.562    0.099    0.414   85.679  243.631
  755.756    4.376    0.060    0.406   83.114  243.609
  756.006    4.292    0.079    0.401   90.631  243.477
  756.256    4.551    0.117    0.396   92.049  243.245
  756.506    5.019    0.129    0.391   71.186  243.011
  756.756    5.402    0.153    0.383   65.072  242.776
  757.006    6.035    0.167    0.378   62.008  242.438
  757.256    7.413    0.164    0.368   59.257  242.200
  757.506    9.225    0.161    0.361   54.388  241.652
  757.756   10.041    0.204    0.361   40.870  241.312
  758.006    9.848    0.311    0.379   26.791  240.761
  758.256    8.216    0.313    0.393   29.263  240.000
  758.506    6.855    0.317    0.398   32.114  239.977
  758.756    5.848    0.315    0.401   37.266  239.954
  759.006    5.315    0.264    0.403   43.350  240.139
  759.256    4.967    0.240    0.405   49.062  240.642
  759.506    4.826    0.227    0.409   58.634  241.359
  759.756    4.761    0.201    0.425   88.306  242.071
  760.006    4.609    0.179    0.439   95.449  242.574
  760.256    4.339    0.155    0.453   83.921  242.867
  760.506    4.131    0.215    0.462   71.149  243.263
  760.756    4.059    0.251    0.472   61.489  243.241
  761.006    4.117    0.259    0.485   47.533  243.217
  761.256    4.230    0.254    0.499   45.902  242.353
  761.506    4.445    0.244    0.512   57.402  241.802
  761.756    4.610    0.231    0.530  112.280  242.301
  762.006    4.727    0.215    0.550  121.414  243.017
  762.256    4.803    0.215    0.546   21.512  243.415
  762.506    4.872    0.211    0.530   22.183  243.709
  762.756    4.978    0.196    0.513   74.758  244.107
  763.006    5.011    0.179    0.501   87.565  244.190
  763.256    4.989    0.169    0.493   71.930  244.060
  763.506    4.911    0.150    0.482   50.880  243.823
  763.756    4.764    0.143    0.474   21.678  243.802
  764.006    4.595    0.136    0.468   26.517  243.882
  764.256    4.490    0.124    0.460   33.226  243.751
  764.506    4.395    0.104    0.449    2.654  244.046
  764.756    4.327    0.072    0.453    7.806  244.763
  765.006    4.284    0.056    0.462   11.962  245.368
