~VERSION INFORMATION
 VERS.                 2.0:   CWLS LOG ASCII STANDARD -VERSION 2.0
 WRAP.                  NO:   ONE LINE PER DEPTH STEP
~WELL INFORMATION BLOCK
#MNEM.UNIT           DATA                    DESCRIPTION OF MNEMONIC
#---------    -------------------            -------------------------------
# Generated from Intellog Unique Number	CS_73_76/WELL/623
WELL.         PEX PHILLIPS AEC WIAU          : Well_name    - WELL
LOC .         00/06-10-073-07W4/0            : Location     - LOCATION
UWI .         00/06-10-073-07W4/0            : Uwi          - UNIQUE WELL ID
ENTR.         SP                             : Entered      - ENTERED BY
SRVC.         SCHLUMBERGER                   : Scn          - SERVICE COMPANY
STRT.M        350                            : top_depth    - START DEPTH
STOP.M        575                            : bot_depth    - STOP DEPTH
STEP.M        0.25                           : increment    - STEP LENGTH
 NULL. -999.2500:NULL Value
~CURVE INFORMATION BLOCK
#MNEM UNIT       ERCB CURVE CODE    CURVE DESCRIPTION
#-----------   ------------------   ----------------------------------
DEPT.M        00 001 00 00         : DEPTH        - DEPTH
ILD .OHMM     00 120 00 00         : RESD         - DEEP RESISTIVITY (DIL)
DPHI.V/V      00 890 00 00         : PHID         - DENSITY POROSITY (LIMESTONE)
NPHI.V/V      00 330 00 00         : PHIN         - NEUTRON POROSITY (LIMESTONE)
GR  .API      00 310 00 00         : GR           - GAMMA RAY
~PARAMETER INFORMATION
#MNEM.UNIT           DATA             DESCRIPTION OF MNEMONIC
#---------         -----------     ------------------------------
GL  .M        728.6                : gl           - GROUND LEVEL ELEVATION
EREF.M        733                  : kb           - ELEVATION OF DEPTH REFERENCE
DATM.M        728.6                : datum        - DATUM ELEVATION
TDD .M        581                  : tdd          - TOTAL DEPTH DRILLER
RUN .         ONE                  : Run          - RUN NUMBER
ENG .         BILL                 : Engineer     - RECORDING ENGINEER
WIT .         JIM                  : Witness      - WITNESSED BY
MUD .         GEL                  : Mud_type     - MUD TYPE
MATR.         LIMESTONE            : Logunit      - NEUTRON MATRIX
TMAX.C        14                   : BHT          - MAXIMUM RECORDED TEMPERATURE
BHTD.M        581                  : BHTDEP       - MAXIMUM RECORDED TEMPERATURE
MATR.         1                    : LOGUNIT      - NEUTRON MATRIX
RMT .C        25                   : MDTP         - TEMPERATURE OF MUD
NEUT.         1                    : NEUTRON      - NEUTRON TYPE
RESI.         0                    : RESIST       - RESISTIVITY TYPE
RMC .OHMM     0.25                 : RMC          - RESISTIVITY OF MUD CAKE
RMF .OHMM     0.25                 : RMF          - RESISTIVITY OF MUD FILTRATE
SUFT.C        15                   : SUFT         - SURFACE TEMPERATURE
~A  DEPTH     RESD     PHID     PHIN       GR
# ...
  524.000   39.561    0.321    0.436   23.817
  524.250   39.556    0.335    0.448   23.227
  524.500   38.111    0.338    0.452   23.245
  524.750   36.045    0.332    0.448   24.471
  525.000   33.466    0.330    0.434   26.297
  525.250   32.247    0.329    0.423   28.117
  525.500   29.391    0.321    0.419   29.953
  525.750   27.289    0.315    0.417   29.961
  526.000   24.415    0.318    0.430   30.584
  526.250   21.050    0.319    0.440   33.612
  526.500   16.544    0.311    0.441   42.065
  526.750   12.074    0.301    0.429   48.107
  527.000    9.315    0.288    0.429   51.738
  527.250   11.208    0.277    0.440   52.963
  527.500   14.523    0.264    0.429   48.761
  527.750   16.532    0.254    0.424   45.164
  528.000   19.527    0.253    0.415   43.980
  528.250   21.819    0.258    0.417   42.799
  528.500   24.379    0.261    0.417   42.208
  528.750   28.796    0.266    0.407   39.815
  529.000   34.014    0.274    0.404   35.022
  529.250   37.310    0.282    0.404   33.228
  529.500   41.688    0.289    0.406   30.835
  529.750   41.681    0.292    0.406   29.045
  530.000   40.161    0.297    0.399   27.860
  530.250   37.986    0.296    0.396   27.872
  530.500   35.269    0.295    0.391   29.701
  530.750   34.617    0.305    0.391   32.129
  531.000   35.258    0.299    0.391   33.349
  531.250   36.584    0.279    0.404   33.366
  531.500   37.957    0.284    0.410   29.771
  531.750   37.952    0.304    0.419   26.779
  532.000   37.251    0.303    0.406   25.587
  532.250   35.232    0.298    0.403   26.808
  532.500   32.712    0.297    0.400   30.447
  532.750   29.814    0.310    0.394   32.271
  533.000   28.200    0.324    0.404   32.885
  533.250   27.677    0.336    0.407   32.907
  533.500   28.191    0.346    0.424   31.121
  533.750   28.715    0.309    0.446   29.931
  534.000   29.794    0.301    0.436   30.552
  534.250   30.345    0.312    0.418   31.772
  534.500   29.785    0.322    0.413   33.596
  534.750   28.171    0.294    0.434   31.809
  535.000   24.289    0.296    0.449   31.222
  535.250   21.333    0.313    0.452   35.463
  535.500   18.393    0.285    0.419   41.504
  535.750   15.566    0.270    0.405   48.150
  536.000   14.188    0.257    0.393   52.383
  536.250   12.931    0.248    0.407   53.601
  536.500   12.006    0.250    0.425   55.426
  536.750   11.784    0.242    0.432   58.455
  537.000   11.354    0.233    0.441   62.092
  537.250   11.144    0.226    0.452   63.913
  537.500   11.143    0.223    0.454   63.937
  537.750   11.141    0.212    0.443   64.555
  538.000   11.140    0.216    0.425   65.171
  538.250   11.346    0.226    0.412   60.972
  538.500   11.344    0.242    0.409   60.387
  538.750   11.343    0.254    0.410   62.214
  539.000   11.132    0.250    0.414   62.233
  539.250   10.927    0.238    0.426   61.650
  539.500   10.335    0.227    0.428   64.078
  539.750    9.958    0.237    0.427   67.106
  540.000    9.774    0.243    0.426   70.143
  540.250    9.772    0.223    0.423   70.156
  540.500    9.771    0.214    0.420   70.771
  540.750    9.952    0.229    0.412   68.981
  541.000   10.137    0.244    0.411   64.782
  541.250   10.325    0.240    0.421   59.380
  541.500   10.516    0.244    0.423   61.203
  541.750   10.515    0.256    0.411   63.633
  542.000   10.709    0.245    0.408   64.862
  542.250   10.708    0.234    0.416   64.274
  542.500   10.906    0.228    0.418   63.084
  542.750   10.905    0.239    0.418   59.485
  543.000   10.904    0.248    0.419   60.108
  543.250   10.702    0.230    0.448   64.344
  543.500   10.504    0.224    0.449   69.792
  543.750    9.934    0.225    0.434   71.611
  544.000    9.572    0.243    0.423   74.646
  544.250    9.395    0.236    0.435   75.258
  544.500    9.052    0.228    0.453   74.672
  544.750    9.051    0.228    0.459   72.278
  545.000    9.050    0.246    0.446   73.501
  545.250    9.049    0.230    0.428   74.126
  545.500    9.564    0.234    0.448   72.937
  545.750   10.297    0.242    0.460   68.132
  546.000   10.884    0.252    0.468   59.117
  546.250   11.505    0.256    0.472   54.914
  546.500   13.095    0.265    0.444   51.320
  546.750   13.841    0.269    0.420   48.330
  547.000   15.182    0.274    0.407   47.141
  547.250   16.964    0.280    0.420   45.949
  547.500   18.955    0.267    0.434   42.960
  547.750   20.410    0.108    0.454   38.757
  548.000   20.788    0.089    0.316   33.349
  548.250   20.029    0.127    0.332   29.153
  548.500   17.592    0.196    0.378   31.578
  548.750   14.889    0.252    0.403   43.044
  549.000   13.077    0.297    0.411   48.483
  549.250   11.700    0.290    0.407   54.530
  549.500   11.066    0.279    0.398   58.763
  549.750   10.862    0.241    0.409   62.392
  550.000   10.860    0.255    0.422   64.216
  550.250   11.061    0.261    0.429   60.620
  550.500   11.691    0.265    0.402   56.422
  550.750   12.131    0.282    0.412   50.420
  551.000   12.587    0.300    0.406   45.013
  551.250   13.304    0.295    0.401   39.608
  551.500   13.302    0.299    0.400   34.803
  551.750   12.816    0.319    0.401   45.670
  552.000   12.121    0.298    0.423   48.093
  552.250   11.680    0.289    0.439   48.713
  552.500   10.645    0.277    0.446   48.134
  552.750    9.703    0.270    0.422   47.545
  553.000    8.681    0.282    0.414   48.164
  553.250    7.912    0.294    0.411   53.605
  553.500    7.211    0.278    0.406   59.044
  553.750    6.821    0.240    0.400   57.863
  554.000    6.102    0.238    0.387   53.059
  554.250    5.879    0.243    0.387   48.859
  554.500    5.459    0.250    0.406   50.082
  554.750    5.358    0.274    0.402   53.107
  555.000    4.974    0.276    0.399   57.349
  555.250    4.883    0.256    0.403   59.173
  555.500    4.705    0.268    0.412   56.779
  555.750    4.618    0.278    0.424   53.785
  556.000    4.532    0.277    0.437   51.389
  556.250    4.532    0.287    0.424   48.397
  556.500    4.531    0.297    0.409   49.621
  556.750    4.701    0.268    0.396   53.255
  557.000    4.700    0.266    0.403   56.890
  557.250    4.788    0.268    0.413   59.319
  557.500    4.877    0.268    0.421   61.137
  557.750    4.876    0.244    0.410   63.563
  558.000    4.698    0.214    0.403   61.775
  558.250    4.611    0.220    0.416   55.163
  558.500    4.361    0.240    0.426   50.965
  558.750    4.125    0.247    0.433   49.780
  559.000    4.049    0.236    0.422   47.994
  559.250    3.974    0.228    0.414   46.800
  559.500    3.973    0.259    0.418   43.211
  559.750    3.973    0.265    0.420   41.414
  560.000    4.046    0.270    0.416   39.623
  560.250    4.121    0.285    0.405   45.676
  560.500    4.276    0.254    0.400   48.095
  560.750    4.355    0.231    0.399   51.729
  561.000    4.436    0.247    0.406   51.143
  561.250    4.436    0.253    0.395   53.572
  561.500    4.435    0.259    0.393   55.395
  561.750    4.353    0.243    0.404   55.417
  562.000    4.352    0.242    0.408   54.226
  562.250    4.351    0.261    0.396   50.635
  562.500    4.271    0.267    0.410   50.049
  562.750    4.271    0.279    0.382   49.471
  563.000    4.270    0.260    0.381   49.483
  563.250    4.191    0.264    0.391   49.495
  563.500    4.191    0.277    0.399   50.721
  563.750    4.190    0.286    0.406   51.941
  564.000    4.189    0.276    0.413   46.539
  564.250    4.112    0.277    0.419   42.337
  564.500    4.111    0.292    0.421   45.366
  564.750    4.111    0.275    0.416   50.809
  565.000    4.265    0.245    0.412   47.214
  565.250    4.344    0.277    0.434   47.229
  565.500    4.186    0.262    0.413   51.461
  565.750    4.108    0.277    0.401   50.275
  566.000    3.958    0.286    0.398   46.678
  566.250    3.885    0.295    0.410   39.470
  566.500    3.884    0.308    0.405   35.265
  566.750    3.957    0.327    0.392   39.501
  567.000    3.956    0.338    0.393   44.947
  567.250    4.029    0.326    0.399   49.789
