~VERSION INFORMATION
 VERS.                 2.0:   CWLS LOG ASCII STANDARD -VERSION 2.0
 WRAP.                  NO:   ONE LINE PER DEPTH STEP
~WELL INFORMATION BLOCK
#MNEM.UNIT           DATA                    DESCRIPTION OF MNEMONIC
#---------    -------------------            -------------------------------
# Generated from Intellog Unique Number	CS_73_76/WELL/2179
WELL.         MIAMI OIL PRODUCERS INC.       : Well_name    - WELL
LOC .         00/07-33-074-11W4/0            : Location     - LOCATION
UWI .         00/07-33-074-11W4/0            : Uwi          - UNIQUE WELL ID
ENTR.         SP                             : Entered      - ENTERED BY
SRVC.         SCHLUMBERGER                   : Scn          - SERVICE COMPANY
STRT.M        280.416                        : top_depth    - START DEPTH
STOP.M        514.916                        : bot_depth    - STOP DEPTH
STEP.M        0.25                           : increment    - STEP LENGTH
 NULL. -999.2500:NULL Value
~CURVE INFORMATION BLOCK
#MNEM UNIT       ERCB CURVE CODE    CURVE DESCRIPTION
#-----------   ------------------   ----------------------------------
DEPT.M        00 001 00 00         : DEPTH        - DEPTH
GR  .API      00 310 00 00         : GR           - GAMMA RAY
DPHI.V/V      00 890 00 00         : PHID         - DENSITY POROSITY (SANDSTONE)
NPHI.V/V      00 330 00 00         : PHIN         - NEUTRON POROSITY (SANDSTONE)
ILD .OHMM     00 120 00 00         : RESD         - DEEP RESISTIVITY (DIL)
~PARAMETER INFORMATION
#MNEM.UNIT           DATA             DESCRIPTION OF MNEMONIC
#---------         -----------     ------------------------------
GL  .M        657.149              : gl           - GROUND LEVEL ELEVATION
EREF.M        660.38               : kb           - ELEVATION OF DEPTH REFERENCE
DATM.M        657.149              : datum        - DATUM ELEVATION
TDD .M        743.712              : tdd          - TOTAL DEPTH DRILLER
RUN .         `                    : Run          - RUN NUMBER
ENG .         BILL                 : Engineer     - RECORDING ENGINEER
WIT .         JIM                  : Witness      - WITNESSED BY
MUD .         GEL                  : Mud_type     - MUD TYPE
MATR.         SANDSTONE            : Logunit      - NEUTRON MATRIX
TMAX.C        26.1111              : BHT          - MAXIMUM RECORDED TEMPERATURE
BHTD.M        743.712              : BHTDEP       - MAXIMUM RECORDED TEMPERATURE
MATR.         1                    : LOGUNIT      - NEUTRON MATRIX
RMT .C        25                   : MDTP         - TEMPERATURE OF MUD
NEUT.         1                    : NEUTRON      - NEUTRON TYPE
RESI.         0                    : RESIST       - RESISTIVITY TYPE
RMC .OHMM     0.25                 : RMC          - RESISTIVITY OF MUD CAKE
RMF .OHMM     0.25                 : RMF          - RESISTIVITY OF MUD FILTRATE
SUFT.C        15                   : SUFT         - SURFACE TEMPERATURE
~A  DEPTH       GR     PHID     PHIN     RESD
# ...
  410.916   73.759    0.322    0.658    6.121
  411.166   71.143    0.314    0.654    6.020
  411.416   72.607    0.303    0.654    5.960
  411.666   74.293    0.298    0.654    5.916
  411.916   71.767    0.293    0.651    5.903
  412.166   69.468    0.298    0.655    6.032
  412.416   71.069    0.306    0.661    6.021
  412.666   73.644    0.309    0.656    6.019
  412.916   74.771    0.298    0.641    6.012
  413.166   73.750    0.284    0.617    6.135
  413.416   70.257    0.287    0.611    6.325
  413.666   67.806    0.287    0.588    6.543
  413.916   66.454    0.274    0.582    6.963
  414.166   71.814    0.273    0.585    7.105
  414.416   74.217    0.283    0.601    7.078
  414.666   73.508    0.291    0.634    6.869
  414.916   75.424    0.288    0.642    6.599
  415.166   72.725    0.304    0.661    6.341
  415.416   69.810    0.316    0.655    6.259
  415.666   74.323    0.305    0.627    6.194
  415.916   76.660    0.284    0.624    6.126
  416.166   77.388    0.278    0.628    6.124
  416.416   75.562    0.285    0.633    6.124
  416.666   75.233    0.274    0.639    6.123
  416.916   75.816    0.293    0.644    6.135
  417.166   76.696    0.279    0.651    5.999
  417.416   78.630    0.281    0.660    6.010
  417.666   81.203    0.293    0.672    6.010
  417.916   82.865    0.295    0.679    6.009
  418.166   82.746    0.281    0.684    6.008
  418.416   83.978    0.280    0.685    6.008
  418.666   81.330    0.271    0.679    6.009
  418.916   78.361    0.286    0.674    5.930
  419.166   75.967    0.296    0.676    5.790
  419.416   78.649    0.285    0.679    5.681
  419.666   81.349    0.271    0.679    5.610
  419.916   83.658    0.252    0.679    5.581
  420.166   85.058    0.248    0.678    5.578
  420.416   85.373    0.241    0.677    5.644
  420.666   85.392    0.252    0.670    5.696
  420.916   82.873    0.260    0.651    5.880
  421.166   77.156    0.248    0.642    5.999
  421.416   73.632    0.227    0.634    6.122
  421.666   68.347    0.230    0.625    6.112
  421.916   69.780    0.245    0.628    6.119
  422.166   72.440    0.231    0.653    5.987
  422.416   75.017    0.260    0.663    5.884
  422.666   78.439    0.286    0.686    5.880
  422.916   79.980    0.275    0.688    5.999
  423.166   80.511    0.270    0.658    6.058
  423.416   81.109    0.272    0.636    6.225
  423.666   82.228    0.266    0.658    6.327
  423.916   81.864    0.260    0.666    6.462
  424.166   81.559    0.277    0.671    6.455
  424.416   80.857    0.252    0.665    6.451
  424.666   84.677    0.233    0.647    6.396
  424.916   87.839    0.220    0.636    6.339
  425.166   91.765    0.211    0.635    6.249
  425.416   95.344    0.209    0.661    6.058
  425.666   98.829    0.208    0.670    5.877
  425.916   95.773    0.209    0.662    5.700
  426.166   93.470    0.228    0.644    5.505
  426.416   92.213    0.245    0.632    5.176
  426.666   91.080    0.242    0.632    4.983
  426.916   92.712    0.222    0.633    4.901
  427.166   96.642    0.215    0.633    4.985
  427.416   97.588    0.231    0.629    5.017
  427.666   94.758    0.246    0.631    5.302
  427.916   90.609    0.232    0.630    5.548
  428.166   87.334    0.238    0.628    5.754
  428.416   84.025    0.219    0.627    6.122
  428.666   81.176    0.199    0.628    6.409
  428.916   84.728    0.176    0.633    6.788
  429.166   88.946    0.184    0.638    7.065
  429.416   89.737    0.203    0.644    7.152
  429.666   89.608    0.215    0.645    7.188
  429.916   90.584    0.224    0.647    7.198
  430.166   91.576    0.233    0.650    7.057
  430.416   92.681    0.247    0.679    6.877
  430.666   95.727    0.238    0.685    6.575
  430.916   97.449    0.228    0.646    6.440
  431.166   98.332    0.209    0.620    6.312
  431.416   98.211    0.218    0.586    6.321
  431.666   98.918    0.216    0.568    6.309
  431.916   98.839    0.228    0.551    6.441
  432.166   97.509    0.239    0.585    6.421
  432.416   96.140    0.212    0.607    6.565
  432.666   93.338    0.199    0.610    6.555
  432.916   95.508    0.209    0.610    6.434
  433.166   92.164    0.217    0.583    6.283
  433.416   88.665    0.228    0.578    6.096
  433.666   85.586    0.205    0.600    5.864
  433.916   84.221    0.186    0.631    5.513
  434.166   86.265    0.191    0.672    5.194
  434.416   89.461    0.215    0.685    4.756
  434.666   88.101    0.231    0.718    4.248
  434.916   89.905    0.248    0.744    3.699
  435.166   91.496    0.264    0.752    3.171
  435.416   90.016    0.285    0.759    2.751
  435.666   88.482    0.285    0.762    2.518
  435.916   85.929    0.269    0.760    2.267
  436.166   85.078    0.257    0.764    2.209
  436.416   88.779    0.277    0.762    2.210
  436.666   87.762    0.266    0.763    2.215
  436.916   85.183    0.256    0.763    2.250
  437.166   83.950    0.247    0.764    2.270
  437.416   85.830    0.257    0.764    2.288
  437.666   86.577    0.235    0.763    2.321
  437.916   89.245    0.256    0.752    2.376
  438.166   89.713    0.239    0.736    2.425
  438.416   89.289    0.235    0.700    2.577
  438.666   90.040    0.258    0.661    2.744
  438.916   87.901    0.237    0.644    3.128
  439.166   83.536    0.214    0.640    3.592
  439.416   85.283    0.185    0.639    4.147
  439.666   88.271    0.188    0.635    4.926
  439.916   88.642    0.202    0.627    5.263
  440.166   88.295    0.216    0.615    5.347
  440.416   86.796    0.213    0.601    5.521
  440.666   82.823    0.188    0.592    5.679
  440.916   80.326    0.167    0.565    5.980
  441.166   79.094    0.156    0.559    6.151
  441.416   80.862    0.141    0.577    6.304
  441.666   83.445    0.180    0.625    6.293
  441.916   85.360    0.203    0.632    5.824
  442.166   87.315    0.215    0.641    5.531
  442.416   89.257    0.212    0.651    4.967
  442.666   90.875    0.220    0.712    4.481
  442.916   91.774    0.229    0.729    4.336
  443.166   93.269    0.239    0.760    4.204
  443.416   94.957    0.209    0.760    4.013
  443.666   95.871    0.216    0.748    3.646
  443.916   96.466    0.202    0.736    3.071
  444.166   94.879    0.208    0.727    2.699
  444.416   92.575    0.205    0.708    2.269
  444.666   90.147    0.187    0.677    2.095
  444.916   87.934    0.171    0.669    2.136
  445.166   91.418    0.186    0.697    2.242
  445.416   95.265    0.197    0.722    2.384
  445.666   96.048    0.205    0.731    2.552
  445.916   92.650    0.221    0.679    2.836
  446.166   90.902    0.229    0.658    3.079
  446.416   89.348    0.210    0.622    3.274
  446.666   87.389    0.197    0.647    3.530
  446.916   94.255    0.191    0.654    3.896
  447.166   97.475    0.200    0.679    4.202
  447.416   96.059    0.211    0.684    3.972
  447.666   93.092    0.193    0.694    3.507
  447.916   96.019    0.183    0.695    3.172
  448.166   94.593    0.183    0.693    3.018
  448.416   92.894    0.194    0.718    3.021
  448.666   93.500    0.191    0.726    3.118
  448.916   91.203    0.157    0.736    3.254
  449.166   90.536    0.169    0.746    3.396
  449.416   93.922    0.185    0.747    3.318
  449.666   93.471    0.193    0.740    3.089
  449.916   90.011    0.178    0.718    2.886
  450.166   88.154    0.169    0.711    2.798
  450.416   92.971    0.197    0.664    2.785
  450.666   92.492    0.214    0.598    2.907
  450.916   87.649    0.228    0.417    3.044
  451.166   80.607    0.249    0.383    3.249
  451.416   72.682    0.269    0.258    3.751
  451.666   62.166    0.292    0.192    4.557
  451.916   56.789    0.322    0.170    6.979
  452.166   47.866    0.361    0.193   10.892
  452.416   46.158    0.341    0.273   18.670
  452.666   63.128    0.306    0.359   24.956
  452.916   73.329    0.282    0.422   27.494
  453.166   81.419    0.251    0.448   23.843
  453.416   89.286    0.231    0.514   19.683
  453.666   87.394    0.228    0.532   17.594
  453.916   82.641    0.241    0.554   15.813
  454.166   78.371    0.255    0.566   16.069
