~VERSION INFORMATION
 VERS.                 2.0:   CWLS LOG ASCII STANDARD -VERSION 2.0
 WRAP.                  NO:   ONE LINE PER DEPTH STEP
~WELL INFORMATION BLOCK
#MNEM.UNIT           DATA                    DESCRIPTION OF MNEMONIC
#---------    -------------------            -------------------------------
# Generated from Intellog Unique Number	CW_76_78/WELL/549
WELL.         07-04-077-04W5                 : Well_name    - WELL
LOC .         00/07-04-077-04W5/0            : Location     - LOCATION
UWI .         00/07-04-077-04W5/0            : Uwi          - UNIQUE WELL ID
ENTR.         JAYE                           : Entered      - ENTERED BY
SRVC.         SCHLUMBERGER                   : Scn          - SERVICE COMPANY
DATE.         11 MAR 75                      : Date         - LOG DATE
STRT.M        432.816                        : top_depth    - START DEPTH
STOP.M        658.316                        : bot_depth    - STOP DEPTH
STEP.M        0.25                           : increment    - STEP LENGTH
 NULL. -999.2500:NULL Value
~CURVE INFORMATION BLOCK
#MNEM UNIT       ERCB CURVE CODE    CURVE DESCRIPTION
#-----------   ------------------   ----------------------------------
DEPT.M        00 001 00 00         : DEPTH        - DEPTH
DPHI.V/V      00 890 00 00         : PHID         - DENSITY POROSITY (SANDSTONE)
NPHI.V/V      00 330 00 00         : PHIN         - NEUTRON POROSITY (SANDSTONE)
GR  .API      00 310 00 00         : GR           - GAMMA RAY
CALI.MM       00 280 01 00         : CAL          - CALIPER
ILD .OHMM     00 120 00 00         : RESD         - DEEP RESISTIVITY (DIL)
~PARAMETER INFORMATION
#MNEM.UNIT           DATA             DESCRIPTION OF MNEMONIC
#---------         -----------     ------------------------------
GL  .M        726.338              : gl           - GROUND LEVEL ELEVATION
EREF.M        729.905              : kb           - ELEVATION OF DEPTH REFERENCE
DATM.M        726.338              : datum        - DATUM ELEVATION
TDD .M        670.255              : tdd          - TOTAL DEPTH DRILLER
RUN .         ONE                  : Run          - RUN NUMBER
ENG .         SMILEY               : Engineer     - RECORDING ENGINEER
WIT .         KIS/STEIDEL          : Witness      - WITNESSED BY
BASE.         EDMONTON             : Branch       - HOME BASE OF LOGGING UNIT
MUD .         GEL CHEM             : Mud_type     - MUD TYPE
MATR.         SANDSTONE            : Logunit      - NEUTRON MATRIX
TMAX.C        26.1111              : BHT          - MAXIMUM RECORDED TEMPERATURE
BHTD.M        670.865              : BHTDEP       - MAXIMUM RECORDED TEMPERATURE
RMT .C        16.1111              : MDTP         - TEMPERATURE OF MUD
MUDD.KG/M     1128                 : MWT          - MUD DENSITY
NEUT.         1                    : NEUTRON      - NEUTRON TYPE
RESI.         0                    : RESIST       - RESISTIVITY TYPE
RM  .OHMM     3.16                 : RM           - RESISTIVITY OF MUD
RMC .OHMM     5.23                 : RMC          - RESISTIVITY OF MUD CAKE
RMF .OHMM     4.07                 : RMF          - RESISTIVITY OF MUD FILTRATE
SUFT.C        4.5                  : SUFT         - SURFACE TEMPERATURE
~A  DEPTH     PHID     PHIN       GR      CAL     RESD
# ...
  615.316    0.157    0.433  101.591  162.838    5.902
  615.566    0.167    0.428  100.761  162.892    5.866
  615.816    0.174    0.433   99.936  163.061    5.862
  616.066    0.173    0.433   98.439  163.117    5.869
  616.316    0.183    0.427   96.450  163.279    5.898
  616.566    0.188    0.423   95.562  163.330    5.950
  616.816    0.186    0.432   98.048  163.081    5.989
  617.066    0.180    0.423  100.167  163.030    6.030
  617.316    0.180    0.417  101.610  162.671    6.082
  617.566    0.185    0.415  103.056  162.728    6.145
  617.816    0.169    0.418  104.621  162.585    6.198
  618.066    0.163    0.418  106.493  162.635    6.206
  618.316    0.157    0.412  106.404  162.687    6.169
  618.566    0.173    0.407  105.517  162.852    6.120
  618.816    0.177    0.407  106.043  162.906    6.071
  619.066    0.176    0.416  106.503  162.966    6.034
  619.316    0.169    0.434  105.071  163.028    6.030
  619.566    0.165    0.450  103.689  162.869    6.015
  619.816    0.144    0.434  102.191  162.625    6.001
  620.066    0.154    0.411  100.572  162.581    6.030
  620.316    0.143    0.401  102.259  162.632    6.138
  620.566    0.133    0.437  110.385  162.685    6.226
  620.816    0.126    0.402  111.155  163.157    6.420
  621.066    0.150    0.382  107.814  162.797    7.032
  621.316    0.163    0.370   98.226  159.538    7.875
  621.566    0.172    0.371   99.611  158.349    8.916
  621.816    0.186    0.377  100.744  158.190    9.929
  622.066    0.195    0.377   96.794  158.563   11.017
  622.316    0.207    0.375   94.866  158.941   12.964
  622.566    0.199    0.364   90.977  158.991   14.840
  622.816    0.192    0.352   84.758  158.940   16.771
  623.066    0.206    0.337   81.419  159.004   19.482
  623.316    0.214    0.341   78.755  159.056   22.261
  623.566    0.222    0.345   78.053  158.806   25.718
  623.816    0.232    0.351   78.641  158.858   29.710
  624.066    0.211    0.361   80.943  159.018   32.130
  624.316    0.190    0.368   84.099  159.590   31.240
  624.566    0.169    0.372   86.585  160.277   28.588
  624.816    0.184    0.374   85.701  160.223   26.356
  625.066    0.180    0.375   85.612  160.316   23.943
  625.316    0.178    0.379   88.036  160.544   21.592
  625.566    0.187    0.385   93.035  160.913   19.979
  625.816    0.186    0.384   94.111  161.390   18.828
  626.066    0.180    0.381   95.617  161.968   18.205
  626.316    0.185    0.378   99.510  161.820   17.797
  626.566    0.191    0.374   97.827  161.875   17.592
  626.816    0.186    0.373   96.819  162.235   17.295
  627.066    0.181    0.380  100.345  163.037   15.740
  627.316    0.187    0.378  100.502  163.083   14.482
  627.566    0.192    0.376  103.233  162.821   13.979
  627.816    0.185    0.375  103.818  163.502   13.493
  628.066    0.179    0.376  102.627  164.287   13.094
  628.316    0.178    0.379   97.818  164.343   12.732
  628.566    0.167    0.368   97.484  164.919   12.064
  628.816    0.146    0.362  100.092  165.086   11.623
  629.066    0.135    0.355  102.948  165.452   11.197
  629.316    0.148    0.356  104.573  165.816   10.689
  629.566    0.153    0.373  107.301  166.503    9.818
  629.816    0.146    0.377  110.829  167.178    8.969
  630.066    0.149    0.381  114.297  167.961    8.088
  630.316    0.154    0.385  116.538  168.330    7.320
  630.566    0.157    0.391  119.635  169.015    6.700
  630.816    0.167    0.399  121.324  168.031    6.097
  631.066    0.186    0.416  112.531  165.801    5.715
  631.316    0.176    0.415  106.926  163.885    5.485
  631.566    0.162    0.391  101.442  161.558    5.432
  631.816    0.146    0.375  102.152  161.195    5.499
  632.066    0.159    0.386  105.187  163.847    5.659
  632.316    0.165    0.383  106.323  165.355    5.867
  632.566    0.163    0.394  105.991  165.205    6.050
  632.816    0.156    0.390  106.513  164.745    6.192
  633.066    0.151    0.387  107.897  164.286    6.280
  633.316    0.148    0.384  108.603  162.791    6.322
  633.566    0.147    0.385  108.024  161.288    6.377
  633.816    0.146    0.387  105.237  160.096    6.384
  634.066    0.145    0.388  106.499  159.219    6.416
  634.316    0.152    0.389  108.739  159.484    6.459
  634.566    0.140    0.390  106.932  160.785    6.538
  634.816    0.137    0.389  101.882  162.506    6.644
  635.066    0.156    0.381   97.805  163.812    6.875
  635.316    0.183    0.345   80.001  163.864    7.354
  635.566    0.250    0.323   58.089  163.504    9.176
  635.816    0.304    0.292   40.347  162.318   11.706
  636.066    0.354    0.162   32.595  161.025   14.210
  636.316    0.380    0.123   31.772  159.940   21.499
  636.566    0.382    0.129   31.559  158.962   32.527
  636.816    0.380    0.136   29.693  158.286   52.187
  637.066    0.373    0.143   29.853  157.202   62.316
  637.316    0.365    0.156   29.706  156.114   57.342
  637.566    0.360    0.166   29.496  155.964   53.254
  637.816    0.352    0.179   29.765  155.916   49.998
  638.066    0.344    0.193   31.518  155.662   48.258
  638.316    0.334    0.215   32.468  155.421   46.322
  638.566    0.326    0.243   32.257  155.051   44.626
  638.816    0.307    0.268   31.312  155.106   42.755
  639.066    0.299    0.310   30.488  155.476   40.221
  639.316    0.294    0.355   30.400  155.739   37.078
  639.566    0.287    0.371   30.799  155.908   26.978
  639.816    0.284    0.375   31.567  155.964   23.411
  640.066    0.279    0.373   32.704  155.913   21.228
  640.316    0.277    0.370   33.597  155.656   19.391
  640.566    0.289    0.359   35.561  157.346   19.085
  640.816    0.286    0.365   36.824  157.097   19.704
  641.066    0.275    0.365   38.141  157.259   20.382
  641.316    0.274    0.356   38.908  157.222   19.480
  641.566    0.283    0.363   39.373  156.865   18.146
  641.816    0.284    0.370   38.983  156.828   17.122
  642.066    0.282    0.377   38.350  157.100   16.336
  642.316    0.281    0.381   38.749  157.574   15.528
  642.566    0.271    0.379   39.827  157.732   14.653
  642.816    0.257    0.370   42.732  157.278   13.979
  643.066    0.259    0.369   44.902  157.131   13.459
  643.316    0.253    0.372   46.221  156.997   12.960
  643.566    0.262    0.382   47.420  157.051   12.570
  643.816    0.257    0.386   49.710  157.005   12.217
  644.066    0.240    0.381   51.645  156.970   11.980
  644.316    0.244    0.375   54.856  157.137   11.834
  644.566    0.251    0.373   58.005  157.409   11.626
  644.816    0.250    0.370   60.545  157.880   11.340
  645.066    0.249    0.366   66.381  158.561   11.079
  645.316    0.246    0.364   68.421  159.139   10.689
  645.566    0.239    0.365   69.019  159.413   10.404
  645.816    0.227    0.365   68.687  159.682    9.962
  646.066    0.226    0.364   67.627  159.946    9.540
  646.316    0.229    0.361   68.698  159.702    9.288
  646.566    0.229    0.350   69.770  159.238    9.361
  646.816    0.205    0.329   69.322  158.671    9.612
  647.066    0.167    0.287   67.710  158.645   10.126
  647.316    0.069    0.230   66.831  158.605   10.785
  647.566    0.048    0.231   67.355  159.390   11.238
  647.816    0.067    0.301   72.335  160.889   10.980
  648.066    0.158    0.338   78.785  161.886    9.331
  648.316    0.202    0.354   78.264  161.951    7.901
  648.566    0.191    0.355   78.673  161.288    7.069
  648.816    0.188    0.363   80.664  160.734    6.549
  649.066    0.188    0.363   82.533  160.377    6.237
  649.316    0.191    0.361   83.485  160.335    5.994
  649.566    0.183    0.362   84.865  161.534    5.688
  649.816    0.168    0.378   89.602  162.625    5.536
  650.066    0.172    0.397  100.872  162.279    5.301
  650.316    0.172    0.400  109.883  161.408    4.966
  650.566    0.167    0.396  113.153  161.269    4.509
  650.816    0.164    0.410  116.426  161.539    4.293
  651.066    0.163    0.436  116.522  162.011    4.203
  651.316    0.167    0.446  113.874  161.659    4.252
  651.566    0.184    0.422  103.836  160.069    4.398
