~VERSION INFORMATION
 VERS.                 2.0:   CWLS LOG ASCII STANDARD -VERSION 2.0
 WRAP.                  NO:   ONE LINE PER DEPTH STEP
~WELL INFORMATION BLOCK
#MNEM.UNIT           DATA                    DESCRIPTION OF MNEMONIC
#---------    -------------------            -------------------------------
# Generated from Intellog Unique Number	CW_73_75/WELL/773
WELL.         CHEVRON ER AL ROCK 07-26       : Well_name    - WELL
LOC .         00/07-26-075-22W4/0            : Location     - LOCATION
UWI .         00/07-26-075-22W4/0            : Uwi          - UNIQUE WELL ID
ENTR.         JAYE                           : Entered      - ENTERED BY
SRVC.         WESTERN ATLAS                  : Scn          - SERVICE COMPANY
DATE.         6 JAN 74                       : Date         - LOG DATE
STRT.M        387.096                        : top_depth    - START DEPTH
STOP.M        612.596                        : bot_depth    - STOP DEPTH
STEP.M        0.25                           : increment    - STEP LENGTH
 NULL. -999.2500:NULL Value
~CURVE INFORMATION BLOCK
#MNEM UNIT       ERCB CURVE CODE    CURVE DESCRIPTION
#-----------   ------------------   ----------------------------------
DEPT.M        00 001 00 00         : DEPTH        - DEPTH
ILD .OHMM     00 120 00 00         : RESD         - DEEP RESISTIVITY (DIL)
NPHI.V/V      00 330 00 00         : PHIN         - NEUTRON POROSITY (SANDSTONE)
DPHI.V/V      00 890 00 00         : PHID         - DENSITY POROSITY (SANDSTONE)
GR  .API      00 310 00 00         : GR           - GAMMA RAY
CALI.MM       00 280 01 00         : CAL          - CALIPER
~PARAMETER INFORMATION
#MNEM.UNIT           DATA             DESCRIPTION OF MNEMONIC
#---------         -----------     ------------------------------
GL  .M        682.539              : gl           - GROUND LEVEL ELEVATION
EREF.M        685.648              : kb           - ELEVATION OF DEPTH REFERENCE
DATM.M        682.539              : datum        - DATUM ELEVATION
TDD .M        611.124              : tdd          - TOTAL DEPTH DRILLER
RUN .         ONE                  : Run          - RUN NUMBER
ENG .         SIMPSON              : Engineer     - RECORDING ENGINEER
WIT .         WONG/GOLL            : Witness      - WITNESSED BY
BASE.         EDM                  : Branch       - HOME BASE OF LOGGING UNIT
MUD .         FRESH GEL            : Mud_type     - MUD TYPE
MATR.         SANDSTONE            : Logunit      - NEUTRON MATRIX
TMAX.C        30.5556              : BHT          - MAXIMUM RECORDED TEMPERATURE
BHTD.M        612.648              : BHTDEP       - MAXIMUM RECORDED TEMPERATURE
RMT .C        18.8889              : MDTP         - TEMPERATURE OF MUD
MUDD.KG/M     1140                 : MWT          - MUD DENSITY
NEUT.         1                    : NEUTRON      - NEUTRON TYPE
RESI.         0                    : RESIST       - RESISTIVITY TYPE
RM  .OHMM     5.6                  : RM           - RESISTIVITY OF MUD
RMC .OHMM     5.2                  : RMC          - RESISTIVITY OF MUD CAKE
RMF .OHMM     4.57                 : RMF          - RESISTIVITY OF MUD FILTRATE
SUFT.C        -17.7778             : SUFT         - SURFACE TEMPERATURE
~A  DEPTH     RESD     PHIN     PHID       GR      CAL
# ...
  423.596    5.272    0.461    0.239   83.127  201.011
  423.846    4.950    0.465    0.276   78.251  201.112
  424.096    4.946    0.463    0.284   67.709  201.212
  424.346    5.190    0.459    0.286   64.357  201.107
  424.596    5.608    0.456    0.301   65.330  201.310
  424.846    5.992    0.441    0.312   63.135  201.617
  425.096    6.130    0.437    0.327   61.062  202.027
  425.346    6.079    0.462    0.341   61.914  202.540
  425.596    5.941    0.465    0.334   63.252  202.641
  425.846    5.775    0.473    0.328   65.444  202.948
  426.096    5.707    0.472    0.322   68.733  203.049
  426.346    5.567    0.469    0.317   75.007  203.252
  426.596    5.492    0.472    0.316   79.392  203.353
  426.846    5.416    0.474    0.305   86.763  203.454
  427.096    5.431    0.470    0.285   92.245  203.451
  427.346    5.465    0.467    0.275   91.999  203.449
  427.596    5.500    0.474    0.269   86.575  203.239
  427.846    5.595    0.490    0.253   75.059  203.237
  428.096    5.661    0.480    0.289   64.273  203.132
  428.346    5.781    0.473    0.310   58.971  202.923
  428.596    6.000    0.466    0.319   60.066  202.817
  428.846    6.239    0.460    0.326   62.989  202.401
  429.096    6.393    0.452    0.337   64.145  202.090
  429.346    6.434    0.469    0.326   63.656  201.777
  429.596    6.427    0.470    0.333   62.924  201.775
  429.846    6.587    0.480    0.316   62.617  201.772
  430.096    7.052    0.474    0.307   62.677  201.770
  430.346    7.689    0.420    0.315   62.066  201.767
  430.596    8.353    0.397    0.269   61.882  201.764
  430.846    8.829    0.349    0.215   62.307  201.762
  431.096    8.598    0.333    0.168   62.366  201.760
  431.346    7.589    0.376    0.158   61.695  201.654
  431.596    6.909    0.459    0.262   60.962  201.548
  431.846    6.559    0.452    0.282   59.803  201.339
  432.096    6.434    0.439    0.306   59.802  201.233
  432.346    6.312    0.438    0.302   57.180  201.231
  432.596    6.248    0.448    0.309   53.828  201.022
  432.846    6.196    0.454    0.327   52.851  200.917
  433.096    6.189    0.444    0.328   53.764  200.811
  433.346    6.183    0.444    0.321   54.067  200.911
  433.596    6.211    0.460    0.317   53.944  200.806
  433.846    6.262    0.467    0.319   53.394  200.906
  434.096    6.360    0.479    0.320   52.417  200.904
  434.346    6.468    0.474    0.322   52.720  200.695
  434.596    6.474    0.466    0.320   54.059  200.589
  434.846    6.457    0.454    0.326   54.362  200.483
  435.096    6.450    0.450    0.328   53.630  200.378
  435.346    6.407    0.457    0.327   53.446  200.169
  435.596    6.366    0.477    0.336   54.845  199.959
  435.846    6.348    0.474    0.346   56.915  199.854
  436.096    6.342    0.464    0.356   60.630  199.645
  436.346    6.359    0.465    0.345   58.801  199.436
  436.596    6.376    0.471    0.332   56.545  199.227
  436.846    6.404    0.471    0.313   57.092  199.328
  437.096    6.387    0.468    0.321   58.126  199.222
  437.346    6.347    0.461    0.316   59.648  199.116
  437.596    6.317    0.453    0.300   60.499  199.114
  437.846    6.299    0.443    0.282   63.910  199.111
  438.096    6.258    0.459    0.271   62.385  199.006
  438.346    6.207    0.490    0.274   60.861  198.900
  438.596    6.121    0.491    0.289   64.027  198.897
  438.846    6.072    0.485    0.299   68.473  198.792
  439.096    5.989    0.475    0.307   66.339  198.789
  439.346    5.885    0.476    0.316   62.804  198.992
  439.596    5.816    0.481    0.324   65.910  198.887
  439.846    5.695    0.465    0.332   63.410  199.091
  440.096    5.586    0.451    0.332   61.154  199.088
  440.346    5.470    0.443    0.313   61.884  199.086
  440.596    5.327    0.458    0.295   65.416  199.186
  440.846    5.159    0.480    0.310   72.299  199.287
  441.096    5.052    0.480    0.297   70.166  199.491
  441.346    4.982    0.472    0.279   63.706  199.592
  441.596    5.059    0.459    0.282   60.171  199.486
  441.846    5.195    0.461    0.295   61.875  199.483
  442.096    5.392    0.471    0.317   64.981  199.687
  442.346    5.586    0.480    0.330   68.391  199.891
  442.596    5.705    0.488    0.318   70.156  200.197
  442.846    5.814    0.488    0.322   71.678  200.402
  443.096    5.851    0.475    0.342   73.809  200.709
  443.346    5.666    0.471    0.342   75.940  200.705
  443.596    5.427    0.482    0.333   78.193  200.703
  443.846    5.248    0.518    0.311   81.725  200.906
  444.096    5.056    0.519    0.284   85.927  201.111
  444.346    4.861    0.510    0.233   92.019  201.521
  444.596    4.700    0.500    0.203   96.343  201.828
  444.846    4.445    0.493    0.204   98.047  201.826
  445.096    4.274    0.481    0.211   93.598  201.823
  445.346    4.131    0.491    0.215   92.683  201.613
  445.596    4.068    0.504    0.207   92.133  201.508
  445.846    4.094    0.524    0.191   87.196  201.505
  446.096    4.234    0.523    0.230   84.514  201.605
  446.346    4.386    0.522    0.234   88.046  201.707
  446.596    4.553    0.520    0.241   84.938  201.807
  446.846    4.812    0.493    0.260   75.919  202.011
  447.096    5.014    0.493    0.283   74.272  202.421
  447.346    5.166    0.492    0.284   74.088  202.625
  447.596    5.314    0.482    0.296   74.269  202.726
  447.846    5.426    0.468    0.297   75.730  203.032
  448.096    5.440    0.468    0.283   77.983  203.030
  448.346    5.404    0.467    0.295   80.175  203.027
  448.596    5.292    0.469    0.301   79.076  203.231
  448.846    5.153    0.477    0.283   77.552  203.435
  449.096    4.983    0.488    0.282   78.342  203.639
  449.346    4.661    0.508    0.268   81.326  203.946
  449.596    4.330    0.535    0.254   77.608  204.253
  449.846    3.934    0.544    0.269   77.302  204.457
  450.096    3.582    0.546    0.285   79.555  204.351
  450.346    3.285    0.541    0.283   77.908  204.349
  450.596    3.023    0.545    0.282   71.631  204.346
  450.846    2.834    0.566    0.320   73.458  204.136
  451.096    2.671    0.592    0.340   81.864  203.721
  451.346    2.615    0.609    0.320   85.213  203.616
  451.596    2.734    0.619    0.326   87.040  203.510
  451.846    3.177    0.579    0.332   91.669  203.404
  452.096    3.794    0.566    0.313   92.764  203.402
  452.346    4.345    0.556    0.291   90.995  203.295
  452.596    4.887    0.546    0.258   90.141  203.190
  452.846    5.485    0.535    0.268   89.408  203.291
  453.096    5.560    0.523    0.256   86.482  203.391
  453.346    5.279    0.514    0.243   81.668  203.493
  453.596    5.002    0.515    0.252   80.569  203.800
  453.846    4.713    0.547    0.264   82.639  202.661
  454.096    4.574    0.572    0.260   85.989  201.731
  454.346    4.429    0.569    0.273   85.317  201.522
  454.596    4.369    0.560    0.275   84.341  201.004
  454.846    4.333    0.552    0.253   85.741  200.485
  455.096    4.369    0.549    0.236   87.750  200.070
  455.346    4.543    0.550    0.233   82.082  199.757
  455.596    4.630    0.542    0.231   78.120  199.858
  455.846    4.659    0.510    0.258   78.362  200.268
  456.096    4.562    0.486    0.237   80.128  200.471
  456.346    4.395    0.495    0.201   82.502  200.573
  456.596    4.248    0.505    0.172   85.243  201.086
  456.846    4.275    0.513    0.189   85.972  201.084
  457.096    4.461    0.508    0.174   84.387  201.081
  457.346    4.733    0.511    0.192   78.841  201.078
  457.596    5.077    0.524    0.236   73.722  201.076
  457.846    5.426    0.524    0.288   68.176  201.280
  458.096    5.808    0.519    0.309   65.006  201.277
  458.346    6.084    0.528    0.301   64.883  201.068
  458.596    6.190    0.528    0.288   67.684  200.756
  458.846    6.150    0.514    0.276   67.560  200.753
  459.096    6.132    0.506    0.295   65.487  200.957
  459.346    6.228    0.524    0.316   64.694  200.852
  459.596    7.041    0.517    0.329   63.900  201.056
  459.846    7.977    0.488    0.310   63.533  201.466
