~VERSION INFORMATION
 VERS.                 2.0:   CWLS LOG ASCII STANDARD -VERSION 2.0
 WRAP.                  NO:   ONE LINE PER DEPTH STEP
~WELL INFORMATION BLOCK
#MNEM.UNIT           DATA                    DESCRIPTION OF MNEMONIC
#---------    -------------------            -------------------------------
# Generated from Intellog Unique Number	CC_84_87/WELL/1174
NULL.         -999.25                        : NULL_VALUE
WELL.         NOVALTA NEWBY                  : Well_name    - WELL              
LOC .         09-04-084-04W4                 : Location     - LOCATION          
UWI .         00/09-04-084-04W400            : Uwi          - UNIQUE WELL ID    
ENTR.         JHS                            : Entered      - ENTERED BY        
SRVC.         SCHLUMBERGER                   : Scn          - SERVICE COMPANY   
DATE.         09 JAN 85                      : Date         - LOG DATE
STRT.M        65                             : top_depth    - START DEPTH       
STOP.M        299.9                          : bot_depth    - STOP DEPTH        
STEP.M        0.3                            : increment    - STEP LENGTH       
~CURVE INFORMATION BLOCK
#MNEM UNIT       ERCB CURVE CODE    CURVE DESCRIPTION
#-----------   ------------------   ----------------------------------
DEPT.M        00 001 00 00         : DEPTH        - DEPTH                       
DPHI.V/V      00 890 00 00         : PHID         - DENSITY POROSITY (LIMESTONE)
NPHI.V/V      00 330 00 00         : PHIN         - NEUTRON POROSITY (LIMESTONE)
GR  .API      00 310 00 00         : GR           - GAMMA RAY                   
ILD .OHMM     00 120 00 00         : RESD         - DEEP RESISTIVITY (DIL)      
~PARAMETER INFORMATION       
#MNEM.UNIT           DATA             DESCRIPTION OF MNEMONIC
#---------         -----------     ------------------------------
GL  .M        474.5                : gl           - GROUND LEVEL ELEVATION      
EREF.M        477.5                : kb           - ELEVATION OF DEPTH REFERENCE
DATM.M        477.5                : datum        - DATUM ELEVATION             
TDD .M        308                  : tdd          - TOTAL DEPTH DRILLER         
RUN .         ONE                  : Run          - RUN NUMBER                  
ENG .         BILL                 : Engineer     - RECORDING ENGINEER          
WIT .         JIM                  : Witness      - WITNESSED BY                
MUD .         GEL                  : Mud_type     - MUD TYPE                    
MATR.         LIMESTONE            : Logunit      - NEUTRON MATRIX              
TMAX.C        21                   : BHT          - MAXIMUM RECORDED TEMPERATURE
BHTD.M        308                  : BHTDEP       - MAXIMUM RECORDED TEMPERATURE
MATR.         1                    : LOGUNIT      - NEUTRON MATRIX              
RMT .C        25                   : MDTP         - TEMPERATURE OF MUD          
NEUT.         1                    : NEUTRON      - NEUTRON TYPE                
RESI.         0                    : RESIST       - RESISTIVITY TYPE            
RMC .OHMM     0.25                 : RMC          - RESISTIVITY OF MUD CAKE     
RMF .OHMM     0.25                 : RMF          - RESISTIVITY OF MUD FILTRATE 
SUFT.C        15                   : SUFT         - SURFACE TEMPERATURE         
~A  DEPTH     PHID     PHIN       GR     RESD
# ...
  221.602    0.262    0.340   63.513    2.508
  221.902    0.266    0.354   64.791    2.810
  222.202    0.288    0.348   65.431    2.917
  222.502    0.288    0.348   63.600    2.754
  222.802    0.302    0.354   56.188    2.364
  223.102    0.328    0.352   42.580    2.108
  223.402    0.335    0.344   37.032    1.915
  223.702    0.331    0.329   40.776    1.878
  224.002    0.321    0.339   49.481    1.842
  224.302    0.329    0.346   48.271    1.841
  224.602    0.332    0.335   40.240    1.805
  224.902    0.309    0.350   49.177    1.976
  225.202    0.312    0.351   49.771    1.902
  225.502    0.331    0.337   41.143    1.866
  225.802    0.319    0.331   46.650    1.865
  226.102    0.290    0.345   57.081    1.973
  226.402    0.274    0.381   62.589    2.294
  226.702    0.283    0.392   61.953    2.293
  227.002    0.313    0.378   53.326    2.125
  227.302    0.338    0.344   46.542    1.825
  227.602    0.331    0.351   47.132    1.757
  227.902    0.289    0.345   53.874    1.930
  228.202    0.277    0.334   59.999    2.081
  228.502    0.286    0.332   58.130    2.287
  228.802    0.308    0.338   54.423    2.243
  229.102    0.313    0.334   50.098    2.159
  229.402    0.300    0.324   51.305    2.328
  229.702    0.278    0.327   55.588    2.557
  230.002    0.283    0.369   56.792    2.508
  230.302    0.318    0.374   44.477    2.238
  230.602    0.329    0.347   38.924    2.114
  230.902    0.306    0.353   45.049    2.073
  231.202    0.316    0.351   44.411    2.112
  231.502    0.305    0.343   52.995    2.234
  231.802    0.270    0.337   65.267    2.549
  232.102    0.254    0.346   70.164    2.909
  232.402    0.238    0.384   78.133    2.908
  232.702    0.259    0.382   66.431    2.798
  233.002    0.293    0.351   62.105    2.693
  233.302    0.273    0.366   66.386    2.592
  233.602    0.283    0.371   63.292    2.495
  233.902    0.284    0.361   53.431    2.447
  234.202    0.276    0.352   56.485    2.354
  234.502    0.287    0.364   57.692    2.310
  234.802    0.299    0.360   55.211    2.223
  235.102    0.303    0.351   52.114    2.139
  235.402    0.313    0.330   52.091    2.138
  235.702    0.307    0.334   54.530    2.178
  236.002    0.294    0.360   56.970    2.219
  236.302    0.296    0.360   55.104    2.176
  236.602    0.316    0.355   50.163    2.094
  236.902    0.334    0.345   44.607    2.016
  237.202    0.327    0.349   47.660    2.053
  237.502    0.311    0.344   56.242    2.053
  237.802    0.290    0.343   64.213    2.255
  238.102    0.274    0.386   85.093    2.386
  238.402    0.305    0.383   81.382    2.169
  238.702    0.330    0.359   51.238    1.973
  239.002    0.321    0.348   54.902    1.863
  239.302    0.331    0.361   53.039    1.793
  239.602    0.338    0.352   54.244    1.726
  239.902    0.331    0.345   43.774    1.692
  240.202    0.340    0.352   37.603    1.691
  240.502    0.350    0.345   41.886    1.691
  240.802    0.336    0.351   41.863    1.755
  241.102    0.308    0.354   41.225    1.788
  241.402    0.323    0.344   36.286    1.721
  241.702    0.328    0.346   33.189    1.656
  242.002    0.318    0.357   33.781    1.624
  242.302    0.331    0.355   31.917    1.624
  242.602    0.336    0.335   29.436    1.686
  242.902    0.327    0.322   28.798    1.783
  243.202    0.309    0.324   30.006    1.851
  243.502    0.313    0.350   31.829    1.885
  243.802    0.345    0.368   37.340    1.849
  244.102    0.374    0.396   41.005    1.780
  244.402    0.396    0.384   37.908    1.746
  244.702    0.383    0.365   33.584    1.778
  245.002    0.347    0.367   37.864    1.846
  245.302    0.312    0.360   80.261    1.953
  245.602    0.281    0.347   80.238    2.106
  245.902    0.306    0.325   53.168    2.105
  246.202    0.308    0.310   41.468    2.026
  246.502    0.296    0.347   35.295    1.913
  246.802    0.326    0.364   41.423    1.806
  247.102    0.328    0.345   37.713    1.706
  247.402    0.306    0.325   30.928    1.705
  247.702    0.306    0.334   40.128    1.641
  248.002    0.341    0.365   48.711    1.580
  248.302    0.377    0.384   46.228    1.520
  248.602    0.396    0.392   45.590    1.436
  248.902    0.393    0.409   46.183    1.408
  249.202    0.382    0.404   44.320    1.408
  249.502    0.356    0.373   38.765    1.434
  249.802    0.339    0.352   34.440    1.517
  250.102    0.339    0.355   32.575    1.574
  250.402    0.360    0.374   28.248    1.604
  250.702    0.369    0.364   28.843    1.603
  251.002    0.353    0.354   32.508    1.572
  251.302    0.348    0.375   35.560    1.572
  251.602    0.354    0.389   33.687    1.601
  251.902    0.340    0.366   33.670    1.631
  252.202    0.313    0.342   39.796    1.693
  252.502    0.327    0.343   42.230    1.692
  252.802    0.394    0.389   39.752    1.598
  253.102    0.412    0.412   35.424    1.509
  253.402    0.394    0.391   32.946    1.425
  253.702    0.378    0.364   31.081    1.424
  254.002    0.403    0.397   35.974    1.424
  254.302    0.410    0.407   35.954    1.451
  254.602    0.400    0.389   34.085    1.450
  254.902    0.382    0.383   35.293    1.477
  255.202    0.363    0.383   35.270    1.476
  255.502    0.366    0.372   34.018    1.448
  255.802    0.357    0.356   32.156    1.420
  256.102    0.344    0.357   32.749    1.419
  256.402    0.365    0.376   34.569    1.419
  256.702    0.366    0.377   32.702    1.445
  257.002    0.361    0.362   34.528    1.472
  257.302    0.357    0.365   36.348    1.472
  257.602    0.354    0.371   33.866    1.499
  257.902    0.349    0.360   34.459    1.498
  258.202    0.345    0.358   38.124    1.555
  258.502    0.344    0.382   41.179    1.584
  258.802    0.368    0.395   44.229    1.525
  259.102    0.376    0.384   41.133    1.468
  259.402    0.370    0.368   36.810    1.440
  259.702    0.343    0.363   32.485    1.439
  260.002    0.360    0.370   33.078    1.438
  260.302    0.369    0.355   37.973    1.465
  260.602    0.360    0.339   43.482    1.521
  260.902    0.334    0.333   40.999    1.549
  261.202    0.328    0.337   38.522    1.578
  261.502    0.331    0.356   32.965    1.607
  261.802    0.367    0.373   32.943    1.607
  262.102    0.358    0.362   34.765    1.606
  262.402    0.312    0.353   41.505    1.667
  262.702    0.319    0.340   40.868    1.666
  263.002    0.320    0.321   34.702    1.697
  263.302    0.311    0.310   34.060    1.762
  263.602    0.311    0.320   42.033    1.864
  263.902    0.267    0.386   89.347    2.127
  264.202    0.272    0.522  111.455    2.570
  264.502    0.294    0.552  110.201    3.163
  264.802    0.297    0.555  115.712    3.283
  265.102    0.287    0.569  114.459    3.282
  265.402    0.284    0.597  116.899    3.219
  265.702    0.291    0.617  120.563    3.157
  266.002    0.296    0.586  112.551    3.038
  266.302    0.286    0.558  111.299    3.037
  266.602    0.292    0.536  112.506    3.035
  266.901    0.307    0.550  110.639    3.034
  267.201    0.321    0.580  110.005    3.033
  267.501    0.374    0.609  105.680    3.032
  267.801    0.396    0.612  103.196    3.030
  268.101    0.390    0.601  105.629    2.972
  268.401    0.339    0.549  104.382    2.915
  268.701    0.301    0.534  103.747    2.859
  269.001    0.294    0.564  103.725    2.804
  269.301    0.287    0.561  109.850    2.648
  269.601    0.299    0.564  119.050    2.647
  269.901    0.306    0.571  123.328    2.645
  270.201    0.300    0.581  110.398    2.799
  270.501    0.305    0.585  107.300    3.018
  270.801    0.336    0.585  111.584    3.315
  271.101    0.362    0.591  109.104    3.442
  271.401    0.466    0.613  102.319    3.573
  271.701    0.604    0.624   94.920    3.640
  272.001    0.651    0.562   85.062    3.708
  272.301    0.495    0.459   90.574    3.776
  272.601    0.246    0.403   97.312    3.704
  272.901    0.189    0.400   92.371    3.634
  273.201    0.188    0.395   92.351    3.564
  273.501    0.200    0.384   92.329    3.495
