~VERSION INFORMATION
 VERS.                 2.0:   CWLS LOG ASCII STANDARD -VERSION 2.0
 WRAP.                  NO:   ONE LINE PER DEPTH STEP
~WELL INFORMATION BLOCK
#MNEM.UNIT           DATA                    DESCRIPTION OF MNEMONIC
#---------    -------------------            -------------------------------
# Generated from Intellog Unique Number	CS_77_79/WELL/873
WELL.         CDN-SUP PORTAGE                : Well_name    - WELL
LOC .         00/06-12-078-15W4/0            : Location     - LOCATION
UWI .         00/06-12-078-15W4/0            : Uwi          - UNIQUE WELL ID
ENTR.         JHS                            : Entered      - ENTERED BY
SRVC.         SCHLUMBERGER                   : Scn          - SERVICE COMPANY
STRT.M        220                            : top_depth    - START DEPTH
STOP.M        459                            : bot_depth    - STOP DEPTH
STEP.M        0.25                           : increment    - STEP LENGTH
 NULL. -999.2500:NULL Value
~CURVE INFORMATION BLOCK
#MNEM UNIT       ERCB CURVE CODE    CURVE DESCRIPTION
#-----------   ------------------   ----------------------------------
DEPT.M        00 001 00 00         : DEPTH        - DEPTH
DPHI.V/V      00 890 00 00         : PHID         - DENSITY POROSITY (LIMESTONE)
NPHI.V/V      00 330 00 00         : PHIN         - NEUTRON POROSITY (LIMESTONE)
GR  .API      00 310 00 00         : GR           - GAMMA RAY
ILD .OHMM     00 120 00 00         : RESD         - DEEP RESISTIVITY (DIL)
~PARAMETER INFORMATION
#MNEM.UNIT           DATA             DESCRIPTION OF MNEMONIC
#---------         -----------     ------------------------------
GL  .M        620.5                : gl           - GROUND LEVEL ELEVATION
EREF.M        624.85               : kb           - ELEVATION OF DEPTH REFERENCE
DATM.M        624.85               : datum        - DATUM ELEVATION
TDD .M        506                  : tdd          - TOTAL DEPTH DRILLER
RUN .         ONE                  : Run          - RUN NUMBER
ENG .         BILL                 : Engineer     - RECORDING ENGINEER
WIT .         JIM                  : Witness      - WITNESSED BY
MUD .         GEL                  : Mud_type     - MUD TYPE
MATR.         LIMESTONE            : Logunit      - NEUTRON MATRIX
TMAX.C        23                   : BHT          - MAXIMUM RECORDED TEMPERATURE
BHTD.M        506                  : BHTDEP       - MAXIMUM RECORDED TEMPERATURE
MATR.         1                    : LOGUNIT      - NEUTRON MATRIX
RMT .C        25                   : MDTP         - TEMPERATURE OF MUD
NEUT.         1                    : NEUTRON      - NEUTRON TYPE
RESI.         0                    : RESIST       - RESISTIVITY TYPE
RMC .OHMM     0.25                 : RMC          - RESISTIVITY OF MUD CAKE
RMF .OHMM     0.25                 : RMF          - RESISTIVITY OF MUD FILTRATE
SUFT.C        15                   : SUFT         - SURFACE TEMPERATURE
~A  DEPTH     PHID     PHIN       GR     RESD
# ...
  394.000    0.151    0.361   91.590    8.026
  394.250    0.159    0.410   97.099    7.448
  394.500    0.166    0.429  100.159    7.042
  394.750    0.170    0.403   95.259    6.787
  395.000    0.170    0.397   96.482    6.664
  395.250    0.175    0.430   97.093    6.303
  395.500    0.171    0.416   89.132    6.188
  395.750    0.172    0.402   89.131    5.963
  396.000    0.175    0.408   94.028    5.855
  396.250    0.178    0.419   95.863    5.750
  396.500    0.172    0.425   92.800    5.541
  396.750    0.156    0.420   93.411    5.142
  397.000    0.164    0.436   88.512    4.344
  397.250    0.188    0.470   85.449    3.739
  397.500    0.235    0.516   90.346    3.099
  397.750    0.250    0.565   87.895    2.569
  398.000    0.243    0.585   84.833    2.253
  398.250    0.250    0.571   83.607    2.091
  398.500    0.256    0.555   80.544    2.015
  398.750    0.250    0.545   80.543    2.016
  399.000    0.243    0.544   84.827    2.017
  399.250    0.234    0.551   87.275    2.096
  399.500    0.217    0.526   84.212    2.348
  399.750    0.196    0.448   81.150    2.783
  400.000    0.175    0.409   87.270    3.237
  400.250    0.158    0.430   89.106    3.985
  400.500    0.158    0.429   89.104    4.635
  400.750    0.161    0.399   89.103    5.290
  401.000    0.150    0.375   90.938    6.155
  401.250    0.147    0.367   92.774    6.395
  401.500    0.154    0.397   91.548    6.520
  401.750    0.164    0.417   88.485    6.282
  402.000    0.166    0.428   86.034    6.054
  402.250    0.150    0.426   84.197    5.944
  402.500    0.131    0.410   79.910    6.061
  402.750    0.120    0.402   82.969    6.418
  403.000    0.136    0.409   85.417    6.668
  403.250    0.152    0.407   86.028    6.672
  403.500    0.163    0.407   89.700    6.309
  403.750    0.175    0.421   86.637    5.746
  404.000    0.180    0.455   82.350    5.233
  404.250    0.163    0.479   80.512    4.856
  404.500    0.155    0.467   85.409    4.423
  404.750    0.170    0.450   89.693    4.105
  405.000    0.194    0.444   89.691    3.955
  405.250    0.197    0.441   89.078    3.671
  405.500    0.188    0.458   92.138    3.407
  405.750    0.198    0.496   93.973    3.222
  406.000    0.204    0.532   92.135    3.223
  406.250    0.181    0.495   94.582    3.349
  406.500    0.164    0.462   97.642    3.614
  406.750    0.163    0.456   97.028    3.754
  407.000    0.171    0.451   98.864    3.975
  407.250    0.171    0.452   97.638    4.208
  407.500    0.161    0.442   94.575    4.372
  407.750    0.144    0.419   96.411    4.543
  408.000    0.134    0.417  101.920    4.631
  408.250    0.153    0.436  105.592    4.812
  408.500    0.186    0.473  104.366    5.094
  408.750    0.176    0.445   70.079    5.708
  409.000    0.170    0.404   65.180    5.929
  409.250    0.185    0.379   62.729    5.714
  409.500    0.212    0.375   68.238    5.404
  409.750    0.213    0.446   81.094    5.407
  410.000    0.192    0.471   79.868    5.618
  410.250    0.187    0.418   68.234    6.176
  410.500    0.218    0.386   49.865    7.320
  410.750    0.241    0.377   37.007   10.672
  411.000    0.253    0.384   40.066   15.855
  411.250    0.233    0.385   57.208   23.116
  411.500    0.222    0.384   71.900   22.699
  411.750    0.219    0.402   79.246   18.121
  412.000    0.218    0.414   73.734   14.740
  412.250    0.209    0.396   64.549   13.680
  412.500    0.209    0.379   62.711   14.216
  412.750    0.202    0.384   69.444   15.049
  413.000    0.186    0.376   83.524   15.058
  413.250    0.169    0.372   96.380   13.713
  413.500    0.163    0.398  106.175   10.950
  413.750    0.168    0.417  108.010   10.551
  414.000    0.181    0.426  104.335   10.961
  414.250    0.199    0.417   95.762   12.513
  414.500    0.215    0.385   73.720   15.399
  414.750    0.253    0.342   54.739   19.680
  415.000    0.272    0.316   55.350   22.466
  415.250    0.218    0.350   70.042   23.785
  415.500    0.184    0.360   74.939   23.797
  415.750    0.191    0.373   74.325   22.505
  416.000    0.204    0.392   74.324   20.888
  416.250    0.192    0.396   80.445   19.383
  416.500    0.180    0.384   81.056   17.988
  416.750    0.165    0.364   83.504   17.011
  417.000    0.158    0.352   88.400   17.020
  417.250    0.150    0.359   83.501   17.686
  417.500    0.147    0.342   75.540   18.373
  417.750    0.146    0.339   66.967   20.584
  418.000    0.130    0.355   60.843   22.630
  418.250    0.116    0.373   62.067   23.959
  418.500    0.128    0.354   68.188   21.820
  418.750    0.123    0.337   74.309   18.431
  419.000    0.123    0.328   84.103   17.429
  419.250    0.137    0.353   91.449   16.794
  419.500    0.153    0.384   84.713   16.806
  419.750    0.163    0.366   71.242   17.136
  420.000    0.176    0.347   70.016   17.804
  420.250    0.165    0.326   79.810   18.152
  420.500    0.153    0.327   93.891   18.512
  420.750    0.159    0.358   93.277   18.518
  421.000    0.185    0.384   85.316   17.514
  421.250    0.180    0.375   79.805   17.855
  421.500    0.170    0.363   76.130   19.267
  421.750    0.164    0.354   74.292   19.642
  422.000    0.160    0.351   73.066   17.889
  422.250    0.158    0.342   73.677   14.014
  422.500    0.147    0.344   83.471   11.188
  422.750    0.126    0.465   89.592   10.579
  423.000    0.153    0.490   77.346   12.077
  423.250    0.241    0.436   54.692   17.943
  423.500    0.255    0.380   49.792   29.288
  423.750    0.255    0.363   55.913   43.510
  424.000    0.251    0.335   62.646   62.251
  424.250    0.256    0.324   62.645   72.411
  424.500    0.259    0.374   60.195   68.492
  424.750    0.251    0.386   63.255   52.653
  425.000    0.232    0.389   69.376   40.479
  425.250    0.218    0.384   74.272   32.926
  425.500    0.211    0.384   77.944   28.879
  425.750    0.209    0.389   76.106   27.311
  426.000    0.216    0.396   70.595   26.318
  426.250    0.218    0.395   71.205   25.844
  426.500    0.212    0.381   74.877   24.440
  426.750    0.185    0.391   74.263   22.681
  427.000    0.059    0.347   73.038   19.159
  427.250    0.052    0.327   79.159   15.583
  427.500    0.111    0.362   98.749   12.209
  427.750    0.128    0.405  104.870   10.708
  428.000    0.128    0.382  107.930   10.127
  428.250    0.128    0.375  107.316    9.944
  428.500    0.133    0.406  104.253   10.138
  428.750    0.140    0.380  100.579   10.734
  429.000    0.141    0.367   95.680   11.801
  429.250    0.152    0.360   91.392   13.728
  429.500    0.175    0.369   87.105   15.378
  429.750    0.202    0.386   81.594   17.887
  430.000    0.214    0.392   76.082   20.805
  430.250    0.218    0.401   78.530   22.453
  430.500    0.200    0.381   87.712   22.458
  430.750    0.185    0.356   92.609   21.642
  431.000    0.179    0.338   96.281   19.343
  431.250    0.180    0.354   96.279   17.618
  431.500    0.184    0.376   93.829   17.302
  431.750    0.176    0.386   95.664   17.640
  432.000    0.167    0.376  101.173   17.649
  432.250    0.173    0.359  102.396   17.008
  432.500    0.184    0.356   98.721   16.388
  432.750    0.169    0.367   98.108   15.499
  433.000    0.148    0.363   97.494   15.509
  433.250    0.156    0.364   85.860   16.111
  433.500    0.198    0.403   71.777   17.383
  433.750    0.225    0.408   56.469   19.472
  434.000    0.252    0.401   56.468   22.649
  434.250    0.261    0.383   58.916   28.406
  434.500    0.262    0.368   63.812   34.965
  434.750    0.251    0.364   68.097   39.908
  435.000    0.250    0.370   72.993   46.428
  435.250    0.254    0.379   76.665   51.036
  435.500    0.246    0.391   77.888   54.035
  435.750    0.246    0.372   75.438   55.092
  436.000    0.241    0.360   72.375   52.099
  436.250    0.230    0.378   80.333   42.381
  436.500    0.212    0.383   91.352   25.035
  436.750    0.167    0.351   96.861   17.518
  437.000    0.133    0.332  101.757   14.799
  437.250    0.137    0.332   99.919   13.477
