~VERSION INFORMATION
 VERS.                 2.0:   CWLS LOG ASCII STANDARD -VERSION 2.0
 WRAP.                  NO:   ONE LINE PER DEPTH STEP
~WELL INFORMATION BLOCK
#MNEM.UNIT           DATA                    DESCRIPTION OF MNEMONIC
#---------    -------------------            -------------------------------
# Generated from Intellog Unique Number	CS_73_76/WELL/2168
WELL.         BOW VALLEY INDUSTRIES          : Well_name    - WELL
LOC .         00/06-25-074-17W4/0            : Location     - LOCATION
UWI .         00/06-25-074-17W4/0            : Uwi          - UNIQUE WELL ID
ENTR.         SP                             : Entered      - ENTERED BY
SRVC.         SCHLUMBERGER                   : Scn          - SERVICE COMPANY
STRT.M        228.600                        : top_depth    - START DEPTH
STOP.M        453.850                        : bot_depth    - STOP DEPTH
STEP.M        0.25                           : increment    - STEP LENGTH
 NULL. -999.2500:NULL Value
~CURVE INFORMATION BLOCK
#MNEM UNIT       ERCB CURVE CODE    CURVE DESCRIPTION
#-----------   ------------------   ----------------------------------
DEPT.M        00 001 00 00         : DEPTH        - DEPTH
GR  .API      00 310 00 00         : GR           - GAMMA RAY
DPHI.V/V      00 890 00 00         : PHID         - DENSITY POROSITY (SANDSTONE)
NPHI.V/V      00 330 00 00         : PHIN         - NEUTRON POROSITY (SANDSTONE)
ILD .OHMM     00 120 00 00         : RESD         - DEEP RESISTIVITY (DIL)
~PARAMETER INFORMATION
#MNEM.UNIT           DATA             DESCRIPTION OF MNEMONIC
#---------         -----------     ------------------------------
GL  .M        614                  : gl           - GROUND LEVEL ELEVATION
EREF.M        616.61               : kb           - ELEVATION OF DEPTH REFERENCE
DATM.M        616                  : datum        - DATUM ELEVATION
TDD .M        484.937              : tdd          - TOTAL DEPTH DRILLER
RUN .         ONE                  : Run          - RUN NUMBER
ENG .         BILL                 : Engineer     - RECORDING ENGINEER
WIT .         JIM                  : Witness      - WITNESSED BY
MUD .         GEL                  : Mud_type     - MUD TYPE
MATR.         SANDSTONE            : Logunit      - NEUTRON MATRIX
TMAX.C        13.8889              : BHT          - MAXIMUM RECORDED TEMPERATURE
BHTD.M        484.937              : BHTDEP       - MAXIMUM RECORDED TEMPERATURE
MATR.         1                    : LOGUNIT      - NEUTRON MATRIX
RMT .C        25                   : MDTP         - TEMPERATURE OF MUD
NEUT.         1                    : NEUTRON      - NEUTRON TYPE
RESI.         0                    : RESIST       - RESISTIVITY TYPE
RMC .OHMM     0.25                 : RMC          - RESISTIVITY OF MUD CAKE
RMF .OHMM     0.25                 : RMF          - RESISTIVITY OF MUD FILTRATE
SUFT.C        15                   : SUFT         - SURFACE TEMPERATURE
~A  DEPTH       GR     PHID     PHIN     RESD
  228.600  139.196    0.222    0.514    3.290
  228.850  133.120    0.225    0.510    3.540
  229.100  129.809    0.217    0.494    3.780
  229.350  128.394    0.201    0.500    3.945
  229.600  128.273    0.216    0.484    4.071
  229.850  125.078    0.202    0.463    4.096
  230.100  124.637    0.186    0.488    4.095
  230.350  125.501    0.207    0.509    4.058
  230.600  123.951    0.221    0.512    4.017
  230.850  122.280    0.183    0.510    3.886
  231.100  121.381    0.183    0.515    3.877
  231.350  121.765    0.187    0.497    3.875
  231.600  123.380    0.195    0.501    3.868
  231.850  124.591    0.203    0.507    3.968
  232.100  127.621    0.182    0.508    4.092
  232.350  129.107    0.189    0.517    4.227
  232.600  124.547    0.201    0.502    4.417
  232.850  122.330    0.199    0.468    4.555
  233.100  120.332    0.189    0.450    4.657
  233.350  119.974    0.204    0.456    4.654
  233.600  122.203    0.204    0.472    4.514
  233.850  120.902    0.202    0.485    4.401
  234.100  121.066    0.205    0.496    4.311
  234.350  121.535    0.198    0.485    4.185
  234.600  122.924    0.201    0.498    4.080
  234.850  122.801    0.192    0.507    4.086
  235.100  121.108    0.188    0.503    4.078
  235.350  119.807    0.214    0.504    4.179
  235.600  112.917    0.213    0.504    4.931
  235.850  103.703    0.202    0.492    6.225
  236.100   94.248    0.205    0.486    9.098
  236.350   83.928    0.208    0.460   12.970
  236.600   68.620    0.202    0.388   14.801
  236.850   50.147    0.169    0.319   14.541
  237.100   39.720    0.135    0.296   11.814
  237.350   39.983    0.111    0.274    8.437
  237.600   56.757    0.068    0.342    7.166
  237.850   68.822    0.077    0.376    6.559
  238.100   78.783    0.187    0.401    6.166
  238.350   81.840    0.224    0.402    6.102
  238.600   87.123    0.225    0.389    6.088
  238.850   87.648    0.211    0.401    6.218
  239.100   82.208    0.217    0.397    6.320
  239.350   73.465    0.224    0.389    6.387
  239.600   71.219    0.233    0.385    6.440
  239.850   73.258    0.224    0.397    6.450
  240.100   73.868    0.231    0.390    6.258
  240.350   72.806    0.242    0.378    6.202
  240.600   73.264    0.239    0.371    6.100
  240.850   74.419    0.233    0.377    5.971
  241.100   76.437    0.226    0.391    5.983
  241.350   78.862    0.214    0.400    5.980
  241.600   80.181    0.203    0.401    5.957
  241.850   80.598    0.227    0.401    5.772
  242.100   80.635    0.236    0.398    5.630
  242.350   80.881    0.226    0.392    5.101
  242.600   83.362    0.236    0.390    4.824
  242.850   89.021    0.231    0.412    4.534
  243.100  100.417    0.221    0.439    4.361
  243.350  110.668    0.214    0.463    4.087
  243.600  111.980    0.196    0.477    4.046
  243.850  110.523    0.186    0.481    3.918
  244.100  110.480    0.195    0.486    3.925
  244.350  109.976    0.204    0.483    3.816
  244.600  108.683    0.211    0.468    3.778
  244.850  111.233    0.192    0.477    3.710
  245.100  108.076    0.188    0.488    3.637
  245.350  103.005    0.191    0.485    3.578
  245.600  100.670    0.202    0.464    3.537
  245.850   97.499    0.185    0.473    3.500
  246.100   93.991    0.193    0.487    3.441
  246.350   94.469    0.221    0.441    3.441
  246.600   98.987    0.208    0.467    3.522
  246.850   93.815    0.196    0.476    3.867
  247.100   87.003    0.201    0.455    4.123
  247.350   83.432    0.190    0.427    4.291
  247.600   83.705    0.192    0.421    4.494
  247.850   82.678    0.229    0.411    4.681
  248.100   84.485    0.240    0.415    4.297
  248.350   88.690    0.236    0.430    4.051
  248.600   89.858    0.216    0.448    3.721
  248.850   94.368    0.225    0.458    3.397
  249.100  100.000    0.226    0.479    3.186
  249.350  100.319    0.202    0.507    3.139
  249.600  103.503    0.224    0.485    3.130
  249.850  103.323    0.208    0.497    3.339
  250.100  100.579    0.202    0.507    3.504
  250.350   96.906    0.207    0.498    3.565
  250.600   97.050    0.214    0.469    3.526
  250.850  100.104    0.209    0.464    3.373
  251.100  106.302    0.200    0.489    3.234
  251.350  110.128    0.198    0.504    3.120
  251.600  112.671    0.201    0.521    3.023
  251.850  111.943    0.210    0.535    3.031
  252.100  112.699    0.209    0.541    2.893
  252.350  113.538    0.204    0.531    2.857
  252.600  116.744    0.215    0.535    2.857
  252.850  116.816    0.207    0.524    2.857
  253.100  115.733    0.203    0.524    2.857
  253.350  115.555    0.214    0.526    2.868
  253.600  116.864    0.211    0.518    3.021
  253.850  114.174    0.212    0.518    3.287
  254.100  110.699    0.208    0.512    3.606
  254.350  104.346    0.213    0.518    3.755
  254.600  100.499    0.210    0.515    3.830
  254.850  100.635    0.202    0.500    3.815
  255.100  101.630    0.183    0.477    3.696
  255.350  104.069    0.170    0.461    3.586
  255.600  107.881    0.158    0.481    3.479
  255.850  105.693    0.191    0.509    3.382
  256.100  103.652    0.216    0.532    3.235
  256.350  102.428    0.215    0.536    3.177
  256.600  104.913    0.235    0.519    3.129
  256.850  109.278    0.225    0.513    3.066
  257.100  109.525    0.217    0.509    3.012
  257.350  108.825    0.219    0.527    3.012
  257.600  109.578    0.217    0.527    3.011
  257.850  109.007    0.225    0.536    3.010
  258.100  106.617    0.237    0.532    3.010
  258.350  105.573    0.233    0.526    3.010
  258.600  103.052    0.237    0.540    3.005
  258.850  101.272    0.230    0.542    3.070
  259.100  101.892    0.237    0.527    3.064
  259.350  105.605    0.222    0.504    3.063
  259.600  105.769    0.211    0.506    3.063
  259.850  106.466    0.217    0.514    3.063
  260.100  105.631    0.234    0.525    3.056
  260.350  104.650    0.233    0.533    3.125
  260.600  106.438    0.236    0.529    3.118
  260.850  103.057    0.214    0.519    3.118
  261.100  101.862    0.204    0.509    3.117
  261.350  101.968    0.224    0.502    3.120
  261.600  104.129    0.237    0.500    3.053
  261.850  104.010    0.233    0.506    3.054
  262.100  106.087    0.219    0.525    2.955
  262.350  107.474    0.229    0.542    2.931
  262.600  108.817    0.236    0.534    2.841
  262.850  109.019    0.242    0.539    2.803
  263.100  107.106    0.243    0.545    2.795
  263.350  105.125    0.248    0.537    2.738
  263.600  105.649    0.234    0.527    2.739
  263.850  109.671    0.242    0.519    2.737
  264.100  107.664    0.240    0.514    2.740
  264.350  102.342    0.228    0.527    2.685
  264.600   98.908    0.237    0.555    2.696
  264.850   95.703    0.222    0.575    2.738
  265.100   96.585    0.220    0.536    2.733
  265.350   99.070    0.223    0.520    2.793
  265.600   97.019    0.204    0.539    2.883
  265.850   93.816    0.134    0.529    2.912
  266.100   97.415    0.117    0.509    2.946
  266.350  102.793    0.139    0.523    3.061
  266.600  106.753    0.205    0.529    3.071
  266.850  108.003    0.224    0.518    3.107
  267.100  109.335    0.230    0.510    3.209
  267.350  108.256    0.241    0.502    3.232
  267.600  105.118    0.214    0.493    3.336
  267.850  103.495    0.202    0.498    3.431
  268.100  101.227    0.213    0.507    3.613
  268.350  101.240    0.203    0.490    3.715
  268.600  102.246    0.201    0.474    3.802
  268.850  103.235    0.207    0.466    3.793
  269.100  103.780    0.199    0.477    3.729
  269.350  103.709    0.199    0.483    3.627
  269.600  104.352    0.212    0.482    3.593
  269.850  104.011    0.197    0.489    3.477
  270.100  103.406    0.188    0.496    3.447
  270.350  104.336    0.193    0.508    3.399
  270.600  104.320    0.208    0.518    3.398
  270.850  104.291    0.204    0.507    3.398
  271.100  104.759    0.220    0.493    3.403
  271.350  106.411    0.221    0.491    3.336
  271.600  108.108    0.206    0.500    3.270
  271.850  108.670    0.195    0.507    3.277
