~VERSION INFORMATION
 VERS.                 2.0:   CWLS LOG ASCII STANDARD -VERSION 2.0
 WRAP.                  NO:   ONE LINE PER DEPTH STEP
~WELL INFORMATION BLOCK
#MNEM.UNIT           DATA                    DESCRIPTION OF MNEMONIC
#---------    -------------------            -------------------------------
# Generated from Intellog Unique Number	CS_67_68/WELL/662
WELL.         BURNT LAKE                     : Well_name    - WELL
LOC .         00/06-13-068-03W4/0            : Location     - LOCATION
UWI .         00/06-13-068-03W4/0            : Uwi          - UNIQUE WELL ID
ENTR.         SP                             : Entered      - ENTERED BY
SRVC.         SCHLUMBERGER                   : Scn          - SERVICE COMPANY
STRT.M        380                            : top_depth    - START DEPTH
STOP.M        620                            : bot_depth    - STOP DEPTH
STEP.M        0.25                           : increment    - STEP LENGTH
 NULL. -999.2500:NULL Value
~CURVE INFORMATION BLOCK
#MNEM UNIT       ERCB CURVE CODE    CURVE DESCRIPTION
#-----------   ------------------   ----------------------------------
DEPT.M        00 001 00 00         : DEPTH        - DEPTH
ILD .OHMM     00 120 00 00         : RESD         - DEEP RESISTIVITY (DIL)
DPHI.V/V      00 890 00 00         : PHID         - DENSITY POROSITY (LIMESTONE)
NPHI.V/V      00 330 00 00         : PHIN         - NEUTRON POROSITY (LIMESTONE)
GR  .API      00 310 00 00         : GR           - GAMMA RAY
~PARAMETER INFORMATION
#MNEM.UNIT           DATA             DESCRIPTION OF MNEMONIC
#---------         -----------     ------------------------------
GL  .M        722.86               : gl           - GROUND LEVEL ELEVATION
EREF.M        726.87               : kb           - ELEVATION OF DEPTH REFERENCE
DATM.M        722.86               : datum        - DATUM ELEVATION
TDD .M        630                  : tdd          - TOTAL DEPTH DRILLER
RUN .         ONE                  : Run          - RUN NUMBER
ENG .         BILL                 : Engineer     - RECORDING ENGINEER
WIT .         JIM                  : Witness      - WITNESSED BY
MUD .         GEL                  : Mud_type     - MUD TYPE
MATR.         LIMESTONE            : Logunit      - NEUTRON MATRIX
TMAX.C        18.3                 : BHT          - MAXIMUM RECORDED TEMPERATURE
BHTD.M        630                  : BHTDEP       - MAXIMUM RECORDED TEMPERATURE
MATR.         1                    : LOGUNIT      - NEUTRON MATRIX
RMT .C        25                   : MDTP         - TEMPERATURE OF MUD
NEUT.         1                    : NEUTRON      - NEUTRON TYPE
RESI.         0                    : RESIST       - RESISTIVITY TYPE
RMC .OHMM     0.25                 : RMC          - RESISTIVITY OF MUD CAKE
RMF .OHMM     0.25                 : RMF          - RESISTIVITY OF MUD FILTRATE
SUFT.C        15                   : SUFT         - SURFACE TEMPERATURE
~A  DEPTH     RESD     PHID     PHIN       GR
# ...
  597.500    7.018    0.190    0.371   86.254
  597.750    7.271    0.186    0.368   90.162
  598.000    7.420    0.170    0.374   93.765
  598.250    7.572    0.159    0.393   97.551
  598.500    7.698    0.156    0.374  102.070
  598.750    7.724    0.156    0.362  104.940
  599.000    7.678    0.160    0.359  106.711
  599.250    7.575    0.172    0.397  102.377
  599.500    7.516    0.179    0.417   97.128
  599.750    7.541    0.182    0.408   90.780
  600.000    7.152    0.163    0.363   91.235
  600.250    7.313    0.152    0.359   92.987
  600.500    7.477    0.143    0.360   95.832
  600.750    7.717    0.145    0.369   97.096
  601.000    7.980    0.165    0.344   91.285
  601.250    8.175    0.188    0.334   90.353
  601.500    8.359    0.192    0.354   90.581
  601.750    8.467    0.194    0.368   88.491
  602.000    8.496    0.194    0.357   83.597
  602.250    8.412    0.173    0.348   90.222
  602.500    8.347    0.155    0.339   98.615
  602.750    8.172    0.148    0.354  103.596
  603.000    8.063    0.155    0.373  105.771
  603.250    7.850    0.163    0.385  107.339
  603.500    7.744    0.159    0.387  108.296
  603.750    7.639    0.157    0.396  107.422
  604.000    7.608    0.164    0.414  105.701
  604.250    7.591    0.170    0.406  103.305
  604.500    7.645    0.158    0.390  105.297
  604.750    7.700    0.151    0.388  107.475
  605.000    7.726    0.160    0.403  105.505
  605.250    7.739    0.168    0.414  104.817
  605.500    7.765    0.170    0.418  106.933
  605.750    7.718    0.169    0.399  109.169
  606.000    7.671    0.166    0.389  107.994
  606.250    7.684    0.167    0.391  102.611
  606.500    7.680    0.169    0.392   95.159
  606.750    7.649    0.164    0.383   84.413
  607.000    7.603    0.166    0.374   75.741
  607.250    7.543    0.197    0.366   67.739
  607.500    7.113    0.238    0.364   65.041
  607.750    6.745    0.260    0.371   71.665
  608.000    6.506    0.231    0.378   78.532
  608.250    6.881    0.204    0.373   83.087
  608.500    7.076    0.185    0.376   84.959
  608.750    7.180    0.190    0.383   83.417
  609.000    7.273    0.198    0.381   85.228
  609.250    7.311    0.202    0.374   90.876
  609.500    7.350    0.197    0.366   95.915
  609.750    7.417    0.176    0.363   99.680
  610.000    7.414    0.167    0.372  104.170
  610.250    7.453    0.170    0.378  104.154
  610.500    7.507    0.178    0.368   97.612
  610.750    7.518    0.187    0.361   91.804
  611.000    7.515    0.193    0.370   87.827
  611.250    7.513    0.201    0.384   88.050
  611.500    7.524    0.195    0.368   89.984
  611.750    7.563    0.186    0.361   90.942
  612.000    7.531    0.176    0.364   90.010
  612.250    7.487    0.177    0.371   93.708
  612.500    7.345    0.181    0.362   95.765
  612.750    7.246    0.171    0.362   97.879
  613.000    7.271    0.170    0.370   97.923
  613.250    7.420    0.182    0.374   95.771
  613.500    7.473    0.200    0.372   90.328
  613.750    7.318    0.210    0.358   86.776
  614.000    6.835    0.228    0.388   79.078
  614.250    6.397    0.278    0.422   47.186
  614.500    5.942    0.301    0.425   36.684
  614.750    5.593    0.323    0.401   30.815
  615.000    5.195    0.334    0.370   26.774
  615.250    4.954    0.341    0.358   24.989
  615.500    4.751    0.345    0.364   33.626
  615.750    4.803    0.312    0.369   44.699
  616.000    5.624    0.237    0.343   53.215
  616.250    6.774    0.124    0.318   64.838
  616.500    8.068    0.062    0.312   67.928
  616.750    9.883    0.014    0.320   66.996
  617.000   11.528    0.027    0.315   66.856
  617.250   13.348    0.037    0.298   68.788
  617.500   15.366    0.044    0.286   68.527
  617.750   16.253    0.046    0.279   66.923
  618.000   16.838    0.044    0.279   63.615
  618.250   17.314    0.043    0.278   65.121
  618.500   17.504    0.046    0.274   67.236
  618.750   17.663    0.045    0.269   66.547
  619.000   17.790    0.043    0.266   64.822
  619.250   17.883    0.039    0.266   64.561
  619.500   17.810    0.041    0.273   66.311
  619.750   17.637    0.049    0.282   68.060
  620.000   17.498    0.058    0.292   69.321
