~VERSION INFORMATION
 VERS.                 2.0:   CWLS LOG ASCII STANDARD -VERSION 2.0
 WRAP.                  NO:   ONE LINE PER DEPTH STEP
~WELL INFORMATION BLOCK
#MNEM.UNIT           DATA                    DESCRIPTION OF MNEMONIC
#---------    -------------------            -------------------------------
# Generated from Intellog Unique Number	CS_77_79/WELL/916
WELL.         PCI PCEJ CHARD                 : Well_name    - WELL
LOC .         00/08-04-079-06W4/0            : Location     - LOCATION
UWI .         00/08-04-079-06W4/0            : Uwi          - UNIQUE WELL ID
ENTR.         JHS                            : Entered      - ENTERED BY
SRVC.         SCHLUMBERGER                   : Scn          - SERVICE COMPANY
STRT.M        80                             : top_depth    - START DEPTH
STOP.M        325                            : bot_depth    - STOP DEPTH
STEP.M        0.25                           : increment    - STEP LENGTH
 NULL. -999.2500:NULL Value
~CURVE INFORMATION BLOCK
#MNEM UNIT       ERCB CURVE CODE    CURVE DESCRIPTION
#-----------   ------------------   ----------------------------------
DEPT.M        00 001 00 00         : DEPTH        - DEPTH
DPHI.V/V      00 890 00 00         : PHID         - DENSITY POROSITY (LIMESTONE)
NPHI.V/V      00 330 00 00         : PHIN         - NEUTRON POROSITY (LIMESTONE)
GR  .API      00 310 00 00         : GR           - GAMMA RAY
ILD .OHMM     00 120 00 00         : RESD         - DEEP RESISTIVITY (DIL)
RHOB.KG/M3    00 350 00 00         : DENS         - BULK DENSITY
~PARAMETER INFORMATION
#MNEM.UNIT           DATA             DESCRIPTION OF MNEMONIC
#---------         -----------     ------------------------------
GL  .M        509.4                : gl           - GROUND LEVEL ELEVATION
EREF.M        512.4                : kb           - ELEVATION OF DEPTH REFERENCE
DATM.M        512.4                : datum        - DATUM ELEVATION
TDD .M        331                  : tdd          - TOTAL DEPTH DRILLER
RUN .         ONE                  : Run          - RUN NUMBER
ENG .         BILL                 : Engineer     - RECORDING ENGINEER
WIT .         JIM                  : Witness      - WITNESSED BY
MUD .         GEL                  : Mud_type     - MUD TYPE
MATR.         LIMESTONE            : Logunit      - NEUTRON MATRIX
TMAX.C        22                   : BHT          - MAXIMUM RECORDED TEMPERATURE
BHTD.M        331                  : BHTDEP       - MAXIMUM RECORDED TEMPERATURE
MATR.         1                    : LOGUNIT      - NEUTRON MATRIX
RMT .C        25                   : MDTP         - TEMPERATURE OF MUD
NEUT.         1                    : NEUTRON      - NEUTRON TYPE
RESI.         0                    : RESIST       - RESISTIVITY TYPE
RMC .OHMM     0.25                 : RMC          - RESISTIVITY OF MUD CAKE
RMF .OHMM     0.25                 : RMF          - RESISTIVITY OF MUD FILTRATE
SUFT.C        15                   : SUFT         - SURFACE TEMPERATURE
~A  DEPTH     PHID     PHIN       GR     RESD     DENS
# ...
  226.000    0.272    0.448   62.631    5.288 2245.710
  226.250    0.280    0.458   68.121    5.920 2231.030
  226.500    0.313    0.474   72.391    6.629 2174.380
  226.750    0.316    0.443   79.100    7.016 2170.190
  227.000    0.291    0.440   84.590    6.889 2212.160
  227.250    0.279    0.484   85.202    6.393 2233.150
  227.500    0.275    0.517   82.764    5.301 2239.450
  227.750    0.275    0.492   80.327    4.651 2239.460
  228.000    0.284    0.458   82.157    4.653 2224.770
  228.250    0.291    0.443   88.257    4.655 2212.190
  228.500    0.276    0.443   91.308    4.745 2237.380
  228.750    0.262    0.446   87.041    4.837 2262.560
  229.000    0.248    0.435   79.116    5.120 2285.650
  229.250    0.243    0.421   72.410    5.418 2294.050
  229.500    0.252    0.440   66.924    5.955 2279.360
  229.750    0.278    0.468   63.877    6.544 2235.310
  230.000    0.247    0.446   58.391    7.190 2287.770
  230.250    0.070    0.327   53.515    8.517 2589.910
  230.500    0.054    0.232   62.663    9.717 2617.190
  230.750    0.173    0.327   67.543   10.678 2413.680
  231.000    0.276    0.393   71.203   10.685 2237.440
  231.250    0.305    0.420   69.986   10.294 2189.190
  231.500    0.276    0.449   65.719    9.376 2237.450
  231.750    0.189    0.424   69.379    7.923 2386.430
  232.000    0.152    0.390   86.454    7.081 2449.380
  232.250    0.219    0.395   96.822    5.983 2336.080
  232.500    0.268    0.455  121.824    5.151 2252.160
  232.750    0.286    0.540  119.387    4.435 2220.700
  233.000    0.271    0.528  111.462    4.040 2245.880
  233.250    0.253    0.507  103.537    3.966 2277.360
  233.500    0.247    0.506  101.709    3.968 2287.850
  233.750    0.273    0.490   95.614    4.121 2243.800
  234.000    0.292    0.473   91.347    4.445 2210.240
  234.250    0.303    0.468   81.593    4.704 2191.360
  234.500    0.297    0.486   79.765    4.795 2201.860
  234.750    0.286    0.508   83.425    4.889 2220.740
  235.000    0.270    0.479   90.135    5.078 2248.030
  235.250    0.266    0.452   93.185    5.476 2254.330
  235.500    0.259    0.443   89.528    5.906 2266.920
  235.750    0.259    0.449   84.653    6.135 2266.930
  236.000    0.274    0.441   82.825    6.137 2241.760
  236.250    0.292    0.438   84.656    6.026 2210.290
  236.500    0.304    0.438   88.316    5.806 2189.320
  236.750    0.284    0.447   87.098    5.594 2224.990
  237.000    0.263    0.466   82.832    5.001 2260.670
  237.250    0.249    0.470   77.956    4.470 2283.750
  237.500    0.277    0.481   79.787    3.707 2235.500
  237.750    0.313    0.504   78.569    3.074 2174.660
  238.000    0.328    0.570   77.351    2.646 2149.490
  238.250    0.329    0.572   76.744    2.456 2147.400
  238.500    0.329    0.569   76.745    2.323 2147.400
  238.750    0.331    0.531   79.186    2.280 2143.210
  239.000    0.334    0.525   80.407    2.281 2139.020
  239.250    0.329    0.517   79.189    2.282 2147.420
  239.500    0.313    0.525   79.191    2.371 2174.700
  239.750    0.295    0.551   82.242    2.509 2206.180
  240.000    0.288    0.522   85.902    2.655 2216.680
  240.250    0.265    0.481   89.562    3.030 2256.550
  240.500    0.241    0.476   92.003    3.457 2298.520
  240.750    0.241    0.480   90.786    3.944 2298.520
  241.000    0.252    0.474   84.690    4.416 2279.650
  241.250    0.259    0.431   78.594    5.134 2267.070
  241.500    0.259    0.419   76.766    5.642 2267.070
  241.750    0.247    0.444   74.939    5.860 2288.060
  242.000    0.237    0.421   79.209    5.754 2304.850
  242.250    0.232    0.401   85.308    5.649 2313.250
  242.500    0.264    0.450   90.798    5.145 2258.700
  242.750    0.275    0.488   88.970    4.686 2239.830
  243.000    0.260    0.498   87.143    4.349 2265.010
  243.250    0.247    0.472   90.803    4.037 2288.100
  243.500    0.243    0.463   92.025    3.963 2294.400
  243.750    0.245    0.464   86.539    3.819 2290.210
  244.000    0.248    0.475   88.370    3.680 2286.020
  244.250    0.248    0.496   93.860    3.546 2286.020
  244.500    0.248    0.518   94.471    3.417 2286.030
  244.750    0.257    0.507   95.083    3.418 2271.350
  245.000    0.266    0.491   95.084    3.419 2254.570
  245.250    0.265    0.470   96.915    3.421 2256.670
  245.500    0.258    0.452   97.527    3.296 2269.270
  245.750    0.252    0.487   95.699    3.177 2279.760
  246.000    0.263    0.510   90.823    3.178 2260.890
  246.250    0.274    0.528   81.679    3.179 2242.010
  246.500    0.274    0.512   78.632    3.365 2242.020
  246.750    0.281    0.449   77.414    3.912 2229.430
  247.000    0.285    0.421   82.294    4.722 2223.140
  247.250    0.281    0.412   86.564    5.287 2229.450
  247.500    0.275    0.409   91.444    5.390 2239.940
  247.750    0.260    0.432   93.275    5.391 2265.130
  248.000    0.248    0.450   87.789    5.294 2286.110
  248.250    0.238    0.460   82.913    5.396 2302.910
  248.500    0.182    0.481   77.426    5.820 2399.430
  248.750    0.087    0.414   67.672    6.516 2560.990
  249.000    0.060    0.357   62.795    7.296 2607.160
  249.250    0.102    0.328   70.114    7.723 2535.830
  249.500    0.199    0.361   78.653    7.873 2370.080
  249.750    0.245    0.363   72.557    8.177 2290.350
  250.000    0.318    0.309   63.057    9.335 2166.540
  250.250    0.312    0.318   59.984    9.876 2177.000
  250.500    0.283    0.324   63.648   10.647 2225.220
  250.750    0.266    0.322   69.149   10.850    0.000
  251.000    0.257    0.322   72.810   10.649 2271.310
  251.250    0.260    0.288   66.680   10.851 2264.970
  251.500    0.301    0.108   48.304   12.146 2195.710
  251.750    0.351    0.047   35.436   15.503 2109.660
  252.000    0.367    0.038   28.079   24.328 2082.340
  252.250    0.368    0.035   24.397   39.635 2080.210
  252.500    0.372    0.027   21.324   72.274 2073.880
  252.750    0.389    0.025   20.701  136.832 2044.470
  253.000    0.414    0.032   23.140  150.309 2002.480
  253.250    0.400    0.041   29.863  142.084 2025.520
  253.500    0.388    0.043   32.916  131.815 2046.470
  253.750    0.391    0.042   36.578  131.826 2042.230
  254.000    0.389    0.043   32.896  134.328 2044.300
  254.250    0.381    0.046   24.314  131.841 2058.950
  254.500    0.378    0.049   23.694  124.629 2063.110
  254.750    0.383    0.059   26.131  113.471 2054.680
  255.000    0.383    0.067   27.346  105.270 2054.650
  255.250    0.382    0.062   34.071  101.397 2056.710
  255.500    0.383    0.053   37.733   99.517 2054.580
  255.750    0.387    0.064   35.273   88.922 2048.250
  256.000    0.397    0.082   39.550   73.708 2031.440
  256.250    0.410    0.106   49.947   54.589 2008.330
  256.500    0.403    0.139   58.508   42.772 2020.880
  256.750    0.381    0.169   66.457   31.677 2058.610
  257.000    0.350    0.220   75.629   24.820 2111.020
  257.250    0.318    0.280   78.680   19.815 2165.540
  257.500    0.302    0.291   79.895   14.953 2192.780
  257.750    0.295    0.298   80.495   11.075 2205.330
  258.000    0.300    0.310   78.038   10.083 2196.900
  258.250    0.310    0.325   76.802    9.354 2180.080
  258.500    0.309    0.353   82.916    8.843 2182.150
  258.750    0.285    0.369   93.923    8.359 2221.980
  259.000    0.267    0.358  101.871    8.052 2253.410
  259.250    0.256    0.371  108.598    7.902 2272.260
  259.500    0.257    0.401  114.708    7.612 2270.130
  259.750    0.283    0.429  107.965    7.195 2226.040
  260.000    0.321    0.416   88.977    6.802 2160.960
  260.250    0.344    0.397   68.150    6.430 2121.070
  260.500    0.358    0.394   65.692    6.078 2097.950
  260.750    0.360    0.378   72.413    6.078 2093.710
  261.000    0.353    0.369   74.243    6.079 2106.270
  261.250    0.344    0.387   72.395    6.194 2120.930
  261.500    0.325    0.373   69.323    6.312 2154.460
  261.750    0.314    0.331   64.417    6.805 2173.310
  262.000    0.307    0.315   60.121    7.199 2185.860
  262.250    0.284    0.327   69.906    7.761 2223.590
