~VERSION INFORMATION
 VERS.                 2.0:   CWLS LOG ASCII STANDARD -VERSION 2.0
 WRAP.                  NO:   ONE LINE PER DEPTH STEP
~WELL INFORMATION BLOCK
#MNEM.UNIT           DATA                    DESCRIPTION OF MNEMONIC
#---------    -------------------            -------------------------------
# Generated from Intellog Unique Number	CS_67_68/WELL/2188
WELL.         DOME AEC MEDLEY                : Well_name    - WELL
LOC .         00/09-11-067-02W4/0            : Location     - LOCATION
UWI .         00/09-11-067-02W4/0            : Uwi          - UNIQUE WELL ID
ENTR.         SP                             : Entered      - ENTERED BY
SRVC.         SCHLUMBERGER                   : Scn          - SERVICE COMPANY
STRT.M        310                            : top_depth    - START DEPTH
STOP.M        565                            : bot_depth    - STOP DEPTH
STEP.M        0.25                           : increment    - STEP LENGTH
 NULL. -999.2500:NULL Value
~CURVE INFORMATION BLOCK
#MNEM UNIT       ERCB CURVE CODE    CURVE DESCRIPTION
#-----------   ------------------   ----------------------------------
DEPT.M        00 001 00 00         : DEPTH        - DEPTH
ILD .OHMM     00 120 00 00         : RESD         - DEEP RESISTIVITY (DIL)
DPHI.V/V      00 890 00 00         : PHID         - DENSITY POROSITY (LIMESTONE)
GR  .API      00 310 00 00         : GR           - GAMMA RAY
CALI.MM       00 280 01 00         : CAL          - CALIPER
NPHI.V/V      00 330 00 00         : PHIN         - NEUTRON POROSITY (LIMESTONE)
~PARAMETER INFORMATION
#MNEM.UNIT           DATA             DESCRIPTION OF MNEMONIC
#---------         -----------     ------------------------------
GL  .M        619.09               : gl           - GROUND LEVEL ELEVATION
EREF.M        623                  : kb           - ELEVATION OF DEPTH REFERENCE
DATM.M        623                  : datum        - DATUM ELEVATION
TDD .M        571                  : tdd          - TOTAL DEPTH DRILLER
RUN .         ONE                  : Run          - RUN NUMBER
ENG .         BILL                 : Engineer     - RECORDING ENGINEER
WIT .         JIM                  : Witness      - WITNESSED BY
MUD .         GEL                  : Mud_type     - MUD TYPE
MATR.         LIMESTONE            : Logunit      - NEUTRON MATRIX
TMAX.C        25.5                 : BHT          - MAXIMUM RECORDED TEMPERATURE
BHTD.M        573                  : BHTDEP       - MAXIMUM RECORDED TEMPERATURE
MATR.         1                    : LOGUNIT      - NEUTRON MATRIX
RMT .C        25                   : MDTP         - TEMPERATURE OF MUD
NEUT.         1                    : NEUTRON      - NEUTRON TYPE
RESI.         0                    : RESIST       - RESISTIVITY TYPE
RMC .OHMM     0.25                 : RMC          - RESISTIVITY OF MUD CAKE
RMF .OHMM     0.25                 : RMF          - RESISTIVITY OF MUD FILTRATE
SUFT.C        15                   : SUFT         - SURFACE TEMPERATURE
~A  DEPTH     RESD     PHID       GR      CAL     PHIN
  310.000    3.016    0.245   96.204  177.610    0.498
  310.250    3.038    0.251   92.996  178.012    0.497
  310.500    2.975    0.256   92.997  179.629    0.506
  310.750    2.919    0.247   93.908  180.436    0.515
  311.000    2.880    0.241   93.546  180.939    0.521
  311.250    2.863    0.241   90.217  180.937    0.521
  311.500    2.878    0.244   88.461  180.226    0.531
  311.750    2.921    0.249   89.614  179.819    0.538
  312.000    2.997    0.260   97.310  179.109    0.509
  312.250    3.064    0.268  101.007  176.678    0.494
  312.500    3.110    0.232   94.284  175.664    0.482
  312.750    3.162    0.212   89.864  176.572    0.470
  313.000    3.300    0.224   93.683  177.177    0.480
  313.250    3.393    0.240   98.228  175.556    0.488
  313.500    3.482    0.245   98.290  173.429    0.485
  313.750    3.474    0.232   98.050  172.617    0.483
  314.000    3.434    0.240   98.537  172.311    0.475
  314.250    3.395    0.249   98.841  171.904    0.494
  314.500    3.362    0.251   98.419  172.205    0.506
  314.750    3.361    0.249   96.301  172.304    0.523
  315.000    3.385    0.251   93.879  172.403    0.534
  315.250    3.441    0.256   92.488  171.996    0.537
  315.500    3.479    0.252   92.793  172.803    0.535
  315.750    3.531    0.241   93.340  173.408    0.505
  316.000    3.516    0.234   96.129  174.923    0.481
  316.250    3.399    0.234   99.462  176.235    0.541
  316.500    3.328    0.238  103.099  177.245    0.562
  316.750    3.265    0.240   97.830  177.141    0.568
  317.000    3.295    0.241   93.591  176.532    0.479
  317.250    3.471    0.241   90.080  175.518    0.429
  317.500    3.706    0.213   88.506  173.189    0.405
  317.750    4.099    0.179   86.509  171.264    0.395
  318.000    4.611    0.230   85.481  169.441    0.411
  318.250    4.969    0.256   90.390  168.629    0.421
  318.500    5.354    0.268   92.573  168.525    0.424
  318.750    5.641    0.257   86.335  168.118    0.423
  319.000    5.799    0.252   82.399  166.902    0.417
  319.250    5.863    0.267   88.580  168.822    0.409
  319.500    5.499    0.216   95.731  173.372    0.418
  319.750    5.072    0.192   99.670  176.304    0.424
  320.000    4.669    0.205   99.793  179.438    0.428
  320.250    4.242    0.221   98.462  179.537    0.447
  320.500    3.818    0.232   97.192  177.612    0.470
  320.750    3.449    0.238   96.103  176.295    0.494
  321.000    3.247    0.244   92.107  175.888    0.515
  321.250    3.034    0.253   84.960  176.087    0.533
  321.500    2.900    0.260   94.049  176.692    0.553
  321.750    2.893    0.236   91.991  175.779    0.537
  322.000    3.060    0.219   80.665  174.158    0.486
  322.250    3.242    0.199   69.701  170.716    0.422
  322.500    3.539    0.178   63.705  168.589    0.418
  322.750    4.498    0.284   58.739  166.968    0.432
  323.000    5.912    0.335   59.347  166.257    0.430
  323.250    7.373    0.318   69.285  165.648    0.412
  323.500    8.341    0.308   72.376  165.342    0.417
  323.750    8.904    0.300   71.893  165.036    0.434
  324.000    9.052    0.307   74.682  164.629    0.420
  324.250    9.135    0.290   76.865  163.918    0.403
  324.500    9.081    0.276   79.169  163.410    0.390
  324.750    9.043    0.272   81.049  162.598    0.410
  325.000    9.057    0.272   77.658  161.989    0.432
  325.250    9.174    0.284   75.358  161.582    0.427
  325.500    9.362    0.283   76.692  161.276    0.418
  325.750    9.554    0.276   79.724  160.970    0.423
  326.000    9.677    0.293   80.998  160.867    0.414
  326.250    9.710    0.305   79.061  160.156    0.397
  326.500    9.761    0.300   73.731  159.850    0.406
  326.750    9.795    0.298   69.735  160.152    0.422
  327.000    9.791    0.303   69.555  160.452    0.409
  327.250    9.807    0.305   69.739  161.057    0.405
  327.500    9.840    0.298   69.438  162.066    0.407
  327.750    9.837    0.295   69.742  162.570    0.397
  328.000    9.871    0.292   71.259  162.972    0.400
  328.250    9.868    0.286   72.775  163.375    0.417
  328.500    9.883    0.282   74.595  163.979    0.432
  328.750    9.899    0.287   77.989  164.887    0.410
  329.000    9.895    0.267   80.778  165.290    0.388
  329.250    9.837    0.260   77.872  165.287    0.390
  329.500    9.760    0.279   70.543  164.982    0.404
  329.750    9.666    0.309   64.548  164.676    0.418
  330.000    9.590    0.321   61.702  164.471    0.421
  330.250    9.498    0.324   59.402  164.368    0.423
  330.500    9.389    0.325   60.979  164.466    0.427
  330.750    9.298    0.329   66.978  164.464    0.420
  331.000    9.225    0.325   69.161  164.462    0.410
  331.250    9.119    0.313   69.829  164.864    0.396
  331.500    8.864    0.308   78.070  165.570    0.386
  331.750    8.408    0.303   84.494  167.591    0.400
  332.000    7.582    0.325   90.494  169.511    0.439
  332.250    7.327    0.343   89.466  171.229    0.478
  332.500    7.450    0.312   79.168  169.102    0.527
  332.750    7.689    0.291   70.386  166.975    0.475
  333.000    8.191    0.298   62.633  165.454    0.436
  333.250    8.663    0.296   63.907  165.250    0.404
  333.500    9.333    0.270   69.301  165.146    0.417
  333.750    9.349    0.189   70.090  165.144    0.406
  334.000    9.189    0.213   68.214  164.939    0.413
  334.250    9.064    0.250   69.367  164.937    0.422
  334.500    9.030    0.280   74.155  164.732    0.421
  334.750    8.993    0.289   77.852  164.628    0.432
  335.000    8.873    0.284   81.247  164.626    0.441
  335.250    8.771    0.291   82.097  164.725    0.435
  335.500    8.719    0.279   81.251  164.824    0.447
  335.750    8.700    0.272   80.707  164.822    0.460
  336.000    8.713    0.278   82.830  164.819    0.449
  336.250    8.694    0.284   85.739  165.121    0.433
  336.500    8.610    0.285   90.831  165.219    0.432
  336.750    8.385    0.283   93.801  165.419    0.440
  337.000    7.923    0.281   87.865  165.619    0.448
  337.250    7.530    0.282   82.415  166.426    0.422
  337.500    7.036    0.292   93.988  167.739    0.415
  337.750    6.775    0.223  101.866  170.064    0.438
  338.000    6.597    0.205  104.957  172.692    0.447
  338.250    6.745    0.204   97.387  174.915    0.447
  338.500    7.000    0.206   90.240  175.318    0.429
  338.750    7.225    0.218   84.850  172.381    0.412
  339.000    7.513    0.232   80.429  169.749    0.402
  339.250    7.974    0.238   88.791  168.026    0.404
  339.500    8.339    0.245   94.730  167.416    0.411
  339.750    8.654    0.266   98.367  167.111    0.419
  340.000    8.932    0.286   97.884  167.007    0.429
  340.250    9.149    0.294   96.614  167.207    0.435
  340.500    9.267    0.300   95.586  167.306    0.437
  340.750    9.334    0.306   94.982  167.607    0.444
  341.000    8.576    0.311   88.683  167.706    0.432
  341.250    7.806    0.303   81.960  168.109    0.386
  341.500    6.870    0.292   90.262  168.713    0.472
  341.750    6.068    0.265   97.776  169.115    0.501
  342.000    5.370    0.247   97.536  169.316    0.518
  342.250    4.879    0.233   92.025  170.224    0.506
  342.500    4.594    0.206   88.028  170.929    0.490
  342.750    4.292    0.198   92.998  171.433    0.482
  343.000    4.125    0.217  101.784  172.341    0.496
  343.250    3.979    0.229  108.147  173.452    0.495
  343.500    3.904    0.219  110.087  174.461    0.481
  343.750    3.874    0.207  109.059  173.953    0.467
  344.000    3.902    0.201  107.547  172.534    0.466
  344.250    3.960    0.199   96.947  171.419    0.478
  344.500    3.973    0.200   92.708  171.214    0.475
  344.750    4.032    0.207   98.889  172.426    0.483
  345.000    4.084    0.217  100.769  174.548    0.503
  345.250    4.082    0.226   95.925  173.939    0.490
  345.500    4.005    0.230   95.987  173.127    0.478
  345.750    3.952    0.222  100.169  173.732    0.470
  346.000    4.109    0.188  100.050  173.729    0.493
  346.250    4.345    0.159   90.237  173.727    0.512
