~VERSION INFORMATION
 VERS.                 2.0:   CWLS LOG ASCII STANDARD -VERSION 2.0
 WRAP.                  NO:   ONE LINE PER DEPTH STEP
~WELL INFORMATION BLOCK
#MNEM.UNIT           DATA                    DESCRIPTION OF MNEMONIC
#---------    -------------------            -------------------------------
# Generated from Intellog Unique Number	CX_WELLS/WELL/3196
WELL.         HB HORSER                      : Well_name    - WELL
LOC .         00/06-16-083-13W4/0            : Location     - LOCATION
UWI .         00/06-16-083-13W400            : Uwi          - UNIQUE WELL ID
ENTR.         T                              : Entered      - ENTERED BY
SRVC.         SCHLUMBERGER                   : Scn          - SERVICE COMPANY
STRT.F        400                            : top_depth    - START DEPTH
STOP.F        1199.7                         : bot_depth    - STOP DEPTH
STEP.F        0.82                           : increment    - STEP LENGTH
 NULL. -999.2500:NULL Value
~CURVE INFORMATION BLOCK
#MNEM UNIT       ERCB CURVE CODE    CURVE DESCRIPTION
#-----------   ------------------   ----------------------------------
DEPT.F        00 001 00 00         : DEPTH        - DEPTH
GR  .API      00 310 00 00         : GR           - GAMMA RAY
NPHI.V/V      00 330 00 00         : PHIN         - NEUTRON POROSITY (SANDSTONE)
DPHI.V/V      00 890 00 00         : PHID         - DENSITY POROSITY (SANDSTONE)
ILD .OHMM     00 120 00 00         : RESD         - DEEP RESISTIVITY (DIL)
~PARAMETER INFORMATION
#MNEM.UNIT           DATA             DESCRIPTION OF MNEMONIC
#---------         -----------     ------------------------------
GL  .F        1876                 : gl           - GROUND LEVEL ELEVATION
EREF.F        1884                 : kb           - ELEVATION OF DEPTH REFERENCE
DATM.F        1884                 : datum        - DATUM ELEVATION
TDD .F        1204                 : tdd          - TOTAL DEPTH DRILLER
RUN .         ONE                  : Run          - RUN NUMBER
ENG .         BILL                 : Engineer     - RECORDING ENGINEER
WIT .         JIM                  : Witness      - WITNESSED BY
MUD .         GEL                  : Mud_type     - MUD TYPE
MATR.         SANDSTONE            : Logunit      - NEUTRON MATRIX
TMAX.F        78                   : BHT          - MAXIMUM RECORDED TEMPERATURE
BHTD.F        1204                 : BHTDEP       - MAXIMUM RECORDED TEMPERATURE
MATR.         1                    : LOGUNIT      - NEUTRON MATRIX
RMT .F        77                   : MDTP         - TEMPERATURE OF MUD
NEUT.         1                    : NEUTRON      - NEUTRON TYPE
RESI.         5.25                 : RESIST       - RESISTIVITY TYPE
RMC .OHMM     2.8                  : RMC          - RESISTIVITY OF MUD CAKE
RMF .OHMM     3.02                 : RMF          - RESISTIVITY OF MUD FILTRATE
SUFT.F        32                   : SUFT         - SURFACE TEMPERATURE
~A  DEPTH       GR     PHIN     PHID     RESD
# ...
  685.433   82.191    0.510    0.295    6.920
  686.253   80.502    0.512    0.300    7.207
  687.073   79.417    0.503    0.304    7.225
  687.894   77.704    0.499    0.302    7.531
  688.714   79.034    0.490    0.296    7.702
  689.534   80.918    0.486    0.291    7.863
  690.354   82.803    0.481    0.283    7.883
  691.175   85.389    0.476    0.278    7.915
  691.995   84.835    0.481    0.280    7.940
  692.815   83.146    0.490    0.288    7.680
  693.635   81.433    0.507    0.308    7.434
  694.455   78.537    0.511    0.315    7.059
  695.276   77.378    0.504    0.326    6.827
  696.096   73.854    0.494    0.338    6.608
  696.916   69.122    0.483    0.343    6.619
  697.736   66.830    0.483    0.336    6.769
  698.556   68.135    0.484    0.321    7.045
  699.377   69.441    0.487    0.298    7.605
  700.197   69.539    0.491    0.277    8.217
  701.017   69.033    0.480    0.261    8.396
  701.837   67.320    0.452    0.242    7.986
  702.657   66.210    0.432    0.213    7.711
  703.478   69.955    0.426    0.182    7.195
  704.298   73.700    0.435    0.222    7.082
  705.118   75.609    0.465    0.254    6.849
  705.938   76.914    0.496    0.265    6.504
  706.759   78.244    0.514    0.288    6.536
  707.579   78.391    0.515    0.314    6.547
  708.399   77.861    0.492    0.320    6.568
  709.219   77.306    0.494    0.329    6.589
  710.039   76.246    0.497    0.333    6.622
  710.860   75.691    0.512    0.330    6.649
  711.680   75.789    0.501    0.329    6.660
  712.500   77.143    0.495    0.329    6.687
  713.320   77.820    0.501    0.325    6.709
  714.140   79.150    0.504    0.322    6.861
  714.961   79.852    0.504    0.318    6.883
  715.781   80.553    0.498    0.321    7.027
  716.601   81.908    0.488    0.326    7.062
  717.421   83.189    0.484    0.326    7.079
  718.241   84.469    0.480    0.319    7.108
  719.062   87.007    0.487    0.311    7.007
  719.882   86.501    0.491    0.303    6.891
  720.702   84.184    0.498    0.298    6.555
  721.522   84.910    0.503    0.292    6.329
  722.343   89.838    0.526    0.288    5.585
  723.163   94.186    0.553    0.284    4.756
  723.983   95.467    0.569    0.289    4.193
  724.803   95.590    0.579    0.296    3.630
  725.623   93.876    0.582    0.304    3.206
  726.444   91.560    0.582    0.307    3.156
  727.264   91.658    0.583    0.306    3.109
  728.084   92.408    0.572    0.303    3.235
  728.904   92.482    0.534    0.301    3.693
  729.724   91.951    0.507    0.298    4.373
  730.545   91.495    0.499    0.297    4.808
  731.365   91.038    0.493    0.295    5.295
  732.185   91.062    0.488    0.295    5.506
  733.005   91.813    0.485    0.296    5.846
  733.825   91.886    0.487    0.296    5.964
  734.646   91.356    0.493    0.292    5.875
  735.466   89.692    0.499    0.285    5.791
  736.286   89.186    0.506    0.279    5.700
  737.106   92.303    0.505    0.265    5.518
  737.927   94.187    0.504    0.260    5.244
  738.747   96.749    0.505    0.261    5.165
  739.567   95.011    0.510    0.265    4.996
  740.387   91.512    0.506    0.268    4.752
  741.207   89.799    0.507    0.272    4.669
  742.028   87.457    0.514    0.276    4.516
  742.848   85.140    0.516    0.289    4.452
  743.668   82.823    0.516    0.297    4.810
  744.488   79.324    0.507    0.311    5.189
  745.308   77.586    0.502    0.323    5.810
  746.129   75.269    0.496    0.338    6.394
  746.949   73.581    0.478    0.339    6.902
  747.769   73.050    0.472    0.337    7.589
  748.589   71.965    0.465    0.330    7.918
  749.409   72.039    0.464    0.325    7.937
  750.230   70.954    0.476    0.319    7.956
  751.050   71.027    0.482    0.319    7.989
  751.870   71.199    0.485    0.325    8.021
  752.690   71.876    0.485    0.336    8.035
  753.510   72.578    0.482    0.339    8.067
  754.331   72.651    0.481    0.330    7.953
  755.151   73.956    0.481    0.331    7.841
  755.971   75.286    0.481    0.336    7.717
  756.791   76.592    0.471    0.340    7.742
  757.612   76.086    0.472    0.340    7.620
  758.432   74.397    0.474    0.333    7.645
  759.252   73.891    0.473    0.327    7.543
  760.072   72.806    0.471    0.316    7.562
  760.892   71.697    0.468    0.312    7.726
  761.713   71.167    0.460    0.280    8.203
  762.533   69.454    0.458    0.234    8.856
  763.353   67.161    0.359    0.188    9.729
  764.173   64.820    0.277    0.160   11.097
  764.993   60.692    0.254    0.136   14.139
  765.814   55.381    0.244    0.112   16.755
  766.634   60.888    0.312    0.105   15.326
  767.454   68.883    0.344    0.196   13.525
  768.274   70.213    0.387    0.254   11.955
  769.094   70.865    0.439    0.285   11.334
  769.915   71.592    0.468    0.309   10.384
  770.735   72.293    0.476    0.312    9.674
  771.555   72.416    0.480    0.314    9.034
  772.375   72.514    0.486    0.311    8.572
  773.196   72.612    0.462    0.306    8.140
  774.016   72.710    0.444    0.297    8.012
  774.836   72.808    0.437    0.285    7.892
  775.656   68.655    0.371    0.245    8.213
  776.476   63.923    0.346    0.212    8.866
  777.297   66.485    0.298    0.182    9.757
  778.117   69.602    0.295    0.145   10.728
  778.937   72.718    0.327    0.159   11.165
  779.757   74.627    0.469    0.223   11.007
  780.577   74.725    0.489    0.304   10.671
  781.398   75.427    0.492    0.308   10.304
  782.218   77.336    0.492    0.305    9.777
  783.038   78.666    0.482    0.305    8.964
  783.858   79.996    0.473    0.306    8.499
  784.678   80.069    0.465    0.307    8.070
  785.499   81.399    0.462    0.300    7.531
  786.319   83.936    0.454    0.290    7.283
  787.139   85.217    0.452    0.283    7.169
  787.959   88.334    0.454    0.271    6.933
  788.780   90.920    0.461    0.265    6.717
  789.600   90.993    0.465    0.254    6.733
  790.420   91.695    0.473    0.246    6.517
  791.240   92.397    0.483    0.249    6.533
  792.060   93.098    0.486    0.251    6.446
  792.881   95.032    0.485    0.252    6.344
  793.701   95.709    0.482    0.250    6.360
  794.521   96.411    0.479    0.248    6.275
  795.341   96.533    0.477    0.245    6.285
  796.161   97.259    0.477    0.243    6.196
  796.982   97.961    0.480    0.246    6.222
  797.802   98.663    0.486    0.248    6.237
  798.622   99.364    0.494    0.249    6.154
  799.442  101.273    0.497    0.249    6.052
  800.262  103.811    0.509    0.252    5.756
  801.083  104.488    0.523    0.262    5.562
  801.903  100.964    0.526    0.283    5.375
  802.723   95.628    0.526    0.289    5.199
  803.543   93.311    0.549    0.318    5.121
  804.364   89.811    0.521    0.330    5.138
  805.184   86.867    0.495    0.324    5.356
  806.004   83.367    0.487    0.294    5.894
  806.824   82.861    0.490    0.289    6.247
  807.644   81.751    0.493    0.272    6.496
  808.465   80.014    0.487    0.254    7.018
  809.285   75.282    0.460    0.222    7.166
  810.105   71.758    0.425    0.117    7.755
  810.925   74.923    0.389    0.089    7.774
  811.745   77.412    0.354    0.083    7.799
  812.566   81.132    0.331    0.108    7.818
  813.386   87.316    0.431    0.253    7.850
  814.206   89.829    0.458    0.269    7.876
  815.026   90.530    0.471    0.265    7.901
  815.846   90.025    0.475    0.262    7.796
  816.667   89.519    0.473    0.268    7.667
  817.487   87.226    0.471    0.277    7.558
  818.307   85.513    0.478    0.273    7.310
  819.127   85.007    0.494    0.264    7.070
  819.948   85.709    0.485    0.264    6.832
  820.768   86.990    0.474    0.264    6.736
  821.588   90.131    0.473    0.263    6.758
  822.408   93.876    0.469    0.255    6.785
  823.228   95.760    0.467    0.248    6.802
  824.049   94.651    0.466    0.243    6.829
  824.869   91.730    0.465    0.252    6.846
  825.689   91.902    0.465    0.263    6.869
  826.509   93.786    0.466    0.268    6.908
  827.329   95.067    0.473    0.268    6.930
