~VERSION INFORMATION
 VERS.                 2.0:   CWLS LOG ASCII STANDARD -VERSION 2.0
 WRAP.                  NO:   ONE LINE PER DEPTH STEP
~WELL INFORMATION BLOCK
#MNEM.UNIT           DATA                    DESCRIPTION OF MNEMONIC
#---------    -------------------            -------------------------------
# Generated from Intellog Unique Number	CW_79_81/WELL/591
NULL.         -999.25                        : NULL_VALUE
COMP .        INTERCITY GAS CORPORATION      :  COMPANY
WELL.         HOMESTEAD ET AL WEAVER         : Well_name    - WELL              
LOC .         07-21-080-01W5                 : Location     - LOCATION          
UWI .         00/07-21-080-01W5/0            : Uwi          - UNIQUE WELL ID    
ENTR.         MAX                            : Entered      - ENTERED BY        
SRVC.         SCHLUMBERGER                   : Scn          - SERVICE COMPANY   
DATE.         24 NOV 77                      : Date         - LOG DATE
STRT.M        225                            : top_depth    - START DEPTH       
STOP.M        490                            : bot_depth    - STOP DEPTH        
STEP.M        0.25                           : increment    - STEP LENGTH       
~CURVE INFORMATION BLOCK
#MNEM UNIT       ERCB CURVE CODE    CURVE DESCRIPTION
#-----------   ------------------   ----------------------------------
DEPT.M        00 001 00 00         : DEPTH        - DEPTH                       
ILD .OHMM     00 120 00 00         : RESD         - DEEP RESISTIVITY (DIL)      
NPHI.V/V      00 330 00 00         : PHIN         - NEUTRON POROSITY (SANDSTONE)
DPHI.V/V      00 890 00 00         : PHID         - DENSITY POROSITY (SANDSTONE)
CALI.MM       00 280 01 00         : CAL          - CALIPER                     
GR  .API      00 310 00 00         : GR           - GAMMA RAY                   
~PARAMETER INFORMATION       
#MNEM.UNIT           DATA             DESCRIPTION OF MNEMONIC
#---------         -----------     ------------------------------
GL  .M        570.6                : gl           - GROUND LEVEL ELEVATION      
EREF.M        574.3                : kb           - ELEVATION OF DEPTH REFERENCE
DATM.M        570.6                : datum        - DATUM ELEVATION             
TDD .M        512                  : tdd          - TOTAL DEPTH DRILLER         
RUN .         ONE                  : Run          - RUN NUMBER                  
ENG .         BILL                 : Engineer     - RECORDING ENGINEER          
WIT .         JIM                  : Witness      - WITNESSED BY                
MUD .         GEL                  : Mud_type     - MUD TYPE                    
MATR.         SANDSTONE            : Logunit      - NEUTRON MATRIX              
TMAX.C        36.3                 : BHT          - MAXIMUM RECORDED TEMPERATURE
BHTD.M        512                  : BHTDEP       - MAXIMUM RECORDED TEMPERATURE
RMT .C        17.5                 : MDTP         - TEMPERATURE OF MUD          
MUDD.KG/M     1120                 : MWT          - MUD DENSITY                 
NEUT.         1                    : NEUTRON      - NEUTRON TYPE                
RESI.         0                    : RESIST       - RESISTIVITY TYPE            
RM  .OHMM     16.4                 : RM           - RESISTIVITY OF MUD          
RMC .OHMM     0.25                 : RMC          - RESISTIVITY OF MUD CAKE     
RMF .OHMM     12.3                 : RMF          - RESISTIVITY OF MUD FILTRATE 
SUFT.C        4                    : SUFT         - SURFACE TEMPERATURE         
~A  DEPTH     RESD     PHIN     PHID      CAL       GR
# ...
  334.500    5.354    0.471    0.245  162.630   83.049
  334.750    5.072    0.467    0.242  162.661   84.577
  335.000    4.983    0.471    0.234  163.197   83.994
  335.250    5.035    0.468    0.237  163.228   83.710
  335.500    5.231    0.484    0.252  163.259   87.357
  335.750    5.485    0.481    0.246  163.798   87.683
  336.000    5.916    0.462    0.242  164.330   87.092
  336.250    6.499    0.470    0.243  164.373   87.114
  336.500    6.815    0.467    0.245  164.900   89.851
  336.750    6.887    0.463    0.241  164.935   91.086
  337.000    7.088    0.454    0.232  164.971   91.100
  337.250    7.229    0.447    0.231  164.998   90.212
  337.500    7.306    0.461    0.236  165.026   88.719
  337.750    7.314    0.467    0.232  162.541   89.043
  338.000    7.120    0.484    0.229  161.565   89.969
  338.250    6.867    0.470    0.217  163.612   93.311
  338.500    6.749    0.447    0.217  165.163   92.120
  338.750    6.820    0.450    0.235  165.690   91.237
  339.000    6.955    0.451    0.241  165.222   92.160
  339.250    7.093    0.444    0.237  165.257   92.784
  339.500    7.439    0.440    0.236  165.280   93.107
  339.750    7.588    0.437    0.234  165.320   94.035
  340.000    7.526    0.454    0.234  165.347   94.052
  340.250    7.535    0.434    0.232  165.382   92.556
  340.500    7.683    0.435    0.228  165.410   90.761
  340.750    7.837    0.446    0.219  165.441   90.782
  341.000    7.845    0.446    0.229  165.472   91.408
  341.250    7.854    0.463    0.232  165.508   91.123
  341.500    7.791    0.465    0.226  165.539   89.934
  341.750    7.656    0.465    0.214  165.570   86.927
  342.000    7.455    0.467    0.212  165.602   86.344
  342.250    7.461    0.480    0.229  165.637   86.363
  342.500    8.197    0.488    0.244  165.668   83.358
  342.750    9.173    0.493    0.264  162.680   80.051
  343.000   10.077    0.487    0.268  161.696   76.745
  343.250   10.668    0.478    0.268  161.223   75.554
  343.500   10.780    0.475    0.271  161.259   75.877
  343.750   10.594    0.469    0.274  162.298   73.778
  344.000   10.312    0.440    0.265  164.849   74.403
  344.250    9.585    0.438    0.265  166.903   76.536
  344.500    9.244    0.459    0.281  166.931   76.555
  344.750   10.065    0.476    0.295  166.958   74.460
  345.000   10.951    0.486    0.301  166.990   72.967
  345.250   12.142    0.482    0.290  166.521   74.195
  345.500   13.975    0.477    0.254  166.556   74.516
  345.750   13.734    0.475    0.223  166.080   71.814
  346.000   13.122    0.453    0.210  166.111   67.903
  346.250   11.643    0.428    0.184  166.146   65.807
  346.500   10.236    0.410    0.145  166.174   70.057
  346.750    8.999    0.423    0.156  166.205   76.727
  347.000    8.060    0.469    0.213  166.744   85.513
  347.250    7.993    0.470    0.227  166.776   94.604
  347.500    7.927    0.490    0.249  166.299   92.204
  347.750    8.087    0.499    0.270  165.323   87.386
  348.000    8.480    0.483    0.254  164.850   81.058
  348.250    8.489    0.482    0.237  164.893   83.496
  348.500    8.264    0.476    0.240  164.921   88.047
  348.750    7.973    0.467    0.241  164.948   90.487
  349.000    7.764    0.447    0.239  164.984   91.110
  349.250    7.842    0.433    0.244  165.011   91.132
  349.500    7.925    0.453    0.242  165.046   90.850
  349.750    7.935    0.455    0.230  165.074   91.469
  350.000    8.017    0.454    0.209  165.105   91.790
  350.250    8.025    0.468    0.198  165.136   90.904
  350.500    7.888    0.467    0.219  165.172   90.019
  350.750    7.751    0.458    0.229  165.207   89.730
  351.000    7.690    0.473    0.232  165.234   89.149
  351.250    7.626    0.477    0.229  165.270   86.142
  351.500    7.494    0.468    0.231  165.305   85.257
  351.750    7.432    0.461    0.234  164.828   84.368
  352.000    7.373    0.458    0.235  164.860   84.082
  352.250    7.245    0.454    0.232  164.887   85.313
  352.500    7.120    0.459    0.226  164.926   86.841
  352.750    7.127    0.445    0.217  164.458   88.072
  353.000    7.202    0.433    0.222  163.985   87.786
  353.250    7.553    0.440    0.220  163.509   85.086
  353.500    8.070    0.435    0.232  162.028   82.384
  353.750    8.540    0.427    0.263  160.544   78.777
  354.000   10.486    0.430    0.278  160.076   74.863
  354.250   12.068    0.423    0.273  159.599   68.533
  354.500   14.015    0.429    0.271  160.142   65.531
  354.750   15.684    0.439    0.283  160.677   64.942
  355.000   17.394    0.436    0.301  161.217   65.868
  355.250   18.755    0.440    0.306  162.248   65.892
  355.500   19.128    0.439    0.300  162.783   66.513
  355.750   19.324    0.437    0.291  163.322   67.441
  356.000   19.529    0.442    0.286  163.354   68.362
  356.250   19.555    0.451    0.280  163.893   70.500
  356.500   18.686    0.461    0.288  164.424   70.523
  356.750   17.370    0.458    0.286  164.959   70.237
  357.000   16.293    0.459    0.280  165.495   72.977
  357.250   15.143    0.446    0.266  165.530   75.715
  357.500   14.075    0.442    0.263  165.561   78.454
  357.750   13.705    0.431    0.267  165.596   78.173
  358.000   14.372    0.419    0.271  165.624   75.471
  358.250   15.497    0.420    0.278  165.655   75.187
  358.500   16.402    0.424    0.267  165.691   75.811
  358.750   16.574    0.431    0.278  165.218   75.527
  359.000   15.546    0.450    0.278  165.249   72.523
  359.250   13.796    0.450    0.261  165.281   72.844
  359.500   12.704    0.449    0.241  165.308   76.491
  359.750   11.916    0.432    0.230  166.851   80.140
  360.000   10.449    0.441    0.244  171.504   76.882
  360.250   10.158    0.461    0.248  171.001   78.658
  360.500   10.345    0.472    0.248  169.011   83.995
  360.750   11.351    0.450    0.255  167.025   84.880
  361.000   13.543    0.447    0.243  164.044   81.313
  361.250   16.009    0.439    0.189  163.047   77.151
  361.500   18.924    0.424    0.153  163.038   74.771
  361.750   21.154    0.391    0.126  162.535   71.204
  362.000   24.317    0.350    0.095  162.030   65.261
  362.250   30.114    0.312    0.052  161.032   58.132
  362.500   38.350    0.284    0.024  161.022   50.408
  362.750   50.692    0.242    0.010  161.014   49.512
  363.000   61.045    0.187    0.011  161.500   51.287
  363.250   47.457    0.170    0.030  161.982   55.140
  363.500   36.556    0.210    0.114  162.471   59.587
  363.750   17.840    0.260    0.168  164.935   64.035
  364.000   12.755    0.371    0.212  168.388   69.670
  364.250   10.986    0.423    0.240  169.862   76.492
  364.500   10.289    0.456    0.236  169.360   81.235
  364.750   10.190    0.434    0.211  168.360   79.448
  365.000   10.190    0.417    0.190  167.363   78.256
  365.250   10.181    0.403    0.186  167.354   77.360
  365.500   10.371    0.410    0.195  167.344   79.135
  365.750   10.760    0.425    0.222  167.335   81.503
  366.000   11.165    0.433    0.235  167.325   81.796
  366.250   12.137    0.443    0.245  167.811   77.041
  366.500   14.753    0.428    0.262  168.296   74.067
  366.750   16.038    0.434    0.271  168.288   73.467
  367.000   18.435    0.471    0.271  167.782   72.274
  367.250   21.589    0.475    0.253  166.289   70.785
  367.500   23.034    0.451    0.246  166.281   69.592
  367.750   23.029    0.437    0.244  168.746   69.883
  368.000   22.807    0.430    0.253  171.210   70.472
  368.250   21.965    0.433    0.261  170.705   71.059
  368.500   20.192    0.449    0.262  169.708   71.055
  368.750   19.813    0.453    0.266  168.708   70.455
  369.000   19.259    0.460    0.259  168.698   70.152
  369.250   17.871    0.459    0.248  169.680   71.334
  369.500   16.278    0.439    0.232  170.163   73.704
  369.750   13.258    0.442    0.241  170.156   79.041
  370.000    9.838    0.464    0.247  170.146   85.567
  370.250    8.633    0.476    0.230  170.137   90.014
  370.500    6.774    0.482    0.229  170.126   92.382
  370.750    6.285    0.450    0.224  169.624   91.190
