~VERSION INFORMATION
 VERS.                 2.0:   CWLS LOG ASCII STANDARD -VERSION 2.0
 WRAP.                  NO:   ONE LINE PER DEPTH STEP
~WELL INFORMATION BLOCK
#MNEM.UNIT           DATA                    DESCRIPTION OF MNEMONIC
#---------    -------------------            -------------------------------
# Generated from Intellog Unique Number	CS_71_72/WELL/662
WELL.         BOW VALLEY EXPLORATION         : Well_name    - WELL
LOC .         00/05-13-071-10W4/0            : Location     - LOCATION
UWI .         00/05-13-071-10W4/0            : Uwi          - UNIQUE WELL ID
ENTR.         SP                             : Entered      - ENTERED BY
SRVC.         SCHLUMBERGER                   : Scn          - SERVICE COMPANY
STRT.M        325                            : top_depth    - START DEPTH
STOP.M        535                            : bot_depth    - STOP DEPTH
STEP.M        0.25                           : increment    - STEP LENGTH
 NULL. -999.2500:NULL Value
~CURVE INFORMATION BLOCK
#MNEM UNIT       ERCB CURVE CODE    CURVE DESCRIPTION
#-----------   ------------------   ----------------------------------
DEPT.M        00 001 00 00         : DEPTH        - DEPTH
ILD .OHMM     00 120 00 00         : RESD         - DEEP RESISTIVITY (DIL)
DPHI.V/V      00 890 00 00         : PHID         - DENSITY POROSITY (LIMESTONE)
NPHI.V/V      00 330 00 00         : PHIN         - NEUTRON POROSITY (LIMESTONE)
GR  .API      00 310 00 00         : GR           - GAMMA RAY
~PARAMETER INFORMATION
#MNEM.UNIT           DATA             DESCRIPTION OF MNEMONIC
#---------         -----------     ------------------------------
GL  .M        679.68               : gl           - GROUND LEVEL ELEVATION
EREF.M        684.3                : kb           - ELEVATION OF DEPTH REFERENCE
DATM.M        679.68               : datum        - DATUM ELEVATION
TDD .M        535                  : tdd          - TOTAL DEPTH DRILLER
RUN .         ONE                  : Run          - RUN NUMBER
ENG .         BILL                 : Engineer     - RECORDING ENGINEER
WIT .         JIM                  : Witness      - WITNESSED BY
MUD .         GEL                  : Mud_type     - MUD TYPE
MATR.         LIMESTONE            : Logunit      - NEUTRON MATRIX
TMAX.C        21                   : BHT          - MAXIMUM RECORDED TEMPERATURE
BHTD.M        535                  : BHTDEP       - MAXIMUM RECORDED TEMPERATURE
MATR.         1                    : LOGUNIT      - NEUTRON MATRIX
RMT .C        25                   : MDTP         - TEMPERATURE OF MUD
NEUT.         1                    : NEUTRON      - NEUTRON TYPE
RESI.         0                    : RESIST       - RESISTIVITY TYPE
RMC .OHMM     0.25                 : RMC          - RESISTIVITY OF MUD CAKE
RMF .OHMM     0.25                 : RMF          - RESISTIVITY OF MUD FILTRATE
SUFT.C        15                   : SUFT         - SURFACE TEMPERATURE
~A  DEPTH     RESD     PHID     PHIN       GR
# ...
  412.000   15.717    0.365    0.431   50.730
  412.250   15.687    0.360    0.427   49.877
  412.500   15.627    0.350    0.418   48.964
  412.750   15.568    0.349    0.426   48.842
  413.000   15.509    0.354    0.438   48.965
  413.250   15.479    0.357    0.451   50.245
  413.500   15.508    0.352    0.439   50.551
  413.750   15.566    0.346    0.429   49.454
  414.000   15.624    0.345    0.437   51.954
  414.250   15.623    0.353    0.442   54.697
  414.500   15.711    0.359    0.438   54.880
  414.750   15.770    0.359    0.437   50.797
  415.000   15.829    0.356    0.438   48.482
  415.250   15.888    0.356    0.439   48.361
  415.500   15.857    0.367    0.439   50.007
  415.750   15.767    0.369    0.440   51.165
  416.000   15.707    0.356    0.444   51.532
  416.250   15.736    0.347    0.453   50.984
  416.500   15.736    0.347    0.456   50.740
  416.750   15.617    0.352    0.458   51.107
  417.000   15.558    0.351    0.459   51.351
  417.250   15.528    0.351    0.456   49.828
  417.500   15.469    0.357    0.440   51.901
  417.750   15.468    0.361    0.443   52.877
  418.000   15.497    0.362    0.453   50.561
  418.250   15.555    0.362    0.446   50.623
  418.500   15.554    0.362    0.436   53.671
  418.750   15.524    0.361    0.431   53.062
  419.000   15.465    0.359    0.437   50.563
  419.250   15.320    0.357    0.435   49.894
  419.500   15.233    0.354    0.422   50.382
  419.750   15.204    0.352    0.426   50.931
  420.000   15.146    0.356    0.440   50.017
  420.250   15.145    0.357    0.447   47.824
  420.500   15.088    0.356    0.435   48.068
  420.750   15.087    0.358    0.432   49.592
  421.000   15.030    0.354    0.442   50.019
  421.250   14.973    0.353    0.454   48.374
  421.500   14.888    0.357    0.451   47.095
  421.750   14.803    0.363    0.445   46.913
  422.000   14.775    0.358    0.441   49.047
  422.250   14.746    0.347    0.438   51.059
  422.500   14.746    0.338    0.438   53.314
  422.750   14.745    0.342    0.451   54.412
  423.000   14.856    0.342    0.460   54.169
  423.250   14.968    0.336    0.444   53.804
  423.500   15.397    0.332    0.427   53.743
  423.750   16.570    0.342    0.425   53.561
  424.000   17.369    0.350    0.437   52.708
  424.250   17.401    0.339    0.451   52.282
  424.500   17.011    0.341    0.465   50.576
  424.750   16.443    0.348    0.472   49.419
  425.000   15.716    0.352    0.447   50.273
  425.250   15.191    0.346    0.433   50.212
  425.500   14.711    0.343    0.427   49.603
  425.750   14.382    0.343    0.431   52.895
  426.000   14.086    0.342    0.436   56.431
  426.250   13.928    0.339    0.430   56.249
  426.500   13.901    0.341    0.445   50.398
  426.750   13.900    0.350    0.468   48.265
  427.000   13.900    0.341    0.465   52.045
  427.250   13.978    0.335    0.453   52.899
  427.500   14.004    0.334    0.448   53.082
  427.750   14.003    0.333    0.430   52.900
  428.000   13.845    0.330    0.407   53.388
  428.250   13.793    0.329    0.396   53.450
  428.500   13.535    0.331    0.402   53.267
  428.750   13.257    0.336    0.417   53.451
  429.000   13.082    0.335    0.428   54.853
  429.250   12.984    0.333    0.425   56.012
  429.500   13.008    0.332    0.424   57.719
  429.750   13.081    0.331    0.428   58.939
  430.000   13.229    0.326    0.428   56.806
  430.250   13.379    0.336    0.435   53.942
  430.500   13.429    0.340    0.444   53.760
  430.750   13.378    0.335    0.436   52.663
  431.000   12.980    0.328    0.428   55.528
  431.250   11.970    0.335    0.439   65.342
  431.500   10.852    0.344    0.455   71.377
  431.750    9.895    0.316    0.477   78.265
  432.000    8.803    0.292    0.468   81.739
  432.250    7.951    0.273    0.467   82.532
  432.500    7.415    0.261    0.478   82.533
  432.750    7.304    0.250    0.472   82.168
  433.000    7.359    0.250    0.450   80.096
  433.250    7.485    0.259    0.434   77.537
  433.500    7.541    0.247    0.428   77.233
  433.750    7.555    0.237    0.454   77.477
  434.000    7.512    0.235    0.468   80.708
  434.250    7.358    0.232    0.461   82.720
  434.500    7.166    0.234    0.452   86.195
  434.750    6.966    0.239    0.445   82.782
  435.000    6.862    0.243    0.449   79.004
  435.250    6.810    0.235    0.459   81.016
  435.500    6.797    0.227    0.468   83.393
  435.750    6.835    0.222    0.475   83.820
  436.000    6.886    0.233    0.479   83.212
  436.250    6.964    0.247    0.481   82.054
  436.500    7.017    0.245    0.472   80.043
  436.750    7.056    0.238    0.457   80.531
  437.000    7.096    0.236    0.450   82.300
  437.250    7.176    0.233    0.450   79.923
  437.500    7.258    0.247    0.447   78.827
  437.750    7.368    0.261    0.434   78.218
  438.000    7.508    0.242    0.429   79.986
  438.250    7.621    0.220    0.427   83.278
  438.500    7.693    0.212    0.431   80.657
  438.750    7.751    0.220    0.430   80.109
  439.000    7.707    0.222    0.441   82.304
  439.250    7.577    0.226    0.469   83.402
  439.500    7.492    0.223    0.485   84.073
  439.750    7.366    0.213    0.479   83.281
  440.000    7.296    0.215    0.471   83.891
  440.250    7.268    0.227    0.464   85.416
  440.500    7.268    0.236    0.464   85.477
  440.750    7.323    0.230    0.471   85.600
  441.000    7.323    0.234    0.465   85.661
  441.250    7.350    0.233    0.456   86.088
  441.500    7.336    0.230    0.466   85.662
  441.750    7.322    0.233    0.470   85.541
  442.000    7.322    0.234    0.466   85.603
  442.250    7.212    0.228    0.469   84.201
  442.500    7.225    0.224    0.473   81.581
  442.750    7.266    0.237    0.478   78.229
  443.000    7.265    0.235    0.483   81.034
  443.250    7.251    0.229    0.461   83.228
  443.500    7.224    0.224    0.438   82.193
  443.750    7.169    0.220    0.451   79.755
  444.000    7.142    0.225    0.464   83.718
  444.250    6.995    0.228    0.465   86.583
  444.500    6.929    0.217    0.467   87.437
  444.750    6.800    0.212    0.477   85.731
  445.000    6.426    0.229    0.471   88.169
  445.250    5.423    0.245    0.459   93.717
  445.500    4.181    0.246    0.494   96.643
  445.750    3.444    0.242    0.550   99.508
  446.000    2.995    0.243    0.556   99.996
  446.250    2.665    0.249    0.543   97.803
  446.500    2.425    0.259    0.533   95.182
  446.750    2.476    0.267    0.531   91.465
  447.000    2.650    0.233    0.529   88.966
  447.250    2.884    0.223    0.504   91.161
  447.500    3.163    0.258    0.483   91.467
  447.750    3.475    0.270    0.499   90.370
  448.000    3.840    0.268    0.496   88.969
  448.250    4.227    0.253    0.476   86.958
  448.500    4.627    0.240    0.471   84.216
  448.750    4.933    0.240    0.475   81.108
  449.000    5.181    0.255    0.485   82.510
  449.250    5.319    0.275    0.496   78.366
  449.500    5.400    0.290    0.478   73.613
  449.750    5.450    0.293    0.467   73.248
  450.000    5.543    0.283    0.461   73.492
  450.250    5.659    0.286    0.468   72.578
  450.500    5.778    0.288    0.477   71.238
  450.750    5.910    0.256    0.478   72.214
  451.000    6.056    0.207    0.484   71.970
  451.250    6.229    0.152    0.486   65.815
  451.500    6.432    0.128    0.304   61.000
  451.750    6.603    0.204    0.344   68.620
  452.000    6.691    0.249    0.386   73.740
  452.250    6.691    0.283    0.424   74.655
  452.500    6.516    0.303    0.446   73.010
  452.750    6.578    0.313    0.439   72.279
  453.000    6.882    0.325    0.449   70.817
  453.250    7.172    0.317    0.453   69.294
  453.500    7.281    0.301    0.441   68.929
  453.750    7.364    0.284    0.432   70.575
  454.000    7.336    0.269    0.423   71.551
  454.250    7.226    0.248    0.416   70.271
  454.500    7.117    0.259    0.433   72.466
  454.750    7.050    0.276    0.454   75.027
  455.000    7.010    0.257    0.449   77.831
  455.250    6.971    0.239    0.423   80.453
