~VERSION INFORMATION
 VERS.                 2.0:   CWLS LOG ASCII STANDARD -VERSION 2.0
 WRAP.                  NO:   ONE LINE PER DEPTH STEP
~WELL INFORMATION BLOCK
#MNEM.UNIT           DATA                    DESCRIPTION OF MNEMONIC
#---------    -------------------            -------------------------------
# Generated from Intellog Unique Number	CS_73_76/WELL/2163
WELL.         DOME PETROLEUM LIMITED         : Well_name    - WELL
LOC .         00/06-09-074-05W4/0            : Location     - LOCATION
UWI .         00/06-09-074-05W4/0            : Uwi          - UNIQUE WELL ID
ENTR.         SP                             : Entered      - ENTERED BY
SRVC.         SCHLUMBERGER                   : Scn          - SERVICE COMPANY
STRT.M        225                            : top_depth    - START DEPTH
STOP.M        475                            : bot_depth    - STOP DEPTH
STEP.M        0.25                           : increment    - STEP LENGTH
 NULL. -999.2500:NULL Value
~CURVE INFORMATION BLOCK
#MNEM UNIT       ERCB CURVE CODE    CURVE DESCRIPTION
#-----------   ------------------   ----------------------------------
DEPT.M        00 001 00 00         : DEPTH        - DEPTH
ILD .OHMM     00 120 00 00         : RESD         - DEEP RESISTIVITY (DIL)
DPHI.V/V      00 890 00 00         : PHID         - DENSITY POROSITY (LIMESTONE)
NPHI.V/V      00 330 00 00         : PHIN         - NEUTRON POROSITY (LIMESTONE)
GR  .API      00 310 00 00         : GR           - GAMMA RAY
~PARAMETER INFORMATION
#MNEM.UNIT           DATA             DESCRIPTION OF MNEMONIC
#---------         -----------     ------------------------------
GL  .M        618.6                : gl           - GROUND LEVEL ELEVATION
EREF.M        623.1                : kb           - ELEVATION OF DEPTH REFERENCE
DATM.M        618.6                : datum        - DATUM ELEVATION
TDD .M        483                  : tdd          - TOTAL DEPTH DRILLER
RUN .         ONE                  : Run          - RUN NUMBER
ENG .         BILL                 : Engineer     - RECORDING ENGINEER
WIT .         JIM                  : Witness      - WITNESSED BY
MUD .         GEL                  : Mud_type     - MUD TYPE
MATR.         LIMESTONE            : Logunit      - NEUTRON MATRIX
TMAX.C        20                   : BHT          - MAXIMUM RECORDED TEMPERATURE
BHTD.M        483                  : BHTDEP       - MAXIMUM RECORDED TEMPERATURE
MATR.         1                    : LOGUNIT      - NEUTRON MATRIX
RMT .C        25                   : MDTP         - TEMPERATURE OF MUD
NEUT.         1                    : NEUTRON      - NEUTRON TYPE
RESI.         0                    : RESIST       - RESISTIVITY TYPE
RMC .OHMM     0.25                 : RMC          - RESISTIVITY OF MUD CAKE
RMF .OHMM     0.25                 : RMF          - RESISTIVITY OF MUD FILTRATE
SUFT.C        15                   : SUFT         - SURFACE TEMPERATURE
~A  DEPTH     RESD     PHID     PHIN       GR
# ...
  312.000    1.699    0.257    0.454   85.284
  312.250    1.637    0.280    0.467   89.536
  312.500    1.606    0.290    0.480   93.788
  312.750    1.577    0.285    0.482   99.254
  313.000    1.577    0.297    0.483  103.506
  313.250    1.607    0.273    0.488  107.150
  313.500    1.638    0.248    0.533  108.973
  313.750    1.669    0.243    0.553  103.508
  314.000    1.733    0.260    0.566   98.651
  314.250    1.800    0.269    0.555   92.578
  314.500    1.834    0.258    0.529   84.077
  314.750    1.870    0.279    0.496   76.183
  315.000    1.870    0.291    0.486   79.220
  315.250    1.870    0.291    0.493   83.472
  315.500    1.801    0.284    0.502   85.295
  315.750    1.768    0.281    0.498   81.044
  316.000    1.735    0.295    0.478   78.009
  316.250    1.735    0.316    0.471   81.654
  316.500    1.768    0.291    0.488   83.476
  316.750    1.802    0.284    0.497   84.084
  317.000    1.943    0.285    0.495   87.729
  317.250    2.018    0.277    0.514   89.551
  317.500    2.136    0.250    0.523   87.123
  317.750    2.303    0.263    0.509   85.302
  318.000    2.347    0.279    0.494   83.481
  318.250    2.437    0.270    0.484   82.267
  318.500    2.484    0.253    0.498   83.482
  318.750    2.579    0.237    0.513   84.090
  319.000    2.629    0.228    0.523   87.127
  319.250    2.679    0.234    0.503   93.201
  319.500    2.730    0.233    0.514   98.668
  319.750    2.782    0.227    0.534   99.883
  320.000    2.783    0.248    0.531   95.632
  320.250    2.836    0.232    0.514   95.026
  320.500    2.836    0.213    0.508  100.493
  320.750    2.837    0.216    0.518  102.922
  321.000    2.891    0.232    0.535  105.352
  321.250    2.946    0.261    0.545  101.102
  321.500    3.299    0.246    0.548   99.281
  321.750    3.299    0.245    0.537  100.496
  322.000    3.362    0.234    0.534  100.497
  322.250    3.426    0.232    0.536   98.068
  322.500    3.492    0.266    0.546   99.891
  322.750    3.559    0.271    0.551   93.819
  323.000    3.559    0.260    0.530   88.961
  323.250    3.696    0.242    0.514   90.784
  323.500    3.767    0.243    0.493   93.215
  323.750    3.839    0.237    0.479   93.822
  324.000    3.912    0.235    0.489   95.037
  324.250    3.987    0.233    0.497   96.253
  324.500    4.063    0.222    0.497   96.254
  324.750    4.064    0.233    0.495   96.862
  325.000    4.064    0.243    0.501   97.469
  325.250    4.065    0.239    0.509   96.863
  325.500    4.065    0.243    0.511   98.078
  325.750    3.990    0.197    0.514   99.901
  326.000    3.916    0.207    0.520  101.724
  326.250    3.916    0.217    0.533  102.939
  326.500    3.772    0.223    0.543  104.154
  326.750    3.633    0.198    0.541  104.762
  327.000    3.499    0.213    0.546  101.727
  327.250    3.308    0.232    0.556  100.513
  327.500    3.186    0.254    0.549  103.550
  327.750    3.011    0.269    0.543  109.016
  328.000    2.900    0.246    0.557  110.231
  328.250    2.901    0.256    0.553  109.625
  328.500    2.847    0.236    0.549  110.233
  328.750    2.847    0.223    0.553  110.841
  329.000    2.848    0.202    0.554  109.020
  329.250    2.902    0.196    0.554  110.235
  329.500    2.958    0.199    0.560  110.843
  329.750    2.958    0.229    0.564  107.808
  330.000    3.130    0.228    0.578  105.379
  330.250    3.190    0.231    0.588  103.558
  330.500    3.313    0.268    0.588  101.130
  330.750    3.376    0.261    0.578   96.880
  331.000    3.440    0.244    0.556   93.844
  331.250    3.506    0.231    0.535   90.808
  331.500    3.192    0.227    0.519   88.987
  331.750    3.074    0.262    0.509   86.559
  332.000    3.133    0.284    0.516   85.952
  332.250    3.378    0.289    0.530   85.346
  332.500    3.508    0.292    0.531   82.310
  332.750    3.783    0.292    0.516   79.881
  333.000    3.855    0.293    0.502   81.097
  333.250    4.080    0.276    0.485   84.134
  333.500    4.080    0.250    0.489   85.957
  333.750    3.930    0.247    0.502   87.779
  334.000    3.857    0.259    0.511   88.995
  334.250    4.401    0.270    0.500   87.174
  334.500    4.746    0.286    0.484   80.494
  334.750    5.117    0.295    0.474   71.993
  335.000    5.839    0.276    0.457   63.492
  335.250    5.950    0.055    0.393   58.634
  335.500    5.624    0.033    0.286   51.955
  335.750    4.085    0.043    0.266   59.850
  336.000    3.514    0.095    0.353   68.353
  336.250    3.322    0.175    0.417   74.427
  336.500    3.140    0.229    0.457   75.642
  336.750    3.081    0.274    0.480   78.679
  337.000    3.025    0.303    0.474   81.716
  337.250    2.968    0.299    0.476   82.324
  337.500    2.969    0.309    0.481   80.503
  337.750    3.026    0.304    0.480   78.682
  338.000    3.026    0.295    0.476   75.039
  338.250    3.084    0.295    0.481   75.647
  338.500    3.084    0.300    0.473   77.470
  338.750    3.143    0.303    0.464   78.078
  339.000    3.203    0.311    0.462   79.901
  339.250    3.326    0.318    0.473   81.116
  339.500    3.454    0.295    0.476   81.117
  339.750    3.520    0.287    0.476   78.688
  340.000    3.656    0.277    0.478   79.296
  340.250    3.797    0.278    0.484   82.334
  340.500    3.943    0.287    0.481   85.978
  340.750    4.095    0.300    0.478   87.801
  341.000    4.173    0.283    0.484   89.623
  341.250    4.333    0.260    0.515   90.231
  341.500    4.416    0.250    0.507   90.232
  341.750    4.417    0.246    0.502   90.840
  342.000    4.417    0.242    0.499   92.055
  342.250    4.418    0.237    0.496   92.056
  342.500    4.336    0.235    0.495   92.057
  342.750    4.336    0.231    0.505   91.450
  343.000    4.177    0.220    0.487   90.237
  343.250    3.948    0.237    0.452   92.666
  343.500    3.594    0.231    0.436   93.882
  343.750    3.333    0.247    0.457   96.919
  344.000    3.034    0.226    0.476   99.349
  344.250    2.978    0.235    0.499  100.564
  344.500    2.978    0.220    0.522   97.528
  344.750    2.979    0.209    0.535   94.493
  345.000    2.979    0.225    0.550   96.316
  345.250    2.924    0.257    0.558   96.924
  345.500    2.816    0.266    0.565   97.532
  345.750    2.662    0.259    0.563   98.140
  346.000    2.469    0.257    0.535   91.460
  346.250    2.378    0.298    0.519   91.461
  346.500    2.248    0.259    0.502   93.284
  346.750    2.206    0.241    0.564   95.106
  347.000    2.335    0.254    0.580   95.714
  347.250    2.818    0.264    0.592   93.286
  347.500    3.600    0.240    0.601   91.465
  347.750    4.265    0.248    0.498   89.036
  348.000    5.552    0.264    0.438   82.357
  348.250    6.335    0.325    0.358   74.463
  348.500    6.831    0.346    0.335   69.605
  348.750    6.961    0.326    0.320   68.391
  349.000    6.962    0.336    0.333   67.785
  349.250    7.095    0.326    0.343   67.179
  349.500    7.797    0.320    0.351   65.358
  349.750    8.097    0.277    0.355   61.715
  350.000    8.097    0.158    0.312   60.501
  350.250    7.799    0.105    0.296   59.894
  350.500    6.584    0.123    0.320   62.324
  350.750    5.994    0.172    0.343   64.147
  351.000    6.225    0.213    0.376   65.362
  351.250    6.587    0.256    0.400   64.148
  351.500    6.840    0.285    0.424   64.149
  351.750    6.842    0.330    0.475   65.365
  352.000    6.589    0.358    0.450   65.365
  352.250    4.438    0.174    0.408   66.580
  352.500    3.747    0.231    0.387   71.439
  352.750    3.476    0.264    0.395   85.408
  353.000    3.411    0.290    0.454   96.947
  353.250    3.348    0.278    0.474  106.664
  353.500    3.349    0.256    0.471  106.058
  353.750    3.413    0.260    0.472   95.127
  354.000    3.478    0.247    0.477   89.055
  354.250    3.680    0.235    0.470   91.485
  354.500    3.822    0.226    0.461   93.915
  354.750    3.895    0.237    0.466   96.953
  355.000    4.045    0.216    0.472   98.775
  355.250    4.122    0.237    0.476  101.205
