~VERSION INFORMATION
 VERS.                 2.0:   CWLS LOG ASCII STANDARD -VERSION 2.0
 WRAP.                  NO:   ONE LINE PER DEPTH STEP
~WELL INFORMATION BLOCK
#MNEM.UNIT           DATA                    DESCRIPTION OF MNEMONIC
#---------    -------------------            -------------------------------
# Generated from Intellog Unique Number	CW_82_90/WELL/642
WELL.         08-09-082-21W4                 : Well_name    - WELL
LOC .         00/08-09-082-21W4/0            : Location     - LOCATION
UWI .         00/08-09-082-21W4/0            : Uwi          - UNIQUE WELL ID
ENTR.         JAYE                           : Entered      - ENTERED BY
SRVC.         SCHLUMBERGER                   : Scn          - SERVICE COMPANY
DATE.         01 FEB 1974                    : Date         - LOG DATE
STRT.M        234.696                        : top_depth    - START DEPTH
STOP.M        444.946                        : bot_depth    - STOP DEPTH
STEP.M        0.25                           : increment    - STEP LENGTH
 NULL. -999.2500:NULL Value
~CURVE INFORMATION BLOCK
#MNEM UNIT       ERCB CURVE CODE    CURVE DESCRIPTION
#-----------   ------------------   ----------------------------------
DEPT.M        00 001 00 00         : DEPTH        - DEPTH
CALI.MM       00 280 01 00         : CAL          - CALIPER
GR  .API      00 310 00 00         : GR           - GAMMA RAY
DPHI.V/V      00 890 00 00         : PHID         - DENSITY POROSITY (SANDSTONE)
NPHI.V/V      00 330 00 00         : PHIN         - NEUTRON POROSITY (SANDSTONE)
ILD .OHMM     00 120 00 00         : RESD         - DEEP RESISTIVITY (DLL)
~PARAMETER INFORMATION
#MNEM.UNIT           DATA             DESCRIPTION OF MNEMONIC
#---------         -----------     ------------------------------
GL  .M        631.241              : gl           - GROUND LEVEL ELEVATION
EREF.M        627.583              : kb           - ELEVATION OF DEPTH REFERENCE
DATM.M        631.241              : datum        - DATUM ELEVATION
TDD .M        458.724              : tdd          - TOTAL DEPTH DRILLER
RUN .         ONE                  : Run          - RUN NUMBER
ENG .         STRUYK               : Engineer     - RECORDING ENGINEER
BASE.         EDMONTON             : Branch       - HOME BASE OF LOGGING UNIT
MUD .         GEL CHEM             : Mud_type     - MUD TYPE
MATR.         SANDSTONE            : Logunit      - NEUTRON MATRIX
TMAX.C        11.6667              : BHT          - MAXIMUM RECORDED TEMPERATURE
BHTD.M        458.724              : BHTDEP       - MAXIMUM RECORDED TEMPERATURE
RMT .C        11.6667              : MDTP         - TEMPERATURE OF MUD
MUDD.KG/M     8900                 : MWT          - MUD DENSITY
NEUT.         0                    : NEUTRON      - NEUTRON TYPE
RESI.         1                    : RESIST       - RESISTIVITY TYPE
RM  .OHMM     4.2                  : RM           - RESISTIVITY OF MUD
RMC .OHMM     3.9                  : RMC          - RESISTIVITY OF MUD CAKE
RMF .OHMM     0.25                 : RMF          - RESISTIVITY OF MUD FILTRATE
SUFT.C        4                    : SUFT         - SURFACE TEMPERATURE
~A  DEPTH      CAL       GR     PHID     PHIN     RESD
# ...
  417.196  170.442   99.133    0.191    0.521    4.095
  417.446  166.406   97.050    0.188    0.552    3.465
  417.696  163.501   91.314    0.212    0.485    3.845
  417.946  162.865   87.099    0.202    0.429    4.557
  418.196  162.432   83.859    0.164    0.397    6.116
  418.446  163.338   83.907    0.124    0.370    7.532
  418.696  164.654   89.378    0.099    0.381    8.404
  418.946  164.739   96.187    0.110    0.428    8.525
  419.196  163.999  100.924    0.140    0.456    8.126
  419.446  162.640   99.391    0.160    0.465    7.095
  419.696  161.687   98.831    0.185    0.440    5.341
  419.946  161.464  100.037    0.187    0.448    4.637
  420.196  162.365  100.816    0.189    0.476    4.494
  420.446  162.659   97.760    0.199    0.493    4.609
  420.696  162.847   89.099    0.193    0.463    4.948
  420.946  162.621   77.943    0.184    0.409    6.207
  421.196  162.698   71.840    0.182    0.375   10.862
  421.446  163.092   73.047    0.184    0.369   17.896
  421.696  163.488   76.380    0.169    0.357   21.170
  421.946  164.188   78.316    0.145    0.326   20.932
  422.196  164.888   79.586    0.133    0.321   20.026
  422.446  165.178   81.221    0.126    0.329   18.846
  422.696  164.329   81.450    0.154    0.355   18.263
  422.946  163.690   81.195    0.159    0.374   17.156
  423.196  163.464   81.855    0.168    0.411   15.423
  423.446  163.345   86.289    0.174    0.463   13.029
  423.696  163.116   84.571    0.187    0.421   10.669
  423.946  163.304   82.672    0.189    0.421    8.331
  424.196  163.284   83.451    0.195    0.456    7.435
  424.446  163.471   85.691    0.194    0.477    6.480
  424.696  163.757   87.809    0.201    0.488    6.031
  424.946  163.534   89.931    0.200    0.471    6.416
  425.196  164.235   95.521    0.199    0.432    7.055
  425.446  165.345   98.493    0.197    0.433    7.574
  425.696  166.252   98.361    0.198    0.453    7.627
  425.946  164.995   98.531    0.191    0.445    7.625
  426.196  163.433   95.719    0.181    0.393    7.877
  426.446  162.487   88.460    0.192    0.372    8.504
  426.696  162.154   74.562    0.214    0.335    9.823
  426.946  162.033   70.286    0.238    0.325   10.683
  427.196  160.571   69.726    0.218    0.325   12.028
  427.446  158.488   67.035    0.204    0.323   13.593
  427.696  156.717   67.328    0.217    0.319   14.863
  427.946  155.979   65.183    0.211    0.327   16.340
  428.196  155.134   64.076    0.199    0.322   16.729
  428.446  154.389   65.465    0.213    0.311   16.300
  428.696  153.958   66.549    0.261    0.314   15.971
  428.946  153.838   66.963    0.251    0.322   15.562
  429.196  154.022   68.413    0.270    0.333   14.197
  429.446  154.416   74.552    0.261    0.343   11.884
  429.696  154.805   82.823    0.250    0.353   10.684
  429.946  155.199   94.078    0.213    0.368    9.711
  430.196  156.412  100.764    0.195    0.412    9.869
  430.446  157.219  107.574    0.212    0.395    9.186
  430.696  158.847  112.191    0.210    0.388    8.503
  430.946  161.088  116.137    0.187    0.388    8.076
  431.196  162.615  123.981    0.153    0.397    8.467
  431.446  165.584  126.588    0.145    0.413    8.861
  431.696  167.313  126.577    0.167    0.407    8.680
  431.946  167.395  127.112    0.168    0.394    8.967
  432.196  167.579  127.649    0.160    0.380    9.131
  432.446  167.558  124.835    0.150    0.366    8.962
  432.696  167.540  121.046    0.163    0.357    8.830
  432.946  167.211  113.728    0.153    0.361    8.494
  433.196  166.782  105.677    0.148    0.365    7.777
  433.446  165.320   98.417    0.138    0.363    6.510
  433.696  163.238   92.802    0.110    0.351    6.825
  433.946  161.157   92.425    0.106    0.343    7.288
  434.196  160.520   91.621    0.163    0.361    7.379
  434.446  159.779   89.112    0.152    0.363    8.218
  434.696  159.552   84.045    0.155    0.362   10.121
  434.946  161.279   78.735    0.152    0.357   12.579
  435.196  162.598   72.329    0.200    0.366   14.086
  435.446  163.200   65.495    0.218    0.358   15.040
  435.696  163.072   65.118    0.223    0.359   15.482
  435.946  163.056   62.488    0.226    0.377   15.850
  436.196  162.316   59.126    0.230    0.389   15.931
  436.446  162.191   57.591    0.230    0.400   15.695
  436.696  162.584   56.056    0.267    0.407   16.127
  436.946  162.562   51.111    0.281    0.420   16.968
  437.196  163.265   50.917    0.277    0.443   17.822
  437.446  163.962   51.027    0.266    0.462   18.719
  437.696  163.635   51.683    0.267    0.459   18.816
  437.946  162.896   55.327    0.271    0.429   18.468
  438.196  161.636   60.188    0.285    0.389   17.963
  438.446  159.867   64.134    0.279    0.390   17.631
  438.696  158.506   67.350    0.263    0.408   16.807
  438.946  157.661   68.678    0.257    0.421   15.903
  439.196  160.117   68.788    0.259    0.436   15.552
  439.446  159.478   67.132    0.247    0.453   15.462
  439.696  157.913   64.623    0.264    0.473   15.628
  439.946  158.096   59.312    0.256    0.471   15.970
  440.196  159.521   57.047    0.279    0.464   16.590
  440.446  161.044   52.894    0.305    0.468   17.362
  440.696  162.978   54.222    0.303    0.463   18.402
  440.946  163.682   59.324    0.301    0.442   18.943
  441.196  162.425   66.743    0.288    0.406   18.902
  441.446  158.904   72.274    0.285    0.404   18.019
  441.696  154.249   81.092    0.269    0.413   17.397
  441.946  156.289   82.662    0.269    0.459   17.777
  442.196  154.931   80.094    0.286    0.487   18.000
  442.446  156.554   72.529    0.276    0.489   17.765
  442.696  159.834   67.768    0.260    0.453   16.904
  442.946  159.605   50.095    0.232    0.438   19.887
  443.196  159.480   37.354    0.176    0.392   37.447
  443.446  160.184   31.374    0.111    0.361   47.576
  443.696  160.576   31.179    0.094    0.372   55.260
  443.946  159.833   33.296    0.122    0.378   59.657
  444.196  157.550   34.625    0.140    0.372   57.600
  444.446  152.582   35.891    0.153    0.372   62.295
  444.696  151.534   36.306    0.148    0.376   67.868
  444.946  153.987   36.478    0.149    0.368   71.279
