~VERSION INFORMATION
 VERS.                 2.0:   CWLS LOG ASCII STANDARD -VERSION 2.0
 WRAP.                  NO:   ONE LINE PER DEPTH STEP
~WELL INFORMATION BLOCK
#MNEM.UNIT           DATA                    DESCRIPTION OF MNEMONIC
#---------    -------------------            -------------------------------
# Generated from Intellog Unique Number	CS_77_79/WELL/871
WELL.         HOME LEISMER                   : Well_name    - WELL
LOC .         00/06-11-078-07W4/0            : Location     - LOCATION
UWI .         00/06-11-078-07W4/0            : Uwi          - UNIQUE WELL ID
ENTR.         JHS                            : Entered      - ENTERED BY
SRVC.         SCHLUMBERGER                   : Scn          - SERVICE COMPANY
STRT.M        106.680                        : top_depth    - START DEPTH
STOP.M        344.180                        : bot_depth    - STOP DEPTH
STEP.M        0.25                           : increment    - STEP LENGTH
 NULL. -999.2500:NULL Value
~CURVE INFORMATION BLOCK
#MNEM UNIT       ERCB CURVE CODE    CURVE DESCRIPTION
#-----------   ------------------   ----------------------------------
DEPT.M        00 001 00 00         : DEPTH        - DEPTH
RHOB.KG/M3    00 350 00 00         : DENS         - BULK DENSITY
GR  .API      00 310 00 00         : GR           - GAMMA RAY
DPHI.V/V      00 890 00 00         : PHID         - DENSITY POROSITY (SANDSTONE)
NPHI.V/V      00 330 00 00         : PHIN         - NEUTRON POROSITY (SANDSTONE)
ILD .OHMM     00 120 00 00         : RESD         - DEEP RESISTIVITY (DIL)
~PARAMETER INFORMATION
#MNEM.UNIT           DATA             DESCRIPTION OF MNEMONIC
#---------         -----------     ------------------------------
GL  .M        533.461              : gl           - GROUND LEVEL ELEVATION
EREF.M        536.814              : kb           - ELEVATION OF DEPTH REFERENCE
DATM.M        536.814              : datum        - DATUM ELEVATION
TDD .M        347.472              : tdd          - TOTAL DEPTH DRILLER
RUN .         ONE                  : Run          - RUN NUMBER
ENG .         BILL                 : Engineer     - RECORDING ENGINEER
WIT .         JIM                  : Witness      - WITNESSED BY
MUD .         GEL                  : Mud_type     - MUD TYPE
MATR.         SANDSTONE            : Logunit      - NEUTRON MATRIX
TMAX.C        21.6667              : BHT          - MAXIMUM RECORDED TEMPERATURE
BHTD.M        347.472              : BHTDEP       - MAXIMUM RECORDED TEMPERATURE
MATR.         1                    : LOGUNIT      - NEUTRON MATRIX
RMT .C        25                   : MDTP         - TEMPERATURE OF MUD
NEUT.         1                    : NEUTRON      - NEUTRON TYPE
RESI.         0                    : RESIST       - RESISTIVITY TYPE
RMC .OHMM     0.25                 : RMC          - RESISTIVITY OF MUD CAKE
RMF .OHMM     0.25                 : RMF          - RESISTIVITY OF MUD FILTRATE
SUFT.C        15                   : SUFT         - SURFACE TEMPERATURE
~A  DEPTH     DENS       GR     PHID     PHIN     RESD
# ...
  252.680 2395.060   78.388    0.184    0.418    6.695
  252.930 2246.190   76.380    0.271    0.442    6.978
  253.180 2228.670   78.577    0.281    0.462    7.215
  253.430 2225.690   84.078    0.283    0.474    7.212
  253.680 2273.200   90.101    0.255    0.487    6.930
  253.930 2276.090   93.692    0.254    0.499    6.652
  254.180 2257.670   96.256    0.265    0.520    5.968
  254.430 2274.480   96.100    0.255    0.537    5.306
  254.680 2254.060   95.830    0.267    0.572    4.510
  254.930 2242.880   94.433    0.273    0.565    3.937
  255.180 2269.650   93.199    0.258    0.528    3.790
  255.430 2268.730   92.180    0.258    0.487    3.864
  255.680 2298.290   91.226    0.241    0.461    4.305
  255.930 2312.680   90.503    0.232    0.456    4.805
  256.180 2328.600   94.473    0.223    0.445    5.353
  256.430 2308.930   95.899    0.235    0.455    5.644
  256.680 2323.600   95.046    0.226    0.476    5.677
  256.930 2298.560   94.578    0.241    0.488    5.581
  257.180 2276.600   95.779    0.253    0.473    5.573
  257.430 2287.670   97.755    0.247    0.457    5.569
  257.680 2290.890   98.234    0.245    0.458    5.637
  257.930 2294.060   98.202    0.243    0.454    5.930
  258.180 2286.170   98.176    0.248    0.459    6.227
  258.430 2255.260   96.194    0.266    0.478    6.213
  258.680 2241.130   93.221    0.274    0.462    6.199
  258.930 2248.590   92.831    0.270    0.463    5.779
  259.180 2243.080   93.264    0.273    0.483    5.362
  259.430 2297.760   92.683    0.241    0.508    4.704
  259.680 2251.820   90.670    0.268    0.499    4.103
  259.930 2236.330   86.438    0.277    0.467    3.537
  260.180 2267.810   83.014    0.259    0.476    2.998
  260.430 2259.090   81.697    0.264    0.517    2.569
  260.680 2208.740   80.171    0.293    0.556    2.241
  260.930 2182.050   80.278    0.309    0.561    2.095
  261.180 2197.680   81.802    0.300    0.568    2.205
  261.430 2207.020   82.979    0.294    0.581    2.001
  261.680 2182.260   82.656    0.309    0.603    2.026
  261.930 2147.550   81.828    0.329    0.621    2.095
  262.180 2142.770   81.458    0.332    0.602    2.113
  262.430 2173.340   82.060    0.314    0.588    2.140
  262.680 2202.400   82.759    0.297    0.590    2.180
  262.930 2226.620   84.069    0.283    0.593    2.230
  263.180 2263.400   83.470    0.261    0.576    2.333
  263.430 2281.900   81.642    0.250    0.520    2.552
  263.680 2325.300   82.219    0.225    0.485    2.793
  263.930 2341.970   85.233    0.215    0.478    3.047
  264.180 2337.260   87.195    0.218    0.481    3.515
  264.430 2330.740   91.954    0.222    0.476    3.876
  264.680 2351.510   92.469    0.210    0.456    4.454
  264.930 2413.240   87.976    0.174    0.427    4.981
  265.180 2418.860   88.101    0.170    0.412    5.665
  265.430 2399.560   91.004    0.182    0.426    5.958
  265.680 2266.220   94.836    0.260    0.452    5.993
  265.930 2283.190   98.834    0.250    0.465    5.297
  266.180 2307.870   97.973    0.235    0.500    4.986
  266.430 2321.270   91.057    0.227    0.495    4.364
  266.680 2281.600   89.818    0.251    0.489    3.926
  266.930 2283.920   91.524    0.249    0.490    3.699
  267.180 2308.210   91.708    0.235    0.500    3.645
  267.430 2322.340   92.126    0.227    0.499    3.643
  267.680 2294.300   94.204    0.243    0.519    3.643
  267.930 2275.300   97.197    0.254    0.541    3.643
  268.180 2270.520   99.169    0.257    0.520    3.651
  268.430 2280.710  100.032    0.251    0.519    3.573
  268.680 2277.730   98.408    0.253    0.519    3.514
  268.930 2280.260   93.873    0.251    0.514    3.449
  269.180 2297.330   94.983    0.241    0.508    3.365
  269.430 2273.380   95.909    0.255    0.513    3.321
  269.680 2267.800   96.232    0.259    0.535    3.297
  269.930 2249.240   96.432    0.269    0.550    3.203
  270.180 2246.560   93.852    0.271    0.538    3.106
  270.430 2276.770   91.531    0.253    0.526    3.109
  270.680 2303.910   89.921    0.237    0.527    3.203
  270.930 2301.170   88.884    0.239    0.514    3.282
  271.180 2330.680   87.493    0.222    0.493    3.486
  271.430 2312.560   85.749    0.232    0.472    3.779
  271.680 2339.460   82.469    0.217    0.456    4.393
  271.930 2389.140   80.487    0.188    0.432    5.381
  272.180 2439.640   78.470    0.158    0.401    6.521
  272.430 2479.170   82.199    0.135    0.392    7.074
  272.680 2387.570   82.147    0.189    0.405    7.483
  272.930 2301.400   80.055    0.239    0.398    7.846
  273.180 2274.980   78.266    0.254    0.376    7.935
  273.430 2242.270   77.329    0.274    0.369    8.002
  273.680 2207.220   75.793    0.294    0.361    7.863
  273.930 2229.720   75.508    0.281    0.359    7.813
  274.180 2260.450   76.816    0.263    0.369    7.727
  274.430 2274.580   79.465    0.255    0.387    7.387
  274.680 2284.490   84.995    0.249    0.388    7.099
  274.930 2311.730   94.916    0.233    0.398    6.799
  275.180 2290.530  103.624    0.245    0.433    6.396
  275.430 2315.110  106.974    0.231    0.426    6.215
  275.680 2353.530  104.309    0.208    0.428    6.410
  275.930 2339.280  101.290    0.217    0.405    6.671
  276.180 2321.710   99.847    0.227    0.390    6.969
  276.430 2368.810   97.785    0.200    0.416    7.409
  276.680 2363.680   96.340    0.203    0.434    7.710
  276.930 2339.240   93.298    0.217    0.409    8.026
  277.180 2325.260   89.690    0.225    0.401    8.291
  277.430 2327.090   88.528    0.224    0.393    8.369
  277.680 2316.750   88.207    0.230    0.386    8.469
  277.930 2303.370   86.997    0.238    0.384    8.616
  278.180 2306.760   83.518    0.236    0.379    8.776
  278.430 2289.750   80.052    0.246    0.371    9.105
  278.680 2268.400   78.827    0.258    0.362    9.623
  278.930 2292.830   82.104    0.244    0.367    9.966
  279.180 2308.460   81.946    0.235    0.375    9.984
  279.430 2280.450   80.463    0.251    0.379    9.878
  279.680 2299.620   82.136    0.240    0.385   10.003
  279.930 2319.290   86.315    0.228    0.385    9.966
  280.180 2317.980   86.428    0.229    0.381   10.188
  280.430 2334.030   85.460    0.220    0.373   10.168
  280.680 2314.840   84.253    0.231    0.366   10.288
  280.930 2308.900   85.275    0.235    0.364   10.565
  281.180 2344.910   84.449    0.214    0.361   10.548
  281.430 2352.210   79.543    0.209    0.358   10.425
  281.680 2295.320   73.353    0.243    0.359   10.369
  281.930 2258.690   63.442    0.264    0.374   10.187
  282.180 2219.470   56.201    0.287    0.376    9.903
  282.430 2192.010   51.459    0.303    0.372    9.412
  282.680 2204.460   53.452    0.296    0.370    9.610
  282.930 2224.560   61.640    0.284    0.368    9.855
  283.180 2242.420   67.610    0.273    0.376   10.374
  283.430 2249.060   71.259    0.270    0.386   11.211
  283.680 2247.430   70.477    0.271    0.373   12.023
  283.930 2255.880   68.553    0.266    0.368   12.919
  284.180 2270.910   64.958    0.257    0.369   14.205
  284.430 2251.550   59.501    0.268    0.382   14.812
  284.680 2234.240   57.956    0.278    0.387   15.758
  284.930 2279.470   56.071    0.252    0.384   17.414
  285.180 2240.590   53.275    0.275    0.386   19.691
  285.430 2212.020   49.317    0.291    0.376   21.733
  285.680 2196.930   46.358    0.300    0.374   27.892
  285.930 2198.570   44.315    0.299    0.395   35.204
  286.180 2202.440   45.413    0.297    0.402   44.582
  286.430 2239.660   47.813    0.275    0.393   46.733
  286.680 2278.340   50.490    0.252    0.387   47.570
  286.930 2295.780   54.561    0.242    0.388   44.238
  287.180 2300.880   57.613    0.239    0.389   41.001
  287.430 2242.830   57.040    0.273    0.400   38.838
  287.680 2244.090   56.398    0.272    0.403   37.376
  287.930 2237.740   57.380    0.276    0.399   36.502
  288.180 2247.480   58.923    0.270    0.401   36.076
  288.430 2260.010   56.807    0.263    0.395   36.459
  288.680 2238.530   53.137    0.276    0.404   36.786
  288.930 2226.650   51.312    0.283    0.406   38.592
