~VERSION INFORMATION
 VERS.                 2.0:   CWLS LOG ASCII STANDARD -VERSION 2.0
 WRAP.                  NO:   ONE LINE PER DEPTH STEP
~WELL INFORMATION BLOCK
#MNEM.UNIT           DATA                    DESCRIPTION OF MNEMONIC
#---------    -------------------            -------------------------------
# Generated from Intellog Unique Number	CS_67_68/WELL/2186
WELL.         GLOBEL ATMORE                  : Well_name    - WELL
LOC .         00/08-26-067-18W4/0            : Location     - LOCATION
UWI .         00/08-26-067-18W4/0            : Uwi          - UNIQUE WELL ID
ENTR.         JHS                            : Entered      - ENTERED BY
SRVC.         SCHLUMBERGER                   : Scn          - SERVICE COMPANY
STRT.M        350                            : top_depth    - START DEPTH
STOP.M        560                            : bot_depth    - STOP DEPTH
STEP.M        0.25                           : increment    - STEP LENGTH
 NULL. -999.2500:NULL Value
~CURVE INFORMATION BLOCK
#MNEM UNIT       ERCB CURVE CODE    CURVE DESCRIPTION
#-----------   ------------------   ----------------------------------
DEPT.M        00 001 00 00         : DEPTH        - DEPTH
DPHI.V/V      00 890 00 00         : PHID         - DENSITY POROSITY (LIMESTONE)
NPHI.V/V      00 330 00 00         : PHIN         - NEUTRON POROSITY (LIMESTONE)
CALI.MM       00 280 01 00         : CAL          - CALIPER
GR  .API      00 310 00 00         : GR           - GAMMA RAY
ILD .OHMM     00 120 00 00         : RESD         - DEEP RESISTIVITY (DIL)
~PARAMETER INFORMATION
#MNEM.UNIT           DATA             DESCRIPTION OF MNEMONIC
#---------         -----------     ------------------------------
GL  .M        583.7                : gl           - GROUND LEVEL ELEVATION
EREF.M        586.6                : kb           - ELEVATION OF DEPTH REFERENCE
DATM.M        586.6                : datum        - DATUM ELEVATION
TDD .M        575                  : tdd          - TOTAL DEPTH DRILLER
RUN .         ONE                  : Run          - RUN NUMBER
ENG .         BILL                 : Engineer     - RECORDING ENGINEER
WIT .         JIM                  : Witness      - WITNESSED BY
MUD .         GEL                  : Mud_type     - MUD TYPE
MATR.         LIMESTONE            : Logunit      - NEUTRON MATRIX
TMAX.C        19.4                 : BHT          - MAXIMUM RECORDED TEMPERATURE
BHTD.M        574                  : BHTDEP       - MAXIMUM RECORDED TEMPERATURE
MATR.         1                    : LOGUNIT      - NEUTRON MATRIX
RMT .C        25                   : MDTP         - TEMPERATURE OF MUD
NEUT.         1                    : NEUTRON      - NEUTRON TYPE
RESI.         0                    : RESIST       - RESISTIVITY TYPE
RMC .OHMM     0.25                 : RMC          - RESISTIVITY OF MUD CAKE
RMF .OHMM     0.25                 : RMF          - RESISTIVITY OF MUD FILTRATE
SUFT.C        15                   : SUFT         - SURFACE TEMPERATURE
~A  DEPTH     PHID     PHIN      CAL       GR     RESD
# ...
  386.500    0.198    0.423  177.038  122.774    3.470
  386.750    0.175    0.453  178.980  129.009    3.281
  387.000    0.162    0.474  181.330  137.626    3.149
  387.250    0.217    0.481  184.596  141.480    3.057
  387.500    0.246    0.473  186.946  130.797    3.018
  387.750    0.240    0.463  182.376  123.595    2.985
  388.000    0.227    0.454  174.038  118.654    2.986
  388.250    0.221    0.469  168.651  114.934    3.009
  388.500    0.222    0.470  165.199  111.702    3.044
  388.750    0.223    0.457  160.933  106.699    3.062
  389.000    0.217    0.447  158.805  103.712    3.086
  389.250    0.228    0.443  159.629  102.742    3.110
  389.500    0.223    0.448  160.350  101.891    3.134
  389.750    0.219    0.445  160.767  100.980    3.147
  390.000    0.232    0.437  160.573   96.650    3.136
  390.250    0.258    0.430  160.174   94.395    3.196
  390.500    0.276    0.455  160.285   97.760    3.326
  390.750    0.274    0.476  162.534  104.545    3.415
  391.000    0.261    0.475  162.034  106.932    3.500
  391.250    0.250    0.460  157.158  100.586    3.561
  391.500    0.251    0.447  153.502   94.790    3.609
  391.750    0.275    0.443  152.901   92.902    3.685
  392.000    0.291    0.436  152.808   93.396    3.806
  392.250    0.301    0.443  153.428   90.164    3.967
  392.500    0.309    0.450  153.949   86.933    4.120
  392.750    0.317    0.454  154.261   90.603    4.207
  393.000    0.322    0.450  154.677   92.501    4.216
  393.250    0.313    0.448  154.586   86.522    4.193
  393.500    0.313    0.445  154.493   80.175    4.025
  393.750    0.310    0.443  154.604   76.883    3.856
  394.000    0.295    0.448  154.714   77.011    3.680
  394.250    0.288    0.465  154.927   77.993    3.526
  394.500    0.305    0.473  155.344   78.671    3.359
  394.750    0.317    0.472  155.657   81.608    3.194
  395.000    0.276    0.454  155.768   87.171    3.048
  395.250    0.248    0.439  155.779   93.284    2.904
  395.500    0.253    0.458  155.685   97.382    2.772
  395.750    0.258    0.479  155.796   98.670    2.665
  396.000    0.262    0.460  156.010   94.401    2.587
  396.250    0.276    0.445  155.612   89.276    2.526
  396.500    0.290    0.447  155.824   86.166    2.503
  396.750    0.302    0.422  155.630   84.400    2.561
  397.000    0.309    0.402  155.841   91.002    2.664
  397.250    0.247    0.411  156.563   94.611    2.777
  397.500    0.230    0.438  156.980   94.983    2.868
  397.750    0.220    0.460  158.517   95.904    2.950
  398.000    0.210    0.464  159.951  100.002    3.013
  398.250    0.198    0.467  161.996  103.612    3.059
  398.500    0.204    0.454  163.941  104.960    3.089
  398.750    0.220    0.464  165.272  105.332    3.172
  399.000    0.237    0.461  166.095  106.254    3.294
  399.250    0.239    0.442  166.308  108.519    3.421
  399.500    0.231    0.447  165.809  109.991    3.520
  399.750    0.240    0.478  164.393  106.149    3.554
  400.000    0.246    0.474  163.078   99.924    3.522
  400.250    0.247    0.435  161.763   92.600    3.509
  400.500    0.237    0.412  162.180   88.636    3.478
  400.750    0.230    0.411  163.615   98.903    3.433
  401.000    0.226    0.435  165.659  107.337    3.389
  401.250    0.220    0.464  167.705  111.129    3.321
  401.500    0.213    0.455  168.426  113.088    3.193
  401.750    0.223    0.448  168.537  111.995    3.025
  402.000    0.227    0.463  168.649  108.703    2.926
  402.250    0.214    0.485  169.472  107.852    2.894
  402.500    0.220    0.501  171.415  111.339    2.966
  402.750    0.234    0.530  172.340  113.484    3.051
  403.000    0.248    0.544  171.332  113.977    3.181
  403.250    0.261    0.509  169.000  114.226    3.398
  403.500    0.245    0.475  165.955  114.354    3.595
  403.750    0.226    0.459  164.031  114.665    3.762
  404.000    0.216    0.451  163.429  114.487    3.885
  404.250    0.214    0.450  162.828  112.234    3.952
  404.500    0.219    0.454  161.615  107.902    3.953
  404.750    0.218    0.449  159.690  106.259    3.947
  405.000    0.211    0.446  157.868  109.685    3.889
  405.250    0.234    0.451  156.553  101.384    3.847
  405.500    0.295    0.393  154.934   91.434    3.706
  405.750    0.321    0.363  153.823   79.225    3.478
  406.000    0.308    0.374  152.915   83.567    3.215
  406.250    0.293    0.408  151.909   89.740    3.080
  406.500    0.274    0.438  151.916   93.594    3.001
  406.750    0.256    0.458  152.232   96.592    3.002
  407.000    0.240    0.470  152.341   99.835    2.958
  407.250    0.232    0.451  152.758  101.978    2.813
  407.500    0.233    0.446  152.971  104.610    2.571
  407.750    0.242    0.441  152.980   97.835    2.329
  408.000    0.267    0.433  152.990   87.947    2.125
  408.250    0.297    0.426  152.795   80.012    1.957
  408.500    0.324    0.423  152.703   74.766    1.830
  408.750    0.343    0.428  152.712   72.450    1.730
  409.000    0.302    0.435  152.416   70.929    1.911
  409.250    0.268    0.432  152.324   75.087    2.084
  409.500    0.263    0.425  152.129   79.613    2.290
  409.750    0.276    0.426  151.934   81.694    2.450
  410.000    0.279    0.433  151.944   83.228    2.598
  410.250    0.262    0.440  151.649   83.782    2.545
  410.500    0.247    0.432  151.453   85.070    2.452
  410.750    0.236    0.421  151.258   87.336    2.293
  411.000    0.274    0.413  151.369   83.738    2.026
  411.250    0.318    0.410  150.971   76.108    1.804
  411.500    0.332    0.419  149.860   70.923    1.652
  411.750    0.342    0.410  148.343   67.936    1.542
  412.000    0.347    0.400  147.639   68.002    1.500
  412.250    0.339    0.418  149.277   68.252    1.483
  412.500    0.335    0.429  150.712   70.212    1.495
  412.750    0.345    0.435  151.943   72.538    1.509
  413.000    0.342    0.440  152.666   72.543    1.518
  413.250    0.338    0.444  153.080   71.512    1.522
  413.500    0.337    0.437  153.090   71.455    1.528
  413.750    0.340    0.438  152.386   71.644    1.534
  414.000    0.339    0.446  150.870   71.894    1.543
  414.250    0.331    0.443  150.573   72.572    1.555
  414.500    0.327    0.443  150.989   73.065    1.561
  414.750    0.327    0.439  151.812   73.438    1.579
  415.000    0.336    0.445  152.942   73.015    1.604
  415.250    0.331    0.455  153.360   69.845    1.619
  415.500    0.322    0.462  153.367   68.202    1.650
  415.750    0.319    0.454  153.580   68.146    1.763
  416.000    0.309    0.455  153.996   71.083    1.919
  416.250    0.277    0.439  154.616   76.463    2.184
  416.500    0.235    0.416  155.846   85.813    2.418
  416.750    0.205    0.407  157.281   94.675    2.692
  417.000    0.195    0.402  158.919  101.216    2.902
  417.250    0.240    0.406  160.659  102.992    3.094
  417.500    0.261    0.409  159.243   97.073    3.195
  417.750    0.273    0.423  154.671   90.605    3.154
  418.000    0.279    0.435  152.645   86.946    3.039
  418.250    0.272    0.433  154.283   90.982    2.922
  418.500    0.267    0.417  156.837   94.164    2.805
  418.750    0.274    0.415  159.289   94.474    2.749
  419.000    0.285    0.412  160.316   91.609    2.754
  419.250    0.291    0.407  161.245   91.859    2.760
  419.500    0.285    0.418  161.966   97.178    2.792
  419.750    0.230    0.422  162.686  101.887    2.862
  420.000    0.219    0.427  164.119  105.313    3.000
  420.250    0.225    0.461  167.590  108.800    3.175
  420.500    0.222    0.453  170.143   99.888    3.372
  420.750    0.154    0.471  166.691   80.044    3.476
  421.000    0.068    0.478  160.898   71.865    3.419
  421.250    0.063    0.317  157.448   66.740    3.312
  421.500    0.122    0.334  155.624   71.021    3.074
  421.750    0.228    0.355  154.209   76.768    2.874
  422.000    0.259    0.403  153.200   82.209    2.779
  422.250    0.261    0.399  152.801   93.025    2.677
  422.500    0.248    0.433  156.678  102.192    2.668
  422.750    0.227    0.484  164.831  105.679    2.684
