~VERSION INFORMATION
 VERS.                 2.0:   CWLS LOG ASCII STANDARD -VERSION 2.0
 WRAP.                  NO:   ONE LINE PER DEPTH STEP
~WELL INFORMATION BLOCK
#MNEM.UNIT           DATA                    DESCRIPTION OF MNEMONIC
#---------    -------------------            -------------------------------
# Generated from Intellog Unique Number	CS_69_70/WELL/822
NULL.         -999.25                        : NULL_VALUE
WELL.         A.E.C. FISHER                  : Well_name    - WELL              
LOC .         00/07-16-070-04W4/0            : Location     - LOCATION          
UWI .         00/07-16-070-04W4/0            : Uwi          - UNIQUE WELL ID    
ENTR.         SP                             : Entered      - ENTERED BY        
SRVC.         SCHLUMBERGER                   : Scn          - SERVICE COMPANY   
STRT.M        300                            : top_depth    - START DEPTH       
STOP.M        515                            : bot_depth    - STOP DEPTH        
STEP.M        0.25                           : increment    - STEP LENGTH       
~CURVE INFORMATION BLOCK
#MNEM UNIT       ERCB CURVE CODE    CURVE DESCRIPTION
#-----------   ------------------   ----------------------------------
DEPT.M        00 001 00 00         : DEPTH        - DEPTH                       
GR  .API      00 310 00 00         : GR           - GAMMA RAY                   
NPHI.V/V      00 330 00 00         : PHIN         - NEUTRON POROSITY (LIMESTONE)
DPHI.V/V      00 890 00 00         : PHID         - DENSITY POROSITY (LIMESTONE)
ILD .OHMM     00 120 00 00         : RESD         - DEEP RESISTIVITY (DIL)      
~PARAMETER INFORMATION       
#MNEM.UNIT           DATA             DESCRIPTION OF MNEMONIC
#---------         -----------     ------------------------------
GL  .M        677.5                : gl           - GROUND LEVEL ELEVATION      
EREF.M        681                  : kb           - ELEVATION OF DEPTH REFERENCE
DATM.M        677.5                : datum        - DATUM ELEVATION             
TDD .M        536                  : tdd          - TOTAL DEPTH DRILLER         
RUN .         ONE                  : Run          - RUN NUMBER                  
ENG .         BILL                 : Engineer     - RECORDING ENGINEER          
WIT .         JIM                  : Witness      - WITNESSED BY                
MUD .         GEL                  : Mud_type     - MUD TYPE                    
MATR.         LIMESTONE            : Logunit      - NEUTRON MATRIX              
TMAX.C        31                   : BHT          - MAXIMUM RECORDED TEMPERATURE
BHTD.M        536                  : BHTDEP       - MAXIMUM RECORDED TEMPERATURE
MATR.         1                    : LOGUNIT      - NEUTRON MATRIX              
RMT .C        25                   : MDTP         - TEMPERATURE OF MUD          
NEUT.         1                    : NEUTRON      - NEUTRON TYPE                
RESI.         0                    : RESIST       - RESISTIVITY TYPE            
RMC .OHMM     0.25                 : RMC          - RESISTIVITY OF MUD CAKE     
RMF .OHMM     0.25                 : RMF          - RESISTIVITY OF MUD FILTRATE 
SUFT.C        15                   : SUFT         - SURFACE TEMPERATURE         
~A  DEPTH       GR     PHIN     PHID     RESD
# ...
  474.000   79.626    0.432    0.317   11.598
  474.250   82.070    0.417    0.303   10.364
  474.500   85.738    0.407    0.292    9.089
  474.750   84.562    0.398    0.277    8.431
  475.000   83.972    0.398    0.272    8.429
  475.250   83.391    0.385    0.272    9.429
  475.500   83.411    0.373    0.266   10.160
  475.750   88.302    0.360    0.239   10.546
  476.000   93.788    0.356    0.217   10.542
  476.250  101.104    0.355    0.203   10.345
  476.500  101.126    0.367    0.215    9.963
  476.750   95.684    0.378    0.226    9.417
  477.000   85.396    0.367    0.235    9.069
  477.250   79.344    0.347    0.240    8.734
  477.500   79.380    0.379    0.263    8.570
  477.750   81.835    0.488    0.276   12.695
  478.000   83.061    0.444    0.295   19.159
  478.250   60.005    0.398    0.319   22.670
  478.500   51.529    0.375    0.335   26.327
  478.750   55.810    0.364    0.321   28.368
  479.000   61.911    0.391    0.313   25.348
  479.250   65.575    0.405    0.304   19.138
  479.500   69.854    0.411    0.316   15.867
  479.750   71.696    0.415    0.317   14.179
  480.000   71.118    0.411    0.316   12.669
  480.250   71.747    0.398    0.312   12.432
  480.500   69.355    0.388    0.309   12.199
  480.750   70.591    0.384    0.306   11.530
  481.000   74.866    0.365    0.301   10.497
  481.250   78.533    0.350    0.291    9.380
  481.500   80.378    0.354    0.279    9.034
  481.750   81.616    0.363    0.269    8.380
  482.000   81.645    0.356    0.262    7.921
  482.250   83.492    0.347    0.252    7.772
  482.500   85.948    0.346    0.240    7.626
  482.750   88.399    0.349    0.236    7.625
  483.000   89.039    0.349    0.234    7.623
  483.250   88.454    0.364    0.251    7.912
  483.500   86.653    0.390    0.275    8.060
  483.750   83.034    0.406    0.296    8.523
  484.000   77.599    0.406    0.315    9.534
  484.250   76.405    0.396    0.312   10.274
  484.500   77.651    0.385    0.302   11.278
  484.750   74.645    0.390    0.301   11.490
  485.000   72.840    0.387    0.313   11.926
  485.250   73.480    0.386    0.309   12.148
  485.500   76.534    0.394    0.302   11.699
  485.750   80.201    0.399    0.295   11.267
  486.000   83.265    0.408    0.297   10.068
  486.250   84.503    0.415    0.289    9.166
  486.500   94.862    0.395    0.266    8.345
  486.750  103.384    0.385    0.244    7.742
  487.000  113.731    0.412    0.227    7.182
  487.250  120.441    0.438    0.194    6.916
  487.500  120.467    0.436    0.196    6.787
  487.750  117.460    0.390    0.200    6.785
  488.000  114.452    0.373    0.205    6.912
  488.250  112.043    0.371    0.213    7.309
  488.500  109.634    0.389    0.272    7.730
  488.750  104.192    0.412    0.302    7.875
  489.000   93.287    0.390    0.303    8.172
  489.250   83.597    0.357    0.262    8.171
  489.500   75.727    0.348    0.272    8.170
  489.750   70.288    0.342    0.291    7.867
  490.000   73.954    0.335    0.298    7.720
  490.250   80.053    0.332    0.276    7.718
  490.500   86.149    0.345    0.230    7.573
  490.750   96.504    0.393    0.194    7.572
  491.000  105.030    0.419    0.177    7.429
  491.250  112.341    0.430    0.165    7.428
  491.500  116.011    0.378    0.171    7.427
  491.750  109.356    0.354    0.209    7.425
  492.000   95.420    0.342    0.236    7.423
  492.250   90.581    0.338    0.254    7.562
  492.500   88.174    0.330    0.231    7.848
  492.750   93.667    0.347    0.198    7.995
  493.000  100.376    0.377    0.171    8.455
  493.250  104.040    0.416    0.201    8.613
  493.500  107.104    0.444    0.229    8.774
  493.750  106.526    0.382    0.214    8.772
  494.000  104.727    0.386    0.201    8.607
  494.250  104.144    0.396    0.198    8.446
  494.500  102.955    0.379    0.212    8.444
  494.750   99.334    0.385    0.215    8.442
  495.000   95.715    0.392    0.208    8.440
  495.250   97.566    0.395    0.198    8.439
  495.500   98.203    0.398    0.192    8.596
  495.750   97.012    0.406    0.196    8.757
  496.000   92.180    0.393    0.218    8.920
  496.250   86.739    0.381    0.249    9.086
  496.500   82.507    0.377    0.264    9.257
  496.750   77.675    0.371    0.257    9.255
  497.000   78.920    0.368    0.249    9.428
  497.250   81.368    0.375    0.241    9.249
  497.500   85.650    0.382    0.230    9.248
  497.750   89.316    0.384    0.212    9.075
  498.000   91.771    0.380    0.201    8.905
  498.250   88.152    0.373    0.207    8.902
  498.500   84.533    0.368    0.215    9.241
  498.750   86.381    0.366    0.217    9.773
  499.000   89.441    0.361    0.220   10.530
  499.250   87.042    0.366    0.230   11.347
  499.500   82.209    0.382    0.241   12.226
  499.750   78.591    0.389    0.247   13.174
  500.000   75.590    0.397    0.258   14.736
  500.250   74.388    0.373    0.268   15.584
  500.500   70.773    0.350    0.279   16.482
  500.750   66.545    0.342    0.289   18.434
  501.000   61.103    0.356    0.275   19.495
  501.250   58.089    0.363    0.264   20.618
  501.500   61.156    0.374    0.259   21.805
  501.750   62.392    0.403    0.252   23.058
  502.000   54.536    0.395    0.279   23.933
  502.250   52.725    0.391    0.303   24.840
  502.500   48.506    0.405    0.325   25.784
  502.750   46.710    0.419    0.318   27.264
  503.000   46.125    0.393    0.316   27.261
  503.250   49.792    0.397    0.309   27.770
  503.500   54.675    0.410    0.314   25.760
  503.750   58.952    0.409    0.330   25.277
  504.000   46.831    0.394    0.338   25.750
  504.250   41.998    0.384    0.331   26.725
  504.500   51.742    0.394    0.319   25.739
  504.750   63.304    0.401    0.303   24.328
  505.000   73.655    0.407    0.287   20.939
  505.250   56.676    0.404    0.306   18.711
  505.500   50.022    0.415    0.315   19.421
  505.750   53.700    0.399    0.332   20.536
  506.000   64.044    0.382    0.309   20.153
  506.250   78.035    0.377    0.266   16.094
  506.500   88.989    0.398    0.247   13.854
  506.750   95.087    0.403    0.247   11.273
  507.000   86.611    0.368    0.269   10.457
  507.250   82.386    0.352    0.264   10.653
  507.500   91.520    0.385    0.252   11.477
  507.750   99.439    0.384    0.251   11.913
  508.000   89.754    0.376    0.282   11.690
  508.250   90.996    0.366    0.297   11.049
  508.500   93.445    0.365    0.279   10.641
  508.750   88.013    0.374    0.288   10.639
  509.000   86.206    0.371    0.310   10.439
  509.250   83.803    0.361    0.305    9.154
  509.500   83.827    0.354    0.286    8.492
  509.750   86.283    0.350    0.264    8.027
  510.000   91.778    0.354    0.252    7.587
  510.250   97.872    0.384    0.243    7.445
  510.500   94.257    0.390    0.247    7.305
  510.750   89.422    0.370    0.261    7.303
  511.000   91.284    0.356    0.260    7.302
  511.250   93.118    0.370    0.253    7.300
  511.500   94.966    0.388    0.245    7.030
  511.750   99.852    0.367    0.265    6.645
  512.000  108.377    0.362    0.267    6.164
  512.250  113.865    0.380    0.269    5.718
  512.500   93.244    0.386    0.340    5.507
  512.750   76.870    0.369    0.351    5.404
  513.000   65.357    0.363    0.323    5.403
  513.250   73.277    0.351    0.201    5.401
  513.500   70.877    0.269    0.085    6.635
  513.750   61.797    0.228    0.002   10.396
  514.000   55.744    0.193   -0.003   14.833
  514.250   47.876    0.173   -0.002   17.884
  514.500   45.469    0.173   -0.001   24.122
  514.750   44.885    0.173   -0.001   30.763
  515.000   46.131    0.174   -0.001   37.789
