~VERSION INFORMATION
 VERS.                 2.0:   CWLS LOG ASCII STANDARD -VERSION 2.0
 WRAP.                  NO:   ONE LINE PER DEPTH STEP
~WELL INFORMATION BLOCK
#MNEM.UNIT           DATA                    DESCRIPTION OF MNEMONIC
#---------    -------------------            -------------------------------
# Generated from Intellog Unique Number	CW_70_72/WELL/549
NULL.         -999.25                        : NULL_VALUE
WELL.         CZAR ET AL CALLW 06-03         : Well_name    - WELL              
LOC .         06-03-071-19W4                 : Location     - LOCATION          
UWI .         00/06-03-071-19W4/0            : Uwi          - UNIQUE WELL ID    
ENTR.         JAYE                           : Entered      - ENTERED BY        
SRVC.         SCHLUMBERGER                   : Scn          - SERVICE COMPANY   
DATE.         13 DEC 80                      : Date         - LOG DATE          
STRT.M        315                            : top_depth    - START DEPTH       
STOP.M        480                            : bot_depth    - STOP DEPTH        
STEP.M        0.25                           : increment    - STEP LENGTH       
~CURVE INFORMATION BLOCK
#MNEM UNIT       ERCB CURVE CODE    CURVE DESCRIPTION
#-----------   ------------------   ----------------------------------
DEPT.M        00 001 00 00         : DEPTH        - DEPTH                       
DPHI.V/V      00 890 00 00         : PHID         - DENSITY POROSITY (SANDSTONE)
NPHI.V/V      00 330 00 00         : PHIN         - NEUTRON POROSITY (SANDSTONE)
GR  .API      00 310 00 00         : GR           - GAMMA RAY                   
CALI.MM       00 280 01 00         : CAL          - CALIPER                     
ILD .OHMM     00 120 00 00         : RESD         - DEEP RESISTIVITY (DIL)      
~PARAMETER INFORMATION       
#MNEM.UNIT           DATA             DESCRIPTION OF MNEMONIC
#---------         -----------     ------------------------------
GL  .M        586.5                : gl           - GROUND LEVEL ELEVATION      
EREF.M        589.7                : kb           - ELEVATION OF DEPTH REFERENCE
DATM.M        586.5                : datum        - DATUM ELEVATION             
TDD .M        563                  : tdd          - TOTAL DEPTH DRILLER         
RUN .         ONE                  : Run          - RUN NUMBER                  
ENG .         BRANDSTROM           : Engineer     - RECORDING ENGINEER          
WIT .         JOHNSON              : Witness      - WITNESSED BY                
BASE.         EDM                  : Branch       - HOME BASE OF LOGGING UNIT   
MUD .         GEL CHEM             : Mud_type     - MUD TYPE                    
MATR.         SANDSTONE            : Logunit      - NEUTRON MATRIX              
TMAX.C        27.7                 : BHT          - MAXIMUM RECORDED TEMPERATURE
BHTD.M        564                  : BHTDEP       - MAXIMUM RECORDED TEMPERATURE
RMT .C        2.8                  : MDTP         - TEMPERATURE OF MUD          
MUDD.KG/M     1040                 : MWT          - MUD DENSITY                 
NEUT.         1                    : NEUTRON      - NEUTRON TYPE                
RESI.         0                    : RESIST       - RESISTIVITY TYPE            
RM  .OHMM     2.73                 : RM           - RESISTIVITY OF MUD          
RMC .OHMM     0                    : RMC          - RESISTIVITY OF MUD CAKE     
RMF .OHMM     2.35                 : RMF          - RESISTIVITY OF MUD FILTRATE 
SUFT.C        0                    : SUFT         - SURFACE TEMPERATURE         
~A  DEPTH     PHID     PHIN       GR      CAL     RESD
# ...
  461.000    0.180    0.396   95.094  162.727    6.608
  461.250    0.162    0.391   93.676  160.984    6.172
  461.500    0.145    0.383   92.755  162.243    5.853
  461.750    0.170    0.389   91.896  164.951    5.356
  462.000    0.233    0.391   90.788  166.519    4.947
  462.250    0.347    0.380   90.239  166.953    4.369
  462.500    0.376    0.396   90.560  169.036    3.560
  462.750    0.495    0.446   90.384  179.297    2.951
  463.000    0.516    0.519   88.097  269.344    2.501
  463.250    0.532    0.573   85.312  259.117    2.599
  463.500    0.561    0.595   84.950  233.261    3.016
  463.750    0.411    0.475   88.127  200.371    3.547
  464.000    0.182    0.446   91.986  179.898    4.226
  464.250    0.159    0.428   85.725  168.636    4.969
  464.500    0.129    0.410   78.905  169.584    5.670
  464.750    0.126    0.395   76.059  170.945    6.387
  465.000    0.175    0.380   77.002  171.896    6.613
  465.250    0.255    0.385   80.984  173.776    6.461
  465.500    0.373    0.444   86.148  177.516    6.230
  465.750    0.327    0.460   91.125  179.087    6.019
  466.000    0.247    0.427   94.426  180.860    5.794
  466.250    0.312    0.385   92.139  196.192    5.463
  466.500    0.353    0.386   89.231  226.220    5.269
  466.750    0.372    0.412   88.930  223.443    5.353
  467.000    0.369    0.442   86.271  199.140    5.701
  467.250    0.212    0.427   80.009  175.149    6.291
  467.500    0.080    0.361   74.370  164.817    6.787
  467.750    0.120    0.336   74.938  162.870    7.001
  468.000    0.146    0.327   80.599  162.266    6.840
  468.250    0.156    0.344   83.216  162.902    6.450
  468.500    0.085    0.371   82.295  165.195    5.539
  468.750    0.102    0.357   81.437  171.214    4.496
  469.000    0.179    0.416   86.786  185.097    3.818
  469.250    0.243    0.476   92.383  220.195    3.366
  469.500    0.272    0.531   92.830  249.496    3.086
  469.750    0.304    0.515   91.908  269.796    2.970
  470.000    0.329    0.503   90.613  277.988    2.929
  470.250    0.369    0.499   89.505  260.413    2.949
  470.500    0.327    0.539   89.082  242.837    2.997
  470.750    0.337    0.552   89.588  241.612    3.173
  471.000    0.437    0.557   89.971  248.563    3.449
  471.250    0.408    0.540   88.802  253.961    3.806
  471.500    0.348    0.509   83.347  204.409    4.199
  471.750    0.332    0.488   86.028  183.419    4.497
  472.000    0.315    0.459   89.950  181.469    4.735
  472.250    0.332    0.458   94.305  197.526    4.894
  472.500    0.372    0.494   96.240  231.898    4.917
  472.750    0.465    0.487   96.685  244.541    4.969
  473.000    0.447    0.482   98.806  234.107    5.031
  473.250    0.375    0.495   95.898  222.326    5.103
  473.500    0.347    0.458   97.896  209.096    5.185
  473.750    0.328    0.434  100.139  206.939    5.249
  474.000    0.346    0.408  103.130  224.238    5.345
  474.250    0.396    0.440  103.264  248.987    5.482
  474.500    0.368    0.452   95.142  235.034    5.624
  474.750    0.308    0.439   94.530  212.181    5.768
  475.000    0.227    0.402   96.216  187.983    5.742
  475.250    0.252    0.395   98.027  188.724    5.558
  475.500    0.315    0.430   99.341  236.756    5.039
  475.750    0.343    0.497  100.220  232.324    4.769
  476.000    0.365    0.540  101.286  237.722    5.514
  476.250    0.400    0.534  104.152  228.425    6.460
  476.500    0.197    0.371  103.790  201.123    7.798
  476.750    0.043    0.336   95.107  184.168    9.378
  477.000    0.015    0.314   89.964  172.492   11.027
  477.250    0.036    0.287   93.389  168.058   11.875
  477.500    0.059    0.251   98.428  167.870   11.324
  477.750    0.062    0.306  107.378  168.096   10.114
  478.000    0.050    0.324  112.294  168.420   10.452
  478.250    0.018    0.288   92.994  168.851   12.854
  478.500   -0.000    0.210   70.714  169.179   15.958
  478.750    0.009    0.187   68.118  169.504   18.245
  479.000    0.033    0.190   70.175  169.522   19.832
  479.250    0.038    0.197   69.689  169.436   19.448
  479.500    0.030    0.209   71.376  168.935   18.861
  479.750    0.026    0.217   74.987  168.434   17.067
  480.000    0.027    0.221   78.908  168.140   14.383
