~VERSION INFORMATION
 VERS.                 2.0:   CWLS LOG ASCII STANDARD -VERSION 2.0
 WRAP.                  NO:   ONE LINE PER DEPTH STEP
~WELL INFORMATION BLOCK
#MNEM.UNIT           DATA                    DESCRIPTION OF MNEMONIC
#---------    -------------------            -------------------------------
# Generated from Intellog Unique Number	CC_80_83/WELL/2297
NULL.         -999.25                        : NULL_VALUE
WELL.         CWWE HANGST                    : Well_name    - WELL
LOC .         07-17-082-10W4                 : Location     - LOCATION          
UWI .         00/07-17-082-10W400            : Uwi          - UNIQUE WELL ID    
ENTR.         DW                             : Entered      - ENTERED BY        
SRVC.         SCHLUMBERGER                   : Scn          - SERVICE COMPANY   
DATE.         10 JAN 85                      : Date         - LOG DATE
STRT.M        250                            : top_depth    - START DEPTH       
STOP.M        474.991                        : bot_depth    - STOP DEPTH        
STEP.M        0.3                            : increment    - STEP LENGTH       
~CURVE INFORMATION BLOCK
#MNEM UNIT       ERCB CURVE CODE    CURVE DESCRIPTION
#-----------   ------------------   ----------------------------------
DEPT.M        00 001 00 00         : DEPTH        - DEPTH                       
DPHI.V/V      00 890 00 00         : PHID         - DENSITY POROSITY (LIMESTONE)
NPHI.V/V      00 330 00 00         : PHIN         - NEUTRON POROSITY (LIMESTONE)
GR  .API      00 310 00 00         : GR           - GAMMA RAY                   
ILD .OHMM     00 120 00 00         : RESD         - DEEP RESISTIVITY (DIL)      
~PARAMETER INFORMATION       
#MNEM.UNIT           DATA             DESCRIPTION OF MNEMONIC
#---------         -----------     ------------------------------
GL  .M        701.6                : gl           - GROUND LEVEL ELEVATION      
EREF.M        705.7                : kb           - ELEVATION OF DEPTH REFERENCE
DATM.M        705.7                : datum        - DATUM ELEVATION             
TDD .M        477                  : tdd          - TOTAL DEPTH DRILLER         
RUN .         ONE                  : Run          - RUN NUMBER                  
ENG .         BILL                 : Engineer     - RECORDING ENGINEER          
WIT .         JIM                  : Witness      - WITNESSED BY                
MUD .         GEL                  : Mud_type     - MUD TYPE                    
MATR.         LIMESTONE            : Logunit      - NEUTRON MATRIX              
TMAX.C        19                   : BHT          - MAXIMUM RECORDED TEMPERATURE
BHTD.M        479                  : BHTDEP       - MAXIMUM RECORDED TEMPERATURE
MATR.         1                    : LOGUNIT      - NEUTRON MATRIX              
RMT .C        25                   : MDTP         - TEMPERATURE OF MUD          
NEUT.         1                    : NEUTRON      - NEUTRON TYPE                
RESI.         0                    : RESIST       - RESISTIVITY TYPE            
RMC .OHMM     0.25                 : RMC          - RESISTIVITY OF MUD CAKE     
RMF .OHMM     0.25                 : RMF          - RESISTIVITY OF MUD FILTRATE 
SUFT.C        15                   : SUFT         - SURFACE TEMPERATURE         
~A  DEPTH     PHID     PHIN       GR     RESD
# ...
  406.594    0.257    0.462   82.997    6.684
  406.894    0.266    0.464   84.860    7.219
  407.194    0.261    0.459   86.076    7.219
  407.494    0.256    0.434   87.946    7.503
  407.794    0.256    0.429   89.174    7.949
  408.094    0.265    0.451   88.507    8.261
  408.394    0.267    0.445   89.103    8.422
  408.694    0.279    0.437   90.341    8.421
  408.994    0.273    0.447   89.672    7.796
  409.294    0.264    0.461   82.049    6.427
  409.594    0.305    0.473   75.687    5.508
  409.894    0.323    0.510   74.394    4.123
  410.194    0.312    0.596   73.096    2.181
  410.494    0.292    0.613   71.794    1.943
  410.794    0.270    0.600   71.128    1.943
  411.094    0.255    0.422   72.988    2.697
  411.394    0.251    0.410   78.648    4.203
  411.694    0.255    0.406   83.038    5.400
  411.994    0.256    0.423   78.574    5.947
  412.294    0.255    0.410   76.641    6.424
  412.594    0.252    0.405   78.509    6.548
  412.894    0.259    0.405   88.589    6.300
  413.194    0.289    0.424   88.549    4.717
  413.494    0.301    0.453   92.308    3.600
  413.794    0.302    0.477   87.219    3.269
  414.094    0.239    0.495   77.704    3.463
  414.394    0.218    0.505   75.137    4.200
  414.694    0.258    0.408   82.052    5.502
  414.994    0.277    0.427   87.714    5.830
  415.294    0.280    0.445   87.677    5.397
  415.594    0.285    0.458   94.594    4.449
  415.894    0.284    0.487   97.096    3.740
  416.194    0.282    0.535   95.153    3.396
  416.494    0.289    0.536   93.855    3.205
  416.794    0.272    0.527   96.342    3.204
  417.094    0.266    0.534   96.941    3.267
  417.393    0.270    0.498   96.916    3.529
  417.693    0.274    0.491   84.237    3.886
  417.993    0.270    0.476   81.045    4.197
  418.293    0.266    0.496   87.333    4.362
  418.593    0.270    0.472   93.613    4.447
  418.893    0.270    0.478   94.211    4.362
  419.193    0.267    0.496   99.232    4.196
  419.493    0.273    0.465  100.446    4.116
  419.793    0.265    0.491   99.794    3.960
  420.093    0.248    0.510   99.132    3.960
  420.393    0.235    0.517   94.040    4.115
  420.693    0.242    0.486   83.258    4.360
  420.993    0.261    0.425   59.200    5.712
  421.293    0.300    0.376   45.883    7.483
  421.593    0.319    0.305   39.529   12.598
  421.893    0.311    0.290   39.494   20.803
  422.193    0.319    0.280   41.989   27.783
  422.493    0.318    0.248   40.057   32.419
  422.793    0.315    0.254   31.796   36.395
  423.093    0.317    0.238   40.612   36.394
  423.393    0.316    0.197   39.952   33.045
  423.693    0.329    0.254   33.595   26.213
  423.993    0.337    0.287   29.127   21.200
  424.293    0.331    0.312   28.466   14.979
  424.593    0.311    0.344   31.594   12.114
  424.893    0.297    0.373   27.129   14.691
  425.193    0.284    0.351   20.139   27.237
  425.493    0.231    0.287   20.738   29.994
  425.793    0.245    0.298   34.616   28.305
  426.093    0.258    0.339  112.978   14.407
  426.393    0.249    0.393  114.210    7.621
  426.693    0.243    0.432  107.856    7.055
  426.993    0.227    0.415  100.233    7.475
  427.293    0.213    0.388  100.195    7.920
  427.593    0.202    0.369  103.945    9.241
  427.893    0.213    0.367  105.176    9.791
  428.193    0.236    0.390  103.889    9.981
  428.493    0.256    0.495   83.620   10.992
  428.793    0.251    0.403   65.881   17.804
  429.093    0.266    0.321   53.830   31.759
  429.393    0.299    0.350   46.205   38.516
  429.693    0.311    0.367   47.433   48.547
  429.993    0.298    0.374   54.347   53.461
  430.293    0.304    0.374   54.950   54.499
  430.593    0.315    0.366   54.922   51.431
  430.893    0.268    0.363   64.374   34.964
  431.193    0.226    0.343   79.510   23.315
  431.493    0.240    0.344   82.636   19.597
  431.793    0.232    0.352   87.026   18.141
  432.093    0.209    0.386   91.415   15.848
  432.393    0.172    0.411   94.543   12.572
  432.693    0.161    0.382   93.883   11.864
  432.993    0.166    0.367   81.198   11.637
  433.293    0.204    0.377   69.142   12.094
  433.593    0.274    0.376   67.854   13.318
  433.893    0.283    0.387   75.400   18.133
  434.193    0.261    0.370   82.324   22.419
  434.493    0.232    0.363   88.614   21.157
  434.793    0.258    0.390   84.150   15.840
  435.093    0.226    0.422   82.850   12.810
  435.393    0.216    0.413   74.600   11.191
  435.693    0.321    0.404   68.875   10.767
  435.993    0.400    0.409   85.279   11.190
  436.293    0.461    0.485   92.198   10.560
  436.593    0.252    0.567   45.374    9.049
  436.893    0.329    0.432   39.010   11.406
  437.193    0.343    0.373   41.512   14.942
  437.493    0.309    0.365   38.312   34.253
  437.793    0.299    0.406   30.056   80.049
  438.093    0.329    0.410   23.695   77.014
  438.393    0.334    0.362   25.563   65.996
  438.693    0.282    0.373   50.184   56.553
  438.993    0.264    0.380   58.374   35.590
  439.293    0.254    0.380   65.929   27.164
  439.593    0.237    0.342   73.477   22.397
  439.893    0.226    0.317   82.929   17.767
  440.193    0.193    0.313   92.997   14.648
  440.493    0.184    0.327   96.127   12.077
  440.793    0.220    0.351   97.993   10.966
  441.093    0.233    0.344   97.964   10.348
  441.393    0.219    0.371   87.811   10.150
  441.693    0.212    0.413   77.028   11.396
  441.992    0.208    0.369   83.318   13.043
  442.292    0.232    0.378   97.823   13.042
  442.592    0.242    0.401  108.536   11.393
  442.892    0.230    0.421  112.298   10.148
  443.192    0.266    0.440   93.296    9.576
  443.492    0.273    0.392   85.042    9.762
  443.792    0.209    0.344   97.650   10.343
  444.092    0.211    0.348   99.515   12.544
  444.392    0.235    0.371   84.931   14.357
  444.692    0.266    0.396   58.980   17.750
  444.992    0.294    0.414   40.609   28.752
  445.292    0.310    0.400   32.982   59.848
  445.592    0.316    0.379   29.788  117.571
  445.892    0.327    0.369   29.752  157.023
  446.192    0.326    0.364   29.088  176.285
  446.492    0.322    0.366   26.512  244.701
  446.792    0.328    0.368   25.222  222.183
  447.092    0.321    0.352   32.778  179.688
  447.392    0.249    0.315   70.046   76.879
  447.692    0.257    0.330   76.967   29.297
  447.992    0.277    0.362   77.558   20.700
  448.292    0.277    0.363   79.427   18.084
  448.592    0.267    0.360   85.082   17.398
  448.892    0.223    0.376   88.201   17.397
  449.192    0.214    0.406   87.538   16.738
  449.492    0.260    0.421   79.921   17.063
  449.792    0.264    0.346   75.451   19.156
  450.092    0.339    0.378   66.782   71.114
  450.392    0.338    0.378   76.338   75.352
  450.692    0.287    0.401   80.804   69.755
  450.992    0.285    0.407   80.816   53.242
  451.292    0.287    0.396   70.657   36.196
  451.592    0.273    0.391   68.124   32.867
  451.892    0.288    0.360   63.688   32.239
  452.192    0.278    0.352   61.155   32.867
  452.492    0.253    0.345   68.167   30.426
  452.792    0.227    0.325   85.988   24.607
  453.092    0.234    0.333   84.094   21.498
  453.392    0.266    0.351   72.025   20.684
  453.692    0.276    0.358   65.681   22.344
  453.992    0.282    0.358   63.148   25.575
  454.292    0.285    0.367   67.615   26.074
  454.592    0.254    0.377   82.256   25.087
  454.892    0.223    0.348   91.174   21.917
  455.192    0.216    0.332   89.281   17.726
  455.492    0.252    0.348   80.389   15.486
  455.792    0.283    0.364   70.865   14.900
  456.092    0.203    0.343   82.963   14.900
  456.392    0.192    0.339   86.157   14.900
  456.692    0.240    0.355   77.904   14.615
  456.992    0.263    0.378   69.648   14.336
  457.292    0.288    0.389   69.026   17.726
  457.592    0.262    0.406   75.401   20.684
  457.892    0.255    0.409   76.054   22.344
  458.192    0.230    0.373   77.335   19.521
  458.492    0.194    0.374   88.163   14.062
