~VERSION INFORMATION
 VERS.                 2.0:   CWLS LOG ASCII STANDARD -VERSION 2.0
 WRAP.                  NO:   ONE LINE PER DEPTH STEP
~WELL INFORMATION BLOCK
#MNEM.UNIT           DATA                    DESCRIPTION OF MNEMONIC
#---------    -------------------            -------------------------------
# Generated from Intellog Unique Number	CW_70_72/WELL/2900
NULL.         -999.25                        : NULL_VALUE
WELL.         SUNCOR GAMBLER                 : Well_name    - WELL              
LOC .         06-24-070-21W4                 : Location     - LOCATION          
UWI .         00/06-24-070-21W4/0            : Uwi          - UNIQUE WELL ID    
ENTR.         MAX                            : Entered      - ENTERED BY        
SRVC.         SCHLUMBERGER                   : Scn          - SERVICE COMPANY   
DATE.         23 FEB 80                      : Date         - LOG DATE
STRT.M        385                            : top_depth    - START DEPTH       
STOP.M        555                            : bot_depth    - STOP DEPTH        
STEP.M        0.25                           : increment    - STEP LENGTH       
~CURVE INFORMATION BLOCK
#MNEM UNIT       ERCB CURVE CODE    CURVE DESCRIPTION
#-----------   ------------------   ----------------------------------
DEPT.M        00 001 00 00         : DEPTH        - DEPTH                       
ILD .OHMM     00 120 00 00         : RESD         - DEEP RESISTIVITY (DIL)      
NPHI.V/V      00 330 00 00         : PHIN         - NEUTRON POROSITY (SANDSTONE)
DPHI.V/V      00 890 00 00         : PHID         - DENSITY POROSITY (SANDSTONE)
CALI.MM       00 280 01 00         : CAL          - CALIPER                     
GR  .API      00 310 00 00         : GR           - GAMMA RAY                   
~PARAMETER INFORMATION       
#MNEM.UNIT           DATA             DESCRIPTION OF MNEMONIC
#---------         -----------     ------------------------------
GL  .M        645.78               : gl           - GROUND LEVEL ELEVATION      
EREF.M        649.13               : kb           - ELEVATION OF DEPTH REFERENCE
DATM.M        645.78               : datum        - DATUM ELEVATION             
TDD .M        569                  : tdd          - TOTAL DEPTH DRILLER         
RUN .         ONE                  : Run          - RUN NUMBER                  
ENG .         BILL                 : Engineer     - RECORDING ENGINEER          
WIT .         JIM                  : Witness      - WITNESSED BY                
MUD .         GEL                  : Mud_type     - MUD TYPE                    
MATR.         SANDSTONE            : Logunit      - NEUTRON MATRIX              
TMAX.C        39                   : BHT          - MAXIMUM RECORDED TEMPERATURE
BHTD.M        569                  : BHTDEP       - MAXIMUM RECORDED TEMPERATURE
RMT .C        12.2                 : MDTP         - TEMPERATURE OF MUD          
MUDD.KG/M     1050                 : MWT          - MUD DENSITY                 
NEUT.         1                    : NEUTRON      - NEUTRON TYPE                
RESI.         0                    : RESIST       - RESISTIVITY TYPE            
RM  .OHMM     3.03                 : RM           - RESISTIVITY OF MUD          
RMC .OHMM     0.25                 : RMC          - RESISTIVITY OF MUD CAKE     
RMF .OHMM     3.94                 : RMF          - RESISTIVITY OF MUD FILTRATE 
SUFT.C        -20                  : SUFT         - SURFACE TEMPERATURE         
~A  DEPTH     RESD     PHIN     PHID      CAL       GR
# ...
  531.000    6.157    0.422    0.156  199.717   91.293
  531.250    6.697    0.409    0.141  199.743   88.014
  531.500    7.421    0.411    0.079  200.284   80.838
  531.750    8.772    0.385    0.042  199.811   76.064
  532.000   11.065    0.321    0.013  199.863   73.681
  532.250   13.081    0.309   -0.003  198.871   68.901
  532.500   14.359    0.294    0.003  197.906   56.029
  532.750   15.053    0.214    0.044  197.932   51.853
  533.000   14.786    0.221    0.083  197.966   57.264
  533.250   13.120    0.301    0.104  197.992   68.675
  533.500   11.014    0.370    0.115  198.522   76.787
  533.750    8.585    0.400    0.116  200.054   75.608
  534.000    7.207    0.389    0.115  200.584   75.624
  534.250    6.824    0.383    0.118  201.109   78.941
  534.500    6.892    0.398    0.124  201.147   87.053
  534.750    6.961    0.399    0.127  201.177   91.270
  535.000    6.902    0.393    0.123  201.199   94.285
  535.250    6.908    0.402    0.113  201.729   97.900
  535.500    6.913    0.409    0.109  202.262   97.021
  535.750    7.114    0.405    0.118  202.292   94.339
  536.000    7.252    0.394    0.120  202.322   93.163
  536.250    7.461    0.368    0.092  202.356   93.478
  536.500    7.749    0.357    0.074  202.386   93.494
  536.750    8.048    0.354    0.064  202.416   92.613
  537.000    8.054    0.339    0.098  202.449   93.232
  537.250    7.987    0.363    0.144  202.475   95.346
  537.500    8.067    0.365    0.151  202.502   99.568
  537.750    7.709    0.367    0.153  202.535  101.380
  538.000    7.433    0.384    0.160  202.565  102.897
  538.250    6.974    0.405    0.146  202.595  102.615
  538.500    6.850    0.392    0.130  202.625  102.338
  538.750    6.792    0.366    0.123  201.660  101.154
  539.000    6.924    0.352    0.117  200.690  100.870
  539.250    7.059    0.353    0.093  199.721   95.792
  539.500    7.399    0.346    0.048  199.252   87.717
  539.750    7.684    0.325    0.050  199.781   80.243
  540.000    7.343    0.351    0.103  200.810   87.153
  540.250    7.016    0.387    0.129  200.840   95.868
  540.500    6.705    0.391    0.136  200.870   93.788
  540.750    6.586    0.389    0.160  201.400   92.905
  541.000    6.293    0.391    0.167  200.930   94.124
  541.250    5.743    0.375    0.189  200.460   96.242
  541.500    5.095    0.397    0.207  199.991   98.057
  541.750    4.276    0.452    0.205  199.521   98.674
  542.000    3.938    0.491    0.182  198.552   92.395
  542.250    3.978    0.554    0.146  198.582   82.521
  542.500    4.131    0.557    0.058  198.612   72.347
  542.750    4.411    0.384    0.077  198.645   72.367
  543.000    4.887    0.367    0.123  198.675   76.582
  543.250    5.365    0.379    0.153  198.709   75.998
  543.500    6.226    0.397    0.114  199.734   72.721
  543.750    6.964    0.400    0.111  200.764   72.441
  544.000    6.905    0.375    0.112  201.793   76.953
  544.250    6.783    0.370    0.110  202.326   84.166
  544.500    6.482    0.398    0.128  203.859   87.481
  544.750    6.137    0.416    0.157  206.886   91.998
  545.000    5.973    0.428    0.169  211.413   92.915
  545.250    6.032    0.429    0.158  218.933   88.436
  545.500    6.382    0.427    0.120  220.469   83.059
  545.750    6.815    0.414    0.055  215.000   76.782
  546.000    7.620    0.350   -0.001  206.033   63.308
  546.250    8.762    0.261    0.019  201.570   58.530
  546.500    9.891    0.262    0.033  200.601   61.847
  546.750    9.808    0.287    0.079  200.627   66.062
  547.000    9.114    0.314    0.171  202.163   75.373
  547.250    7.939    0.399    0.205  208.185   80.487
  547.500    6.851    0.433    0.172  221.715   86.502
  547.750    6.193    0.448    0.131  220.235   89.222
  548.000    5.864    0.410    0.105  215.269   89.536
  548.250    5.604    0.386    0.115  207.809   89.553
  548.500    5.504    0.398    0.157  212.331   90.773
  548.750    5.408    0.415    0.179  233.348   87.491
  549.000    5.312    0.422    0.195  230.880   81.816
  549.250    5.317    0.429    0.201  214.423   81.832
  549.500    5.471    0.434    0.188  208.462   84.852
  549.750    5.681    0.438    0.175  211.493   85.767
  550.000    5.739    0.445    0.199  215.516   80.089
  550.250    5.796    0.448    0.114  208.048   77.112
  550.500    5.854    0.435    0.098  203.086   78.631
  550.750    5.913    0.426    0.196  202.616   79.846
  551.000    5.973    0.432    0.238  204.648   82.561
  551.250    5.979    0.447    0.252  208.168   84.378
  551.500    6.038    0.457    0.277  221.195   82.298
  551.750    6.043    0.430    0.293  227.716   81.416
  552.000    6.161    0.430    0.307  227.250   82.933
  552.250    6.223    0.446    0.280  213.288   84.750
  552.500    6.228    0.418    0.199  221.811   82.669
  552.750    6.175    0.420    0.339  258.319   81.790
  553.000    5.956    0.469    0.330  256.347   83.904
  553.250    5.796    0.504    0.306  242.888   86.620
  553.500    5.748    0.494    0.241  225.432   84.240
  553.750    5.969    0.477    0.235  218.471   80.661
  554.000    7.529    0.431    0.050  216.007   77.384
  554.250   10.909    0.272    0.062  210.533   76.500
  554.500   31.937    0.278    0.086  197.574   74.424
  554.750   42.584    0.294    0.172  194.610   72.939
  555.000   48.967    0.309    0.173  196.135   71.460
