~VERSION INFORMATION
 VERS.                 2.0:   CWLS LOG ASCII STANDARD -VERSION 2.0
 WRAP.                  NO:   ONE LINE PER DEPTH STEP
~WELL INFORMATION BLOCK
#MNEM.UNIT           DATA                    DESCRIPTION OF MNEMONIC
#---------    -------------------            -------------------------------
# Generated from Intellog Unique Number	CS_71_72/WELL/811
WELL.         BVX ET AL NIXON                : Well_name    - WELL
LOC .         00/07-13-072-17W4/0            : Location     - LOCATION
UWI .         00/07-13-072-17W4/0            : Uwi          - UNIQUE WELL ID
ENTR.         SP                             : Entered      - ENTERED BY
SRVC.         SCHLUMBERGER                   : Scn          - SERVICE COMPANY
STRT.M        250                            : top_depth    - START DEPTH
STOP.M        421                            : bot_depth    - STOP DEPTH
STEP.M        0.25                           : increment    - STEP LENGTH
 NULL. -999.2500:NULL Value
~CURVE INFORMATION BLOCK
#MNEM UNIT       ERCB CURVE CODE    CURVE DESCRIPTION
#-----------   ------------------   ----------------------------------
DEPT.M        00 001 00 00         : DEPTH        - DEPTH
GR  .API      00 310 00 00         : GR           - GAMMA RAY
DPHI.V/V      00 890 00 00         : PHID         - DENSITY POROSITY (LIMESTONE)
NPHI.V/V      00 330 00 00         : PHIN         - NEUTRON POROSITY (LIMESTONE)
ILD .OHMM     00 120 00 00         : RESD         - DEEP RESISTIVITY (DIL)
~PARAMETER INFORMATION
#MNEM.UNIT           DATA             DESCRIPTION OF MNEMONIC
#---------         -----------     ------------------------------
GL  .M        572.9                : gl           - GROUND LEVEL ELEVATION
EREF.M        576                  : kb           - ELEVATION OF DEPTH REFERENCE
DATM.M        572.9                : datum        - DATUM ELEVATION
TDD .M        426                  : tdd          - TOTAL DEPTH DRILLER
RUN .         ONE                  : Run          - RUN NUMBER
ENG .         BILL                 : Engineer     - RECORDING ENGINEER
WIT .         JIM                  : Witness      - WITNESSED BY
MUD .         GEL                  : Mud_type     - MUD TYPE
MATR.         LIMESTONE            : Logunit      - NEUTRON MATRIX
TMAX.C        20                   : BHT          - MAXIMUM RECORDED TEMPERATURE
BHTD.M        426                  : BHTDEP       - MAXIMUM RECORDED TEMPERATURE
MATR.         1                    : LOGUNIT      - NEUTRON MATRIX
RMT .C        25                   : MDTP         - TEMPERATURE OF MUD
NEUT.         1                    : NEUTRON      - NEUTRON TYPE
RESI.         0                    : RESIST       - RESISTIVITY TYPE
RMC .OHMM     0.25                 : RMC          - RESISTIVITY OF MUD CAKE
RMF .OHMM     0.25                 : RMF          - RESISTIVITY OF MUD FILTRATE
SUFT.C        15                   : SUFT         - SURFACE TEMPERATURE
~A  DEPTH       GR     PHID     PHIN     RESD
  250.000  133.815    0.247    0.474    3.425
  250.250  135.632    0.258    0.483    3.450
  250.500  138.665    0.272    0.468    3.327
  250.750  140.480    0.237    0.473    3.151
  251.000  134.508    0.234    0.485    2.983
  251.250  135.730    0.259    0.496    2.877
  251.500  135.758    0.273    0.485    2.827
  251.750  137.582    0.286    0.469    2.777
  252.000  137.004    0.302    0.471    2.884
  252.250  134.031    0.295    0.482    2.994
  252.500  131.657    0.280    0.493    3.109
  252.750  132.891    0.258    0.497    3.170
  253.000  133.508    0.232    0.506    3.115
  253.250  136.536    0.217    0.520    3.004
  253.500  140.152    0.238    0.512    2.951
  253.750  144.975    0.246    0.496    2.899
  254.000  140.210    0.259    0.459    2.901
  254.250  138.433    0.252    0.446    2.958
  254.500  137.856    0.230    0.455    3.072
  254.750  135.474    0.217    0.468    3.131
  255.000  133.703    0.208    0.485    3.133
  255.250  133.724    0.230    0.500    3.079
  255.500  127.150    0.224    0.488    2.969
  255.750  122.970    0.246    0.491    2.863
  256.000  118.794    0.279    0.509    2.865
  256.250  124.824    0.319    0.529    2.975
  256.500  118.246    0.416    0.552    3.327
  256.750  106.873    0.468    0.581    3.584
  257.000   94.300    0.486    0.599    4.082
  257.250   87.117    0.461    0.451    4.480
  257.500   80.540    0.325    0.430    4.740
  257.750   77.581    0.317    0.407    4.656
  258.000   76.999    0.319    0.393    4.327
  258.250   81.213    0.325    0.392    3.949
  258.500   75.837    0.333    0.378    3.671
  258.750   69.865    0.349    0.385    3.673
  259.000   77.690    0.349    0.395    3.745
  259.250   88.517    0.325    0.394    3.888
  259.500  101.145    0.334    0.385    4.038
  259.750  109.565    0.293    0.395    4.271
  260.000  119.189    0.263    0.405    4.602
  260.250  122.217    0.262    0.414    4.868
  260.500  118.639    0.262    0.390    4.872
  260.750  118.062    0.286    0.402    4.876
  261.000  118.701    0.293    0.407    4.879
  261.250  122.322    0.281    0.413    4.975
  261.500  125.942    0.278    0.418    5.166
  261.750  128.959    0.288    0.425    5.364
  262.000  133.186    0.272    0.405    5.570
  262.250  135.614    0.260    0.408    5.678
  262.500  137.435    0.252    0.408    5.577
  262.750  136.261    0.241    0.400    5.582
  263.000  129.095    0.232    0.392    5.586
  263.250  126.109    0.254    0.383    5.695
  263.500  123.133    0.260    0.372    5.914
  263.750  124.956    0.266    0.352    6.255
  264.000  127.385    0.277    0.320    6.616
  264.250  126.204    0.242    0.328    6.999
  264.500  123.228    0.209    0.341    7.135
  264.750  119.656    0.177    0.355    7.139
  265.000  111.878    0.162    0.360    6.515
  265.250   98.705    0.149    0.350    6.055
  265.500   92.726    0.129    0.344    5.425
  265.750   87.949    0.100    0.351    5.135
  266.000   83.177    0.151    0.365    4.953
  266.250   80.197    0.265    0.373    4.690
  266.500   78.428    0.298    0.373    4.522
  266.750   80.855    0.302    0.377    4.362
  267.000   79.679    0.292    0.372    4.285
  267.250   80.297    0.300    0.363    4.289
  267.500   85.723    0.293    0.358    4.373
  267.750   93.548    0.281    0.353    4.458
  268.000  101.373    0.292    0.368    4.460
  268.250  111.599    0.338    0.404    4.549
  268.500  121.820    0.367    0.434    4.468
  268.750  132.047    0.420    0.463    4.390
  269.000  137.486    0.466    0.519    4.312
  269.250  139.300    0.357    0.487    4.082
  269.500  146.525    0.364    0.490    3.865
  269.750  151.344    0.387    0.489    3.593
  270.000  151.382    0.406    0.498    3.529
  270.250  151.406    0.303    0.514    3.467
  270.500  152.031    0.313    0.521    3.471
  270.750  152.647    0.301    0.502    3.410
  271.000  153.277    0.320    0.481    3.349
  271.250  153.895    0.327    0.493    3.114
  271.500  153.916    0.270    0.506    2.948
  271.750  154.554    0.222    0.497    2.843
  272.000  154.565    0.203    0.485    2.742
  272.250  152.796    0.160    0.489    2.795
  272.500  151.614    0.304    0.498    3.125
  272.750  151.639    0.332    0.516    3.625
  273.000  145.666    0.323    0.496    4.283
  273.250  142.689    0.274    0.447    5.064
  273.500  142.113    0.282    0.406    5.559
  273.750  143.944    0.285    0.410    5.665
  274.000  144.569    0.306    0.419    5.883
  274.250  143.391    0.340    0.422    5.998
  274.500  133.810    0.381    0.422    6.001
  274.750  123.040    0.342    0.443    5.896
  275.000  117.658    0.364    0.452    5.686
  275.250  119.487    0.347    0.468    5.587
  275.500  123.120    0.270    0.446    5.592
  275.750  122.531    0.237    0.462    5.596
  276.000  113.559    0.271    0.469    5.702
  276.250  106.979    0.253    0.437    5.813
  276.500  108.210    0.294    0.416    6.037
  276.750  111.228    0.306    0.409    6.155
  277.000  114.855    0.300    0.423    6.392
  277.250  116.078    0.290    0.430    6.395
  277.500  107.721    0.283    0.435    6.520
  277.750  105.343    0.277    0.419    6.525
  278.000  103.560    0.267    0.416    6.410
  278.250  110.180    0.273    0.426    6.415
  278.500  112.007    0.291    0.431    6.188
  278.750  113.830    0.285    0.419    6.079
  279.000  117.457    0.296    0.412    6.082
  279.250  119.877    0.297    0.406    5.976
  279.500  121.699    0.281    0.418    5.981
  279.750  124.138    0.295    0.419    6.097
  280.000  125.957    0.295    0.404    6.215
  280.250  127.174    0.288    0.399    6.222
  280.500  130.802    0.283    0.405    6.340
  280.750  133.834    0.265    0.427    6.345
  281.000  136.255    0.249    0.438    6.233
  281.250  136.873    0.241    0.439    6.012
  281.500  135.700    0.243    0.436    5.693
  281.750  138.723    0.267    0.426    5.697
  282.000  143.547    0.276    0.425    5.701
  282.250  150.773    0.282    0.421    5.812
  282.500  154.997    0.267    0.401    6.150
  282.750  157.420    0.250    0.409    6.267
  283.000  153.245    0.228    0.418    6.389
  283.250  147.871    0.261    0.427    6.512
  283.500  143.095    0.254    0.442    6.639
  283.750  140.116    0.278    0.439    6.896
  284.000  140.144    0.245    0.391    7.028
  284.250  143.774    0.232    0.366    7.034
  284.500  146.803    0.211    0.364    7.039
  284.750  148.019    0.206    0.379    6.787
  285.000  149.840    0.206    0.385    6.193
  285.250  154.067    0.192    0.400    5.251
  285.500  164.293    0.181    0.413    4.970
  285.750  164.320    0.171    0.431    4.452
  286.000  158.341    0.176    0.458    4.138
  286.250  145.164    0.201    0.487    4.298
  286.500  133.796    0.249    0.464    4.631
  286.750  128.420    0.272    0.442    4.897
  287.000  123.041    0.281    0.426    5.277
  287.250  117.659    0.249    0.415    5.480
  287.500  111.083    0.238    0.414    5.799
  287.750  117.113    0.229    0.419    5.909
  288.000  123.137    0.279    0.422    5.804
  288.250  129.764    0.266    0.415    5.705
  288.500  135.187    0.278    0.410    5.707
  288.750  138.807    0.290    0.404    6.038
  289.000  134.641    0.296    0.410    6.156
  289.250  131.057    0.300    0.403    6.273
  289.500  122.084    0.295    0.394    6.051
  289.750  127.578    0.289    0.393    5.729
  290.000  129.330    0.283    0.415    5.229
  290.250  130.563    0.301    0.425    4.950
  290.500  132.390    0.291    0.440    4.953
  290.750  134.805    0.258    0.447    5.747
  291.000  129.435    0.281    0.499    6.667
  291.250  123.456    0.299    0.493    7.453
  291.500  115.677    0.307    0.482    8.180
  291.750  110.908    0.305    0.460    8.980
  292.000  114.531    0.292    0.448    8.986
  292.250  119.358    0.269    0.424    8.829
  292.500  120.587    0.219    0.438    8.514
  292.750  121.198    0.247    0.441    7.628
  293.000  128.430    0.232    0.432    6.960
  293.250  133.848    0.228    0.427    6.469
