~VERSION INFORMATION
 VERS.                 2.0:   CWLS LOG ASCII STANDARD -VERSION 2.0
 WRAP.                  NO:   ONE LINE PER DEPTH STEP
~WELL INFORMATION BLOCK
#MNEM.UNIT           DATA                    DESCRIPTION OF MNEMONIC
#---------    -------------------            -------------------------------
# Generated from Intellog Unique Number	CW_79_81/WELL/502
WELL.         06-16-079-21W4                 : Well_name    - WELL
LOC .         00/06-16-079-21W4/0            : Location     - LOCATION
UWI .         00/06-16-079-21W4/0            : Uwi          - UNIQUE WELL ID
ENTR.         MAX                            : Entered      - ENTERED BY
SRVC.         SCHLUMBERGER                   : Scn          - SERVICE COMPANY
STRT.M        195                            : top_depth    - START DEPTH
STOP.M        425                            : bot_depth    - STOP DEPTH
STEP.M        0.25                           : increment    - STEP LENGTH
 NULL. -999.2500:NULL Value
~CURVE INFORMATION BLOCK
#MNEM UNIT       ERCB CURVE CODE    CURVE DESCRIPTION
#-----------   ------------------   ----------------------------------
DEPT.M        00 001 00 00         : DEPTH        - DEPTH
ILD .OHMM     00 120 00 00         : RESD         - DEEP RESISTIVITY (DIL)
NPHI.V/V      00 330 00 00         : PHIN         - NEUTRON POROSITY (SANDSTONE)
DPHI.V/V      00 890 00 00         : PHID         - DENSITY POROSITY (SANDSTONE)
CALI.MM       00 280 01 00         : CAL          - CALIPER
GR  .API      00 310 00 00         : GR           - GAMMA RAY
~PARAMETER INFORMATION
#MNEM.UNIT           DATA             DESCRIPTION OF MNEMONIC
#---------         -----------     ------------------------------
GL  .M        563.5                : gl           - GROUND LEVEL ELEVATION
EREF.M        566.8                : kb           - ELEVATION OF DEPTH REFERENCE
DATM.M        563.5                : datum        - DATUM ELEVATION
TDD .M        435                  : tdd          - TOTAL DEPTH DRILLER
RUN .         ONE                  : Run          - RUN NUMBER
ENG .         BILL                 : Engineer     - RECORDING ENGINEER
WIT .         JIM                  : Witness      - WITNESSED BY
MUD .         GEL                  : Mud_type     - MUD TYPE
MATR.         SANDSTONE            : Logunit      - NEUTRON MATRIX
TMAX.C        27.2                 : BHT          - MAXIMUM RECORDED TEMPERATURE
BHTD.M        435                  : BHTDEP       - MAXIMUM RECORDED TEMPERATURE
RMT .C        15.6                 : MDTP         - TEMPERATURE OF MUD
MUDD.KG/M     1130                 : MWT          - MUD DENSITY
NEUT.         1                    : NEUTRON      - NEUTRON TYPE
RESI.         0                    : RESIST       - RESISTIVITY TYPE
RM  .OHMM     5.35                 : RM           - RESISTIVITY OF MUD
RMC .OHMM     0.25                 : RMC          - RESISTIVITY OF MUD CAKE
RMF .OHMM     6                    : RMF          - RESISTIVITY OF MUD FILTRATE
SUFT.C        -5                   : SUFT         - SURFACE TEMPERATURE
~A  DEPTH     RESD     PHIN     PHID      CAL       GR
# ...
  231.500    9.842    0.420    0.237  167.078   80.981
  231.750    7.979    0.446    0.229  170.140   83.111
  232.000    7.701    0.439    0.217  170.709   84.059
  232.250    7.578    0.445    0.264  170.294   82.613
  232.500    7.442    0.457    0.302  168.867   79.075
  232.750    7.591    0.463    0.294  167.459   75.245
  233.000    8.179    0.469    0.288  167.035   73.804
  233.250    9.141    0.456    0.298  166.114   71.464
  233.500    9.941    0.443    0.261  166.187   71.215
  233.750   10.327    0.442    0.224  166.250   70.961
  234.000   10.247    0.433    0.211  167.821   68.610
  234.250    9.888    0.424    0.277  169.393   67.461
  234.500    9.114    0.430    0.303  168.960   68.702
  234.750    8.403    0.448    0.318  168.039   70.533
  235.000    8.415    0.459    0.322  167.624   71.471
  235.250    8.821    0.479    0.304  166.703   69.131
  235.500    9.503    0.469    0.306  166.279   64.699
  235.750   10.430    0.460    0.316  166.352   61.465
  236.000   11.345    0.451    0.317  165.928   62.413
  236.250   11.463    0.445    0.311  165.503   63.649
  236.500   11.482    0.451    0.317  165.079   64.581
  236.750   11.386    0.448    0.327  165.657   66.417
  237.000   10.498    0.441    0.331  167.725   69.142
  237.250    8.909    0.432    0.313  168.782   72.469
  237.500    7.224    0.444    0.304  171.825   81.153
  237.750    6.782    0.436    0.278  171.898   89.540
  238.000    6.426    0.447    0.263  173.469   96.447
  238.250    6.376    0.460    0.262  173.541   99.167
  238.500    6.808    0.467    0.266  172.621   98.322
  238.750    7.821    0.452    0.258  175.673   98.062
  239.000    9.673    0.433    0.243  173.759   97.807
  239.250    9.774    0.422    0.237  171.854   93.977
  239.500    9.611    0.426    0.248  174.915   92.829
  239.750    9.709    0.428    0.259  173.994   89.297
  240.000   10.366    0.432    0.261  173.561   84.275
  240.250   12.023    0.402    0.264  170.663   77.764
  240.500   13.688    0.385    0.269  171.241   68.868
  240.750   14.351    0.376    0.282  173.282   64.437
  241.000   14.503    0.380    0.300  174.854   59.117
  241.250   14.519    0.396    0.319  172.443   54.989
  241.500   13.635    0.395    0.326  168.543   57.119
  241.750   13.281    0.399    0.327  169.618   62.834
  242.000   14.050    0.421    0.288  173.157   63.170
  242.250   15.562    0.431    0.311  170.747   58.148
  242.500   14.885    0.400    0.322  168.345   56.404
  242.750   13.974    0.387    0.316  168.914   64.796
  243.000   12.762    0.386    0.308  168.481   71.990
  243.250   10.832    0.399    0.300  166.585   79.786
  243.500    8.945    0.401    0.281  167.155   84.001
  243.750    8.877    0.417    0.261  167.715   90.015
  244.000    9.219    0.425    0.263  168.284   87.973
  244.250    9.577    0.413    0.270  169.358   86.819
  244.500    8.127    0.403    0.262  172.410   88.948
  244.750    7.771    0.416    0.276  173.982   91.673
  245.000    6.186    0.427    0.284  176.528   96.489
  245.250    5.015    0.476    0.304  184.050  109.058
  245.500    4.179    0.490    0.284  177.170  113.869
  245.750    3.887    0.507    0.163  171.283  115.104
  246.000    3.857    0.521    0.163  171.365  118.138
  246.250    3.935    0.519    0.193  170.435  118.469
  246.500    3.975    0.515    0.204  170.020  116.724
  246.750    3.980    0.513    0.201  171.095  117.369
  247.000    3.913    0.522    0.184  171.158  120.094
  247.250    3.811    0.528    0.174  171.727  124.309
  247.500    3.713    0.535    0.197  173.795  125.247
  247.750    3.717    0.519    0.218  175.348  123.800
  248.000    3.756    0.503    0.204  173.940  125.036
  248.250    3.625    0.487    0.189  174.509  127.170
  248.500    3.162    0.516    0.195  175.087  125.432
  248.750    2.684    0.522    0.243  175.656  121.596
  249.000    2.591    0.536    0.266  180.686  118.362
  249.250    2.643    0.536    0.266  184.235  114.532
  249.500    3.150    0.487    0.280  179.350  111.889
  249.750    3.859    0.453    0.261  177.942  109.548
  250.000    5.377    0.433    0.235  178.014  111.981
  250.250    6.650    0.421    0.230  178.087  113.216
  250.500    7.036    0.430    0.239  176.679  113.856
  250.750    6.729    0.434    0.227  176.742  116.884
  251.000    6.377    0.422    0.216  177.808  119.913
  251.250    5.878    0.428    0.226  178.368  119.366
  251.500    5.570    0.445    0.219  176.472  121.192
  251.750    5.628    0.445    0.220  174.071  109.008
  252.000    6.233    0.445    0.250  173.132  100.411
  252.250    7.163    0.442    0.276  170.721   91.516
  252.500    9.105    0.441    0.293  167.336   87.084
  252.750    9.287    0.450    0.308  166.415   82.062
  253.000    8.483    0.473    0.326  167.481   81.808
  253.250    6.568    0.491    0.356  170.018   86.332
  253.500    5.836    0.533    0.354  173.070   91.435
  253.750    5.790    0.520    0.298  175.644   93.277
  254.000    5.960    0.495    0.248  175.707   89.138
  254.250    6.306    0.484    0.252  174.796   85.612
  254.500    7.179    0.467    0.258  175.356   86.251
  254.750    8.479    0.450    0.253  172.449   86.896
  255.000    7.001    0.454    0.255  168.052   91.106
  255.250    5.372    0.479    0.256  169.623   96.523
  255.500    4.644    0.494    0.248  175.655   96.269
  255.750    4.052    0.495    0.258  173.244   98.105
  256.000    3.947    0.477    0.267  172.829   98.436
  256.250    4.062    0.462    0.257  172.902   98.187
  256.500    4.219    0.473    0.251  170.491   97.039
  256.750    4.342    0.472    0.257  169.074   94.400
  257.000    4.469    0.480    0.249  169.137   92.060
  257.250    4.601    0.500    0.253  174.194   92.998
  257.500    4.691    0.498    0.258  172.271   92.147
  257.750    4.740    0.495    0.260  175.323   92.489
  258.000    4.660    0.491    0.265  171.919   90.154
  258.250    4.660    0.493    0.259  171.495   87.808
  258.500    4.587    0.500    0.267  175.062   87.554
  258.750    4.347    0.505    0.260  171.640   88.193
  259.000    4.195    0.498    0.259  172.227   90.030
  259.250    3.975    0.499    0.267  174.783   89.776
  259.500    3.872    0.502    0.266  174.855   88.633
  259.750    3.913    0.504    0.262  173.438   86.883
  260.000    4.294    0.509    0.268  173.502   76.790
  260.250    5.119    0.507    0.288  172.084   66.405
  260.500    7.894    0.489    0.310  168.184   60.782
  260.750    9.941    0.446    0.327  165.792   56.362
  261.000   11.316    0.431    0.349  164.862   57.305
  261.250   14.124    0.434    0.363  166.424   58.535
  261.500   15.933    0.442    0.363  168.483   57.088
  261.750   16.552    0.439    0.366  168.555   55.349
  262.000   16.570    0.434    0.368  164.673   54.792
  262.250   16.289    0.431    0.363  163.744   54.537
  262.500   15.869    0.431    0.358  160.827   55.474
  262.750   15.457    0.434    0.359  161.397   56.710
  263.000   14.652    0.439    0.333  163.970   58.850
  263.250   14.652    0.442    0.306  163.058   58.893
  263.500   14.549    0.446    0.287  162.616   58.633
  263.750   14.172    0.454    0.309  163.185   59.273
  264.000   14.062    0.461    0.317  163.764   55.443
  264.250   14.738    0.466    0.338  161.841   50.129
  264.500   15.452    0.447    0.358  162.915   46.895
  264.750   15.332    0.442    0.368  163.493   45.741
  265.000   15.493    0.436    0.364  163.069   46.976
  265.250   16.092    0.437    0.363  163.151   49.712
  265.500   16.559    0.453    0.363  162.709   50.054
  265.750   17.202    0.456    0.364  161.788   51.587
  266.000   17.380    0.449    0.363  162.366   52.828
  266.250   17.567    0.444    0.370  162.935   51.376
  266.500   17.751    0.433    0.364  161.021   50.818
  266.750   17.937    0.433    0.356  161.094   52.953
  267.000   17.957    0.448    0.360  159.180   55.976
  267.250   18.148    0.458    0.363  158.765   55.126
  267.500   18.170    0.463    0.369  160.824   50.705
  267.750   18.029    0.446    0.370  163.379   51.350
