~VERSION INFORMATION
 VERS.                 2.0:   CWLS LOG ASCII STANDARD -VERSION 2.0
 WRAP.                  NO:   ONE LINE PER DEPTH STEP
~WELL INFORMATION BLOCK
#MNEM.UNIT           DATA                    DESCRIPTION OF MNEMONIC
#---------    -------------------            -------------------------------
# Generated from Intellog Unique Number	CS_71_72/WELL/689
WELL.         AEC IPIATIK                    : Well_name    - WELL
LOC .         00/05-21-071-04W4/0            : Location     - LOCATION
UWI .         00/05-21-071-04W4/0            : Uwi          - UNIQUE WELL ID
ENTR.         SP                             : Entered      - ENTERED BY
SRVC.         SCHLUMBERGER                   : Scn          - SERVICE COMPANY
STRT.M        290                            : top_depth    - START DEPTH
STOP.M        505                            : bot_depth    - STOP DEPTH
STEP.M        0.25                           : increment    - STEP LENGTH
 NULL. -999.2500:NULL Value
~CURVE INFORMATION BLOCK
#MNEM UNIT       ERCB CURVE CODE    CURVE DESCRIPTION
#-----------   ------------------   ----------------------------------
DEPT.M        00 001 00 00         : DEPTH        - DEPTH
ILD .OHMM     00 120 00 00         : RESD         - DEEP RESISTIVITY (DIL)
DPHI.V/V      00 890 00 00         : PHID         - DENSITY POROSITY (LIMESTONE)
NPHI.V/V      00 330 00 00         : PHIN         - NEUTRON POROSITY (LIMESTONE)
GR  .API      00 310 00 00         : GR           - GAMMA RAY
~PARAMETER INFORMATION
#MNEM.UNIT           DATA             DESCRIPTION OF MNEMONIC
#---------         -----------     ------------------------------
GL  .M        673.76               : gl           - GROUND LEVEL ELEVATION
EREF.M        677.96               : kb           - ELEVATION OF DEPTH REFERENCE
DATM.M        673.76               : datum        - DATUM ELEVATION
TDD .M        594                  : tdd          - TOTAL DEPTH DRILLER
RUN .         ONE                  : Run          - RUN NUMBER
ENG .         BILL                 : Engineer     - RECORDING ENGINEER
WIT .         JIM                  : Witness      - WITNESSED BY
MUD .         GEL                  : Mud_type     - MUD TYPE
MATR.         LIMESTONE            : Logunit      - NEUTRON MATRIX
TMAX.C        21                   : BHT          - MAXIMUM RECORDED TEMPERATURE
BHTD.M        594                  : BHTDEP       - MAXIMUM RECORDED TEMPERATURE
MATR.         1                    : LOGUNIT      - NEUTRON MATRIX
RMT .C        25                   : MDTP         - TEMPERATURE OF MUD
NEUT.         1                    : NEUTRON      - NEUTRON TYPE
RESI.         0                    : RESIST       - RESISTIVITY TYPE
RMC .OHMM     0.25                 : RMC          - RESISTIVITY OF MUD CAKE
RMF .OHMM     0.25                 : RMF          - RESISTIVITY OF MUD FILTRATE
SUFT.C        15                   : SUFT         - SURFACE TEMPERATURE
~A  DEPTH     RESD     PHID     PHIN       GR
# ...
  464.000   45.779    0.337    0.404   42.242
  464.250   52.279    0.327    0.407   41.836
  464.500   50.783    0.306    0.400   39.314
  464.750   46.833    0.300    0.396   34.675
  465.000   39.862    0.302    0.371   30.400
  465.250   27.299    0.304    0.362   26.550
  465.500   21.896    0.336    0.424   24.632
  465.750   18.092    0.403    0.527   23.441
  466.000   14.458    0.428    0.578   25.097
  466.250   14.335    0.552    0.608   26.567
  466.500   14.780    0.595    0.633   29.251
  466.750   14.066    0.628    0.680   32.835
  467.000    9.758    0.643    0.718   49.127
  467.250    6.584    0.649    0.703   68.868
  467.500    4.304    0.646    0.614   85.705
  467.750    3.117    0.635    0.566   91.289
  468.000    2.955    0.306    0.551   96.210
  468.250    3.145    0.271    0.543   99.133
  468.500    3.449    0.253    0.529   98.972
  468.750    3.569    0.238    0.512   98.204
  469.000    3.727    0.224    0.491   97.921
  469.250    3.857    0.214    0.482   95.460
  469.500    3.917    0.203    0.483   97.235
  469.750    3.927    0.198    0.492   97.798
  470.000    3.930    0.195    0.498   96.849
  470.250    3.940    0.193    0.500   98.504
  470.500    3.988    0.197    0.497  101.185
  470.750    4.035    0.211    0.478  102.715
  471.000    4.069    0.205    0.468  103.703
  471.250    4.066    0.213    0.477  101.244
  471.500    4.061    0.220    0.493  100.477
  471.750    4.057    0.215    0.502  101.826
  472.000    4.083    0.209    0.510  103.179
  472.250    4.068    0.215    0.509  103.318
  472.500    4.071    0.214    0.505  103.035
  472.750    4.097    0.209    0.500  102.388
  473.000    4.123    0.209    0.497  100.654
  473.250    4.188    0.211    0.492  101.944
  473.500    4.382    0.189    0.496  100.936
  473.750    4.594    0.175    0.506   98.656
  474.000    4.790    0.159    0.498   94.138
  474.250    4.920    0.135    0.484   91.436
  474.500    4.833    0.113    0.485   94.601
  474.750    4.677    0.092    0.489   99.037
  475.000    4.612    0.169    0.482   99.358
  475.250    4.772    0.203    0.466   97.806
  475.500    5.390    0.200    0.455   94.014
  475.750    6.007    0.196    0.449   91.312
  476.000    6.417    0.189    0.449   89.940
  476.250    6.163    0.178    0.441   89.657
  476.500    5.779    0.173    0.420   90.523
  476.750    5.542    0.176    0.403   91.813
  477.000    5.526    0.181    0.408   92.922
  477.250    5.643    0.195    0.413   94.273
  477.500    5.939    0.211    0.413   94.958
  477.750    6.462    0.199    0.413   94.614
  478.000    7.070    0.191    0.422   90.641
  478.250    7.222    0.203    0.430   85.156
  478.500    6.797    0.228    0.444   78.763
  478.750    6.291    0.245    0.444   78.480
  479.000    5.989    0.238    0.431   81.645
  479.250    5.871    0.228    0.422   83.298
  479.500    5.997    0.222    0.419   82.413
  479.750    6.240    0.219    0.419   80.493
  480.000    6.854    0.210    0.418   76.763
  480.250    7.252    0.213    0.417   67.467
  480.500    7.631    0.245    0.431   62.283
  480.750    8.763    0.272    0.427   62.121
  481.000   10.621    0.257    0.413   60.145
  481.250   12.130    0.247    0.416   53.450
  481.500   10.210    0.256    0.436   48.146
  481.750    9.736    0.285    0.446   52.160
  482.000   10.419    0.291    0.427   56.413
  482.250   11.296    0.259    0.411   51.233
  482.500   12.176    0.241    0.414   45.322
  482.750   14.034    0.254    0.428   37.722
  483.000   17.522    0.299    0.442   31.871
  483.250   20.387    0.308    0.449   29.776
  483.500   21.412    0.320    0.463   28.343
  483.750   20.802    0.351    0.490   27.758
  484.000   19.254    0.357    0.507   27.840
  484.250   18.187    0.368    0.513   27.432
  484.500   17.150    0.389    0.523   26.124
  484.750   16.846    0.415    0.524   24.809
  485.000   16.610    0.453    0.529   23.924
  485.250   15.926    0.487    0.559   24.187
  485.500   14.606    0.516    0.584   24.570
  485.750   13.494    0.545    0.581   25.495
  486.000   12.725    0.563    0.570   26.479
  486.250   12.335    0.560    0.563   27.528
  486.500   11.680    0.573    0.603   27.972
  486.750   11.533    0.591    0.625   27.385
  487.000   11.204    0.602    0.637   26.804
  487.250   10.903    0.605    0.626   26.517
  487.500   10.415    0.607    0.621   26.959
  487.750    9.766    0.608    0.644   27.525
  488.000    9.209    0.608    0.661   28.092
  488.250    9.063    0.608    0.668   28.542
  488.500    9.207    0.607    0.654   28.550
  488.750    9.368    0.608    0.642   28.570
  489.000    9.641    0.608    0.652   27.563
  489.250    9.435    0.608    0.668   26.498
  489.500    9.183    0.610    0.680   25.966
  489.750    9.309    0.611    0.672   25.027
  490.000    9.545    0.611    0.657   24.740
  490.250    9.883    0.611    0.665   24.453
  490.500    9.978    0.611    0.687   24.659
  490.750   10.152    0.611    0.705   25.401
  491.000   10.623    0.611    0.721   26.387
  491.250   11.178    0.610    0.713   27.198
  491.500   11.654    0.609    0.671   27.885
  491.750   12.219    0.608    0.643   28.086
  492.000   12.905    0.606    0.642   27.799
  492.250   13.835    0.605    0.663   26.851
  492.500   14.831    0.601    0.636   25.659
  492.750   15.869    0.586    0.608   25.677
  493.000   17.596    0.543    0.600   26.120
  493.250   18.408    0.471    0.605   26.805
  493.500   19.993    0.442    0.614   27.672
  493.750   21.916    0.431    0.651   28.726
  494.000   24.249    0.427    0.670   28.982
  494.250   27.848    0.434    0.649   29.303
  494.500   31.390    0.437    0.630   28.355
  494.750   37.139    0.429    0.622   27.347
  495.000   44.594    0.426    0.613   27.066
  495.250   49.989    0.417    0.602   27.870
  495.500   46.700    0.410    0.588   29.340
  495.750   39.022    0.425    0.552   30.873
  496.000   31.773    0.411    0.514   32.828
  496.250   28.969    0.371    0.492   34.964
  496.500   26.514    0.334    0.473   37.649
  496.750   23.386    0.354    0.453   39.967
  497.000   20.855    0.339    0.448   42.223
  497.250   18.425    0.308    0.454   45.269
  497.500   15.224    0.282    0.438   47.947
  497.750   11.874    0.293    0.410   53.048
  498.000    9.384    0.245    0.398   57.120
  498.250    7.870    0.233    0.392   53.026
  498.500    6.775    0.270    0.369   55.771
  498.750    6.121    0.250    0.347   57.305
  499.000    5.602    0.238    0.334   55.747
  499.250    5.118    0.211    0.349   47.965
  499.500    4.790    0.264    0.378   41.390
  499.750    4.893    0.295    0.364   37.900
  500.000    6.201    0.292    0.341   40.402
  500.250    8.465    0.015    0.290   42.357
  500.500   12.850   -0.015    0.254   43.343
  500.750   15.719    0.008    0.205   43.668
  501.000   19.052    0.020    0.191   43.506
  501.250   20.846    0.013    0.197   43.587
  501.500   21.773   -0.002    0.203   43.663
  501.750   22.323    0.009    0.204   44.108
  502.000   22.549    0.018    0.201   45.033
  502.250   22.232    0.029    0.200   47.353
  502.500   21.636    0.020    0.203   48.520
  502.750   25.266    0.016    0.205   47.575
  503.000   32.867    0.027    0.203   42.027
  503.250   40.132    0.035    0.187   32.004
  503.500   45.321    0.028    0.156   26.216
  503.750   50.334    0.033    0.111   24.179
  504.000   53.260    0.037    0.105   22.686
  504.250   53.800    0.025    0.107   22.706
  504.500   51.875    0.017    0.112   22.725
  504.750   49.281    0.014    0.119   22.989
  505.000   47.781    0.028    0.122   23.129
