~VERSION INFORMATION
 VERS.                 2.0:   CWLS LOG ASCII STANDARD -VERSION 2.0
 WRAP.                  NO:   ONE LINE PER DEPTH STEP
~WELL INFORMATION BLOCK
#MNEM.UNIT           DATA                    DESCRIPTION OF MNEMONIC
#---------    -------------------            -------------------------------
# Generated from Intellog Unique Number	CW_82_90/WELL/3433
WELL.         TEXEX WOODEN                   : Well_name    - WELL
LOC .         00/07-35-088-24W4/0            : Location     - LOCATION
UWI .         00/07-35-088-24W4/0            : Uwi          - UNIQUE WELL ID
ENTR.         MAX                            : Entered      - ENTERED BY
SRVC.         SCHLUMBERGER                   : Scn          - SERVICE COMPANY
STRT.M        60.96                          : top_depth    - START DEPTH
STOP.M        304.71                         : bot_depth    - STOP DEPTH
STEP.M        0.25                           : increment    - STEP LENGTH
 NULL. -999.2500:NULL Value
~CURVE INFORMATION BLOCK
#MNEM UNIT       ERCB CURVE CODE    CURVE DESCRIPTION
#-----------   ------------------   ----------------------------------
DEPT.M        00 001 00 00         : DEPTH        - DEPTH
ILD .OHMM     00 120 00 00         : RESD         - DEEP RESISTIVITY (DIL)
NPHI.V/V      00 330 00 00         : PHIN         - NEUTRON POROSITY (SANDSTONE)
DPHI.V/V      00 890 00 00         : PHID         - DENSITY POROSITY (SANDSTONE)
CALI.MM       00 280 01 00         : CAL          - CALIPER
GR  .API      00 310 00 00         : GR           - GAMMA RAY
~PARAMETER INFORMATION
#MNEM.UNIT           DATA             DESCRIPTION OF MNEMONIC
#---------         -----------     ------------------------------
GL  .M        524.866              : gl           - GROUND LEVEL ELEVATION
EREF.M        527.914              : kb           - ELEVATION OF DEPTH REFERENCE
DATM.M        524.866              : datum        - DATUM ELEVATION
TDD .M        304.495              : tdd          - TOTAL DEPTH DRILLER
RUN .         ONE                  : Run          - RUN NUMBER
ENG .         BILL                 : Engineer     - RECORDING ENGINEER
WIT .         JIM                  : Witness      - WITNESSED BY
MUD .         GEL                  : Mud_type     - MUD TYPE
MATR.         SANDSTONE            : Logunit      - NEUTRON MATRIX
TMAX.C        14.4444              : BHT          - MAXIMUM RECORDED TEMPERATURE
BHTD.M        304.495              : BHTDEP       - MAXIMUM RECORDED TEMPERATURE
MATR.         1                    : LOGUNIT      - NEUTRON MATRIX
RMT .C        6.66667              : MDTP         - TEMPERATURE OF MUD
NEUT.         1                    : NEUTRON      - NEUTRON TYPE
RESI.         0                    : RESIST       - RESISTIVITY TYPE
RMC .OHMM     4.24                 : RMC          - RESISTIVITY OF MUD CAKE
RMF .OHMM     4.24                 : RMF          - RESISTIVITY OF MUD FILTRATE
SUFT.C        -23.3333             : SUFT         - SURFACE TEMPERATURE
~A  DEPTH     RESD     PHIN     PHID      CAL       GR
# ...
  243.460    7.963    0.409    0.206  320.769   70.212
  243.710    8.245    0.403    0.210  321.234   68.298
  243.960    8.614    0.392    0.211  322.218   66.068
  244.210    9.327    0.384    0.186  322.665   65.098
  244.460   10.097    0.385    0.171  323.649   65.056
  244.710   10.550    0.371    0.156  324.097   65.014
  244.960   10.924    0.350    0.118  324.562   64.039
  245.210   10.628    0.364    0.152  325.018   63.064
  245.460   10.341    0.385    0.191  326.520   63.318
  245.710   10.061    0.383    0.207  328.013   64.221
  245.960    9.965    0.378    0.192  329.014   66.347
  246.210    9.609    0.376    0.179  329.989   67.560
  246.460    9.431    0.379    0.159  330.981   68.758
  246.710    9.425    0.380    0.168  331.964   69.645
  246.960    9.502    0.381    0.184  332.921   70.231
  247.210    9.580    0.383    0.189  332.869   70.501
  247.460    9.746    0.391    0.188  331.209   68.903
  247.710    9.826    0.376    0.184  329.039   66.050
  247.960    9.818    0.359    0.175  326.843   63.831
  248.210    9.637    0.357    0.159  326.237   62.223
  248.460    9.212    0.371    0.169  325.640   62.186
  248.710    8.649    0.379    0.179  323.988   64.951
  248.960    7.697    0.394    0.203  322.855   68.016
  249.210    7.292    0.419    0.190  322.267   67.352
  249.460    7.285    0.404    0.176  320.615   66.366
  249.710    7.477    0.390    0.187  318.964   66.636
  249.960    7.676    0.376    0.189  316.777   67.538
  250.210    8.090    0.380    0.173  313.545   66.252
  250.460    8.303    0.399    0.160  307.669   59.981
  250.710    8.150    0.395    0.138  303.383   51.221
  250.960    7.518    0.385    0.096  299.089   44.333
  251.210    6.573    0.417    0.136  300.608   43.980
  251.460    5.400    0.494    0.174  303.172   59.810
  251.710    4.281    0.536    0.195  298.868   64.742
  251.960    3.844    0.510    0.216  299.325   65.317
  252.210    3.945    0.486    0.203  297.156   64.975
  252.460    4.426    0.462    0.194  294.969   60.872
  252.710    5.055    0.426    0.168  293.844   58.658
  252.960    5.671    0.404    0.133  293.238   56.749
  253.210    6.535    0.401    0.138  292.641   56.697
  253.460    7.011    0.407    0.137  292.043   58.217
  253.710    7.133    0.419    0.124  290.919   60.047
  253.960    7.127    0.435    0.144  289.786   61.873
  254.210    6.996    0.439    0.167  288.661   63.698
  254.460    6.991    0.440    0.187  288.046   65.508
  254.710    6.986    0.441    0.198  286.931   64.855
  254.960    7.169    0.445    0.202  283.172   63.257
  255.210    7.358    0.442    0.196  279.949   62.899
  255.460    7.486    0.429    0.181  275.654   64.719
  255.710    7.547    0.427    0.164  272.931   67.790
  255.960    7.608    0.427    0.190  270.235   70.855
  256.210    7.603    0.427    0.184  261.197   72.063
  256.460    7.598    0.427    0.167  250.588   72.644
  256.710    7.592    0.425    0.162  247.856   72.603
  256.960    8.002    0.416    0.152  247.803   66.337
  257.210    9.140    0.379    0.131  246.679   56.332
  257.460   10.816    0.336    0.094  239.758   45.705
  257.710   13.503    0.292    0.023  231.239   43.169
  257.960   16.708    0.218    0.008  229.579   45.928
  258.210   23.209    0.306    0.039  228.999   51.804
  258.460   28.715    0.391    0.171  227.866   56.430
  258.710   28.188    0.384    0.172  227.269   58.567
  258.960   24.647    0.368    0.011  227.725   55.097
  259.210   19.713    0.378    0.018  228.700   51.321
  259.460   17.388    0.375    0.187  230.210   47.851
  259.710   16.921    0.341    0.128  231.712   45.004
  259.960   16.609    0.308    0.046  232.169   44.340
  260.210   15.872    0.283    0.057  232.107   45.543
  260.460   14.904    0.359    0.173  232.036   47.996
  260.710   13.747    0.390    0.218  231.948   51.061
  260.960   12.345    0.410    0.232  231.887   52.876
  261.210   10.323    0.423    0.239  231.808   52.534
  261.460    9.779    0.394    0.205  231.737   50.314
  261.710   11.169    0.372    0.173  231.676   47.145
  261.960   12.529    0.341    0.129  234.705   45.859
  262.210   13.563    0.273    0.045  233.625   46.133
  262.460   13.920    0.345    0.079  234.600   47.653
  262.710   14.160    0.368    0.160  235.583   51.963
  262.960   14.404    0.393    0.200  236.040   53.161
  263.210   14.652    0.376    0.152  237.014   52.808
  263.460   15.173    0.333    0.102  237.488   50.899
  263.710   15.852    0.269    0.021  240.035   54.286
  263.960   17.162    0.268    0.010  241.554   65.758
  264.210   17.150    0.338    0.079  245.699   75.053
  264.460   15.402    0.389    0.146  250.890   76.562
  264.710   13.346    0.407    0.165  254.508   75.893
  264.960   12.643    0.406    0.166  257.608   74.606
  265.210   11.763    0.414    0.144  259.645   72.703
  265.460   11.755    0.409    0.131  261.683   68.299
  265.710   12.392    0.379    0.116  263.720   64.824
  265.960   12.606    0.367    0.093  265.749   63.548
  266.210   13.170    0.349    0.065  269.367   64.751
  266.460   12.699    0.377    0.146  272.449   66.888
  266.710   12.357    0.393    0.158  274.487   65.275
  266.960   12.237    0.378    0.137  274.952   63.377
  267.210   13.014    0.363    0.102  274.855   63.335
  267.460   13.841    0.337    0.076  274.802   63.283
  267.710   14.206    0.327    0.043  274.732   64.797
  267.960   14.068    0.377    0.050  274.653   69.429
  268.210   13.448    0.393    0.083  275.627   70.627
  268.460   12.624    0.414    0.133  277.673   69.657
  268.710   12.175    0.412    0.158  280.238   68.360
  268.960   11.846    0.398    0.164  282.784   67.385
  269.210   11.421    0.390    0.159  283.768   66.104
  269.460   11.313    0.403    0.192  284.233   66.062
  269.710   11.006    0.419    0.182  284.690   70.689
  269.960   10.900    0.413    0.176  284.092   72.198
  270.210   10.796    0.428    0.186  282.968   68.416
  270.460   10.788    0.431    0.195  280.772   66.819
  270.710   10.876    0.426    0.196  279.657   67.395
  270.960   11.062    0.434    0.183  277.461   68.287
  271.210   11.155    0.444    0.167  275.810   67.623
  271.460   11.347    0.448    0.139  274.685   66.642
  271.710   11.440    0.443    0.117  272.516   66.601
  271.960   11.430    0.436    0.129  269.802   66.253
  272.210   11.524    0.431    0.151  266.570   64.656
  272.460   11.828    0.425    0.136  263.865   63.053
  272.710   12.357    0.416    0.126  259.034   66.118
  272.960   12.132    0.406    0.118  255.811   68.260
  273.210   11.697    0.429    0.108  251.525   67.591
  273.460   11.690    0.416    0.123  246.703   67.549
  273.710   12.212    0.402    0.121  242.417   64.396
  273.960   12.533    0.384    0.103  238.658   61.864
  274.210   13.211    0.404    0.111  235.935   59.007
  274.460   13.927    0.418    0.145  233.757   58.348
  274.710   14.812    0.393    0.064  231.579   55.200
  274.960   16.037    0.232    0.022  227.819   43.639
  275.210   18.315    0.213    0.007  225.632   37.990
  275.460   21.479    0.229    0.005  224.517   41.994
  275.710   24.971    0.264    0.010  224.438   50.044
  275.960   28.015    0.300    0.070  224.894   54.353
  276.210   26.301    0.314    0.080  228.512   57.740
  276.460   22.593    0.281    0.049  228.442   61.122
  276.710   18.232    0.288    0.012  232.587   65.748
  276.960   15.801    0.350    0.086  240.421   69.752
  277.210   13.813    0.416    0.113  249.309   76.868
  277.460   12.627    0.414    0.135  251.328   83.050
  277.710   11.648    0.402    0.148  245.470   80.207
  277.960   10.744    0.398    0.132  243.283   73.942
  278.210   10.639    0.386    0.115  243.213   69.228
  278.460   10.822    0.380    0.101  244.188   70.120
  278.710   10.912    0.377    0.108  245.171   73.812
  278.960   10.807    0.386    0.141  245.083   77.500
  279.210   10.514    0.392    0.151  245.039   78.397
  279.460   10.507    0.399    0.146  245.487   75.861
  279.710   10.880    0.420    0.137  245.407   73.635
