~VERSION INFORMATION
 VERS.                 2.0:   CWLS LOG ASCII STANDARD -VERSION 2.0
 WRAP.                  NO:   ONE LINE PER DEPTH STEP
~WELL INFORMATION BLOCK
#MNEM.UNIT           DATA                    DESCRIPTION OF MNEMONIC
#---------    -------------------            -------------------------------
# Generated from Intellog Unique Number	CW_76_78/WELL/2794
NULL.         -999.25                        : NULL_VALUE
WELL.         06-36-077-02W5                 : Well_name    - WELL              
LOC .         00/06-36-077-02W5/0            : Location     - LOCATION          
UWI .         00/06-36-077-02W5/0            : Uwi          - UNIQUE WELL ID    
ENTR.         JJ                             : Entered      - ENTERED BY        
SRVC.         WESTERN ATLAS                  : Scn          - SERVICE COMPANY   
DATE.         10 JAN 67                      : Date         - LOG DATE          
STRT.M        487.68                         : top_depth    - START DEPTH       
STOP.M        615.68                         : bot_depth    - STOP DEPTH        
STEP.M        0.25                           : increment    - STEP LENGTH       
~CURVE INFORMATION BLOCK
#MNEM UNIT       ERCB CURVE CODE    CURVE DESCRIPTION
#-----------   ------------------   ----------------------------------
DEPT.M        00 001 00 00         : DEPTH        - DEPTH                       
CALI.MM       00 280 01 00         : CAL          - CALIPER                     
GR  .API      00 310 00 00         : GR           - GAMMA RAY                   
ILD .OHMM     00 120 00 00         : RESD         - DEEP RESISTIVITY (DIL)      
DELT.US/F     00 520 00 00         : DELT         - SONIC TRAVEL TIME           
~PARAMETER INFORMATION       
#MNEM.UNIT           DATA             DESCRIPTION OF MNEMONIC
#---------         -----------     ------------------------------
GL  .M        659.282              : gl           - GROUND LEVEL ELEVATION      
EREF.M        662.635              : kb           - ELEVATION OF DEPTH REFERENCE
DATM.M        659.282              : datum        - DATUM ELEVATION             
TDD .M        649.529              : tdd          - TOTAL DEPTH DRILLER         
RUN .         ONE                  : Run          - RUN NUMBER                  
ENG .         OBERMEYER            : Engineer     - RECORDING ENGINEER          
WIT .         GEORGE               : Witness      - WITNESSED BY                
MUD .         GEL                  : Mud_type     - MUD TYPE                    
MATR.         SANDSTONE            : Logunit      - NEUTRON MATRIX              
TMAX.C        22.2222              : BHT          - MAXIMUM RECORDED TEMPERATURE
BHTD.M        650.138              : BHTDEP       - MAXIMUM RECORDED TEMPERATURE
RMT .C        21.1111              : MDTP         - TEMPERATURE OF MUD          
MUDD.KG/M     1140                 : MWT          - MUD DENSITY                 
NEUT.         1                    : NEUTRON      - NEUTRON TYPE                
RESI.         0                    : RESIST       - RESISTIVITY TYPE            
RM  .OHMM     4.65                 : RM           - RESISTIVITY OF MUD          
RMC .OHMM     4.68                 : RMC          - RESISTIVITY OF MUD CAKE     
RMF .OHMM     4.55                 : RMF          - RESISTIVITY OF MUD FILTRATE 
SUFT.C        5                    : SUFT         - SURFACE TEMPERATURE         
~A  DEPTH      CAL       GR     RESD     DELT
  487.680  226.664   77.085    6.041  343.956
  487.930  231.191   76.954    5.338  363.294
  488.180  232.247   76.459    4.799  374.602
  488.430  232.777   76.659    4.448  376.809
  488.680  231.627   78.118    4.308  375.203
  488.930  232.366   78.616    4.357  373.128
  489.180  235.000   76.002    4.495  371.588
  489.430  235.004   76.334    4.675  362.085
  489.680  234.904   79.084    4.846  358.471
  489.930  236.276   76.205    4.878  360.880
  490.180  238.278   76.339    4.763  372.790
  490.430  237.968   74.420    4.567  378.544
  490.680  233.558   69.256    4.689  373.056
  490.930  229.462   66.907    5.309  365.360
  491.180  225.997   66.478    5.668  352.913
  491.430  224.215   67.175    6.067  333.574
  491.680  222.434   69.461    6.541  303.663
  491.930  222.543   72.112    7.275  282.450
  492.180  224.861   73.272    7.732  275.423
  492.430  229.072   73.207    7.250  279.304
  492.680  229.813   76.123    6.604  289.140
  492.930  230.133   78.144    6.130  314.834
  493.180  229.717   76.623    5.836  340.261
  493.430  226.253   74.737    5.738  351.636
  493.680  223.315   73.546    5.721  355.450
  493.930  222.583   72.753    5.663  351.902
  494.180  224.166   72.556    5.565  347.686
  494.430  225.326   73.055    5.467  346.347
  494.680  227.223   74.347    5.295  352.570
  494.930  229.856   75.971    5.050  364.078
  495.180  230.177   77.099    4.894  376.524
  495.430  230.708   74.352    4.869  383.750
  495.680  228.504   74.420    4.893  376.255
  495.930  224.619   76.011    5.048  365.883
  496.180  223.783   76.111    5.195  352.700
  496.430  226.627   75.252    5.513  346.476
  496.680  229.996   75.817    5.863  340.453
  496.930  231.788   76.481    6.271  333.761
  497.180  233.476   76.316    6.695  326.266
  497.430  232.849   76.748    6.801  319.105
  497.680  229.805   77.743    6.180  332.487
  497.930  229.811   77.579    5.584  335.163
  498.180  231.077   79.667    5.232  335.631
  498.430  233.922   77.980    4.946  342.523
  498.680  234.872   77.121    4.668  349.883
  498.930  235.613   77.453    4.472  356.908
  499.180  235.933   79.640    4.308  362.127
  499.430  235.624   76.595    4.177  365.405
  499.680  235.733   74.875    4.120  358.244
  499.930  235.423   73.784    4.144  357.106
  500.180  234.902   73.355    4.225  365.269
  500.430  233.751   75.873    4.265  370.956
  500.680  233.755   75.974    4.298  375.105
  500.930  234.286   75.876    4.289  374.234
  501.180  234.922   76.573    4.085  370.285
  501.430  235.977   78.429    3.888  369.482
  501.680  237.874   78.894    3.635  374.834
  501.930  239.141   77.174    3.406  382.663
  502.180  237.464   76.844    3.430  385.339
  502.430  234.947   75.256    3.675  396.981
  502.680  233.269   73.106    4.172  375.434
  502.930  232.328   70.524    4.890  331.872
  503.180  232.437   68.009    5.878  285.967
  503.430  232.863   65.958   14.244  249.699
  503.680  232.869   63.840   16.522  247.490
  503.930  233.294   62.021   17.133  248.961
  504.180  233.404   60.698   16.839  247.890
  504.430  232.358   61.527   16.055  241.198
  504.680  228.998   65.337   14.038  226.877
  504.930  226.481   65.437   12.299  274.989
  505.180  226.905   66.466   10.895  299.947
  505.430  229.644   68.156    9.858  314.333
  505.680  231.330   69.383    8.061  326.043
  505.930  231.967   70.974    6.812  341.165
  506.180  232.393   71.670    6.052  350.800
  506.430  232.398   71.506    5.693  360.502
  506.680  232.297   72.170    5.668  355.817
  506.930  232.301   69.059    5.814  346.984
  507.180  233.463   65.518    6.075  343.437
  507.430  233.889   65.320    6.858  337.615
  507.680  233.788   67.673    7.593  325.435
  507.930  234.635   69.430    7.984  315.531
  508.180  235.269   71.617    8.286  307.300
  508.430  235.275   73.472    8.179  309.775
  508.680  233.176   74.401    7.730  331.455
  508.930  233.183   72.350    7.101  340.354
  509.180  233.502   72.583    6.170  346.510
  509.430  233.928   73.810    5.288  344.234
  509.680  232.460   72.123    4.830  342.828
  509.930  230.678   71.032    4.699  353.868
  510.180  230.893   72.225    4.813  365.310
  510.430  233.107   74.545    5.033  373.674
  510.680  234.898   75.043    5.523  375.346
  510.930  237.112   77.693    5.865  363.501
  511.180  237.116   76.139    6.379  352.326
  511.430  234.283   72.928    7.048  340.816
  511.680  231.659   71.406    7.872  340.213
  511.930  230.193   69.090    9.676  351.120
  512.180  230.198   65.516   13.357  353.528
  512.430  231.043   62.769   18.883  338.337
  512.680  232.520   60.784   19.699  265.533
  512.930  232.420   60.885   20.082  235.421
  513.180  231.583   62.641   18.964  220.766
  513.430  230.747   68.404   15.633  214.140
  513.680  230.121   71.386   10.489  240.103
  513.930  232.334   73.738    8.693  275.902
  514.180  234.547   74.965    7.476  294.972
  514.430  234.026   76.026    7.190  321.737
  514.680  231.614   77.915    7.623  351.380
  514.930  230.778   76.924    8.226  360.747
  515.180  231.729   76.494    8.283  356.531
  515.430  232.469   77.821    7.719  350.843
  515.680  234.050   79.312    6.870  353.251
  515.930  234.266   80.473    6.812  354.187
  516.180  234.903   76.931    7.000  356.194
  516.430  235.014   73.986    7.318  364.758
  516.680  235.017   72.265    7.505  365.226
  516.930  234.603   74.486    7.464  351.307
  517.180  234.712   77.136    7.015  331.232
  517.430  234.821   81.508    6.369  328.622
  517.680  235.246   83.132    5.577  342.004
  517.930  235.253   81.081    5.209  357.461
  518.180  234.731   81.480    4.833  364.888
  518.430  234.001   82.905    4.539  364.820
  518.680  233.269   84.033    4.375  367.563
  518.930  231.699   84.597    4.285  369.971
  519.180  230.651   83.870    4.366  373.584
  519.430  229.605   81.852    4.595  378.334
  519.680  229.294   79.204    4.700  377.798
  519.930  228.354   78.080    4.749  376.058
  520.180  227.728   79.870    4.683  373.247
  520.430  228.152   81.593    4.617  369.231
  520.680  230.575   83.416    4.519  366.420
  520.930  232.893   83.318    4.453  367.289
  521.180  234.476   81.697    4.420  366.553
  521.430  234.900   82.328    4.355  365.615
  521.680  234.695   83.654    4.338  372.172
  521.930  233.754   85.245    4.362  371.436
  522.180  231.341   82.200    4.451  368.758
  522.430  228.088   78.129    4.541  363.471
  522.680  226.515   75.779    4.867  354.437
  522.930  225.154   77.371    5.218  343.128
  523.180  225.052   78.995    5.527  336.904
  523.430  226.529   79.857    5.772  329.342
  523.680  229.688   79.892    5.682  325.193
  523.930  229.694   80.820    5.192  323.252
  524.180  227.385   81.981    4.620  320.976
  524.430  225.497   82.545    4.170  313.949
  524.680  226.343   81.719    3.974  323.584
  524.930  233.919   81.191    3.770  355.636
  525.180  238.128   82.086    3.655  372.163
  525.430  238.343   84.969    3.785  385.813
  525.680  231.936   84.573    4.087  386.481
  525.930  227.209   81.727    4.356  380.325
  526.180  225.953   77.589    4.935  372.227
  526.430  229.217   75.505    6.135  361.253
  526.680  233.322   73.023    8.224  356.300
  526.930  235.219   70.442   11.603  351.415
  527.180  232.911   68.755   13.015  343.318
  527.430  232.811   68.127   13.855  304.506
  527.680  232.500   68.526   12.737  292.059
  527.930  226.934   69.918   12.083  292.059
  528.180  221.366   72.569   12.711  307.783
  528.430  225.366   73.431   13.617  333.143
  528.680  227.474   73.035   14.417  351.210
  528.930  220.541   70.686   14.726  341.239
  529.180  217.708   70.655   14.391  334.346
  529.430  217.922   71.616   13.852  341.572
  529.680  219.609   72.446   12.236  341.638
  529.930  220.875   73.606   10.978  337.422
  530.180  221.511   75.164    9.998  339.897
  530.430  222.357   76.026    8.838  347.725
  530.680  224.990   78.015    7.605  342.238
  530.930  229.937   79.440    6.095  335.077
