~VERSION INFORMATION
 VERS.                 2.0:   CWLS LOG ASCII STANDARD -VERSION 2.0
 WRAP.                  NO:   ONE LINE PER DEPTH STEP
~WELL INFORMATION BLOCK
#MNEM.UNIT           DATA                    DESCRIPTION OF MNEMONIC
#---------    -------------------            -------------------------------
# Generated from Intellog Unique Number	CW_79_81/WELL/416
WELL.         05-12-079-21W4                 : Well_name    - WELL
LOC .         00/05-12-079-21W4/0            : Location     - LOCATION
UWI .         00/05-12-079-21W4/0            : Uwi          - UNIQUE WELL ID
ENTR.         MAX                            : Entered      - ENTERED BY
SRVC.         SCHLUMBERGER                   : Scn          - SERVICE COMPANY
STRT.M        190                            : top_depth    - START DEPTH
STOP.M        415                            : bot_depth    - STOP DEPTH
STEP.M        0.25                           : increment    - STEP LENGTH
 NULL. -999.2500:NULL Value
~CURVE INFORMATION BLOCK
#MNEM UNIT       ERCB CURVE CODE    CURVE DESCRIPTION
#-----------   ------------------   ----------------------------------
DEPT.M        00 001 00 00         : DEPTH        - DEPTH
ILD .OHMM     00 120 00 00         : RESD         - DEEP RESISTIVITY (DIL)
NPHI.V/V      00 330 00 00         : PHIN         - NEUTRON POROSITY (SANDSTONE)
DPHI.V/V      00 890 00 00         : PHID         - DENSITY POROSITY (SANDSTONE)
CALI.MM       00 280 01 00         : CAL          - CALIPER
GR  .API      00 310 00 00         : GR           - GAMMA RAY
~PARAMETER INFORMATION
#MNEM.UNIT           DATA             DESCRIPTION OF MNEMONIC
#---------         -----------     ------------------------------
GL  .M        566.25               : gl           - GROUND LEVEL ELEVATION
EREF.M        569.55               : kb           - ELEVATION OF DEPTH REFERENCE
DATM.M        566.25               : datum        - DATUM ELEVATION
TDD .M        420                  : tdd          - TOTAL DEPTH DRILLER
RUN .         ONE                  : Run          - RUN NUMBER
ENG .         BILL                 : Engineer     - RECORDING ENGINEER
WIT .         JIM                  : Witness      - WITNESSED BY
MUD .         GEL                  : Mud_type     - MUD TYPE
MATR.         SANDSTONE            : Logunit      - NEUTRON MATRIX
TMAX.C        23.3                 : BHT          - MAXIMUM RECORDED TEMPERATURE
BHTD.M        420                  : BHTDEP       - MAXIMUM RECORDED TEMPERATURE
RMT .C        12.8                 : MDTP         - TEMPERATURE OF MUD
MUDD.KG/M     1160                 : MWT          - MUD DENSITY
NEUT.         1                    : NEUTRON      - NEUTRON TYPE
RESI.         0                    : RESIST       - RESISTIVITY TYPE
RM  .OHMM     10.7                 : RM           - RESISTIVITY OF MUD
RMC .OHMM     0.25                 : RMC          - RESISTIVITY OF MUD CAKE
RMF .OHMM     11.3                 : RMF          - RESISTIVITY OF MUD FILTRATE
SUFT.C        -5                   : SUFT         - SURFACE TEMPERATURE
~A  DEPTH     RESD     PHIN     PHID      CAL       GR
# ...
  372.500   12.026    0.420    0.128  157.959  103.517
  372.750   12.706    0.393    0.085  156.971   97.876
  373.000   13.548    0.371    0.055  156.478   93.719
  373.250   14.056    0.340    0.142  156.479   98.472
  373.500   14.188    0.376    0.155  156.975  105.303
  373.750   14.320    0.388    0.146  156.977  103.225
  374.000   14.857    0.388    0.097  156.978   94.020
  374.250   16.133    0.349    0.050  156.980   95.209
  374.500   17.521    0.323    0.107  154.507   98.773
  374.750   17.523    0.338    0.126  152.529  103.526
  375.000   17.210    0.351    0.129  153.025  101.745
  375.250   16.748    0.357    0.106  153.521   99.667
  375.500   16.599    0.363    0.082  153.523   96.995
  375.750   16.754    0.351    0.064  153.525   94.621
  376.000   17.382    0.341    0.071  153.031   90.761
  376.250   17.868    0.342    0.100  152.538   93.138
  376.500   17.872    0.362    0.168  152.044   99.078
  376.750   17.551    0.381    0.180  152.541  104.127
  377.000   16.770    0.378    0.165  153.037  105.613
  377.250   16.024    0.373    0.159  153.534  102.644
  377.500   15.453    0.375    0.164  153.536  101.754
  377.750   15.456    0.373    0.146  153.537  103.537
  378.000   15.459    0.376    0.131  153.539  102.647
  378.250   15.462    0.377    0.117  154.035  101.460
  378.500   15.465    0.376    0.114  154.532  101.164
  378.750   15.465    0.375    0.103  155.028  102.056
  379.000   15.191    0.376    0.132  155.525  106.808
  379.250   13.616    0.385    0.146  155.526  112.748
  379.500   12.892    0.403    0.158  155.527  111.858
  379.750   12.318    0.411    0.162  155.034  110.671
  380.000   11.557    0.408    0.152  155.036  109.781
  380.250   10.842    0.415    0.145  155.037  111.564
  380.500   10.266    0.422    0.172  155.039  113.644
  380.750    9.457    0.419    0.175  155.040  113.941
  381.000    8.873    0.409    0.181  155.042  116.615
  381.250    8.873    0.414    0.180  155.538  118.695
  381.500    7.882    0.413    0.174  156.035  118.102
  381.750    7.463    0.412    0.182  157.521  115.727
  382.000    7.131    0.428    0.184  158.513  110.680
  382.250    7.132    0.443    0.184  159.009  105.632
  382.500    7.675    0.460    0.195  159.011   92.567
  382.750    9.132    0.471    0.222  157.527   78.314
  383.000   15.100    0.444    0.242  154.559   57.231
  383.250   21.769    0.420    0.251  154.066   48.620
  383.500   46.493    0.404    0.247  154.067   47.730
  383.750   48.678    0.403    0.262  157.038   48.919
  384.000   41.680    0.399    0.276  157.040   49.514
  384.250   38.749    0.388    0.270  156.547   49.218
  384.500   40.201    0.395    0.263  155.559   50.704
  384.750   42.865    0.401    0.259  155.560   52.486
  385.000   46.125    0.397    0.252  155.067   53.972
  385.250   50.549    0.399    0.261  155.068   53.082
  385.500   54.893    0.401    0.262  155.070   55.161
  385.750   54.905    0.398    0.245  153.587   59.320
  386.000   42.518    0.389    0.253  152.104   61.400
  386.250   34.462    0.376    0.237  152.105   64.370
  386.500   24.135    0.362    0.216  153.096   68.231
  386.750   18.688    0.353    0.184  154.088   73.280
  387.000   15.569    0.347    0.161  154.584   78.627
  387.250   12.620    0.359    0.151  155.576   87.239
  387.500   11.106    0.370    0.165  156.072   92.585
  387.750    9.954    0.384    0.153  158.053   97.931
  388.000    8.760    0.401    0.145  159.540  109.811
  388.250    7.299    0.408    0.153  158.056  115.751
  388.500    6.848    0.414    0.138  161.027  118.722
  388.750    6.849    0.419    0.149  163.504  120.801
  389.000    7.237    0.418    0.166  156.576  124.662
  389.250    7.858    0.399    0.140  154.598  108.034
  389.500    9.097    0.354    0.126  154.104  102.986
  389.750   10.341    0.379    0.108  154.106  105.660
  390.000   10.631    0.416    0.093  154.108  118.133
  390.250    9.442    0.402    0.141  156.089  122.291
  390.500    8.940    0.382    0.142  158.565  130.310
  390.750    8.942    0.410    0.148  159.556  130.608
  391.000    8.862    0.405    0.161  161.043  128.827
  391.250    8.624    0.404    0.166  161.539  129.125
  391.500    8.165    0.410    0.188  161.046  131.799
  391.750    7.386    0.430    0.188  159.068  138.926
  392.000    7.122    0.443    0.179  159.564  137.146
  392.250    7.664    0.419    0.197  160.061  108.045
  392.500    9.373    0.394    0.188  156.103   83.695
  392.750   10.271    0.346    0.187  155.115   80.133
  393.000   16.676    0.342    0.158  155.116   81.916
  393.250   18.444    0.335    0.136  155.612   85.480
  393.500   18.961    0.347    0.119  156.604   90.232
  393.750   17.790    0.350    0.107  156.606   94.093
  394.000   16.843    0.335    0.129  156.607   96.470
  394.250   16.391    0.323    0.133  156.609   96.768
  394.500   16.099    0.324    0.134  156.116  101.223
  394.750   15.664    0.338    0.139  156.117  106.866
  395.000   14.169    0.355    0.145  156.118  109.243
  395.250   12.700    0.384    0.130  161.564  110.135
  395.500   11.699    0.389    0.136  161.071  108.354
  395.750   11.281    0.378    0.138  158.598  104.791
  396.000   11.284    0.372    0.141  158.599   98.259
  396.250   11.600    0.381    0.132  159.096   92.618
  396.500   12.482    0.387    0.151  159.592   80.147
  396.750   13.069    0.371    0.139  157.119   70.645
  397.000   12.835    0.340    0.155  155.141   65.598
  397.250   12.152    0.364    0.173  154.647   67.083
  397.500   11.297    0.392    0.209  154.649   75.696
  397.750    9.942    0.443    0.216  155.145   88.169
  398.000    8.911    0.492    0.223  154.652   96.188
  398.250    8.060    0.534    0.245  155.643   89.359
  398.500    7.632    0.531    0.254  155.645   83.421
  398.750    7.564    0.494    0.286  155.152   81.343
  399.000    7.919    0.505    0.333  156.638  103.615
  399.250    8.521    0.492    0.243  160.104  114.307
  399.500    9.511    0.483    0.235  163.075  122.920
  399.750   11.011    0.489    0.242  162.087  121.733
  400.000   14.096    0.446    0.229  158.624  114.013
  400.250   14.624    0.405    0.207  156.151  110.747
  400.500   14.627    0.385    0.191  155.657  106.294
  400.750   14.104    0.378    0.175  156.154  103.919
  401.000   12.993    0.369    0.121  157.145  104.217
  401.250   11.752    0.355    0.125  163.086  107.781
  401.500   10.926    0.394    0.133  164.077  111.940
  401.750   10.929    0.399    0.148  162.594  107.783
  402.000   11.234    0.417    0.167  162.596  102.142
  402.250   11.979    0.421    0.173  165.072   97.391
  402.500   13.248    0.416    0.198  159.134   92.641
  402.750   14.387    0.392    0.208  152.702   86.109
  403.000   15.624    0.382    0.201  156.168   81.062
  403.250   15.485    0.399    0.219  156.665   80.172
  403.500   14.932    0.416    0.225  155.181   81.063
  403.750   15.072    0.411    0.186  154.688   81.064
  404.000   15.353    0.413    0.153  157.164   81.362
  404.250   15.497    0.414    0.181  158.650   76.612
  404.500   15.359    0.388    0.193  159.642   70.080
  404.750   14.676    0.368    0.170  161.128   70.378
  405.000   13.896    0.351    0.150  166.079   81.960
  405.250   13.522    0.369    0.154  166.575   89.979
  405.500   13.159    0.380    0.172  164.102   89.980
  405.750   13.042    0.387    0.190  161.629   87.011
  406.000   13.044    0.389    0.209  160.641   80.479
  406.250   12.694    0.384    0.216  160.147   77.510
  406.500   12.353    0.358    0.188  159.654   74.838
  406.750   12.353    0.346    0.151  159.161   92.063
  407.000   12.024    0.336    0.110  159.162  101.863
  407.250   11.384    0.346    0.111  158.669  110.476
  407.500   10.878    0.358    0.126  158.670  112.853
  407.750   10.490    0.368    0.141  158.672  111.369
  408.000   10.208    0.368    0.126  155.209  107.212
  408.250    9.934    0.359    0.137  153.230  103.947
  408.500    9.936    0.349    0.134  152.737  105.432
  408.750    9.938    0.352    0.139  153.234  109.294
