~VERSION INFORMATION
 VERS.                 2.0:   CWLS LOG ASCII STANDARD -VERSION 2.0
 WRAP.                  NO:   ONE LINE PER DEPTH STEP
~WELL INFORMATION BLOCK
#MNEM.UNIT           DATA                    DESCRIPTION OF MNEMONIC
#---------    -------------------            -------------------------------
# Generated from Intellog Unique Number	CS_67_68/WELL/2182
WELL.         07-36-067-03W4                 : Well_name    - WELL
LOC .         00/07-36-067-03W4/0            : Location     - LOCATION
UWI .         00/07-36-067-03W4/0            : Uwi          - UNIQUE WELL ID
ENTR.         SP                             : Entered      - ENTERED BY
SRVC.         SCHLUMBERGER                   : Scn          - SERVICE COMPANY
STRT.M        370                            : top_depth    - START DEPTH
STOP.M        616                            : bot_depth    - STOP DEPTH
STEP.M        0.25                           : increment    - STEP LENGTH
 NULL. -999.2500:NULL Value
~CURVE INFORMATION BLOCK
#MNEM UNIT       ERCB CURVE CODE    CURVE DESCRIPTION
#-----------   ------------------   ----------------------------------
DEPT.M        00 001 00 00         : DEPTH        - DEPTH
GR  .API      00 310 00 00         : GR           - GAMMA RAY
DPHI.V/V      00 890 00 00         : PHID         - DENSITY POROSITY (LIMESTONE)
NPHI.V/V      00 330 00 00         : PHIN         - NEUTRON POROSITY (LIMESTONE)
CALI.MM       00 280 01 00         : CAL          - CALIPER
ILD .OHMM     00 120 00 00         : RESD         - DEEP RESISTIVITY (DIL)
~PARAMETER INFORMATION
#MNEM.UNIT           DATA             DESCRIPTION OF MNEMONIC
#---------         -----------     ------------------------------
GL  .M        701.08               : gl           - GROUND LEVEL ELEVATION
EREF.M        704.28               : kb           - ELEVATION OF DEPTH REFERENCE
DATM.M        704.28               : datum        - DATUM ELEVATION
TDD .M        622                  : tdd          - TOTAL DEPTH DRILLER
RUN .         ONE                  : Run          - RUN NUMBER
ENG .         BILL                 : Engineer     - RECORDING ENGINEER
WIT .         JIM                  : Witness      - WITNESSED BY
MUD .         GEL                  : Mud_type     - MUD TYPE
MATR.         LIMESTONE            : Logunit      - NEUTRON MATRIX
TMAX.C        28.8                 : BHT          - MAXIMUM RECORDED TEMPERATURE
BHTD.M        622.2                : BHTDEP       - MAXIMUM RECORDED TEMPERATURE
MATR.         1                    : LOGUNIT      - NEUTRON MATRIX
RMT .C        25                   : MDTP         - TEMPERATURE OF MUD
NEUT.         1                    : NEUTRON      - NEUTRON TYPE
RESI.         0                    : RESIST       - RESISTIVITY TYPE
RMC .OHMM     0.25                 : RMC          - RESISTIVITY OF MUD CAKE
RMF .OHMM     0.25                 : RMF          - RESISTIVITY OF MUD FILTRATE
SUFT.C        15                   : SUFT         - SURFACE TEMPERATURE
~A  DEPTH       GR     PHID     PHIN      CAL     RESD
  370.000   91.477    0.211    0.512  178.810    2.970
  370.250   93.355    0.230    0.520  178.819    3.025
  370.500   97.049    0.243    0.526  177.818    3.046
  370.750   96.328    0.237    0.514  176.518    3.113
  371.000   94.459    0.230    0.499  175.820    3.135
  371.250   93.134    0.223    0.502  176.131    3.157
  371.500   92.353    0.247    0.510  176.747    3.185
  371.750   94.171    0.257    0.516  177.056    3.136
  372.000  101.855    0.247    0.514  177.265    3.054
  372.250  102.042    0.237    0.526  177.977    2.990
  372.500   98.660    0.248    0.539  178.390    2.961
  372.750   96.186    0.240    0.522  178.196    2.899
  373.000   95.526    0.234    0.506  178.608    2.892
  373.250   95.169    0.227    0.490  178.514    2.907
  373.500   96.745    0.223    0.473  178.624    2.922
  373.750  100.197    0.225    0.509  178.532    2.959
  374.000  102.318    0.234    0.512  177.936    3.002
  374.250  103.713    0.240    0.518  177.441    3.023
  374.500  104.322    0.236    0.527  177.146    2.999
  374.750   96.710    0.223    0.538  177.153    2.926
  375.000   91.152    0.213    0.518  177.161    2.991
  375.250   91.943    0.207    0.484  177.473    3.138
  375.500  103.980    0.218    0.459  178.488    3.225
  375.750  109.910    0.236    0.466  180.209    3.321
  376.000  115.719    0.244    0.481  181.326    3.370
  376.250  109.799    0.229    0.482  181.032    3.374
  376.500  104.907    0.222    0.490  178.723    3.341
  376.750  104.489    0.215    0.507  178.026    3.253
  377.000  104.554    0.215    0.503  177.731    3.150
  377.250  102.503    0.227    0.494  177.438    3.056
  377.500   98.397    0.232    0.501  176.237    2.959
  377.750   92.658    0.237    0.529  173.726    3.163
  378.000   84.622    0.268    0.546  169.804    3.471
  378.250   74.349    0.300    0.407  167.091    4.006
  378.500   65.345    0.318    0.385  165.387    4.835
  378.750   68.010    0.339    0.410  168.519    5.717
  379.000   73.699    0.360    0.553  171.953    6.403
  379.250   78.844    0.266    0.585  176.398    6.858
  379.500   83.382    0.234    0.577  179.124    5.936
  379.750   90.098    0.270    0.553  182.659    5.226
  380.000   80.309    0.317    0.528  184.784    5.402
  380.250   64.171    0.348    0.501  181.567    6.680
  380.500   53.413    0.373    0.338  173.514    9.222
  380.750   44.108    0.399    0.234  166.771   11.090
  381.000   38.974    0.391    0.206  162.648   12.678
  381.250   38.374    0.372    0.230  162.656   13.835
  381.500   41.222    0.351    0.296  162.463   14.625
  381.750   43.946    0.335    0.324  162.673   13.540
  382.000   42.198    0.335    0.340  162.984   11.376
  382.250   37.849    0.341    0.328  163.294   10.493
  382.500   35.678    0.341    0.301  163.706   10.009
  382.750   36.107    0.329    0.316  163.915    9.147
  383.000   35.627    0.321    0.329  164.326    8.248
  383.250   34.665    0.326    0.346  165.040    8.017
  383.500   33.582    0.334    0.361  166.259    7.705
  383.750   42.474    0.336    0.376  168.483    7.268
  384.000   54.752    0.325    0.375  171.514    6.895
  384.250   67.213    0.301    0.407  175.754    6.467
  384.500   78.221    0.282    0.451  180.096    6.773
  384.750   67.948    0.286    0.454  177.685    7.000
  385.000   55.559    0.305    0.414  170.943    7.304
  385.250   59.917    0.308    0.394  167.324    7.664
  385.500   65.665    0.309    0.400  166.929    7.732
  385.750   71.414    0.304    0.417  167.139    7.092
  386.000   73.595    0.285    0.425  167.550    6.753
  386.250   74.447    0.271    0.433  167.659    6.393
  386.500   79.592    0.260    0.440  167.467    6.053
  386.750   82.256    0.257    0.449  167.676    6.016
  387.000   85.345    0.259    0.455  167.683    5.969
  387.250   85.954    0.262    0.456  167.693    6.044
  387.500   85.234    0.270    0.464  167.601    6.235
  387.750   86.811    0.279    0.452  167.205    6.398
  388.000   90.685    0.287    0.443  166.810    6.515
  388.250   91.476    0.287    0.426  166.215    6.622
  388.500   93.536    0.283    0.417  165.718    6.832
  388.750   77.338    0.280    0.427  165.122    6.983
  389.000   53.159    0.287    0.406  164.024    7.152
  389.250   42.342    0.299    0.381  163.627    7.393
  389.500   48.393    0.299    0.357  163.231    7.347
  389.750   54.867    0.286    0.370  162.335    7.114
  390.000   60.313    0.285    0.386  162.240    6.966
  390.250   67.573    0.269    0.394  162.854    6.872
  390.500   72.838    0.248    0.395  164.777    6.894
  390.750   76.894    0.233    0.417  166.498    6.726
  391.000   74.420    0.275    0.435  167.110    6.404
  391.250   76.541    0.278    0.408  167.118    6.120
  391.500   83.439    0.256    0.385  168.639    6.373
  391.750   89.249    0.240    0.399  169.252    6.539
  392.000   91.974    0.242    0.405  168.655    6.709
  392.250   94.941    0.255    0.404  167.455    6.935
  392.500   98.574    0.268    0.401  166.960    7.168
  392.750   98.941    0.284    0.412  167.169    7.111
  393.000  102.453    0.293    0.423  167.681    6.989
  393.250  103.305    0.279    0.432  168.396    6.339
  393.500  106.030    0.270    0.443  169.310    5.306
  393.750  111.235    0.237    0.463  171.636    4.750
  394.000  115.411    0.214    0.486  172.047    4.324
  394.250  107.980    0.214    0.500  171.652    3.893
  394.500   89.424    0.213    0.484  169.947    3.659
  394.750   72.923    0.245    0.492  168.444    4.160
  395.000   58.538    0.290    0.506  166.640    5.039
  395.250   46.391    0.330    0.473  165.338    6.105
  395.500   47.424    0.344    0.442  164.337    6.915
  395.750   49.304    0.347    0.424  163.540    7.775
  396.000   48.340    0.357    0.435  163.246    8.374
  396.250   54.150    0.349    0.444  163.155    8.416
  396.500   59.536    0.346    0.448  163.161    7.648
  396.750   62.805    0.339    0.451  163.976    7.120
  397.000   66.438    0.325    0.441  164.690    6.729
  397.250   66.866    0.311    0.417  165.405    6.688
  397.500   69.410    0.298    0.397  165.612    6.696
  397.750   74.011    0.287    0.383  165.723    6.744
  398.000   77.401    0.276    0.401  165.327    6.984
  398.250   81.457    0.279    0.420  164.932    7.396
  398.500   69.853    0.300    0.439  164.135    7.936
  398.750   64.719    0.277    0.443  163.538    8.312
  399.000   62.669    0.258    0.434  162.842    8.753
  399.250   62.191    0.280    0.459  162.043    8.981
  399.500   61.348    0.304    0.475  162.353    9.128
  399.750   60.688    0.318    0.457  162.059    9.174
  400.000   61.480    0.328    0.444  162.370    9.170
  400.250   63.540    0.324    0.433  162.480    9.029
  400.500   66.991    0.310    0.454  162.489    8.825
  400.750   70.382    0.239    0.466  162.496    8.293
  401.000   73.833    0.227    0.468  162.605    7.852
  401.250   77.223    0.239    0.476  163.118    7.477
  401.500   81.098    0.264    0.483  163.427    7.132
  401.750   84.490    0.286    0.465  163.640    6.970
  402.000   86.368    0.287    0.457  163.748    6.825
  402.250   86.917    0.280    0.465  163.755    6.796
  402.500   84.141    0.275    0.480  163.663    6.882
  402.750   82.695    0.270    0.475  163.369    7.113
  403.000   83.063    0.273    0.467  163.376    7.244
  403.250   82.040    0.280    0.466  163.184    7.309
  403.500   75.999    0.283    0.458  162.990    7.387
  403.750   69.232    0.288    0.439  162.797    7.481
  404.000   63.191    0.304    0.417  162.603    7.561
  404.250   55.034    0.315    0.394  162.010    7.628
  404.500   47.904    0.320    0.385  161.715    7.929
  404.750   50.570    0.325    0.383  161.420    8.181
  405.000   47.249    0.331    0.374  161.025    8.330
  405.250   42.297    0.336    0.370  161.033    8.420
  405.500   43.511    0.338    0.372  160.839    8.448
  405.750   48.111    0.333    0.371  160.949    8.412
  406.000   50.897    0.327    0.366  161.058    8.407
  406.250   55.376    0.315    0.359  161.065    8.372
