~VERSION INFORMATION
 VERS.                 2.0:   CWLS LOG ASCII STANDARD -VERSION 2.0
 WRAP.                  NO:   ONE LINE PER DEPTH STEP
~WELL INFORMATION BLOCK
#MNEM.UNIT           DATA                    DESCRIPTION OF MNEMONIC
#---------    -------------------            -------------------------------
# Generated from Intellog Unique Number	CC_84_87/WELL/1174
NULL.         -999.25                        : NULL_VALUE
WELL.         NOVALTA NEWBY                  : Well_name    - WELL              
LOC .         09-04-084-04W4                 : Location     - LOCATION          
UWI .         00/09-04-084-04W400            : Uwi          - UNIQUE WELL ID    
ENTR.         JHS                            : Entered      - ENTERED BY        
SRVC.         SCHLUMBERGER                   : Scn          - SERVICE COMPANY   
DATE.         09 JAN 85                      : Date         - LOG DATE
STRT.M        65                             : top_depth    - START DEPTH       
STOP.M        299.9                          : bot_depth    - STOP DEPTH        
STEP.M        0.3                            : increment    - STEP LENGTH       
~CURVE INFORMATION BLOCK
#MNEM UNIT       ERCB CURVE CODE    CURVE DESCRIPTION
#-----------   ------------------   ----------------------------------
DEPT.M        00 001 00 00         : DEPTH        - DEPTH                       
DPHI.V/V      00 890 00 00         : PHID         - DENSITY POROSITY (LIMESTONE)
NPHI.V/V      00 330 00 00         : PHIN         - NEUTRON POROSITY (LIMESTONE)
GR  .API      00 310 00 00         : GR           - GAMMA RAY                   
ILD .OHMM     00 120 00 00         : RESD         - DEEP RESISTIVITY (DIL)      
~PARAMETER INFORMATION       
#MNEM.UNIT           DATA             DESCRIPTION OF MNEMONIC
#---------         -----------     ------------------------------
GL  .M        474.5                : gl           - GROUND LEVEL ELEVATION      
EREF.M        477.5                : kb           - ELEVATION OF DEPTH REFERENCE
DATM.M        477.5                : datum        - DATUM ELEVATION             
TDD .M        308                  : tdd          - TOTAL DEPTH DRILLER         
RUN .         ONE                  : Run          - RUN NUMBER                  
ENG .         BILL                 : Engineer     - RECORDING ENGINEER          
WIT .         JIM                  : Witness      - WITNESSED BY                
MUD .         GEL                  : Mud_type     - MUD TYPE                    
MATR.         LIMESTONE            : Logunit      - NEUTRON MATRIX              
TMAX.C        21                   : BHT          - MAXIMUM RECORDED TEMPERATURE
BHTD.M        308                  : BHTDEP       - MAXIMUM RECORDED TEMPERATURE
MATR.         1                    : LOGUNIT      - NEUTRON MATRIX              
RMT .C        25                   : MDTP         - TEMPERATURE OF MUD          
NEUT.         1                    : NEUTRON      - NEUTRON TYPE                
RESI.         0                    : RESIST       - RESISTIVITY TYPE            
RMC .OHMM     0.25                 : RMC          - RESISTIVITY OF MUD CAKE     
RMF .OHMM     0.25                 : RMF          - RESISTIVITY OF MUD FILTRATE 
SUFT.C        15                   : SUFT         - SURFACE TEMPERATURE         
~A  DEPTH     PHID     PHIN       GR     RESD
   65.000    0.327    0.377   63.220   12.096
   65.300    0.330    0.386   60.771   11.418
   65.600    0.340    0.402   57.082   10.575
   65.900    0.333    0.399   57.108   10.570
   66.200    0.323    0.380   58.376   11.621
   66.500    0.326    0.377   58.403   11.837
   66.800    0.336    0.384   62.768   11.389
   67.100    0.337    0.386   64.654   10.959
   67.400    0.331    0.390   59.109   10.345
   67.700    0.335    0.397   55.414   10.145
   68.000    0.348    0.391   57.304   10.139
   68.300    0.359    0.384   53.613   10.526
   68.600    0.371    0.384   46.202   10.523
   68.900    0.375    0.391   41.892   10.720
   69.200    0.376    0.392   41.919   10.922
   69.500    0.365    0.374   43.188   10.916
   69.800    0.362    0.369   54.993   10.909
   70.100    0.363    0.380   51.301   10.904
   70.400    0.368    0.389   44.513   10.692
   70.700    0.371    0.388   43.298   10.689
   71.000    0.376    0.379   44.563   10.682
   71.300    0.377    0.356   44.598   10.477
   71.600    0.374    0.337   48.339   10.471
   71.900    0.363    0.343   58.907   10.464
   72.200    0.316    0.388   65.132   10.264
   72.500    0.289    0.414   68.877   10.064
   72.800    0.287    0.404   70.763    9.868
   73.100    0.310    0.377   76.371    9.679
   73.400    0.328    0.374   77.017    9.673
   73.700    0.340    0.395   61.550    9.669
   74.000    0.365    0.415   49.183    9.303
   74.300    0.375    0.397   49.835    9.299
   74.600    0.374    0.397   58.536    9.293
   74.900    0.361    0.408   72.819    9.289
   75.200    0.341    0.406   85.862    9.286
   75.500    0.314    0.391   93.949    9.105
   75.800    0.300    0.403   94.599    9.101
   76.100    0.318    0.403   91.525    9.098
   76.400    0.334    0.414   85.353    9.267
   76.700    0.326    0.399   84.142    9.438
   77.000    0.303    0.371   87.273    9.615
   77.300    0.280    0.356   92.258    9.797
   77.600    0.286    0.367   96.006    9.978
   77.900    0.301    0.400  102.848    9.974
   78.200    0.295    0.436  113.414    9.781
   78.500    0.274    0.450  119.641    9.412
   78.800    0.269    0.471  121.527    8.718
   79.100    0.285    0.457  122.175    8.230
   79.400    0.301    0.455  104.848    8.225
   79.700    0.323    0.452   98.055    8.379
   80.000    0.338    0.430   92.508    8.699
   80.300    0.340    0.448   88.815    9.205
   80.600    0.339    0.459   88.225    9.203
   80.900    0.333    0.441   84.531    9.555
   81.200    0.324    0.406   73.403    9.921
   81.500    0.328    0.367   59.795   10.106
   81.800    0.318    0.362   69.740   10.295
   82.100    0.298    0.441   85.882   10.486
   82.400    0.293    0.454   85.911   10.682
   82.700    0.314    0.440   66.727   10.678
   83.000    0.313    0.411   60.559   10.673
   83.300    0.321    0.403   56.865   10.467
   83.600    0.372    0.402   50.077   10.460
   83.900    0.363    0.389   49.483   10.457
   84.200    0.351    0.388   51.989   10.449
   84.500    0.352    0.393   50.159   10.647
   84.800    0.357    0.369   47.710   10.639
   85.100    0.356    0.362   47.735   10.635
   85.400    0.356    0.375   47.143   10.428
   85.700    0.354    0.353   46.550   10.228
   86.000    0.357    0.354   52.779   10.221
   86.300    0.352    0.384   59.621   10.219
   86.600    0.340    0.399   62.133   10.021
   86.900    0.337    0.404   60.300    9.826
   87.200    0.340    0.395   59.088    9.820
   87.500    0.342    0.406   59.736    9.818
   87.800    0.335    0.415   64.099    9.812
   88.100    0.322    0.384   71.566    9.807
   88.400    0.299    0.423   73.453    9.802
   88.700    0.318    0.440   68.521    9.797
   89.000    0.351    0.418   54.293    9.980
   89.300    0.354    0.393   51.850    9.974
   89.600    0.358    0.381   54.356   10.162
   89.900    0.366    0.420   58.096   10.156
   90.200    0.376    0.412   56.886   10.151
   90.500    0.372    0.398   57.533   10.148
   90.800    0.361    0.386   61.899   10.142
   91.100    0.348    0.382   62.551   10.135
   91.400    0.354    0.383   60.716   10.132
   91.700    0.361    0.379   55.164   10.126
   92.000    0.356    0.372   49.615   10.123
   92.300    0.355    0.369   51.505    9.926
   92.600    0.355    0.374   54.628    9.921
   92.900    0.353    0.395   56.515   10.106
   93.200    0.345    0.401   55.306   10.100
   93.500    0.329    0.420   48.513    9.905
   93.800    0.309    0.400   46.062    9.902
   94.100    0.351    0.377   52.910    9.709
   94.400    0.356    0.365   54.798    9.521
   94.700    0.348    0.384   49.870    9.338
   95.000    0.349    0.385   50.517    9.158
   95.300    0.376    0.393   53.641    8.980
   95.600    0.377    0.418   54.289    8.976
   95.900    0.358    0.386   51.840    8.802
   96.200    0.353    0.372   54.345    8.798
   96.500    0.363    0.382   56.852    8.794
   96.800    0.365    0.392   55.640    8.958
   97.100    0.362    0.379   52.568    9.125
   97.400    0.366    0.357   53.219    9.296
   97.700    0.373    0.343   56.347    9.291
   98.000    0.380    0.362   53.276    9.111
   98.300    0.396    0.393   53.920    8.936
   98.600    0.395    0.441   52.092    8.597
   98.900    0.381    0.430   53.978    8.432
   99.200    0.369    0.407   55.242    8.268
   99.500    0.365    0.383   54.034    8.263
   99.800    0.356    0.370   52.823    8.259
  100.100    0.299    0.366   50.371    8.256
  100.400    0.214    0.350   40.478    8.572
  100.700    0.138    0.314   36.791    9.977
  101.000    0.107    0.214   38.674   13.266
  101.300    0.272    0.263   48.620   13.514
  101.600    0.367    0.418   54.228   12.281
  101.900    0.362    0.403   57.974   10.744
  102.200    0.334    0.367   60.481    9.223
  102.500    0.324    0.411   59.267    8.223
  102.800    0.335    0.414   61.773    7.763
  103.100    0.356    0.397   65.523    7.758
  103.400    0.374    0.387   67.408    7.609
  103.700    0.372    0.418   64.961    7.604
  104.000    0.352    0.405   60.027    7.601
  104.300    0.331    0.358   53.237    7.597
  104.600    0.311    0.344   52.647    7.738
  104.900    0.307    0.348   53.294    7.736
  105.200    0.344    0.363   54.565    7.879
  105.500    0.367    0.403   58.311    7.877
  105.800    0.365    0.417   62.054    7.873
  106.100    0.354    0.453   63.321    7.868
  106.400    0.352    0.454   64.591    7.714
  106.700    0.350    0.423   68.341    7.712
  107.000    0.344    0.395   70.225    7.707
  107.300    0.348    0.418   66.531    7.705
  107.600    0.355    0.427   61.603    8.000
  107.900    0.354    0.422   60.392    9.134
  108.200    0.364    0.404   60.422    9.666
  108.500    0.356    0.377   59.211    9.847
  108.800    0.365    0.392   58.621    9.841
  109.100    0.355    0.403   58.642    9.838
  109.400    0.343    0.413   59.910    9.646
  109.700    0.345    0.424   59.940    9.282
  110.000    0.351    0.439   59.965    9.103
  110.300    0.342    0.445   64.334    8.926
  110.600    0.332    0.430   64.981    8.922
  110.900    0.347    0.413   63.147    8.750
  111.200    0.347    0.390   63.793    8.746
  111.500    0.341    0.398   60.104    8.577
  111.800    0.334    0.406   60.133    8.411
  112.100    0.339    0.405   62.641    8.248
  112.400    0.330    0.404   63.290    8.089
  112.700    0.325    0.405   63.319    7.933
  113.000    0.328    0.404   64.585    7.631
  113.300    0.337    0.411   65.231    7.485
  113.600    0.348    0.422   63.401    7.340
  113.900    0.353    0.413   61.569    7.198
  114.201    0.344    0.403   60.357    7.058
  114.501    0.334    0.401   59.147    6.921
  114.801    0.326    0.409   61.033    6.787
  115.101    0.316    0.423   64.157    6.658
  115.401    0.315    0.429   68.525    6.528
  115.701    0.320    0.438   70.412    6.402
  116.001    0.329    0.426   71.060    6.278
  116.301    0.340    0.404   70.466    6.157
  116.601    0.351    0.421   69.255    6.038
  116.901    0.349    0.415   70.521    6.035
