~VERSION INFORMATION
 VERS.                 2.0:   CWLS LOG ASCII STANDARD -VERSION 2.0
 WRAP.                  NO:   ONE LINE PER DEPTH STEP
~WELL INFORMATION BLOCK
#MNEM.UNIT           DATA                    DESCRIPTION OF MNEMONIC
#---------    -------------------            -------------------------------
# Generated from Intellog Unique Number	CC_84_87/WELL/1149
NULL.         -999.25                        : NULL_VALUE
WELL.         PEX PCEJ HANGST OV             : Well_name    - WELL              
LOC .         07-20-084-09W4                 : Location     - LOCATION          
UWI .         00/07-20-084-09W400            : Uwi          - UNIQUE WELL ID    
ENTR.         JHS                            : Entered      - ENTERED BY        
SRVC.         DRESSER ATLAS                  : Scn          - SERVICE COMPANY   
DATE.         06 FEB 80                      : Date         - LOG DATE
STRT.M        220                            : top_depth    - START DEPTH       
STOP.M        459.992                        : bot_depth    - STOP DEPTH        
STEP.M        0.3                            : increment    - STEP LENGTH       
~CURVE INFORMATION BLOCK
#MNEM UNIT       ERCB CURVE CODE    CURVE DESCRIPTION
#-----------   ------------------   ----------------------------------
DEPT.M        00 001 00 00         : DEPTH        - DEPTH                       
DPHI.V/V      00 890 00 00         : PHID         - DENSITY POROSITY (LIMESTONE)
NPHI.V/V      00 330 00 00         : PHIN         - NEUTRON POROSITY (LIMESTONE)
GR  .API      00 310 00 00         : GR           - GAMMA RAY                   
ILD .OHMM     00 120 00 00         : RESD         - DEEP RESISTIVITY (DIL)      
~PARAMETER INFORMATION       
#MNEM.UNIT           DATA             DESCRIPTION OF MNEMONIC
#---------         -----------     ------------------------------
GL  .M        698.35               : gl           - GROUND LEVEL ELEVATION      
EREF.M        701.95               : kb           - ELEVATION OF DEPTH REFERENCE
DATM.M        701.95               : datum        - DATUM ELEVATION             
TDD .M        477                  : tdd          - TOTAL DEPTH DRILLER         
RUN .         ONE                  : Run          - RUN NUMBER                  
ENG .         BILL                 : Engineer     - RECORDING ENGINEER          
WIT .         JIM                  : Witness      - WITNESSED BY                
MUD .         GEL                  : Mud_type     - MUD TYPE                    
MATR.         LIMESTONE            : Logunit      - NEUTRON MATRIX              
TMAX.C        17                   : BHT          - MAXIMUM RECORDED TEMPERATURE
BHTD.M        477                  : BHTDEP       - MAXIMUM RECORDED TEMPERATURE
MATR.         1                    : LOGUNIT      - NEUTRON MATRIX              
RMT .C        25                   : MDTP         - TEMPERATURE OF MUD          
NEUT.         1                    : NEUTRON      - NEUTRON TYPE                
RESI.         0                    : RESIST       - RESISTIVITY TYPE            
RMC .OHMM     0.25                 : RMC          - RESISTIVITY OF MUD CAKE     
RMF .OHMM     0.25                 : RMF          - RESISTIVITY OF MUD FILTRATE 
SUFT.C        15                   : SUFT         - SURFACE TEMPERATURE         
~A  DEPTH     PHID     PHIN       GR     RESD
# ...
  428.793    0.292    0.340   59.383  102.884
  429.093    0.294    0.333   64.276  123.833
  429.393    0.296    0.342   72.830  141.002
  429.693    0.299    0.333   75.893  135.952
  429.993    0.298    0.333   67.980  113.092
  430.293    0.293    0.354   63.119   94.065
  430.593    0.282    0.352   72.280   75.409
  430.893    0.277    0.337   63.757   63.893
  431.193    0.281    0.334   75.969   57.222
  431.493    0.291    0.346   68.666   57.261
  431.793    0.297    0.358   57.708   59.444
  432.093    0.301    0.366   59.550   72.871
  432.393    0.307    0.349   53.467   97.980
  432.693    0.302    0.319   54.092  120.123
  432.993    0.288    0.337   68.742  111.632
  433.293    0.295    0.361   72.415  103.752
  433.593    0.302    0.351   55.356  111.767
  433.893    0.291    0.342   62.691  109.764
  434.193    0.289    0.347   59.655  109.824
  434.493    0.292    0.341   67.597  120.519
  434.793    0.290    0.344   64.563  107.941
  435.093    0.290    0.343   57.874  106.016
  435.393    0.289    0.338   53.009  108.050
  435.693    0.277    0.339   57.294  106.146
  435.993    0.278    0.349   60.965   96.830
  436.293    0.280    0.348   71.347   82.040
  436.593    0.278    0.358   70.144   66.991
  436.893    0.276    0.370   65.890   55.723
  437.193    0.281    0.371   64.686   48.993
  437.493    0.282    0.360   72.018   49.021
  437.793    0.276    0.361   76.301   50.898
  438.093    0.269    0.353   72.660   49.987
  438.393    0.269    0.343   83.039   48.205
  438.693    0.271    0.343   92.811   44.796
  438.993    0.276    0.353   92.826   42.403
  439.293    0.285    0.373   75.767   41.651
  439.593    0.300    0.365   53.829   45.705
  439.893    0.296    0.355   60.552   55.004
  440.193    0.277    0.339   73.373   63.810
  440.493    0.260    0.331   89.243   62.666
  440.793    0.257    0.322   89.868   52.130
  441.093    0.269    0.332   80.126   43.357
  441.393    0.288    0.326   66.725   34.760
  441.693    0.293    0.340   63.693   36.085
  441.993    0.289    0.343   59.441   42.634
  442.293    0.278    0.346   71.650   54.235
  442.593    0.276    0.349   82.641   72.923
  442.893    0.293    0.357   83.875   74.331
  443.193    0.297    0.347   77.793   66.570
  443.493    0.289    0.335   60.733   60.731
  443.793    0.280    0.338   53.432   60.760
  444.093    0.275    0.319   66.253   60.796
  444.393    0.271    0.325   77.243   52.469
  444.693    0.273    0.329   83.357   41.296
  444.993    0.286    0.330   90.689   35.642
  445.293    0.300    0.345   80.337   35.005
  445.593    0.306    0.360   65.718   43.717
  445.893    0.306    0.354   67.562   80.470
  446.193    0.316    0.359   60.870  112.262
  446.493    0.323    0.376   46.250  168.648
  446.793    0.319    0.366   42.608  206.768
  447.093    0.296    0.347   65.184  222.747
  447.393    0.271    0.332   71.908  168.919
  447.693    0.264    0.312   76.801   91.874
  447.993    0.285    0.325   74.986   56.865
  448.293    0.299    0.342   50.610   47.300
  448.593    0.309    0.366   40.868   52.879
  448.893    0.305    0.370   42.715   67.261
  449.193    0.298    0.383   56.144  133.298
  449.492    0.285    0.371   70.184  259.326
  449.792    0.280    0.353   72.639 1615.330
  450.092    0.266    0.329   67.775  786.410
  450.392    0.256    0.330   67.182  259.748
  450.692    0.287    0.347   61.707  146.592
  450.992    0.312    0.366   56.846  115.368
  451.292    0.323    0.371   51.370  146.774
  451.592    0.327    0.375   30.652  170.223
  451.892    0.329    0.367   39.816  186.800
  452.192    0.331    0.364   43.488  164.234
  452.492    0.325    0.347   42.285  117.836
  452.792    0.312    0.332   36.812  113.636
  453.092    0.284    0.315   44.144   84.598
  453.392    0.166    0.295   48.428   21.181
  453.692    0.044    0.230   63.689   14.920
  453.992    0.034    0.221   70.410   10.907
  454.292    0.031    0.222   78.962    9.768
  454.592    0.029    0.207   78.368    9.772
  454.892    0.026    0.207   71.677   11.127
  455.192    0.021    0.212   73.523   13.393
  455.492    0.014    0.206   76.584   16.419
  455.792    0.000    0.198   75.380   19.401
  456.092    0.000    0.189   73.565   19.773
  456.392    0.000    0.177   78.461   21.700
  456.692    0.000    0.166   63.838   23.809
  456.992    0.004    0.174   68.124   25.182
  457.292    0.027    0.184   73.016   23.837
  457.592    0.033    0.187   69.374   22.564
  457.892    0.034    0.178   71.217   22.995
  458.192    0.040    0.172   70.014   23.006
  458.492    0.035    0.177   77.956   21.779
  458.792    0.030    0.171   78.580   23.465
  459.092    0.035    0.172   79.204   23.914
  459.392    0.039    0.178   69.463   22.635
  459.692    0.041    0.175   92.040   22.651
  459.992    0.035    0.157   99.373   23.086
