~VERSION INFORMATION
 VERS.                 2.0:   CWLS LOG ASCII STANDARD -VERSION 2.0
 WRAP.                  NO:   ONE LINE PER DEPTH STEP
~WELL INFORMATION BLOCK
#MNEM.UNIT           DATA                    DESCRIPTION OF MNEMONIC
#---------    -------------------            -------------------------------
# Generated from Intellog Unique Number	CW_82_90/WELL/3058
WELL.         PARA ET AL LIVOCKR 06-36       : Well_name    - WELL
LOC .         00/06-36-085-20W4/0            : Location     - LOCATION
UWI .         00/06-36-085-20W4/0            : Uwi          - UNIQUE WELL ID
ENTR.         JAYE                           : Entered      - ENTERED BY
SRVC.         SCHLUMBERGER                   : Scn          - SERVICE COMPANY
DATE.         17 JAN 81                      : Date         - LOG DATE
STRT.M        200                            : top_depth    - START DEPTH
STOP.M        357                            : bot_depth    - STOP DEPTH
STEP.M        0.25                           : increment    - STEP LENGTH
 NULL. -999.2500:NULL Value
~CURVE INFORMATION BLOCK
#MNEM UNIT       ERCB CURVE CODE    CURVE DESCRIPTION
#-----------   ------------------   ----------------------------------
DEPT.M        00 001 00 00         : DEPTH        - DEPTH
ILD .OHMM     00 120 00 00         : RESD         - DEEP RESISTIVITY (DIL)
CALI.MM       00 280 01 00         : CAL          - CALIPER
GR  .API      00 310 00 00         : GR           - GAMMA RAY
NPHI.V/V      00 330 00 00         : PHIN         - NEUTRON POROSITY (SANDSTONE)
DPHI.V/V      00 890 00 00         : PHID         - DENSITY POROSITY (SANDSTONE)
~PARAMETER INFORMATION
#MNEM.UNIT           DATA             DESCRIPTION OF MNEMONIC
#---------         -----------     ------------------------------
GL  .M        616                  : gl           - GROUND LEVEL ELEVATION
EREF.M        619                  : kb           - ELEVATION OF DEPTH REFERENCE
DATM.M        616                  : datum        - DATUM ELEVATION
TDD .M        358                  : tdd          - TOTAL DEPTH DRILLER
RUN .         ONE                  : Run          - RUN NUMBER
ENG .         SALSMAN              : Engineer     - RECORDING ENGINEER
WIT .         CONNELLY             : Witness      - WITNESSED BY
BASE.         EDMONTON             : Branch       - HOME BASE OF LOGGING UNIT
MUD .         GEL CHEM             : Mud_type     - MUD TYPE
MATR.         SANDSTONE            : Logunit      - NEUTRON MATRIX
TMAX.C        11.1                 : BHT          - MAXIMUM RECORDED TEMPERATURE
BHTD.M        358                  : BHTDEP       - MAXIMUM RECORDED TEMPERATURE
RMT .C        11.1                 : MDTP         - TEMPERATURE OF MUD
MUDD.KG/M     9.5                  : MWT          - MUD DENSITY
NEUT.         1                    : NEUTRON      - NEUTRON TYPE
RESI.         0                    : RESIST       - RESISTIVITY TYPE
RM  .OHMM     6.64                 : RM           - RESISTIVITY OF MUD
RMC .OHMM     0                    : RMC          - RESISTIVITY OF MUD CAKE
RMF .OHMM     5                    : RMF          - RESISTIVITY OF MUD FILTRATE
SUFT.C        0                    : SUFT         - SURFACE TEMPERATURE
~A  DEPTH     RESD      CAL       GR     PHIN     PHID
# ...
  273.000   21.454  158.099   62.197    0.406    0.129
  273.250   33.131  157.900   59.636    0.351    0.040
  273.500   37.917  157.708   62.461    0.232    0.022
  273.750   20.513  157.924   64.659    0.224    0.028
  274.000   16.744  158.039   67.045    0.262    0.068
  274.250   16.047  157.947   68.994    0.301    0.115
  274.500   15.377  157.750   68.186    0.349    0.165
  274.750   14.352  157.866   67.881    0.408    0.225
  275.000   13.911  157.774   70.831    0.440    0.223
  275.250   13.659  157.890   73.531    0.453    0.215
  275.500   13.238  157.901   74.226    0.457    0.214
  275.750   12.976  157.810   73.043    0.459    0.227
  276.000   12.579  157.819   72.863    0.452    0.235
  276.250   12.327  159.911   73.433    0.441    0.224
  276.500   11.419  161.791   74.630    0.448    0.203
  276.750    9.845  164.401   78.018    0.459    0.234
  277.000    6.769  167.219   81.969    0.455    0.230
  277.250    6.258  169.723   87.486    0.449    0.206
  277.500    7.201  172.957   92.126    0.426    0.185
  277.750    7.949  173.799   92.321    0.446    0.157
  278.000    8.186  173.187   89.700    0.457    0.159
  278.250    8.144  173.822   92.023    0.450    0.153
  278.500    7.954  175.394   93.782    0.440    0.176
  278.750    7.752  176.548   93.289    0.438    0.180
  279.000    7.569  176.870   92.420    0.453    0.178
  279.250    7.618  176.052   91.112    0.457    0.177
  279.500    7.887  175.646   89.303    0.457    0.176
  279.750    8.012  175.347   87.871    0.448    0.173
  280.000    8.049  174.423   88.504    0.435    0.152
  280.250    8.318  173.603   90.389    0.434    0.150
  280.500    8.710  172.472   90.209    0.444    0.182
  280.750    9.051  170.304   92.219    0.447    0.174
  281.000    9.213  168.962   92.916    0.454    0.155
  281.250    9.431  167.207   90.042    0.460    0.171
  281.500    9.765  165.245   83.476    0.458    0.194
  281.750   10.109  162.868   78.224    0.459    0.211
  282.000   10.407  161.111   76.541    0.454    0.210
  282.250   10.534  159.252   76.297    0.451    0.195
  282.500   10.365  157.291   75.741    0.444    0.191
  282.750    9.950  156.472   72.618    0.438    0.228
  283.000    9.482  155.861   70.496    0.437    0.233
  283.250    9.452  155.454   69.816    0.439    0.229
  283.500   10.239  154.948   69.886    0.437    0.233
  283.750   10.523  154.751   70.143    0.436    0.239
  284.000   10.450  154.450   71.777    0.420    0.242
  284.250    9.847  154.462   72.849    0.414    0.238
  284.500    9.596  154.473   73.544    0.413    0.230
  284.750   10.240  154.383   74.177    0.412    0.201
  285.000   10.844  154.185   74.561    0.415    0.187
  285.250   11.143  154.196   73.754    0.425    0.197
  285.500   11.256  154.311   71.758    0.444    0.223
  285.750   10.951  154.221   70.450    0.437    0.238
  286.000   10.454  154.541   70.019    0.411    0.238
  286.250    9.520  154.764   71.341    0.404    0.244
  286.500    8.804  154.773   71.473    0.405    0.221
  286.750    9.427  154.994   70.667    0.411    0.199
  287.000   10.746  155.423   70.799    0.424    0.183
  287.250   11.084  155.950   70.430    0.430    0.186
  287.500   11.325  157.106   72.566    0.413    0.221
  287.750   11.703  156.604   74.326    0.407    0.228
  288.000   12.277  157.129   75.211    0.414    0.232
  288.250   12.593  157.868   75.030    0.433    0.225
  288.500   12.412  158.502   74.098    0.445    0.216
  288.750   11.518  159.347   72.790    0.436    0.201
  289.000    9.727  159.877   74.801    0.405    0.175
  289.250    6.368  159.888   77.500    0.385    0.127
  289.500    5.999  160.317   80.387    0.396    0.155
  289.750    8.527  160.639   82.836    0.430    0.168
  290.000   10.208  160.863   83.783    0.433    0.138
  290.250   10.933  160.667   80.158    0.381    0.081
  290.500   10.697  160.569   75.970    0.355    0.073
  290.750    6.782  160.063   78.732    0.348    0.098
  291.000    6.982  160.073   87.129    0.386    0.131
  291.250    9.794  159.982   91.707    0.415    0.181
  291.500    9.637  160.098   88.207    0.452    0.160
  291.750    8.791  160.628   81.454    0.452    0.110
  292.000    7.566  161.679   74.886    0.417    0.078
  292.250    6.353  163.247   79.213    0.395    0.100
  292.500    4.588  163.247   93.370    0.412    0.158
  292.750    3.539  167.849   97.948    0.449    0.197
  293.000    1.941  168.685  103.715    0.471    0.188
  293.250    2.328  170.463  109.920    0.494    0.177
  293.500    2.960  172.035  107.422    0.518    0.182
  293.750    3.477  172.879  103.298    0.533    0.185
  294.000    4.388  173.096   97.546    0.532    0.185
  294.250    5.435  172.799   93.170    0.516    0.208
  294.500    7.710  172.082   90.297    0.489    0.208
  294.750    8.028  171.987   93.122    0.472    0.182
  295.000    8.141  172.001   96.885    0.456    0.171
  295.250    8.301  172.219   95.765    0.447    0.141
  295.500    8.184  172.750   90.952    0.452    0.114
  295.750    7.552  173.179   91.710    0.454    0.136
  296.000    7.049  174.022   95.787    0.452    0.153
  296.250    7.134  174.761  100.928    0.464    0.174
  296.500    7.427  175.084  101.875    0.485    0.170
  296.750    7.489  175.199  100.692    0.468    0.179
  297.000    7.178  175.209  100.073    0.469    0.177
  297.250    7.196  175.117  100.518    0.475    0.162
  297.500    8.845  174.714  102.968    0.480    0.159
  297.750    9.728  174.102  101.659    0.466    0.175
  298.000   10.321  172.972   96.409    0.440    0.167
  298.250   10.765  171.839   94.411    0.421    0.167
  298.500   10.999  170.293   95.859    0.403    0.166
  298.750   11.091  168.640   97.305    0.403    0.178
  299.000   10.913  166.469   96.750    0.406    0.163
  299.250    9.901  164.195   98.760    0.411    0.169
  299.500    7.177  161.925   97.139    0.417    0.184
  299.750    6.801  161.101   99.212    0.420    0.177
  300.000   15.371  159.556   92.082    0.430    0.154
  300.250   19.473  158.631   82.635    0.440    0.115
  300.500   20.817  157.707   72.000    0.395    0.069
  300.750   19.875  156.886   69.878    0.263    0.018
  301.000   17.168  155.654   73.454    0.259    0.035
  301.250   14.041  155.143   77.718    0.288    0.074
  301.500    9.764  154.530   85.489    0.309    0.115
  301.750    8.630  154.647   95.763    0.355    0.250
  302.000    9.085  155.282   99.966    0.372    0.195
  302.250    9.406  155.398  102.101    0.387    0.165
  302.500    9.468  155.315  101.796    0.414    0.153
  302.750    9.314  155.422  101.552    0.432    0.161
  303.000    8.531  155.847   97.740    0.422    0.173
  303.250    8.021  156.484   93.741    0.439    0.150
  303.500    9.127  157.017   99.821    0.443    0.121
  303.750   10.886  157.233   95.696    0.456    0.110
  304.000   12.198  157.868   90.882    0.464    0.140
  304.250   13.313  158.616   84.879    0.459    0.146
  304.500   13.811  158.932   80.379    0.453    0.115
  304.750   12.889  158.942   86.396    0.362    0.067
  305.000   12.589  159.161   96.107    0.349    0.096
  305.250   12.935  159.172   95.802    0.358    0.129
  305.500   13.263  158.873   92.866    0.421    0.157
  305.750   14.051  158.678   91.747    0.444    0.174
  306.000   14.461  158.796   90.564    0.450    0.187
  306.250   14.746  158.908   89.006    0.446    0.157
  306.500   17.064  159.134   84.881    0.435    0.130
  306.750   27.780  158.931   76.374    0.412    0.104
  307.000   30.667  157.806   66.113    0.391    0.042
  307.250   29.947  157.604   62.990    0.247   -0.005
  307.500   27.637  157.101   74.016    0.215   -0.010
  307.750   23.339  157.106   84.604    0.213    0.011
  308.000   13.877  158.990   93.689    0.245    0.071
  308.250   14.019  159.729   99.894    0.275    0.117
  308.500   14.030  160.676   99.088    0.396    0.155
  308.750   14.338  161.413   95.589    0.436    0.165
  309.000   14.567  162.465   96.723    0.431    0.160
  309.250   14.602  163.515   98.045    0.419    0.137
