~VERSION INFORMATION
 VERS.                 2.0:   CWLS LOG ASCII STANDARD -VERSION 2.0
 WRAP.                  NO:   ONE LINE PER DEPTH STEP
~WELL INFORMATION BLOCK
#MNEM.UNIT           DATA                    DESCRIPTION OF MNEMONIC
#---------    -------------------            -------------------------------
# Generated from Intellog Unique Number	CW_70_72/WELL/3004
NULL.         -999.25                        : NULL_VALUE
WELL.         SULPETRO BREND MITSUE 05-20    : Well_name    - WELL              
LOC .         05-20-070-05W5                 : Location     - LOCATION          
UWI .         00/05-20-070-05W5/0            : Uwi          - UNIQUE WELL ID    
ENTR.         JAYE                           : Entered      - ENTERED BY        
SRVC.         SCHLUMBERGER                   : Scn          - SERVICE COMPANY   
DATE.         5 FEB 80                       : Date         - LOG DATE          
STRT.M        635                            : top_depth    - START DEPTH       
STOP.M        885                            : bot_depth    - STOP DEPTH        
STEP.M        0.25                           : increment    - STEP LENGTH       
~CURVE INFORMATION BLOCK
#MNEM UNIT       ERCB CURVE CODE    CURVE DESCRIPTION
#-----------   ------------------   ----------------------------------
DEPT.M        00 001 00 00         : DEPTH        - DEPTH                       
ILD .OHMM     00 120 00 00         : RESD         - DEEP RESISTIVITY (DIL)      
CALI.MM       00 280 01 00         : CAL          - CALIPER                     
GR  .API      00 310 00 00         : GR           - GAMMA RAY                   
NPHI.V/V      00 330 00 00         : PHIN         - NEUTRON POROSITY (SANDSTONE)
DPHI.V/V      00 890 00 00         : PHID         - DENSITY POROSITY (SANDSTONE)
~PARAMETER INFORMATION       
#MNEM.UNIT           DATA             DESCRIPTION OF MNEMONIC
#---------         -----------     ------------------------------
GL  .M        738.2                : gl           - GROUND LEVEL ELEVATION      
EREF.M        742                  : kb           - ELEVATION OF DEPTH REFERENCE
DATM.M        738.2                : datum        - DATUM ELEVATION             
TDD .M        898                  : tdd          - TOTAL DEPTH DRILLER         
RUN .         ONE                  : Run          - RUN NUMBER                  
ENG .         DECKER               : Engineer     - RECORDING ENGINEER          
WIT .         CIAVARELLA           : Witness      - WITNESSED BY                
BASE.         EDM                  : Branch       - HOME BASE OF LOGGING UNIT   
MUD .         GEL CHEM             : Mud_type     - MUD TYPE                    
MATR.         SANDSTONE            : Logunit      - NEUTRON MATRIX              
TMAX.C        31.1                 : BHT          - MAXIMUM RECORDED TEMPERATURE
BHTD.M        899.5                : BHTDEP       - MAXIMUM RECORDED TEMPERATURE
RMT .C        12.7                 : MDTP         - TEMPERATURE OF MUD          
MUDD.KG/M     1000                 : MWT          - MUD DENSITY                 
NEUT.         1                    : NEUTRON      - NEUTRON TYPE                
RESI.         0                    : RESIST       - RESISTIVITY TYPE            
RM  .OHMM     0.25                 : RM           - RESISTIVITY OF MUD          
RMC .OHMM     0.25                 : RMC          - RESISTIVITY OF MUD CAKE     
RMF .OHMM     5                    : RMF          - RESISTIVITY OF MUD FILTRATE 
SUFT.C        0                    : SUFT         - SURFACE TEMPERATURE         
~A  DEPTH     RESD      CAL       GR     PHIN     PHID
# ...
  854.000    6.710  159.983   98.426    0.311    0.138
  854.250    6.117  160.017   99.121    0.309    0.136
  854.500    5.650  160.147  100.680    0.317    0.122
  854.750    5.489  160.073   99.462    0.330    0.113
  855.000    5.570  159.780   99.047    0.333    0.115
  855.250    5.748  159.504  101.224    0.334    0.127
  855.500    6.055  159.633  100.684    0.325    0.137
  855.750    6.391  159.761   90.699    0.310    0.123
  856.000    7.070  160.199   84.230    0.296    0.109
  856.250    8.152  161.052   79.493    0.274    0.093
  856.500    8.801  161.290   81.547    0.259    0.079
  856.750    9.133  161.830   85.825    0.276    0.105
  857.000    8.420  161.958   77.874    0.308    0.093
  857.250    7.186  162.397   79.746    0.331    0.086
  857.500    6.416  162.424   84.826    0.355    0.100
  857.750    6.131  162.560   93.549    0.365    0.124
  858.000    6.013  162.586   93.748    0.363    0.133
  858.250    6.022  162.612   89.072    0.353    0.137
  858.500    6.190  162.538   85.138    0.338    0.124
  858.750    6.595  162.358   80.708    0.322    0.109
  859.000    7.187  162.289   73.930    0.300    0.099
  859.250    7.802  162.101   70.674    0.280    0.102
  859.500    7.931  162.233   70.011    0.307    0.108
  859.750    7.043  162.466   79.476    0.332    0.102
  860.000    6.467  162.804   89.622    0.346    0.081
  860.250    5.974  163.039   95.196    0.360    0.105
  860.500    5.528  163.066   99.164    0.373    0.128
  860.750    5.001  163.092   97.451    0.381    0.144
  861.000    5.691  162.921   90.242    0.368    0.147
  861.250    6.415  162.840   82.913    0.368    0.129
  861.500    7.070  163.075   78.050    0.364    0.143
  861.750    7.675  163.098   73.248    0.355    0.112
  862.000    8.240  163.132   68.942    0.257    0.088
  862.250    8.518  162.949   72.972    0.269    0.111
  862.500    8.231  163.085   73.422    0.299    0.123
  862.750    7.631  163.322   56.147    0.329    0.093
  863.000    6.918  163.348   65.242    0.311    0.056
  863.250    6.401  163.476   84.463    0.296    0.031
  863.500    6.057  163.811   89.729    0.355    0.084
  863.750    5.766  164.248   85.423    0.362    0.105
  864.000    5.571  164.892   87.230    0.316    0.097
  864.250    5.495  165.534   98.238    0.324    0.114
  864.500    5.461  166.489   94.364    0.354    0.125
  864.750    5.510  163.328   85.550    0.328    0.128
  865.000    5.456  160.574   87.049    0.342    0.148
  865.250    5.173  159.883   96.761    0.424    0.179
  865.500    4.698  159.600  103.755    0.470    0.293
  865.750    4.055  159.318   84.999    0.448    0.266
  866.000    3.063  158.936   69.887    0.355    0.216
  866.250    2.183  158.037   59.345    0.325    0.247
  866.500    1.963  157.139   64.917    0.315    0.261
  866.750    2.168  156.447   83.459    0.302    0.244
  867.000    2.528  158.016   91.874    0.291    0.186
  867.250    3.020  162.990   96.831    0.285    0.144
  867.500    3.664  164.659  102.839    0.271    0.140
  867.750    4.281  165.716  110.450    0.280    0.136
  868.000    4.889  165.744  113.121    0.310    0.129
  868.250    5.268  165.261  110.421    0.332    0.114
  868.500    5.386  164.567  104.756    0.328    0.126
  868.750    5.333  163.663   97.918    0.316    0.157
  869.000    5.281  162.871   91.144    0.306    0.163
  869.250    5.308  162.999   86.960    0.315    0.143
  869.500    5.560  162.820   80.986    0.348    0.117
  869.750    5.881  161.716   67.479    0.361    0.084
  870.000    5.999  159.995   60.148    0.305    0.035
  870.250    5.973  156.831   65.659    0.227    0.080
  870.500    5.425  150.786   72.716    0.217    0.130
  870.750    4.835  149.480   78.660    0.243    0.163
  871.000    4.134  148.887   70.588    0.278    0.170
  871.250    3.775  149.221   74.495    0.295    0.187
  871.500    3.925  149.969   85.194    0.259    0.202
  871.750    3.975  158.438  103.056    0.273    0.157
  872.000    3.812  166.800   88.499    0.302    0.110
  872.250    3.541  167.343   64.495    0.328    0.146
  872.500    3.209  162.741   50.556    0.327    0.204
  872.750    2.429  159.578   39.148    0.313    0.257
  873.000    2.042  158.987   34.718    0.297    0.226
  873.250    1.861  159.014   35.537    0.278    0.202
  873.500    2.021  159.041   37.839    0.266    0.177
  873.750    2.252  158.658   43.228    0.266    0.169
  874.000    2.597  158.687   47.383    0.268    0.183
  874.250    3.022  158.713   52.215    0.264    0.170
  874.500    3.407  158.949   51.739    0.262    0.157
  874.750    2.854  158.769   43.294    0.269    0.185
  875.000    2.368  159.002   39.481    0.289    0.234
  875.250    2.538  159.543   51.788    0.279    0.199
  875.500    2.765  160.294   62.734    0.268    0.147
  875.750    3.082  161.659   77.818    0.259    0.086
  876.000    3.540  164.567   89.135    0.280    0.080
  876.250    4.066  166.343   91.560    0.330    0.108
  876.500    4.671  162.356   73.421    0.318    0.117
  876.750    4.957  157.958   58.555    0.287    0.151
  877.000    4.580  158.297   60.548    0.274    0.168
  877.250    4.253  159.044   66.061    0.262    0.168
  877.500    3.582  160.100   57.865    0.301    0.215
  877.750    2.885  160.747   54.856    0.339    0.249
  878.000    2.504  160.670   58.886    0.336    0.268
  878.250    2.244  156.068   64.709    0.322    0.256
  878.500    2.045  150.226   69.478    0.323    0.245
  878.750    1.999  143.772   74.743    0.318    0.239
  879.000    2.182  147.605   65.127    0.302    0.216
  879.250    2.410  155.043   54.027    0.289    0.200
  879.500    2.587  156.719   55.156    0.336    0.275
  879.750    2.846  156.852   57.087    0.412    0.326
  880.000    3.067  156.774   48.211    0.399    0.288
  880.250    3.279  157.319   48.844    0.297    0.248
  880.500    3.642  158.680   63.126    0.269    0.205
  880.750    3.887  161.077   72.714    0.283    0.169
  881.000    4.110  160.588   79.524    0.285    0.138
  881.250    4.266  159.483   66.820    0.271    0.144
  881.500    4.232  159.923   60.044    0.250    0.169
  881.750    4.261  161.805   73.398    0.234    0.140
  882.000    4.449  165.126   88.792    0.227    0.096
  882.250    4.555  164.431  102.269    0.262    0.069
  882.500    4.502  161.476  109.018    0.323    0.047
  882.750    4.301  160.369   96.621    0.383    0.055
  883.000    4.025  160.398   77.371    0.351    0.064
  883.250    4.061  160.532   64.605    0.220    0.036
  883.500    4.384  160.763   57.458    0.187   -0.011
  883.750    5.511  160.685   54.882    0.171    0.010
  884.000    6.824  160.512   52.676    0.160    0.022
  884.250    8.004  160.231   50.592    0.163    0.033
  884.500    8.529  160.049   50.917    0.165    0.038
  884.750    8.832  159.877   50.256    0.169    0.035
  885.000    8.844  159.801   49.286    0.173    0.029
