~VERSION INFORMATION
 VERS.                 2.0:   CWLS LOG ASCII STANDARD -VERSION 2.0
 WRAP.                  NO:   ONE LINE PER DEPTH STEP
~WELL INFORMATION BLOCK
#MNEM.UNIT           DATA                    DESCRIPTION OF MNEMONIC
#---------    -------------------            -------------------------------
# Generated from Intellog Unique Number	CW_70_72/WELL/3009
NULL.         -999.25                        : NULL_VALUE
WELL.         BRASCAN AMOCO MEYER 06-22      : Well_name    - WELL              
LOC .         06-22-070-25W4                 : Location     - LOCATION          
UWI .         00/06-22-070-25W4/0            : Uwi          - UNIQUE WELL ID    
ENTR.         J                              : Entered      - ENTERED BY        
SRVC.         SCHLUMBERGER                   : Scn          - SERVICE COMPANY   
DATE.         10 MAR 73                      : Date         - LOG DATE          
STRT.M        478.536                        : top_depth    - START DEPTH       
STOP.M        701.036                        : bot_depth    - STOP DEPTH        
STEP.M        0.25                           : increment    - STEP LENGTH       
~CURVE INFORMATION BLOCK
#MNEM UNIT       ERCB CURVE CODE    CURVE DESCRIPTION
#-----------   ------------------   ----------------------------------
DEPT.M        00 001 00 00         : DEPTH        - DEPTH                       
ILD .OHMM     00 120 00 00         : RESD         - DEEP RESISTIVITY (DIL)      
CALI.MM       00 280 01 00         : CAL          - CALIPER                     
GR  .API      00 310 00 00         : GR           - GAMMA RAY                   
NPHI.V/V      00 330 00 00         : PHIN         - NEUTRON POROSITY (SANDSTONE)
DPHI.V/V      00 890 00 00         : PHID         - DENSITY POROSITY (SANDSTONE)
~PARAMETER INFORMATION       
#MNEM.UNIT           DATA             DESCRIPTION OF MNEMONIC
#---------         -----------     ------------------------------
GL  .M        643.433              : gl           - GROUND LEVEL ELEVATION      
EREF.M        647.243              : kb           - ELEVATION OF DEPTH REFERENCE
DATM.M        643.433              : datum        - DATUM ELEVATION             
TDD .M        729.996              : tdd          - TOTAL DEPTH DRILLER         
RUN .         ONE                  : Run          - RUN NUMBER                  
ENG .         MACIJUK              : Engineer     - RECORDING ENGINEER          
WIT .         JAMES                : Witness      - WITNESSED BY                
BASE.         EDMONTON             : Branch       - HOME BASE OF LOGGING UNIT   
MUD .         GEL                  : Mud_type     - MUD TYPE                    
MATR.         SANDSTONE            : Logunit      - NEUTRON MATRIX              
TMAX.C        27.7778              : BHT          - MAXIMUM RECORDED TEMPERATURE
BHTD.M        729.996              : BHTDEP       - MAXIMUM RECORDED TEMPERATURE
RMT .C        16.6667              : MDTP         - TEMPERATURE OF MUD          
MUDD.KG/M     1104                 : MWT          - MUD DENSITY                 
NEUT.         1                    : NEUTRON      - NEUTRON TYPE                
RESI.         0                    : RESIST       - RESISTIVITY TYPE            
RM  .OHMM     3.38                 : RM           - RESISTIVITY OF MUD          
RMC .OHMM     0                    : RMC          - RESISTIVITY OF MUD CAKE     
RMF .OHMM     0                    : RMF          - RESISTIVITY OF MUD FILTRATE 
SUFT.C        -17.7778             : SUFT         - SURFACE TEMPERATURE         
~A  DEPTH     RESD      CAL       GR     PHIN     PHID
# ...
  624.536    6.093  162.218   60.808    0.326    0.078
  624.786    6.445  163.897   64.422    0.331    0.103
  625.036    5.999  163.307   67.237    0.353    0.115
  625.286    5.173  162.416   69.326    0.370    0.162
  625.536    4.876  161.519   69.344    0.391    0.180
  625.786    4.360  161.139   69.604    0.406    0.168
  626.036    4.087  161.049   71.509    0.389    0.161
  626.286    4.207  161.292   73.595    0.378    0.159
  626.536    4.305  162.148   74.464    0.373    0.132
  626.786    4.488  163.199   72.776    0.363    0.114
  627.036    4.800  164.778   71.516    0.347    0.097
  627.286    5.059  165.842   77.135    0.359    0.078
  627.536    5.029  166.691   81.109    0.390    0.062
  627.786    4.776  167.655   72.358    0.404    0.087
  628.036    4.817  168.097   61.658    0.373    0.037
  628.286    5.275  168.642   54.977    0.328    0.037
  628.536    6.413  169.285   49.269    0.253    0.014
  628.786    7.310  169.617   50.504    0.233    0.002
  629.036    8.334  170.071   66.659    0.254    0.027
  629.286    7.830  170.100   71.790    0.325    0.049
  629.536    6.860  169.915   77.410    0.367    0.102
  629.786    5.785  169.835   80.472    0.388    0.109
  630.036    4.860  170.488   81.584    0.386    0.112
  630.286    4.197  170.929   79.351    0.371    0.123
  630.536    4.203  171.370   76.625    0.384    0.103
  630.786    4.317  171.395   77.498    0.395    0.105
  631.036    4.436  171.017   79.826    0.396    0.122
  631.286    4.490  170.937   82.102    0.408    0.116
  631.536    4.472  171.071   82.053    0.417    0.096
  631.786    4.375  171.097   80.425    0.400    0.120
  632.036    4.324  170.924   83.550    0.393    0.122
  632.286    4.259  170.746   85.149    0.416    0.129
  632.536    4.249  170.776   83.946    0.424    0.134
  632.786    4.326  170.602   83.966    0.411    0.142
  633.036    4.477  170.602   87.697    0.397    0.126
  633.286    4.667  170.563   86.375    0.382    0.104
  633.536    4.767  170.585   83.592    0.327    0.097
  633.786    4.612  170.507   84.765    0.396    0.096
  634.036    4.419  170.532   92.273    0.411    0.120
  634.286    4.257  170.532   93.629    0.428    0.126
  634.536    4.075  170.714   90.052    0.433    0.130
  634.786    4.006  170.619   87.023    0.403    0.124
  635.036    4.004  170.340   84.728    0.387    0.131
  635.286    4.015  170.287   84.441    0.369    0.103
  635.536    4.074  170.296   86.771    0.376    0.098
  635.786    4.184  170.219   87.460    0.383    0.111
  636.036    4.459  170.219   86.134    0.385    0.124
  636.286    4.726  170.219   84.082    0.377    0.120
  636.536    4.926  170.012   83.794    0.367    0.097
  636.786    5.107  169.824   88.564    0.370    0.082
  637.036    5.179  169.543   91.439    0.401    0.128
  637.286    5.216  170.496   92.006    0.394    0.132
  637.536    5.242  170.318   88.675    0.356    0.102
  637.786    5.229  170.870   87.227    0.325    0.075
  638.036    5.207  171.204   90.840    0.309    0.079
  638.286    5.102  171.236   92.378    0.334    0.090
  638.536    4.952  171.167   90.935    0.355    0.103
  638.786    4.712  170.983   89.366    0.375    0.123
  639.036    4.650  171.111   88.410    0.367    0.131
  639.286    4.768  171.662   86.418    0.343    0.088
  639.536    5.117  171.786   83.573    0.315    0.082
  639.786    5.697  172.435   80.970    0.314    0.043
  640.036    6.193  172.462   81.901    0.334    0.061
  640.286    6.363  172.494   89.103    0.362    0.106
  640.536    5.890  172.521   92.167    0.346    0.123
  640.786    5.355  172.554   92.731    0.349    0.110
  641.036    5.038  172.581   94.392    0.352    0.114
  641.286    4.784  172.612   96.479    0.358    0.105
  641.536    4.705  172.848   98.262    0.365    0.093
  641.786    4.737  172.664  102.056    0.373    0.092
  642.036    4.786  171.973  102.499    0.369    0.088
  642.286    4.961  171.589   96.368    0.346    0.068
  642.536    5.240  170.899   88.041    0.269    0.058
  642.786    5.441  171.029   83.367    0.316    0.047
  643.036    5.582  172.607   84.728    0.340    0.070
  643.286    5.629  174.385   85.777    0.363    0.116
  643.536    5.524  176.685   85.918    0.363    0.139
  643.786    5.058  177.746   85.994    0.358    0.164
  644.036    4.343  177.568   87.106    0.374    0.156
  644.286    3.557  178.423   92.300    0.462    0.153
  644.536    2.758  180.510   97.983    0.536    0.132
  644.786    2.347  186.107  100.069    0.579    0.155
  645.036    2.049  195.521   98.322    0.566    0.127
  645.286    1.897  207.616   94.624    0.479    0.120
  645.536    1.931  219.089   92.505    0.449    0.132
  645.786    2.356  209.219   88.504    0.412    0.142
  646.036    2.695  186.355   84.014    0.367    0.138
  646.286    3.410  173.186   81.961    0.342    0.055
  646.536    4.323  171.978   85.509    0.347    0.027
  646.786    5.057  172.522   92.289    0.358    0.069
  647.036    4.990  172.859   95.535    0.366    0.122
  647.286    4.388  173.712   97.134    0.351    0.094
  647.536    3.555  174.878   99.404    0.338    0.091
  647.786    2.922  175.837  102.221    0.396    0.101
  648.036    2.847  176.375  106.197    0.441    0.103
  648.286    2.472  176.830  104.814    0.451    0.120
  648.536    1.814  177.055   99.412    0.443    0.123
  648.786    1.652  177.496   98.329    0.412    0.093
  649.036    1.540  178.141  101.821    0.392    0.112
  649.286    1.626  178.173  104.945    0.381    0.107
  649.536    1.934  177.894  106.057    0.380    0.111
  649.786    2.304  177.407  104.065    0.383    0.113
  650.036    2.401  176.919  100.181    0.373    0.080
  650.286    2.183  175.813   88.203    0.335    0.053
  650.536    1.896  173.271   78.418    0.277    0.034
  650.786    1.396  171.229   73.437    0.249    0.005
  651.036    1.145  171.158   77.473    0.309   -0.003
  651.286    1.162  173.760   86.504    0.375    0.030
  651.536    1.930  177.608   93.159    0.406    0.087
  651.786    2.842  176.705   89.278    0.370    0.117
  652.036    3.870  172.301   80.100    0.328    0.108
  652.286    4.316  168.004   73.297    0.291    0.123
  652.536    4.346  165.964   69.233    0.342    0.128
  652.786    3.450  164.141   70.043    0.375    0.125
  653.036    1.900  165.507   73.347    0.358    0.092
  653.286    1.392  167.599   75.253    0.336    0.057
  653.536    1.150  169.073   76.062    0.314    0.025
  653.786    1.295  170.654   79.916    0.341    0.008
  654.036    2.640  171.709   88.700    0.361    0.040
  654.286    3.561  173.698   91.583    0.382    0.115
  654.536    3.837  175.169   91.540    0.393    0.104
  654.786    3.793  176.124   91.614    0.396    0.106
  655.036    3.689  177.089   96.200    0.397    0.102
  655.286    3.561  177.110   98.957    0.389    0.105
  655.536    3.535  176.223   94.467    0.369    0.095
  655.786    3.571  175.625   92.296    0.386    0.082
  656.036    3.722  174.310   93.831    0.394    0.072
  656.286    3.959  173.206   96.223    0.369    0.099
  656.536    4.329  171.994   95.936    0.317    0.092
  656.786    4.655  170.273   93.578    0.323    0.077
  657.036    5.033  169.268   89.700    0.332    0.053
  657.286    5.284  168.884   84.600    0.321    0.050
  657.536    5.282  168.922   82.788    0.311    0.029
  657.786    4.828  169.354   87.313    0.320    0.032
  658.036    4.364  170.416   91.472    0.347    0.045
  658.286    4.091  171.786   95.507    0.364    0.063
  658.536    3.801  172.536  101.370    0.404    0.064
  658.786    3.532  173.290  106.748    0.428    0.051
  659.036    3.360  173.937  111.331    0.417    0.073
  659.286    3.273  174.687  104.894    0.401    0.088
  659.536    3.218  174.713  101.016    0.394    0.096
  659.786    3.301  174.749   98.410    0.392    0.079
  660.036    3.353  174.569  101.899    0.395    0.088
  660.286    3.432  174.390  103.013    0.399    0.109
  660.536    3.462  174.109  103.274    0.401    0.101
  660.786    3.435  173.621  107.490    0.399    0.088
