~VERSION INFORMATION
 VERS.                 2.0:   CWLS LOG ASCII STANDARD -VERSION 2.0
 WRAP.                  NO:   ONE LINE PER DEPTH STEP
~WELL INFORMATION BLOCK
#MNEM.UNIT           DATA                    DESCRIPTION OF MNEMONIC
#---------    -------------------            -------------------------------
# Generated from Intellog Unique Number	CS_77_79/WELL/904
WELL.         DOME PETROLEUM                 : Well_name    - WELL
LOC .         00/07-22-077-15W4/0            : Location     - LOCATION
UWI .         00/07-22-077-15W4/0            : Uwi          - UNIQUE WELL ID
ENTR.         SP                             : Entered      - ENTERED BY
SRVC.         SCHLUMBERGER                   : Scn          - SERVICE COMPANY
STRT.M        290.25                         : top_depth    - START DEPTH
STOP.M        546                            : bot_depth    - STOP DEPTH
STEP.M        0.25                           : increment    - STEP LENGTH
 NULL. -999.2500:NULL Value
~CURVE INFORMATION BLOCK
#MNEM UNIT       ERCB CURVE CODE    CURVE DESCRIPTION
#-----------   ------------------   ----------------------------------
DEPT.M        00 001 00 00         : DEPTH        - DEPTH
ILD .OHMM     00 120 00 00         : RESD         - DEEP RESISTIVITY (DIL)
DPHI.V/V      00 890 00 00         : PHID         - DENSITY POROSITY (LIMESTONE)
NPHI.V/V      00 330 00 00         : PHIN         - NEUTRON POROSITY (LIMESTONE)
GR  .API      00 310 00 00         : GR           - GAMMA RAY
~PARAMETER INFORMATION
#MNEM.UNIT           DATA             DESCRIPTION OF MNEMONIC
#---------         -----------     ------------------------------
GL  .M        689.6                : gl           - GROUND LEVEL ELEVATION
EREF.M        693.74               : kb           - ELEVATION OF DEPTH REFERENCE
DATM.M        689.6                : datum        - DATUM ELEVATION
TDD .M        554                  : tdd          - TOTAL DEPTH DRILLER
RUN .         ONE                  : Run          - RUN NUMBER
ENG .         BILL                 : Engineer     - RECORDING ENGINEER
WIT .         JIM                  : Witness      - WITNESSED BY
MUD .         GEL                  : Mud_type     - MUD TYPE
MATR.         LIMESTONE            : Logunit      - NEUTRON MATRIX
TMAX.C        22                   : BHT          - MAXIMUM RECORDED TEMPERATURE
BHTD.M        554                  : BHTDEP       - MAXIMUM RECORDED TEMPERATURE
MATR.         1                    : LOGUNIT      - NEUTRON MATRIX
RMT .C        25                   : MDTP         - TEMPERATURE OF MUD
NEUT.         1                    : NEUTRON      - NEUTRON TYPE
RESI.         0                    : RESIST       - RESISTIVITY TYPE
RMC .OHMM     0.25                 : RMC          - RESISTIVITY OF MUD CAKE
RMF .OHMM     0.25                 : RMF          - RESISTIVITY OF MUD FILTRATE
SUFT.C        15                   : SUFT         - SURFACE TEMPERATURE
~A  DEPTH     RESD     PHID     PHIN       GR
  290.250    3.736    0.211    0.470   88.908
  290.500    3.737    0.221    0.491   88.905
  290.750    3.601    0.242    0.502   89.508
  291.000    3.602    0.266    0.502   88.900
  291.250    3.603    0.275    0.501   88.293
  291.500    3.604    0.277    0.486   87.082
  291.750    3.605    0.264    0.482   85.871
  292.000    3.676    0.255    0.482   84.659
  292.250    3.677    0.239    0.491   84.657
  292.500    3.747    0.237    0.499   86.468
  292.750    3.748    0.227    0.503   87.071
  293.000    3.750    0.232    0.503   87.674
  293.250    3.823    0.243    0.495   88.277
  293.500    3.824    0.254    0.486   90.694
  293.750    3.825    0.261    0.477   91.297
  294.000    3.755    0.261    0.470   91.295
  294.250    3.756    0.255    0.484   90.083
  294.500    3.551    0.266    0.495   89.476
  294.750    3.421    0.287    0.509   87.660
  295.000    3.234    0.288    0.514   86.448
  295.250    3.116    0.298    0.522   86.446
  295.500    3.059    0.276    0.519   85.234
  295.750    3.060    0.276    0.508   83.416
  296.000    3.061    0.275    0.497   82.205
  296.250    3.120    0.263    0.493   82.808
  296.500    3.121    0.257    0.500   84.015
  296.750    3.242    0.259    0.504   84.013
  297.000    3.243    0.255    0.490   84.011
  297.250    3.306    0.262    0.482   83.404
  297.500    3.434    0.254    0.475   85.216
  297.750    3.435    0.248    0.470   85.818
  298.000    3.436    0.255    0.474   85.817
  298.250    3.437    0.263    0.479   85.815
  298.500    3.438    0.271    0.478   83.998
  298.750    3.131    0.275    0.476   83.391
  299.000    3.440    0.248    0.478   83.994
  299.250    3.574    0.238    0.473   84.597
  299.500    3.575    0.216    0.466   84.594
  299.750    3.645    0.208    0.464   83.987
  300.000    3.646    0.209    0.469   84.590
  300.250    3.610    0.219    0.473   88.217
  300.500    3.527    0.224    0.467   91.843
  300.750    3.581    0.226    0.468   93.656
  301.000    3.582    0.216    0.480   92.445
  301.250    3.792    0.214    0.485   88.208
  301.500    3.865    0.219    0.487   86.391
  301.750    3.940    0.236    0.487   84.575
  302.000    4.016    0.252    0.480   86.387
  302.250    4.018    0.262    0.471   86.385
  302.500    4.019    0.257    0.458   85.174
  302.750    4.097    0.249    0.446   83.961
  303.000    4.098    0.256    0.438   83.960
  303.250    4.099    0.262    0.446   84.562
  303.500    4.024    0.262    0.449   86.374
  303.750    4.025    0.252    0.453   87.582
  304.000    3.952    0.238    0.458   89.999
  304.250    3.879    0.230    0.463   96.044
  304.500    3.881    0.220    0.468   97.858
  304.750    3.810    0.214    0.473   96.646
  305.000    3.811    0.220    0.478   94.225
  305.250    3.741    0.225    0.470   93.617
  305.500    3.813    0.225    0.481   90.591
  305.750    3.888    0.222    0.473   86.355
  306.000    3.962    0.225    0.468   84.538
  306.250    4.116    0.225    0.461   83.326
  306.500    4.275    0.231    0.446   82.115
  306.750    4.610    0.240    0.457   81.508
  307.000    4.973    0.251    0.458   82.716
  307.250    5.263    0.263    0.447   82.713
  307.500    6.121    0.273    0.421   79.687
  307.750    6.727    0.268    0.410   74.845
  308.000    6.988    0.252    0.405   73.029
  308.250    7.123    0.234    0.405   72.422
  308.500    7.260    0.221    0.413   73.025
  308.750    7.128    0.236    0.427   75.442
  309.000    6.997    0.250    0.448   85.722
  309.250    6.491    0.241    0.457   91.163
  309.500    6.137    0.234    0.458   96.000
  309.750    6.139    0.252    0.432   96.603
  310.000    6.498    0.262    0.397   92.367
  310.250    7.557    0.275    0.366   85.712
  310.500    9.655    0.290    0.355   76.032
  310.750   11.018    0.304    0.351   69.981
  311.000   12.575    0.312    0.365   62.116
  311.250   13.309    0.285    0.375   56.671
  311.500   12.585    0.277    0.387   53.644
  311.750   11.898    0.256    0.393   60.295
  312.000   11.461    0.231    0.399   65.737
  312.250   10.835    0.234    0.402   69.968
  312.500   10.053    0.226    0.404   75.409
  312.750    9.503    0.219    0.404   80.245
  313.000    8.653    0.221    0.409   81.454
  313.250    8.028    0.208    0.407   82.056
  313.500    7.449    0.214    0.405   83.264
  313.750    7.451    0.214    0.417   87.496
  314.000    7.454    0.217    0.425   91.122
  314.250    7.889    0.232    0.428   92.935
  314.500    8.670    0.242    0.412   85.675
  314.750    9.895    0.259    0.396   75.995
  315.000   10.672    0.267    0.382   70.550
  315.250   10.879    0.275    0.379   66.314
  315.500   10.884    0.212    0.377   62.682
  315.750   10.888    0.199    0.377   59.051
  316.000   10.891    0.218    0.383   60.259
  316.250   10.893    0.246    0.391   65.700
  316.500   10.495    0.274    0.399   68.118
  316.750   10.302    0.300    0.407   69.325
  317.000   10.114    0.311    0.412   69.928
  317.250   10.116    0.291    0.409   72.950
  317.500   10.313    0.283    0.402   80.206
  317.750   10.317    0.301    0.395   80.203
  318.000   10.516    0.315    0.391   77.176
  318.250   10.718    0.327    0.393   75.965
  318.500   10.928    0.342    0.401   74.148
  318.750   11.139    0.341    0.409   72.332
  319.000   11.353    0.327    0.420   76.563
  319.250   11.358    0.290    0.434   82.608
  319.500   11.360    0.288    0.425   84.421
  319.750   11.153    0.291    0.428   86.234
  320.000   11.158    0.305    0.424   86.232
  320.250   11.161    0.314    0.419   85.625
  320.500   11.164    0.317    0.411   83.202
  320.750   11.166    0.314    0.407   82.596
  321.000   11.171    0.307    0.406   81.990
  321.250   10.968    0.289    0.401   84.407
  321.500   10.765    0.280    0.396   84.405
  321.750   10.372    0.287    0.384   78.959
  322.000    9.991    0.287    0.379   74.723
  322.250    9.627    0.284    0.377   63.834
  322.500    9.450    0.293    0.385   58.993
  322.750    9.277    0.282    0.393   58.991
  323.000    9.106    0.265    0.392   63.827
  323.250    9.109    0.255    0.386   68.664
  323.500    9.113    0.257    0.392   69.871
  323.750    9.116    0.251    0.392   68.660
  324.000    8.949    0.246    0.389   68.052
  324.250    8.461    0.238    0.390   70.469
  324.500    7.998    0.209    0.393   73.491
  324.750    7.282    0.185    0.400   74.699
  325.000    6.386    0.149    0.412   76.512
  325.250    5.814    0.122    0.427   81.348
  325.500    5.394    0.109    0.436   83.766
  325.750    4.911    0.131    0.449   89.207
  326.000    4.732    0.155    0.454   90.414
  326.250    4.644    0.164    0.461   92.227
  326.500    4.475    0.168    0.468   95.249
  326.750    4.477    0.185    0.476   95.851
  327.000    4.478    0.202    0.488   95.849
  327.250    4.564    0.213    0.488   95.846
  327.500    4.653    0.218    0.474   94.635
  327.750    4.654    0.213    0.462   92.214
  328.000    4.569    0.184    0.465   89.792
  328.250    4.320    0.157    0.470   90.395
  328.500    4.084    0.169    0.465   92.207
  328.750    4.009    0.201    0.460   93.415
  329.000    4.164    0.214    0.457   95.831
  329.250    4.576    0.221    0.449   98.854
  329.500    5.322    0.227    0.435  100.061
  329.750    6.073    0.237    0.425  100.060
  330.000    7.474    0.240    0.408   95.823
  330.250    8.370    0.248    0.397   90.377
  330.500    8.531    0.241    0.395   89.771
  330.750    8.697    0.239    0.403   90.373
  331.000    8.864    0.235    0.407   94.000
  331.250    8.868    0.234    0.416   97.022
  331.500    8.542    0.265    0.422   91.576
  331.750    7.352    0.276    0.424   86.736
  332.000    7.082    0.262    0.416   81.290
  332.250    6.823    0.194    0.416   74.635
  332.500    6.955    0.154    0.423   80.681
  332.750    6.957    0.142    0.426   89.147
  333.000    7.227    0.153    0.429   95.193
  333.250    7.649    0.208    0.422   93.981
  333.500    8.566    0.238    0.419   87.930
