~VERSION INFORMATION
 VERS.                 2.0:   CWLS LOG ASCII STANDARD -VERSION 2.0
 WRAP.                  NO:   ONE LINE PER DEPTH STEP
~WELL INFORMATION BLOCK
#MNEM.UNIT           DATA                    DESCRIPTION OF MNEMONIC
#---------    -------------------            -------------------------------
# Generated from Intellog Unique Number	CN_94_101/WELL/3409
WELL.         PARAMOUNT RESOURCES LTD.       : Well_name    - WELL
LOC .         00/07-04-095-18W4/0            : Location     - LOCATION
UWI .         00/07-04-095-18W400            : Uwi          - UNIQUE WELL ID
ENTR.         JOETTE                         : Entered      - ENTERED BY
SRVC.         SCHLUMBERGER                   : Scn          - SERVICE COMPANY
DATE.         07\27\92                       : Date         - LOG DATE
STRT.M        170                            : top_depth    - START DEPTH
STOP.M        325                            : bot_depth    - STOP DEPTH
STEP.M        0.25                           : increment    - STEP LENGTH
 NULL. -999.2500:NULL Value
~CURVE INFORMATION BLOCK
#MNEM UNIT       ERCB CURVE CODE    CURVE DESCRIPTION
#-----------   ------------------   ----------------------------------
DEPT.M        00 001 00 00         : DEPTH        - DEPTH
ILD .OHMM     00 120 00 00         : RESD         - DEEP RESISTIVITY (DIL)
GR  .API      00 310 00 00         : GR           - GAMMA RAY
NPHI.V/V      00 330 00 00         : PHIN         - NEUTRON POROSITY (SANDSTONE)
DPHI.V/V      00 890 00 00         : PHID         - DENSITY POROSITY (SANDSTONE)
~PARAMETER INFORMATION
#MNEM.UNIT           DATA             DESCRIPTION OF MNEMONIC
#---------         -----------     ------------------------------
GL  .M        598.5                : gl           - GROUND LEVEL ELEVATION
EREF.M        602                  : kb           - ELEVATION OF DEPTH REFERENCE
DATM.M        602                  : datum        - DATUM ELEVATION
TDD .M        156                  : tdd          - TOTAL DEPTH DRILLER
RUN .         ONE                  : Run          - RUN NUMBER
ENG .         JO                   : Engineer     - RECORDING ENGINEER
WIT .         TIM                  : Witness      - WITNESSED BY
MUD .         GEL                  : Mud_type     - MUD TYPE
MATR.         SANDSTONE            : Logunit      - NEUTRON MATRIX
TMAX.C        31                   : BHT          - MAXIMUM RECORDED TEMPERATURE
BHTD.M        156                  : BHTDEP       - MAXIMUM RECORDED TEMPERATURE
RMT .C        23                   : MDTP         - TEMPERATURE OF MUD
MUDD.KG/M     1070                 : MWT          - MUD DENSITY
NEUT.         1                    : NEUTRON      - NEUTRON TYPE
RESI.         0                    : RESIST       - RESISTIVITY TYPE
RM  .OHMM     4                    : RM           - RESISTIVITY OF MUD
RMC .OHMM     4                    : RMC          - RESISTIVITY OF MUD CAKE
RMF .OHMM     4.3                  : RMF          - RESISTIVITY OF MUD FILTRATE
SUFT.C        4                    : SUFT         - SURFACE TEMPERATURE
~A  DEPTH     RESD       GR     PHIN     PHID
# ...
  213.500    5.127  114.029    0.460    0.267
  213.750    5.225  101.690    0.456    0.276
  214.000    5.222   94.276    0.448    0.268
  214.250    5.218  104.732    0.438    0.247
  214.500    5.217  110.880    0.444    0.208
  214.750    4.918  109.626    0.464    0.174
  215.000    4.457  106.524    0.494    0.154
  215.250    3.962  111.440    0.499    0.191
  215.500    3.662  118.816    0.504    0.216
  215.750    3.590  124.960    0.517    0.246
  216.000    3.587  124.326    0.520    0.261
  216.250    3.586  119.992    0.488    0.262
  216.500    3.655  122.439    0.477    0.259
  216.750    3.874  126.119    0.480    0.255
  217.000    4.105  125.485    0.490    0.259
  217.250    4.185  122.392    0.483    0.265
  217.500    4.183  119.294    0.473    0.262
  217.750    3.942  121.741    0.468    0.258
  218.000    3.790  125.421    0.470    0.255
  218.250    3.642  127.868    0.485    0.258
  218.500    3.641  127.846    0.475    0.260
  218.750    3.638  124.753    0.461    0.264
  219.000    3.782  117.959    0.477    0.260
  219.250    4.168  106.236    0.488    0.254
  219.500    4.594   94.508    0.472    0.263
  219.750    5.265   90.178    0.458    0.274
  220.000    6.154   88.929    0.441    0.286
  220.250    6.151   91.376    0.423    0.277
  220.500    5.156   98.136    0.441    0.236
  220.750    5.572  102.427    0.515    0.213
  221.000    6.022   97.485    0.552    0.175
  221.250    6.019   85.762    0.527    0.135
  221.500    5.456   73.423    0.494    0.089
  221.750    4.849   98.050    0.451    0.091
  222.000    4.662  110.354    0.416    0.125
  222.250    4.309  125.740    0.471    0.142
  222.500    4.307  132.499    0.487    0.200
  222.750    4.476  131.866    0.494    0.202
  223.000    4.475  134.309    0.497    0.206
  223.250    4.218  131.827    0.499    0.191
  223.500    3.899  128.734    0.494    0.186
  223.750    3.397  125.020    0.490    0.214
  224.000    3.202  124.387    0.503    0.234
  224.250    3.019  127.450    0.509    0.248
  224.500    2.846  129.281    0.502    0.256
  224.750    2.735  129.260    0.507    0.259
  225.000    2.629  126.778    0.534    0.261
  225.250    2.576  123.685    0.562    0.265
  225.500    2.576  121.203    0.561    0.267
  225.750    2.574  120.565    0.532    0.273
  226.000    2.523  120.544    0.505    0.278
  226.250    2.522  119.915    0.512    0.288
  226.500    2.621  119.281    0.521    0.303
  226.750    2.778  116.184    0.516    0.298
  227.000    3.062  105.693    0.496    0.275
  227.250    3.579   98.282    0.471    0.275
  227.500    4.265  103.194    0.451    0.285
  227.750    5.390  103.788    0.433    0.277
  228.000    7.223   99.463    0.440    0.277
  228.250   10.264   90.820    0.465    0.275
  228.500   12.231   79.713    0.415    0.209
  228.750   13.748   69.218    0.306    0.215
  229.000   15.152   61.808    0.296    0.253
  229.250   14.850   66.719    0.350    0.289
  229.500   12.946   77.176    0.383    0.312
  229.750   10.852   88.248    0.417    0.284
  230.000    9.275   98.705    0.416    0.251
  230.250    7.774  101.152    0.407    0.244
  230.500    7.048  103.599    0.429    0.252
  230.750    6.388  110.354    0.452    0.252
  231.000    5.567  108.493    0.467    0.247
  231.250    5.565   98.002    0.464    0.245
  231.500    6.256   94.905    0.454    0.245
  231.750    6.629  104.129    0.449    0.245
  232.000    6.010  112.737    0.447    0.239
  232.250    5.448  120.729    0.447    0.235
  232.500    5.235  121.328    0.453    0.239
  232.750    5.549  118.846    0.463    0.263
  233.000    6.237  111.436    0.451    0.304
  233.250    7.290  100.945    0.453    0.317
  233.500    9.034   91.070    0.478    0.291
  233.750   10.767   85.508    0.492    0.295
  234.000   12.339   79.330    0.457    0.305
  234.250   13.868   77.451    0.448    0.314
  234.500   14.989   78.675    0.445    0.325
  234.750   14.126   78.658    0.436    0.327
  235.000   11.843   74.940    0.450    0.259
  235.250    9.735   78.623    0.380    0.210
  235.500    6.329   88.464    0.376    0.161
  235.750    4.626   98.920    0.424    0.210
  236.000    4.277  105.064    0.458    0.248
  236.250    3.876  110.591    0.481    0.273
  236.500    3.445  111.806    0.500    0.271
  236.750    3.377  111.173    0.519    0.267
  237.000    3.376  113.620    0.506    0.264
  237.250    3.441  116.679    0.487    0.263
  237.500    3.792  117.894    0.470    0.265
  237.750    4.019  117.261    0.465    0.256
  238.000    4.517  115.400    0.476    0.242
  238.250    5.176  115.382    0.471    0.236
  238.500    5.381  117.213    0.461    0.240
  238.750    5.702  118.424    0.458    0.239
  239.000    5.375  115.947    0.461    0.245
  239.250    5.166  110.385    0.471    0.242
  239.500    5.583  101.126    0.471    0.212
  239.750    6.276  101.725    0.472    0.210
  240.000    7.334  106.636    0.487    0.238
  240.250    8.242  106.619    0.470    0.251
  240.500    9.085  100.441    0.436    0.223
  240.750    9.260   94.874    0.424    0.256
  241.000    8.558  101.023    0.434    0.260
  241.250    8.068  106.546    0.446    0.249
  241.500    7.907  107.145    0.450    0.244
  241.750    7.904  107.127    0.439    0.245
  242.000    8.375  105.878    0.440    0.250
  242.250    8.878  101.548    0.436    0.217
  242.500    9.596   94.754    0.426    0.195
  242.750   10.997   87.344    0.414    0.194
  243.000   11.886   84.862    0.417    0.204
  243.250   11.881   87.925    0.423    0.214
  243.500   10.768   92.221    0.418    0.227
  243.750   10.151   92.819    0.411    0.252
  244.000    9.200   89.106    0.406    0.266
  244.250    9.379   88.472    0.406    0.280
  244.500   10.136   89.687    0.413    0.295
  244.750    9.935   93.367    0.432    0.289
  245.000    8.661   98.278    0.421    0.280
  245.250    6.845  100.721    0.428    0.269
  245.500    5.738  104.400    0.446    0.267
  245.750    6.201  105.003    0.450    0.270
  246.000    6.970   84.035    0.460    0.303
  246.250    7.245   83.401    0.411    0.327
  246.500    6.697  101.867    0.401    0.297
  246.750    5.724  105.546    0.417    0.291
  247.000    4.706  111.690    0.450    0.275
  247.250    4.022  114.749    0.479    0.260
  247.500    3.575  115.348    0.493    0.257
  247.750    3.437  114.098    0.506    0.254
  248.000    3.939  109.157    0.528    0.256
  248.250    4.603   88.192    0.550    0.274
  248.500    5.594   80.166    0.520    0.311
  248.750    8.105   77.068    0.492    0.289
  249.000    8.592   74.586    0.476    0.255
  249.250    9.847   73.953    0.461    0.235
  249.500   11.735   75.784    0.447    0.245
  249.750   12.437   78.843    0.442    0.277
  250.000   11.498   81.290    0.434    0.294
  250.250    9.638   83.742    0.426    0.310
  250.500    7.922   90.501    0.424    0.307
  250.750    7.042   99.726    0.424    0.301
  251.000    6.382  107.718    0.429    0.296
  251.250    6.016  108.928    0.444    0.286
  251.500    5.783  105.835    0.461    0.275
  251.750    5.667  101.505    0.469    0.262
  252.000    5.665  101.479    0.461    0.259
  252.250    6.005  103.310    0.446    0.268
  252.500    6.002  102.061    0.444    0.276
  252.750    5.883   98.963    0.451    0.289
  253.000    6.235   97.098    0.455    0.275
  253.250    7.430   96.460    0.438    0.197
  253.500    8.350   96.447    0.409    0.143
  253.750    8.680   97.050    0.396    0.133
  254.000    7.868  100.730    0.399    0.187
  254.250    7.273  106.253    0.414    0.204
  254.500    7.268  107.472    0.439    0.229
  254.750    7.553  107.455    0.439    0.249
  255.000    7.701  107.433    0.437    0.258
  255.250    7.849  106.800    0.437    0.268
  255.500    8.158  106.171    0.446    0.271
  255.750    7.840  107.386    0.438    0.276
  256.000    7.247  109.833    0.419    0.274
  256.250    6.831  111.048    0.442    0.268
  256.500    6.192  110.410    0.448    0.259
  256.750    5.397  108.545    0.457    0.251
