~VERSION INFORMATION
 VERS.                 2.0:   CWLS LOG ASCII STANDARD -VERSION 2.0
 WRAP.                  NO:   ONE LINE PER DEPTH STEP
~WELL INFORMATION BLOCK
#MNEM.UNIT           DATA                    DESCRIPTION OF MNEMONIC
#---------    -------------------            -------------------------------
# Generated from Intellog Unique Number	CX_WELLS/WELL/3803
WELL.         06-26-086-18W4                 : Well_name    - WELL
LOC .         00/06-26-086-18W4/0            : Location     - LOCATION
UWI .         00/06-26-086-18W400            : Uwi          - UNIQUE WELL ID
ENTR.         T                              : Entered      - ENTERED BY
SRVC.         SCHLUMBERGER                   : Scn          - SERVICE COMPANY
DATE.         03/04/92                       : Date         - LOG DATE
STRT.M        75                             : top_depth    - START DEPTH
STOP.M        230                            : bot_depth    - STOP DEPTH
STEP.M        0.25                           : increment    - STEP LENGTH
 NULL. -999.2500:NULL Value
~CURVE INFORMATION BLOCK
#MNEM UNIT       ERCB CURVE CODE    CURVE DESCRIPTION
#-----------   ------------------   ----------------------------------
DEPT.M        00 001 00 00         : DEPTH        - DEPTH
GR  .API      00 310 00 00         : GR           - GAMMA RAY
NPHI.V/V      00 330 00 00         : PHIN         - NEUTRON POROSITY (SANDSTONE)
DPHI.V/V      00 890 00 00         : PHID         - DENSITY POROSITY (SANDSTONE)
ILD .OHMM     00 120 00 00         : RESD         - DEEP RESISTIVITY (DIL)
~PARAMETER INFORMATION
#MNEM.UNIT           DATA             DESCRIPTION OF MNEMONIC
#---------         -----------     ------------------------------
GL  .M        510.9                : gl           - GROUND LEVEL ELEVATION
EREF.M        510.9                : kb           - ELEVATION OF DEPTH REFERENCE
DATM.M        510.9                : datum        - DATUM ELEVATION
TDD .M        245                  : tdd          - TOTAL DEPTH DRILLER
RUN .         ONE                  : Run          - RUN NUMBER
ENG .         JO                   : Engineer     - RECORDING ENGINEER
WIT .         TIM                  : Witness      - WITNESSED BY
MUD .         GEL                  : Mud_type     - MUD TYPE
MATR.         SANDSTONE            : Logunit      - NEUTRON MATRIX
TMAX.C        22                   : BHT          - MAXIMUM RECORDED TEMPERATURE
BHTD.M        245                  : BHTDEP       - MAXIMUM RECORDED TEMPERATURE
RMT .C        20                   : MDTP         - TEMPERATURE OF MUD
MUDD.KG/M     1                    : MWT          - MUD DENSITY
NEUT.         1                    : NEUTRON      - NEUTRON TYPE
RESI.         0                    : RESIST       - RESISTIVITY TYPE
RM  .OHMM     5                    : RM           - RESISTIVITY OF MUD
RMC .OHMM     4.5                  : RMC          - RESISTIVITY OF MUD CAKE
RMF .OHMM     4.5                  : RMF          - RESISTIVITY OF MUD FILTRATE
SUFT.C        4                    : SUFT         - SURFACE TEMPERATURE
~A  DEPTH       GR     PHIN     PHID     RESD
# ...
  162.000   86.424    0.458    0.215    9.337
  162.250   85.317    0.467    0.216    8.358
  162.500   85.364    0.467    0.222    7.769
  162.750   88.311    0.465    0.231    7.355
  163.000   91.865    0.465    0.236    7.228
  163.250   94.241    0.464    0.237    7.235
  163.500   95.476    0.465    0.240    7.245
  163.750   95.499    0.467    0.242    7.256
  164.000   95.546    0.470    0.243    7.263
  164.250   95.604    0.470    0.241    7.412
  164.500   95.639    0.467    0.234    7.559
  164.750   96.279    0.465    0.229    8.011
  165.000   96.337    0.459    0.220    8.321
  165.250   96.372    0.459    0.206    8.817
  165.500   95.824    0.459    0.195    8.992
  165.750   95.300    0.460    0.190    9.007
  166.000   95.335    0.465    0.226    9.019
  166.250   97.152    0.468    0.231    8.702
  166.500   98.946    0.466    0.228    8.708
  166.750  100.740    0.463    0.224    8.405
  167.000  101.964    0.459    0.213    8.413
  167.250  101.998    0.454    0.203    8.421
  167.500  102.056    0.447    0.198    8.435
  167.750  102.674    0.436    0.205    8.770
  168.000  103.303    0.426    0.216    9.287
  168.250  103.932    0.419    0.225    9.835
  168.500  102.242    0.413    0.232   10.030
  168.750  101.100    0.405    0.233   10.047
  169.000   99.399    0.396    0.227   10.060
  169.250   97.710    0.364    0.216   10.259
  169.500   95.426    0.341    0.083   11.285
  169.750   93.713    0.311    0.059   11.947
  170.000   91.430    0.302    0.049   13.129
  170.250   87.410    0.290    0.043   15.270
  170.500   84.532    0.282    0.057   17.102
  170.750   81.083    0.337    0.100   18.453
  171.000   77.635    0.389    0.123   18.483
  171.250   78.275    0.420    0.173   17.828
  171.500   79.475    0.437    0.231   17.191
  171.750   82.457    0.442    0.277   15.980
  172.000   84.251    0.444    0.283   15.409
  172.250   86.617    0.447    0.259   14.062
  172.500   91.906    0.439    0.228   13.560
  172.750   94.294    0.412    0.206   12.834
  173.000   91.439    0.401    0.192   12.154
  173.250   89.727    0.391    0.188   11.720
  173.500   87.455    0.395    0.193   11.518
  173.750   86.895    0.420    0.199   12.900
  174.000   87.524    0.427    0.210   14.186
  174.250   89.330    0.436    0.213   13.941
  174.500   89.376    0.445    0.208   13.452
  174.750   89.423    0.448    0.203   12.972
  175.000   90.646    0.452    0.198   12.293
  175.250   91.275    0.449    0.197   12.069
  175.500   93.081    0.447    0.201   11.861
  175.750   94.269    0.445    0.205   11.657
  176.000   97.834    0.444    0.211   11.248
  176.250   99.034    0.444    0.214   11.054
  176.500  101.434    0.444    0.218   10.666
  176.750  102.622    0.446    0.227   10.673
  177.000  104.416    0.447    0.229   10.298
  177.250  103.880    0.450    0.228   10.120
  177.500  102.202    0.451    0.229    9.946
  177.750  101.655    0.455    0.229    9.956
  178.000  101.107    0.457    0.224    9.791
  178.250  101.165    0.459    0.217    9.800
  178.500  101.212    0.463    0.214    9.810
  178.750  101.258    0.470    0.207    9.644
  179.000  101.304    0.475    0.201    9.659
  179.250  101.957    0.479    0.195    9.672
  179.500  101.980    0.482    0.201    9.502
  179.750  102.632    0.490    0.211    9.514
  180.000  102.667    0.488    0.215    9.533
  180.250  102.702    0.473    0.207    9.539
  180.500  103.331    0.450    0.199    9.561
  180.750  103.377    0.445    0.197    9.564
  181.000  103.447    0.436    0.205    9.576
  181.250  103.494    0.431    0.211    9.589
  181.500  102.946    0.430    0.210    9.601
  181.750  102.981    0.432    0.209    9.614
  182.000  103.027    0.434    0.208    9.807
  182.250  102.503    0.438    0.210   10.008
  182.500  102.561    0.444    0.217   10.406
  182.750  102.607    0.451    0.219   10.613
  183.000  102.654    0.461    0.223   10.827
  183.250  102.700    0.470    0.225   11.049
  183.500  102.758    0.475    0.229   10.858
  183.750  102.782    0.483    0.229   10.873
  184.000  102.828    0.483    0.224   10.685
  184.250  102.292    0.451    0.211   10.695
  184.500  100.602    0.444    0.188   10.713
  184.750   98.330    0.436    0.163   11.345
  185.000   97.212    0.433    0.149   12.241
  185.250   96.652    0.428    0.122   13.719
  185.500   95.534    0.339    0.088   14.255
  185.750   95.592    0.327    0.109   15.675
  186.000   95.638    0.351    0.160   15.981
  186.250   96.850    0.394    0.186   16.303
  186.500   99.821    0.406    0.197   16.325
  186.750  102.197    0.421    0.205   15.465
  187.000  103.409    0.422    0.219   15.194
  187.250  105.191    0.422    0.228   14.927
  187.500  106.403    0.422    0.235   14.408
  187.750  107.626    0.425    0.241   14.417
  188.000  107.090    0.429    0.242   14.169
  188.250  105.971    0.433    0.237   14.192
  188.500  104.853    0.438    0.233   14.215
  188.750  104.888    0.445    0.229   14.497
  189.000  105.540    0.446    0.224   14.794
  189.250  105.586    0.445    0.222   14.808
  189.500  105.050    0.444    0.215   14.828
  189.750  103.932    0.447    0.214   14.851
  190.000  107.485    0.455    0.217   14.065
  190.250  108.673    0.465    0.225   13.312
  190.500  111.050    0.466    0.234   12.365
  190.750  113.427    0.462    0.236   11.072
  191.000  114.056    0.458    0.229   10.289
  191.250  111.772    0.446    0.216    9.207
  191.500  109.488    0.396    0.205    8.400
  191.750  107.787    0.366    0.192    8.567
  192.000  104.921    0.386    0.179    9.776
  192.250  102.054    0.408    0.181   12.717
  192.500  102.124    0.436    0.191   15.065
  192.750  103.324    0.445    0.191   14.007
  193.000  105.130    0.450    0.189   13.012
  193.250  106.341    0.451    0.189   12.547
  193.500  108.147    0.452    0.192   11.443
  193.750  109.335    0.456    0.199   10.437
  194.000  111.129    0.462    0.208    9.698
  194.250  114.671    0.468    0.214    9.181
  194.500  119.390    0.472    0.222    8.692
  194.750  120.030    0.474    0.226    8.387
  195.000  118.317    0.478    0.228    8.240
  195.250  116.045    0.475    0.229    8.101
  195.500  114.356    0.470    0.229    8.108
  195.750  112.655    0.464    0.224    8.275
  196.000  112.678    0.449    0.218    8.285
  196.250  113.307    0.440    0.210    8.774
  196.500  115.113    0.431    0.203    9.292
  196.750  115.730    0.422    0.195   10.218
  197.000  116.359    0.414    0.193   11.444
  197.250  115.252    0.405    0.189   13.059
  197.500  111.815    0.397    0.181   14.352
  197.750  108.949    0.401    0.183   15.198
  198.000  107.818    0.408    0.192   14.941
  198.250  111.372    0.407    0.200   14.684
  198.500  113.748    0.402    0.205   14.431
  198.750  113.806    0.407    0.193   14.182
  199.000  113.247    0.412    0.183   14.205
  199.250  111.569    0.415    0.178   14.770
  199.500  111.010    0.373    0.172   15.058
  199.750  106.979    0.363    0.166   15.951
  200.000  102.376    0.357    0.149   16.893
  200.250   99.499    0.365    0.137   18.564
  200.500   96.644    0.376    0.136   18.938
  200.750   94.943    0.397    0.160   17.930
  201.000   97.308    0.406    0.187   17.295
  201.250   97.948    0.411    0.212   16.997
  201.500   97.424    0.408    0.212   17.030
  201.750   96.876    0.399    0.233   17.046
  202.000   96.329    0.376    0.254   17.390
  202.250   93.497    0.364    0.248   17.741
  202.500   91.784    0.349    0.197   18.452
  202.750   90.060    0.341    0.171   18.464
  203.000   86.623    0.333    0.146   19.928
  203.250   85.493    0.335    0.178   20.707
  203.500   88.463    0.345    0.191   22.342
  203.750   92.005    0.394    0.214   21.558
  204.000   96.129    0.396    0.222   20.788
  204.250   98.518    0.400    0.228   18.971
  204.500   99.729    0.392    0.231   18.632
  204.750  100.941    0.383    0.232   17.319
  205.000  102.152    0.374    0.231   16.391
  205.250  101.616    0.371    0.216   15.826
