~VERSION INFORMATION
 VERS.                 2.0:   CWLS LOG ASCII STANDARD -VERSION 2.0
 WRAP.                  NO:   ONE LINE PER DEPTH STEP
~WELL INFORMATION BLOCK
#MNEM.UNIT           DATA                    DESCRIPTION OF MNEMONIC
#---------    -------------------            -------------------------------
# Generated from Intellog Unique Number	CS_77_79/WELL/904
WELL.         DOME PETROLEUM                 : Well_name    - WELL
LOC .         00/07-22-077-15W4/0            : Location     - LOCATION
UWI .         00/07-22-077-15W4/0            : Uwi          - UNIQUE WELL ID
ENTR.         SP                             : Entered      - ENTERED BY
SRVC.         SCHLUMBERGER                   : Scn          - SERVICE COMPANY
STRT.M        290.25                         : top_depth    - START DEPTH
STOP.M        546                            : bot_depth    - STOP DEPTH
STEP.M        0.25                           : increment    - STEP LENGTH
 NULL. -999.2500:NULL Value
~CURVE INFORMATION BLOCK
#MNEM UNIT       ERCB CURVE CODE    CURVE DESCRIPTION
#-----------   ------------------   ----------------------------------
DEPT.M        00 001 00 00         : DEPTH        - DEPTH
ILD .OHMM     00 120 00 00         : RESD         - DEEP RESISTIVITY (DIL)
DPHI.V/V      00 890 00 00         : PHID         - DENSITY POROSITY (LIMESTONE)
NPHI.V/V      00 330 00 00         : PHIN         - NEUTRON POROSITY (LIMESTONE)
GR  .API      00 310 00 00         : GR           - GAMMA RAY
~PARAMETER INFORMATION
#MNEM.UNIT           DATA             DESCRIPTION OF MNEMONIC
#---------         -----------     ------------------------------
GL  .M        689.6                : gl           - GROUND LEVEL ELEVATION
EREF.M        693.74               : kb           - ELEVATION OF DEPTH REFERENCE
DATM.M        689.6                : datum        - DATUM ELEVATION
TDD .M        554                  : tdd          - TOTAL DEPTH DRILLER
RUN .         ONE                  : Run          - RUN NUMBER
ENG .         BILL                 : Engineer     - RECORDING ENGINEER
WIT .         JIM                  : Witness      - WITNESSED BY
MUD .         GEL                  : Mud_type     - MUD TYPE
MATR.         LIMESTONE            : Logunit      - NEUTRON MATRIX
TMAX.C        22                   : BHT          - MAXIMUM RECORDED TEMPERATURE
BHTD.M        554                  : BHTDEP       - MAXIMUM RECORDED TEMPERATURE
MATR.         1                    : LOGUNIT      - NEUTRON MATRIX
RMT .C        25                   : MDTP         - TEMPERATURE OF MUD
NEUT.         1                    : NEUTRON      - NEUTRON TYPE
RESI.         0                    : RESIST       - RESISTIVITY TYPE
RMC .OHMM     0.25                 : RMC          - RESISTIVITY OF MUD CAKE
RMF .OHMM     0.25                 : RMF          - RESISTIVITY OF MUD FILTRATE
SUFT.C        15                   : SUFT         - SURFACE TEMPERATURE
~A  DEPTH     RESD     PHID     PHIN       GR
# ...
  464.250    6.142    0.283    0.426   68.658
  464.500    6.144    0.288    0.427   69.864
  464.750    6.146    0.294    0.420   69.863
  465.000    6.147    0.286    0.415   71.069
  465.250    6.035    0.275    0.411   71.672
  465.500    6.038    0.274    0.419   71.671
  465.750    5.928    0.273    0.425   70.459
  466.000    5.709    0.265    0.423   71.062
  466.250    5.605    0.269    0.418   75.293
  466.500    5.607    0.264    0.408   77.106
  466.750    5.609    0.252    0.402   80.732
  467.000    5.611    0.251    0.399   84.359
  467.250    5.827    0.247    0.398   87.381
  467.500    6.169    0.241    0.403   89.799
  467.750    6.407    0.239    0.402   89.192
  468.000    6.656    0.241    0.397   86.770
  468.250    6.783    0.247    0.397   83.138
  468.500    6.659    0.254    0.402   81.927
  468.750    6.662    0.258    0.405   78.900
  469.000    6.664    0.253    0.414   77.085
  469.250    6.793    0.239    0.418   74.057
  469.500    6.796    0.226    0.416   72.241
  469.750    6.799    0.221    0.410   71.029
  470.000    6.674    0.220    0.408   69.213
  470.250    6.676    0.218    0.409   69.210
  470.500    6.678    0.205    0.418   70.418
  470.750    6.679    0.199    0.420   74.045
  471.000    6.558    0.207    0.420   77.067
  471.250    6.684    0.223    0.414   77.065
  471.500    6.561    0.221    0.409   75.853
  471.750    6.564    0.224    0.409   76.455
  472.000    6.566    0.223    0.409   77.663
  472.250    6.693    0.234    0.404   80.080
  472.500    7.085    0.247    0.401   80.683
  472.750    7.221    0.248    0.391   79.472
  473.000    7.645    0.244    0.396   78.864
  473.250    7.646    0.219    0.402   79.467
  473.500    7.942    0.206    0.403   80.070
  473.750    8.249    0.209    0.403   78.858
  474.000    8.732    0.212    0.401   78.251
  474.250    8.900    0.217    0.396   78.249
  474.500    8.737    0.213    0.379   78.247
  474.750    8.741    0.194    0.372   79.454
  475.000    8.743    0.190    0.369   80.662
  475.250    8.747    0.185    0.374   81.869
  475.500    8.749    0.171    0.376   81.867
  475.750    8.589    0.160    0.376   83.074
  476.000    8.431    0.161    0.381   85.491
  476.250    7.972    0.172    0.391   87.303
  476.500    7.680    0.204    0.402   89.116
  476.750    7.261    0.209    0.420   91.533
  477.000    6.994    0.213    0.426   92.741
  477.250    6.738    0.219    0.417   93.948
  477.500    6.616    0.213    0.403   93.341
  477.750    6.494    0.199    0.399   91.525
  478.000    6.496    0.187    0.408   90.313
  478.250    6.498    0.186    0.411   89.706
  478.500    6.260    0.196    0.411   88.493
  478.750    5.919    0.209    0.407   87.887
  479.000    5.389    0.231    0.404   84.256
  479.250    5.000    0.211    0.401   81.835
  479.500    4.726    0.202    0.403   81.228
  479.750    4.304    0.196    0.406   81.830
  480.000    3.918    0.207    0.419   84.852
  480.250    3.635    0.260    0.444   88.479
  480.500    3.128    0.287    0.465   89.082
  480.750    2.848    0.290    0.500   86.661
  481.000    2.643    0.289    0.509   84.239
  481.250    2.594    0.277    0.516   83.027
  481.500    2.644    0.284    0.522   84.234
  481.750    2.695    0.274    0.528   86.046
  482.000    2.853    0.271    0.522   88.463
  482.250    3.136    0.257    0.505   90.881
  482.500    3.512    0.239    0.492   90.274
  482.750    3.859    0.229    0.482   86.038
  483.000    4.404    0.224    0.461   81.198
  483.250    5.735    0.212    0.443   77.566
  483.500    6.303    0.181    0.422   76.355
  483.750    6.425    0.168    0.409   76.957
  484.000    6.673    0.142    0.401   79.374
  484.250    6.802    0.132    0.379   77.558
  484.500    7.201    0.142    0.368   74.531
  484.750    7.479    0.155    0.373   77.553
  485.000    7.768    0.170    0.380   81.180
  485.250    8.538    0.179    0.378   81.783
  485.500    8.867    0.174    0.369   77.546
  485.750    9.563    0.149    0.355   70.287
  486.000    9.568    0.136    0.347   65.446
  486.250    8.712    0.105    0.352   66.049
  486.500    8.235    0.125    0.364   69.070
  486.750    7.499    0.189    0.371   72.698
  487.000    7.089    0.210    0.376   79.953
  487.250    6.702    0.216    0.385   83.580
  487.500    6.457    0.213    0.387   83.577
  487.750    6.105    0.207    0.392   82.366
  488.000    5.881    0.206    0.394   80.549
  488.250    5.560    0.206    0.394   79.942
  488.500    5.356    0.205    0.398   79.335
  488.750    5.258    0.196    0.403   79.938
  489.000    4.787    0.186    0.408   84.774
  489.250    4.526    0.184    0.413   87.192
  489.500    4.279    0.191    0.421   89.004
  489.750    4.122    0.200    0.433   92.631
  490.000    4.123    0.201    0.437   94.443
  490.250    4.532    0.199    0.439   93.231
  490.500    5.075    0.196    0.437   95.648
  490.750    5.578    0.194    0.426   97.461
  491.000    6.131    0.185    0.411   98.668
  491.250    6.613    0.175    0.402   97.457
  491.500    7.132    0.165    0.385   89.592
  491.750    8.612    0.154    0.376   75.073
  492.000    9.645    0.151    0.375   70.232
  492.250   10.018    0.159    0.369   66.601
  492.500   10.022    0.190    0.361   61.156
  492.750    9.474    0.195    0.340   55.711
  493.000    8.790    0.194    0.327   48.450
  493.250    8.469    0.158    0.323   51.472
  493.500    8.632    0.156    0.336   61.146
  493.750    8.967    0.156    0.359   64.774
  494.000    9.140    0.188    0.373   68.400
  494.250    9.493    0.186    0.377   70.213
  494.500   10.239    0.186    0.366   71.421
  494.750   10.439    0.194    0.361   71.419
  495.000   10.246    0.205    0.358   69.602
  495.250    9.688    0.215    0.356   71.413
  495.500    9.332    0.210    0.354   72.621
  495.750    8.822    0.222    0.357   75.039
  496.000    8.500    0.216    0.361   81.690
  496.250    8.664    0.201    0.369   90.761
  496.500    9.170    0.155    0.379   98.016
  496.750   10.079    0.164    0.396   93.175
  497.000   11.502    0.189    0.393   85.310
  497.250   13.127    0.211    0.372   78.655
  497.500   14.426    0.226    0.366   72.605
  497.750   17.750    0.232    0.363   65.949
  498.000   19.509    0.240    0.350   61.713
  498.250   19.516    0.251    0.345   58.082
  498.500   18.106    0.253    0.346   58.685
  498.750   16.178    0.204    0.350   60.496
  499.000   15.010    0.193    0.356   61.099
  499.250   14.191    0.183    0.361   65.331
  499.500   13.417    0.167    0.364   74.401
  499.750   13.170    0.193    0.362   76.819
  500.000   12.387    0.195    0.343   80.444
  500.250   12.862    0.185    0.334   81.048
  500.500   12.861    0.168    0.318   78.024
  500.750   14.133    0.152    0.313   71.976
  501.000   14.676    0.164    0.304   64.718
  501.250   16.437    0.165    0.305   58.669
  501.500   17.393    0.170    0.312   55.040
  501.750   17.391    0.182    0.320   56.855
  502.000   16.427    0.180    0.329   59.274
  502.250   15.815    0.189    0.336   61.089
  502.500   14.384    0.197    0.342   63.508
  502.750   13.586    0.208    0.350   70.161
  503.000   13.080    0.204    0.343   71.976
  503.250   12.591    0.208    0.343   71.976
  503.500   12.353    0.201    0.345   72.581
  503.750   12.350    0.189    0.350   79.234
  504.000   12.347    0.175    0.351   81.048
  504.250   12.345    0.147    0.337   82.258
  504.500   12.819    0.151    0.324   81.653
  504.750   13.565    0.202    0.323   75.000
  505.000   15.779    0.250    0.333   69.556
  505.250   17.016    0.263    0.342   64.113
  505.500   17.670    0.271    0.349   62.298
  505.750   17.665    0.263    0.343   59.879
  506.000   17.663    0.247    0.334   56.855
  506.250   16.683    0.239    0.329   59.879
  506.500   15.761    0.227    0.323   62.298
  506.750   14.608    0.218    0.321   65.927
  507.000   13.540    0.195    0.321   66.532
  507.250   13.035    0.178    0.326   66.532
  507.500   12.549    0.171    0.349   67.137
