~VERSION INFORMATION
 VERS.                 2.0:   CWLS LOG ASCII STANDARD -VERSION 2.0
 WRAP.                  NO:   ONE LINE PER DEPTH STEP
~WELL INFORMATION BLOCK
#MNEM.UNIT           DATA                    DESCRIPTION OF MNEMONIC
#---------    -------------------            -------------------------------
# Generated from Intellog Unique Number	CW_79_81/WELL/554
WELL.         07-21-079-22W4                 : Well_name    - WELL
LOC .         00/07-21-079-22W4/0            : Location     - LOCATION
UWI .         00/07-21-079-22W4/0            : Uwi          - UNIQUE WELL ID
ENTR.         MAX                            : Entered      - ENTERED BY
SRVC.         SCHLUMBERGER                   : Scn          - SERVICE COMPANY
STRT.M        210.312                        : top_depth    - START DEPTH
STOP.M        435.812                        : bot_depth    - STOP DEPTH
STEP.M        0.25                           : increment    - STEP LENGTH
 NULL. -999.2500:NULL Value
~CURVE INFORMATION BLOCK
#MNEM UNIT       ERCB CURVE CODE    CURVE DESCRIPTION
#-----------   ------------------   ----------------------------------
DEPT.M        00 001 00 00         : DEPTH        - DEPTH
ILD .OHMM     00 120 00 00         : RESD         - DEEP RESISTIVITY (DIL)
NPHI.V/V      00 330 00 00         : PHIN         - NEUTRON POROSITY (SANDSTONE)
DPHI.V/V      00 890 00 00         : PHID         - DENSITY POROSITY (SANDSTONE)
CALI.MM       00 280 01 00         : CAL          - CALIPER
GR  .API      00 310 00 00         : GR           - GAMMA RAY
~PARAMETER INFORMATION
#MNEM.UNIT           DATA             DESCRIPTION OF MNEMONIC
#---------         -----------     ------------------------------
GL  .M        560.222              : gl           - GROUND LEVEL ELEVATION
EREF.M        562.966              : kb           - ELEVATION OF DEPTH REFERENCE
DATM.M        560.222              : datum        - DATUM ELEVATION
TDD .M        439.826              : tdd          - TOTAL DEPTH DRILLER
RUN .         ONE                  : Run          - RUN NUMBER
ENG .         BILL                 : Engineer     - RECORDING ENGINEER
WIT .         JIM                  : Witness      - WITNESSED BY
MUD .         GEL                  : Mud_type     - MUD TYPE
MATR.         SANDSTONE            : Logunit      - NEUTRON MATRIX
TMAX.C        22.2222              : BHT          - MAXIMUM RECORDED TEMPERATURE
BHTD.M        492081               : BHTDEP       - MAXIMUM RECORDED TEMPERATURE
RMT .C        18.3333              : MDTP         - TEMPERATURE OF MUD
MUDD.KG/M     9300                 : MWT          - MUD DENSITY
NEUT.         1                    : NEUTRON      - NEUTRON TYPE
RESI.         0                    : RESIST       - RESISTIVITY TYPE
RM  .OHMM     6.1                  : RM           - RESISTIVITY OF MUD
RMC .OHMM     0.25                 : RMC          - RESISTIVITY OF MUD CAKE
RMF .OHMM     6.02                 : RMF          - RESISTIVITY OF MUD FILTRATE
SUFT.C        -12.2222             : SUFT         - SURFACE TEMPERATURE
~A  DEPTH     RESD     PHIN     PHID      CAL       GR
# ...
  319.812    8.528    0.480    0.177  212.992   84.802
  320.062    8.772    0.475    0.184  212.972   84.796
  320.312    9.106    0.482    0.217  212.463   85.980
  320.562    9.720    0.496    0.216  210.933   85.677
  320.812   10.090    0.494    0.208  209.407   83.877
  321.062   10.384    0.481    0.205  206.866   82.378
  321.312   12.259    0.468    0.204  205.336   81.775
  321.562   15.163    0.466    0.205  204.809   80.276
  321.812   16.483    0.453    0.244  203.794   76.687
  322.062   19.832    0.438    0.200  203.794   73.993
  322.312   21.960    0.392    0.126  203.259   70.703
  322.562   23.877    0.354    0.095  203.255   68.906
  322.812   23.025    0.252    0.048  203.255   68.898
  323.062   16.381    0.288    0.067  203.229   70.980
  323.312   10.729    0.324    0.174  203.720   76.643
  323.562   10.158    0.351    0.207  204.715   84.395
  323.812    9.796    0.390    0.213  205.211   87.969
  324.062    9.796    0.419    0.210  205.703   90.945
  324.312    9.719    0.436    0.208  206.199   95.713
  324.562    9.634    0.458    0.208  206.199   94.809
  324.812    9.729    0.468    0.202  206.672   93.906
  325.062    9.729    0.476    0.188  206.666   95.989
  325.312   10.016    0.465    0.188  206.653   95.981
  325.562   10.207    0.468    0.177  206.653   94.183
  325.812   10.309    0.468    0.167  207.131   94.175
  326.062   10.314    0.477    0.160  207.122   96.855
  326.312   10.416    0.473    0.155  207.122   99.831
  326.562   10.616    0.478    0.151  207.096   98.332
  326.812   10.819    0.480    0.153  207.085   95.341
  327.062   10.826    0.467    0.159  206.567   93.244
  327.312   10.834    0.458    0.169  206.555   94.430
  327.562   10.838    0.458    0.170  206.543   97.704
  327.812   10.844    0.461    0.170  206.530   97.398
  328.062   11.156    0.455    0.161  206.515   95.005
  328.312   11.582    0.448    0.172  206.502   92.013
  328.562   11.697    0.449    0.190  206.490   90.216
  328.812   11.280    0.446    0.191  206.982   87.821
  329.062   10.778    0.428    0.193  206.982   88.111
  329.312   10.395    0.428    0.186  206.955   89.596
  329.562   10.118    0.432    0.175  206.945   93.468
  329.812    9.939    0.446    0.190  206.934   93.460
  330.062    9.939    0.459    0.193  206.415   92.558
  330.312    9.858    0.475    0.190  206.405   95.237
  330.562    9.775    0.484    0.185  206.405   98.213
  330.812    9.962    0.489    0.181  205.874   97.311
  331.062   10.632    0.467    0.175  205.353   94.320
  331.312   13.151    0.450    0.177  205.353   90.432
  331.562   16.414    0.464    0.192  204.822   89.530
  331.812   17.845    0.469    0.214  204.309   87.731
  332.062   19.582    0.473    0.223  203.791   82.353
  332.312   20.514    0.471    0.236  203.791   76.974
  332.562   22.303    0.471    0.245  203.259   73.386
  332.812   24.022    0.453    0.203  202.233   71.289
  333.062   25.875    0.427    0.180  202.221   69.790
  333.312   28.393    0.402    0.164  201.707   66.797
  333.562   30.864    0.383    0.149  201.694   65.596
  333.812   35.463    0.359    0.121  201.682   61.710
  334.062   35.484    0.296    0.077  201.670   58.122
  334.312   33.287    0.350    0.094  201.656   62.293
  334.562   31.515    0.421    0.137  201.642   68.254
  334.812   30.672    0.434    0.194  201.633   73.320
  335.062   30.693    0.415    0.133  201.611   75.102
  335.312   31.275    0.403    0.086  195.335   72.970
  335.562   28.827    0.390    0.112  195.839   75.351
  335.812   27.055    0.379    0.143  196.341   76.242
  336.062   24.711    0.395    0.168  196.339   79.515
  336.312   22.776    0.420    0.187  196.336   83.087
  336.562   22.171    0.441    0.213  195.827   86.360
  336.812   21.575    0.451    0.215  195.318   89.634
  337.062   18.492    0.441    0.203  194.303   88.738
  337.312   17.998    0.436    0.180  194.300   88.735
  337.562   17.839    0.439    0.158  194.297   89.030
  337.812   18.005    0.436    0.181  194.801   87.242
  338.062   18.008    0.437    0.170  195.811   86.643
  338.312   18.012    0.426    0.142  196.314   87.236
  338.562   17.216    0.416    0.139  195.805   88.128
  338.812   16.305    0.408    0.153  195.296   90.805
  339.062   14.892    0.420    0.169  195.293   93.185
  339.312   13.977    0.435    0.197  195.291   94.375
  339.562   13.239    0.460    0.202  195.288   94.371
  339.812   13.121    0.462    0.187  195.285   92.880
  340.062   13.125    0.457    0.184  195.282   90.495
  340.312   13.126    0.461    0.192  195.280   91.088
  340.562   13.248    0.461    0.200  195.276   93.469
  340.812   13.371    0.464    0.196  195.274   93.466
  341.062   13.620    0.456    0.171  194.259   91.081
  341.312   13.746    0.443    0.159  193.749   91.972
  341.562   13.625    0.446    0.175  193.240   94.352
  341.812   13.504    0.456    0.211  193.238   94.052
  342.062   13.144    0.452    0.214  192.729   94.347
  342.312   12.910    0.456    0.213  192.726   96.132
  342.562   12.680    0.463    0.205  192.723   97.321
  342.812   12.454    0.450    0.196  192.721   97.020
  343.062   12.232    0.441    0.210  193.224   94.039
  343.312   11.905    0.438    0.206  193.221   91.356
  343.562   11.587    0.443    0.208  193.218   91.950
  343.812   11.278    0.455    0.202  193.216   93.436
  344.062   11.278    0.450    0.199  192.706   90.455
  344.312   11.181    0.455    0.187  192.704   91.346
  344.562   11.809    0.450    0.186  192.195   92.534
  344.812   12.473    0.429    0.206  191.686   91.937
  345.062   12.937    0.452    0.220  191.683   91.636
  345.312   12.707    0.460    0.207  191.174   91.336
  345.562   12.480    0.443    0.195  191.171   93.418
  345.812   12.146    0.446    0.198  193.193   94.905
  346.062   11.930    0.463    0.207  194.203   93.414
  346.312   11.930    0.469    0.206  195.213   91.624
  346.562   11.720    0.473    0.194  194.704   93.111
  346.812   11.722    0.446    0.193  194.195   91.321
  347.062   12.048    0.441    0.183  194.192   89.532
  347.312   12.496    0.443    0.155  194.189   86.551
  347.562   12.613    0.407    0.132  193.680   88.038
  347.812   12.501    0.402    0.140  193.677   92.205
  348.062   11.948    0.450    0.191  193.168  100.244
  348.312   11.524    0.459    0.207  194.178  100.241
  348.562   11.524    0.457    0.215  195.188   95.473
  348.812   11.425    0.466    0.212  195.691   96.662
  349.062   11.426    0.477    0.202  195.688  100.234
  349.312   11.533    0.474    0.204  195.685  104.698
  349.562   11.640    0.458    0.199  194.670  103.505
  349.812   11.749    0.461    0.171  194.161   99.035
  350.062   11.540    0.445    0.159  194.159  102.308
  350.312   11.540    0.442    0.155  194.155  102.008
  350.562   11.337    0.452    0.186  194.659  100.219
  350.812   11.134    0.451    0.179  195.163   99.025
  351.062   10.936    0.437    0.181  195.160   98.725
  351.312   10.839    0.451    0.195  194.651   98.722
  351.562   10.841    0.459    0.183  194.142   96.932
  351.812   10.843    0.456    0.184  194.139   96.335
  352.062   10.845    0.437    0.188  194.642   98.715
  352.312   10.845    0.435    0.189  194.640  102.286
  352.562   10.850    0.451    0.190  195.649  101.688
  352.812   10.753    0.454    0.191  197.165  102.281
  353.062   10.562    0.451    0.188  200.199  104.066
  353.312   10.187    0.454    0.182  202.221  104.064
  353.562    9.915    0.460    0.182  202.218  104.359
  353.812   10.007    0.451    0.180  202.722  102.867
  354.062   10.285    0.436    0.184  202.719   99.886
  354.312   10.864    0.433    0.180  202.716   98.394
  354.562   11.065    0.423    0.188  203.220   98.689
  354.812   10.770    0.418    0.168  203.723   98.687
  355.062    9.836    0.422    0.166  205.238  101.663
  355.312    9.402    0.432    0.152  207.767  104.937
  355.562    9.234    0.453    0.164  211.813  104.935
  355.812    9.070    0.464    0.178  212.317  101.358
  356.062    8.989    0.461    0.164  207.759  100.760
