~VERSION INFORMATION
 VERS.                 2.0:   CWLS LOG ASCII STANDARD -VERSION 2.0
 WRAP.                  NO:   ONE LINE PER DEPTH STEP
~WELL INFORMATION BLOCK
#MNEM.UNIT           DATA                    DESCRIPTION OF MNEMONIC
#---------    -------------------            -------------------------------
# Generated from Intellog Unique Number	CW_70_72/WELL/3006
NULL.         -999.25                        : NULL_VALUE
WELL.         GAO HONDO 06-14                : Well_name    - WELL              
LOC .         06-14-070-01W5                 : Location     - LOCATION          
UWI .         00/06-14-070-01W5/0              : Uwi          - UNIQUE WELL ID    
ENTR.         J                              : Entered      - ENTERED BY        
SRVC.         SCHLUMBERGER                   : Scn          - SERVICE COMPANY   
DATE.         1 JAN 76                       : Date         - LOG DATE          
STRT.M        438.912                        : top_depth    - START DEPTH       
STOP.M        676.662                        : bot_depth    - STOP DEPTH        
STEP.M        0.25                           : increment    - STEP LENGTH       
~CURVE INFORMATION BLOCK
#MNEM UNIT       ERCB CURVE CODE    CURVE DESCRIPTION
#-----------   ------------------   ----------------------------------
DEPT.M        00 001 00 00         : DEPTH        - DEPTH                       
ILD .OHMM     00 120 00 00         : RESD         - DEEP RESISTIVITY (DIL)      
CALI.MM       00 280 01 00         : CAL          - CALIPER                     
GR  .API      00 310 00 00         : GR           - GAMMA RAY                   
NPHI.V/V      00 330 00 00         : PHIN         - NEUTRON POROSITY (SANDSTONE)
DPHI.V/V      00 890 00 00         : PHID         - DENSITY POROSITY (SANDSTONE)
~PARAMETER INFORMATION       
#MNEM.UNIT           DATA             DESCRIPTION OF MNEMONIC
#---------         -----------     ------------------------------
GL  .M        604.723              : gl           - GROUND LEVEL ELEVATION      
EREF.M        607.771              : kb           - ELEVATION OF DEPTH REFERENCE
DATM.M        604.723              : datum        - DATUM ELEVATION             
TDD .M        688.848              : tdd          - TOTAL DEPTH DRILLER         
RUN .         ONE                  : Run          - RUN NUMBER                  
ENG .         SAWASE               : Engineer     - RECORDING ENGINEER          
WIT .         CUMMIN               : Witness      - WITNESSED BY                
BASE.         EDM                  : Branch       - HOME BASE OF LOGGING UNIT   
MATR.         SANDSTONE            : Logunit      - NEUTRON MATRIX              
TMAX.C        29.4444              : BHT          - MAXIMUM RECORDED TEMPERATURE
BHTD.M        690.067              : BHTDEP       - MAXIMUM RECORDED TEMPERATURE
RMT .C        17.7778              : MDTP         - TEMPERATURE OF MUD          
MUDD.KG/M     1188                 : MWT          - MUD DENSITY                 
NEUT.         1                    : NEUTRON      - NEUTRON TYPE                
RESI.         0                    : RESIST       - RESISTIVITY TYPE            
RM  .OHMM     2.5                  : RM           - RESISTIVITY OF MUD          
RMC .OHMM     2.5                  : RMC          - RESISTIVITY OF MUD CAKE     
RMF .OHMM     2.25                 : RMF          - RESISTIVITY OF MUD FILTRATE 
SUFT.C        -17.7778             : SUFT         - SURFACE TEMPERATURE         
~A  DEPTH     RESD      CAL       GR     PHIN     PHID
# ...
  584.912    2.866  157.635   72.093    0.342    0.278
  585.162    2.940  157.757   72.710    0.331    0.266
  585.412    3.095  158.084   73.147    0.314    0.239
  585.662    3.170  158.518   73.402    0.323    0.263
  585.912    2.851  158.946   74.263    0.345    0.276
  586.162    2.523  158.555   76.161    0.357    0.269
  586.412    2.376  158.364   79.034    0.365    0.253
  586.662    2.350  158.802   81.906    0.371    0.260
  586.912    2.389  159.235   83.622    0.375    0.269
  587.162    2.456  159.870   84.121    0.374    0.266
  587.412    2.506  160.089   83.644    0.386    0.258
  587.662    2.439  160.622   80.732    0.382    0.254
  587.912    2.313  161.264   75.023    0.367    0.271
  588.162    2.154  161.487   71.319    0.353    0.283
  588.412    2.021  161.813   72.425    0.352    0.280
  588.662    1.931  162.039   74.202    0.365    0.282
  588.912    1.886  162.364   73.301    0.360    0.288
  589.162    1.879  162.796   69.718    0.353    0.283
  589.412    1.956  162.815   68.577    0.349    0.281
  589.662    2.228  162.832   68.949    0.343    0.278
  589.912    2.676  162.747   72.372    0.338    0.254
  590.162    3.069  162.355   72.258    0.309    0.231
  590.412    3.401  163.197   68.312    0.268    0.201
  590.662    3.887  165.484   69.845    0.241    0.153
  590.912    3.866  165.089   75.579    0.264    0.193
  591.162    3.415  163.046   76.930    0.306    0.212
  591.412    2.865  161.318   75.357    0.333    0.198
  591.662    2.503  162.259   77.011    0.367    0.267
  591.912    2.284  163.105   79.032    0.384    0.281
  592.162    2.227  161.988   78.433    0.379    0.289
  592.412    2.293  160.564   78.201    0.374    0.284
  592.662    2.432  160.168   81.135    0.370    0.270
  592.912    2.612  160.807   85.041    0.372    0.254
  593.162    2.685  162.680   83.773    0.369    0.248
  593.412    2.632  164.247   82.812    0.348    0.253
  593.662    2.501  163.854   85.866    0.355    0.268
  593.912    2.308  163.151   80.215    0.385    0.280
  594.162    2.134  160.592   74.686    0.379    0.290
  594.412    2.091  159.065   74.090    0.370    0.296
  594.662    2.170  158.773   79.395    0.367    0.293
  594.912    2.297  159.305   85.677    0.367    0.287
  595.162    2.426  159.118   87.575    0.369    0.274
  595.412    2.517  158.211   88.013    0.371    0.267
  595.662    2.518  157.406   89.911    0.373    0.271
  595.912    2.578  157.008   87.303    0.369    0.255
  596.162    2.584  157.957   79.888    0.355    0.258
  596.412    2.584  159.628   78.863    0.335    0.265
  596.662    2.565  161.497   81.798    0.340    0.255
  596.912    2.589  163.164   82.538    0.350    0.243
  597.162    2.599  164.421   80.358    0.356    0.236
  597.412    2.600  164.644   77.994    0.351    0.251
  597.662    2.609  164.462   82.085    0.343    0.258
  597.912    2.653  164.166   82.583    0.349    0.241
  598.162    2.727  163.571   82.837    0.364    0.232
  598.412    2.798  162.866   84.249    0.373    0.241
  598.662    2.856  161.131   86.206    0.358    0.236
  598.912    2.925  159.605   89.809    0.358    0.223
  599.162    3.062  159.107   91.889    0.357    0.223
  599.412    3.313  159.535   87.885    0.344    0.204
  599.662    3.611  160.277   84.790    0.334    0.191
  599.912    3.857  161.017   83.339    0.328    0.175
  600.162    4.143  162.171   85.727    0.318    0.162
  600.412    4.361  163.121   88.172    0.307    0.175
  600.662    4.574  163.240   89.155    0.314    0.170
  600.912    4.702  163.981   84.966    0.299    0.141
  601.162    4.905  164.407   80.168    0.283    0.116
  601.412    5.042  164.635   82.431    0.272    0.137
  601.662    4.817  164.447   87.738    0.274    0.163
  601.912    4.527  164.054   93.654    0.304    0.196
  602.162    4.286  163.042   97.562    0.332    0.190
  602.412    4.088  163.268  100.313    0.313    0.185
  602.662    4.022  163.385  103.671    0.304    0.181
  602.912    4.081  164.436  108.066    0.298    0.175
  603.162    4.226  166.002  113.739    0.309    0.168
  603.412    4.449  167.569  112.472    0.317    0.160
  603.662    4.649  168.304  108.037    0.307    0.149
  603.912    4.850  169.253   99.890    0.296    0.134
  604.162    5.096  169.578   96.129    0.297    0.142
  604.412    5.286  169.805   93.765    0.330    0.141
  604.662    5.534  169.721   92.741    0.323    0.140
  604.912    5.741  169.842   92.022    0.310    0.154
  605.162    5.945  170.274   92.519    0.314    0.172
  605.412    5.913  169.877   94.904    0.330    0.182
  605.662    5.407  169.076   98.507    0.327    0.173
  605.912    4.908  169.194  101.805    0.321    0.165
  606.162    4.521  169.932  104.436    0.331    0.154
  606.412    4.211  170.673  104.505    0.340    0.167
  606.662    4.188  170.796  101.107    0.337    0.155
  606.912    4.266  170.711   95.640    0.335    0.161
  607.162    4.409  170.110   95.163    0.333    0.172
  607.412    4.533  169.922   98.096    0.332    0.154
  607.662    4.467  170.460   97.863    0.325    0.126
  607.912    4.363  170.788   99.214    0.325    0.140
  608.162    4.269  171.117  100.443    0.332    0.150
  608.412    4.246  171.234  101.610    0.339    0.158
  608.662    4.286  170.739  105.944    0.342    0.163
  608.912    4.318  170.345  108.755    0.345    0.147
  609.162    4.374  169.849  110.835    0.346    0.158
  609.412    4.399  169.664  112.611    0.344    0.157
  609.662    4.448  166.791  105.804    0.338    0.151
  609.912    4.474  167.000  105.866    0.343    0.143
  610.162    4.462  167.414  106.354    0.345    0.137
  610.412    4.410  167.520  105.138    0.337    0.145
  610.662    4.311  167.728  101.243    0.327    0.155
  610.912    4.354  168.452   97.957    0.321    0.156
  611.162    4.505  169.691  100.820    0.316    0.165
  611.412    4.748  169.900  102.404    0.309    0.161
  611.662    5.041  169.283   96.135    0.300    0.150
  611.912    5.185  168.152   95.650    0.297    0.138
  612.162    5.325  167.020  102.895    0.303    0.117
  612.412    5.331  165.888  103.201    0.302    0.130
  612.662    5.135  165.170  100.646    0.295    0.114
  612.912    4.910  165.171  103.447    0.308    0.136
  613.162    4.774  165.483  103.631    0.310    0.133
  613.412    4.667  165.485  102.172    0.309    0.148
  613.662    4.612  165.694   96.451    0.317    0.146
  613.912    4.616  166.212   98.339    0.327    0.142
  614.162    4.673  166.730  103.211    0.326    0.126
  614.412    4.791  167.041  105.830    0.318    0.143
  614.662    4.929  167.353  104.918    0.309    0.132
  614.912    5.099  167.252  109.424    0.308    0.122
  615.162    5.198  167.254  116.305    0.295    0.112
  615.412    5.261  167.669  123.246    0.298    0.116
  615.662    5.229  167.980  126.656    0.328    0.147
  615.912    5.139  168.498  119.900    0.331    0.151
  616.162    5.005  168.809  112.962    0.321    0.145
  616.412    4.956  168.812  106.267    0.310    0.149
  616.662    4.826  168.814  100.606    0.297    0.153
  616.912    4.449  168.816  105.174    0.293    0.163
  617.162    3.925  170.056  113.150    0.303    0.182
  617.412    3.182  172.532  116.804    0.321    0.201
  617.662    2.585  173.771  113.457    0.435    0.234
  617.912    2.206  174.701  109.684    0.459    0.204
  618.162    1.993  174.085  109.990    0.439    0.183
  618.412    1.882  175.118  114.496    0.419    0.175
  618.662    1.856  177.595  114.558    0.417    0.196
  618.912    1.917  178.628  112.794    0.430    0.180
  619.162    2.027  175.744  106.708    0.426    0.161
  619.412    2.320  172.344   98.917    0.422    0.124
  619.662    3.002  171.831   88.874    0.342    0.065
  619.912    3.690  170.494   99.163    0.290    0.079
  620.162    4.115  169.671  105.070    0.303    0.124
  620.412    4.726  169.261  104.158    0.317    0.126
  620.662    5.026  169.779  106.959    0.325    0.113
  620.912    5.040  170.399  107.326    0.310    0.121
  621.162    4.767  171.536  107.388    0.313    0.124
