~VERSION INFORMATION
 VERS.                 2.0:   CWLS LOG ASCII STANDARD -VERSION 2.0
 WRAP.                  NO:   ONE LINE PER DEPTH STEP
~WELL INFORMATION BLOCK
#MNEM.UNIT           DATA                    DESCRIPTION OF MNEMONIC
#---------    -------------------            -------------------------------
# Generated from Intellog Unique Number	CS_77_79/WELL/867
WELL.         ICGR GRAHAM                    : Well_name    - WELL
LOC .         00/06-05-079-05W4/0            : Location     - LOCATION
UWI .         00/06-05-079-05W4/0            : Uwi          - UNIQUE WELL ID
ENTR.         JHS                            : Entered      - ENTERED BY
SRVC.         SCHLUMBERGER                   : Scn          - SERVICE COMPANY
STRT.M        105                            : top_depth    - START DEPTH
STOP.M        365                            : bot_depth    - STOP DEPTH
STEP.M        0.25                           : increment    - STEP LENGTH
 NULL. -999.2500:NULL Value
~CURVE INFORMATION BLOCK
#MNEM UNIT       ERCB CURVE CODE    CURVE DESCRIPTION
#-----------   ------------------   ----------------------------------
DEPT.M        00 001 00 00         : DEPTH        - DEPTH
DPHI.V/V      00 890 00 00         : PHID         - DENSITY POROSITY (LIMESTONE)
NPHI.V/V      00 330 00 00         : PHIN         - NEUTRON POROSITY (LIMESTONE)
GR  .API      00 310 00 00         : GR           - GAMMA RAY
ILD .OHMM     00 120 00 00         : RESD         - DEEP RESISTIVITY (DIL)
RHOB.KG/M3    00 350 00 00         : DENS         - BULK DENSITY
~PARAMETER INFORMATION
#MNEM.UNIT           DATA             DESCRIPTION OF MNEMONIC
#---------         -----------     ------------------------------
GL  .M        529.39               : gl           - GROUND LEVEL ELEVATION
EREF.M        533.04               : kb           - ELEVATION OF DEPTH REFERENCE
DATM.M        533.04               : datum        - DATUM ELEVATION
TDD .M        374                  : tdd          - TOTAL DEPTH DRILLER
RUN .         ONE                  : Run          - RUN NUMBER
ENG .         BILL                 : Engineer     - RECORDING ENGINEER
WIT .         JIM                  : Witness      - WITNESSED BY
MUD .         GEL                  : Mud_type     - MUD TYPE
MATR.         LIMESTONE            : Logunit      - NEUTRON MATRIX
TMAX.C        20.4                 : BHT          - MAXIMUM RECORDED TEMPERATURE
BHTD.M        374                  : BHTDEP       - MAXIMUM RECORDED TEMPERATURE
MATR.         1                    : LOGUNIT      - NEUTRON MATRIX
RMT .C        25                   : MDTP         - TEMPERATURE OF MUD
NEUT.         1                    : NEUTRON      - NEUTRON TYPE
RESI.         0                    : RESIST       - RESISTIVITY TYPE
RMC .OHMM     0.25                 : RMC          - RESISTIVITY OF MUD CAKE
RMF .OHMM     0.25                 : RMF          - RESISTIVITY OF MUD FILTRATE
SUFT.C        15                   : SUFT         - SURFACE TEMPERATURE
~A  DEPTH     PHID     PHIN       GR     RESD     DENS
# ...
  178.000    0.319    0.439   61.802   12.654    0.000
  178.250    0.322    0.453   62.455   13.150    0.000
  178.500    0.323    0.454   64.368   13.670    0.000
  178.750    0.327    0.438   60.607   13.945    0.000
  179.000    0.335    0.420   57.487   14.219    0.000
  179.250    0.337    0.414   57.497   14.507    0.000
  179.500    0.338    0.419   58.781   14.515    0.000
  179.750    0.334    0.445   58.173   14.531    0.000
  180.000    0.322    0.440   61.344   14.540    0.000
  180.250    0.322    0.442   63.254   14.286    0.000
  180.500    0.329    0.457   62.649   14.028    0.000
  180.750    0.330    0.442   61.410   14.039    0.000
  181.000    0.324    0.430   60.800   13.794    0.000
  181.250    0.324    0.426   60.196   13.545    0.000
  181.500    0.333    0.426   63.365   13.306    0.000
  181.750    0.338    0.425   67.167   13.072    0.000
  182.000    0.324    0.435   70.346   12.599    0.000
  182.250    0.307    0.431   70.990   12.145    0.000
  182.500    0.302    0.427   64.714   11.932    0.000
  182.750    0.310    0.438   63.475   11.937    0.000
  183.000    0.328    0.467   61.604   12.405    0.000
  183.250    0.331    0.464   56.582   13.390    0.000
  183.500    0.339    0.459   52.192   13.916    0.000
  183.750    0.344    0.472   52.845   14.461    0.000
  184.000    0.346    0.463   55.394   14.477    0.000
  184.250    0.327    0.447   53.527   14.761    0.000
  184.500    0.311    0.481   54.802   14.503    0.000
  184.750    0.305    0.502   56.712   14.246    0.000
  185.000    0.314    0.486   56.738   14.254    0.000
  185.250    0.326    0.463   58.018   14.538    0.000
  185.500    0.330    0.440   61.819   14.826    0.000
  185.750    0.335    0.435   61.215   15.124    0.000
  186.000    0.344    0.414   56.824   14.855    0.000
  186.250    0.346    0.413   53.064   14.873    0.000
  186.500    0.343    0.400   55.610   14.604    0.000
  186.750    0.339    0.390   67.606   14.077    0.000
  187.000    0.333    0.401   70.143   13.570    0.000
  187.250    0.333    0.447   67.649   13.330    0.000
  187.500    0.340    0.452   63.261   13.092    0.000
  187.750    0.340    0.457   60.755   13.354    0.000
  188.000    0.342    0.457   58.256   13.623    0.000
  188.250    0.347    0.466   57.649   13.628    0.000
  188.500    0.318    0.440   54.522   14.712    0.000
  188.750    0.222    0.381   49.501   16.176    0.000
  189.000    0.082    0.189   48.892   18.470    0.000
  189.250    0.057    0.158   53.326   20.695    0.000
  189.500    0.174    0.289   52.717   23.631    0.000
  189.750    0.170    0.288   48.329   26.985    0.000
  190.000    0.120    0.246   46.458   29.672    0.000
  190.250    0.084    0.159   45.217   30.840    0.000
  190.500    0.101    0.286   47.133   28.625    0.000
  190.750    0.203    0.380   50.306   24.186    0.000
  191.000    0.276    0.419   54.734   20.436    0.000
  191.250    0.347    0.430   56.017   18.268    0.000
  191.500    0.355    0.413   54.148   16.333    0.000
  191.750    0.351    0.410   56.062   15.451    0.000
  192.000    0.351    0.417   55.456   14.899    0.000
  192.250    0.356    0.427   54.847   14.906    0.000
  192.500    0.347    0.434   56.129   14.925    0.000
  192.750    0.346    0.438   55.517   15.217    0.000
  193.000    0.351    0.428   56.170   15.236    0.000
  193.250    0.352    0.430   56.821   15.247    0.000
  193.500    0.349    0.454   53.695   14.973    0.000
  193.750    0.344    0.451   54.350   14.165    0.000
  194.000    0.341    0.454   56.260   13.653    0.000
  194.250    0.343    0.450   58.175   13.669    0.000
  194.500    0.350    0.432   58.192   13.945    0.000
  194.750    0.358    0.431   55.696   14.218    0.000
  195.000    0.350    0.458   54.460   14.500    0.000
  195.250    0.350    0.447   55.106   14.511    0.000
  195.500    0.351    0.431   59.543   14.803    0.000
  195.750    0.338    0.433   60.819   14.816    0.000
  196.000    0.334    0.479   57.692   14.549    0.000
  196.250    0.338    0.444   57.717   13.255    0.000
  196.500    0.314    0.408   63.407   12.074    0.000
  196.750    0.242    0.392   72.253   10.395    0.000
  197.000    0.218    0.429   80.469    9.123    0.000
  197.250    0.249    0.480   84.274    8.468    0.000
  197.500    0.283    0.493   83.029    7.864    0.000
  197.750    0.296    0.476   81.791    7.868    0.000
  198.000    0.288    0.445   83.706    7.727    0.000
  198.250    0.250    0.437   88.771    7.449    0.000
  198.500    0.232    0.427   93.832    7.318    0.000
  198.750    0.228    0.444   97.008    7.188    0.000
  199.000    0.245    0.446   97.659    7.058    0.000
  199.250    0.260    0.432   99.577    6.934    0.000
  199.500    0.258    0.435  100.849    6.683    0.000
  199.750    0.244    0.457  104.025    6.322    0.000
  200.000    0.238    0.464  107.202    5.980    0.000
  200.250    0.239    0.477  108.485    5.449    0.000
  200.500    0.241    0.505  107.876    5.057    0.000
  200.750    0.239    0.527  106.629    4.522    0.000
  201.000    0.249    0.557  102.244    4.277    0.000
  201.250    0.251    0.574  102.895    3.896    0.000
  201.500    0.247    0.532  105.441    3.686    0.000
  201.750    0.237    0.511  104.832    3.621    0.000
  202.000    0.234    0.520  102.961    3.693    0.000
  202.250    0.243    0.533  102.982    3.839    0.000
  202.500    0.248    0.529  106.154    3.914    0.000
  202.750    0.247    0.517  110.584    4.304    0.000
  203.000    0.258    0.517  103.046    4.732    0.000
  203.250    0.273    0.512   91.094    5.612    0.000
  203.500    0.279    0.492   84.817    6.407    0.000
  203.750    0.280    0.495   84.208    6.914    0.000
  204.000    0.274    0.520   88.637    6.665    0.000
  204.250    0.263    0.510   92.438    5.958    0.000
  204.500    0.249    0.503  100.024    5.034    0.000
  204.750    0.235    0.534  106.977    4.254    0.000
  205.000    0.248    0.519  108.263    3.949    0.000
  205.250    0.250    0.514  100.095    3.806    0.000
  205.500    0.244    0.525   96.960    3.739    0.000
  205.750    0.239    0.552   94.460    3.742    0.000
  206.000    0.243    0.573   90.070    3.817    0.000
  206.250    0.250    0.548   95.765    3.894    0.000
  206.500    0.255    0.533   93.270    3.970    0.000
  206.750    0.251    0.527   92.655    3.973    0.000
  207.000    0.248    0.552   97.721    3.831    0.000
  207.250    0.249    0.575  100.263    3.624    0.000
  207.500    0.260    0.583  100.923    3.558    0.000
  207.750    0.265    0.596  100.308    3.496    0.000
  208.000    0.271    0.609   99.065    3.565    0.000
  208.250    0.287    0.559   89.005    3.775    0.000
  208.500    0.304    0.489   81.468    5.012    0.000
  208.750    0.311    0.468   77.706    6.528    0.000
  209.000    0.297    0.461   74.573    8.665    0.000
  209.250    0.297    0.455   71.452   10.669    0.000
  209.500    0.309    0.463   74.616   11.520    0.000
  209.750    0.305    0.479   75.271   11.524    0.000
  210.000    0.302    0.488   69.622   11.321    0.000
  210.250    0.303    0.478   70.919   10.912    0.000
  210.500    0.307    0.464   71.558   10.322    0.000
  210.750    0.314    0.467   73.473   10.135    0.000
  211.000    0.315    0.458   75.389    9.770    0.000
  211.250    0.308    0.452   77.295    9.417    0.000
  211.500    0.288    0.469   79.204    8.581    0.000
  211.750    0.276    0.473   82.379    8.270    0.000
  212.000    0.270    0.457   84.918    7.972    0.000
  212.250    0.255    0.459   85.577    7.542    0.000
  212.500    0.240    0.471   83.072    7.406    0.000
  212.750    0.228    0.475   81.833    7.142    0.000
  213.000    0.256    0.468   84.381    7.146    0.000
  213.250    0.285    0.464   85.657    7.022    0.000
  213.500    0.271    0.476   84.421    7.025    0.000
  213.750    0.251    0.502   83.817    7.167    0.000
  214.000    0.247    0.471   84.465    7.174    0.000
  214.250    0.251    0.454   85.743    7.045    0.000
