~VERSION INFORMATION
 VERS.                 2.0:   CWLS LOG ASCII STANDARD -VERSION 2.0
 WRAP.                  NO:   ONE LINE PER DEPTH STEP
~WELL INFORMATION BLOCK
#MNEM.UNIT           DATA                    DESCRIPTION OF MNEMONIC
#---------    -------------------            -------------------------------
# Generated from Intellog Unique Number	CS_67_68/WELL/2183
WELL.         GOLDEN EAGLE OIL & GAS         : Well_name    - WELL
LOC .         00/08-02-067-15W4/0            : Location     - LOCATION
UWI .         00/08-02-067-15W4/0            : Uwi          - UNIQUE WELL ID
ENTR.         SP                             : Entered      - ENTERED BY
SRVC.         SCHLUMBERGER                   : Scn          - SERVICE COMPANY
STRT.M        335                            : top_depth    - START DEPTH
STOP.M        513                            : bot_depth    - STOP DEPTH
STEP.M        0.25                           : increment    - STEP LENGTH
 NULL. -999.2500:NULL Value
~CURVE INFORMATION BLOCK
#MNEM UNIT       ERCB CURVE CODE    CURVE DESCRIPTION
#-----------   ------------------   ----------------------------------
DEPT.M        00 001 00 00         : DEPTH        - DEPTH
ILD .OHMM     00 120 00 00         : RESD         - DEEP RESISTIVITY (DIL)
DPHI.V/V      00 890 00 00         : PHID         - DENSITY POROSITY (LIMESTONE)
NPHI.V/V      00 330 00 00         : PHIN         - NEUTRON POROSITY (LIMESTONE)
GR  .API      00 310 00 00         : GR           - GAMMA RAY
CALI.MM       00 280 01 00         : CAL          - CALIPER
~PARAMETER INFORMATION
#MNEM.UNIT           DATA             DESCRIPTION OF MNEMONIC
#---------         -----------     ------------------------------
GL  .M        594.3                : gl           - GROUND LEVEL ELEVATION
EREF.M        597.3                : kb           - ELEVATION OF DEPTH REFERENCE
DATM.M        597.3                : datum        - DATUM ELEVATION
TDD .M        515                  : tdd          - TOTAL DEPTH DRILLER
RUN .         ONE                  : Run          - RUN NUMBER
ENG .         BILL                 : Engineer     - RECORDING ENGINEER
WIT .         JIM                  : Witness      - WITNESSED BY
MUD .         GEL                  : Mud_type     - MUD TYPE
MATR.         LIMESTONE            : Logunit      - NEUTRON MATRIX
TMAX.C        25                   : BHT          - MAXIMUM RECORDED TEMPERATURE
BHTD.M        516                  : BHTDEP       - MAXIMUM RECORDED TEMPERATURE
MATR.         1                    : LOGUNIT      - NEUTRON MATRIX
RMT .C        25                   : MDTP         - TEMPERATURE OF MUD
NEUT.         1                    : NEUTRON      - NEUTRON TYPE
RESI.         0                    : RESIST       - RESISTIVITY TYPE
RMC .OHMM     0.25                 : RMC          - RESISTIVITY OF MUD CAKE
RMF .OHMM     0.25                 : RMF          - RESISTIVITY OF MUD FILTRATE
SUFT.C        15                   : SUFT         - SURFACE TEMPERATURE
~A  DEPTH     RESD     PHID     PHIN       GR      CAL
# ...
  481.000    2.541    0.220    0.421  114.195  191.590
  481.250    2.602    0.193    0.437  112.618  191.395
  481.500    2.635    0.123    0.443  108.363  191.303
  481.750    2.689    0.194    0.450  107.335  192.123
  482.000    2.753    0.230    0.443  109.349  193.754
  482.250    2.851    0.219    0.432  111.605  195.487
  482.500    2.975    0.206    0.419  107.716  196.308
  482.750    3.144    0.212    0.408  106.382  196.622
  483.000    3.299    0.198    0.406  105.657  196.934
  483.250    3.360    0.165    0.368  106.028  196.639
  483.500    3.340    0.127    0.354  104.147  195.228
  483.750    3.358    0.166    0.367  105.309  194.122
  484.000    3.439    0.194    0.384  107.688  193.016
  484.250    3.581    0.202    0.403  110.187  192.010
  484.500    3.736    0.197    0.407  107.333  191.106
  484.750    3.847    0.095    0.394  106.242  190.810
  485.000    3.720    0.068    0.380   99.554  190.515
  485.250    3.414    0.089    0.357   98.404  190.422
  485.500    3.228    0.140    0.346  106.259  190.939
  485.750    3.064    0.166    0.386  111.863  191.353
  486.000    2.979    0.161    0.408  115.702  192.072
  486.250    2.912    0.157    0.411  118.020  192.790
  486.500    2.906    0.167    0.405  117.721  193.510
  486.750    2.922    0.158    0.393  116.996  194.128
  487.000    3.009    0.141    0.402  117.062  194.544
  487.250    3.180    0.131    0.409  117.129  194.551
  487.500    3.287    0.134    0.402  115.613  194.357
  487.750    3.398    0.145    0.391  115.496  193.656
  488.000    3.467    0.152    0.391  115.380  193.158
  488.250    3.479    0.071    0.401  119.341  193.168
  488.500    3.452    0.034    0.382  116.607  193.581
  488.750    3.548    0.121    0.366  113.935  193.590
  489.000    3.716    0.156    0.394  118.383  193.193
  489.250    3.848    0.177    0.405  122.466  192.696
  489.500    3.963    0.168    0.395  128.008  192.198
  489.750    3.991    0.162    0.384  136.291  192.003
  490.000    3.725    0.170    0.373  141.833  192.114
  490.250    3.350    0.167    0.367  127.173  192.427
  490.500    3.041    0.162    0.380  124.805  193.248
  490.750    2.807    0.169    0.422  133.635  194.068
  491.000    2.684    0.171    0.438  138.143  194.888
  491.250    2.639    0.180    0.444  134.436  195.607
  491.500    2.687    0.183    0.430  132.250  195.920
  491.750    2.788    0.163    0.433  129.457  196.233
  492.000    2.845    0.170    0.435  123.194  196.242
  492.250    2.849    0.181    0.426  121.435  195.845
  492.500    2.869    0.172    0.420  122.779  194.130
  492.750    2.911    0.169    0.411  118.099  192.314
  493.000    2.982    0.179    0.405  119.747  190.498
  493.250    3.122    0.175    0.405  122.065  189.087
  493.500    3.356    0.189    0.399  124.870  188.284
  493.750    3.647    0.198    0.391  126.761  187.988
  494.000    3.934    0.192    0.388  121.837  187.998
  494.250    4.316    0.176    0.364  115.027  188.108
  494.500    4.655    0.165    0.336  102.131  188.522
  494.750    5.013    0.162    0.319  103.902  189.038
  495.000    5.153    0.172    0.333  105.732  189.554
  495.250    5.228    0.137    0.317   98.861  189.969
  495.500    5.799    0.122    0.291   94.911  190.587
  495.750    6.801    0.111    0.276   93.274  191.508
  496.000    7.785    0.000    0.259   88.897  192.329
  496.250    8.635    0.000    0.226   83.000  192.946
  496.500    9.543    0.011    0.207   77.407  193.462
  496.750   10.012    0.073    0.241   74.066  193.472
  497.000    9.880    0.127    0.263   76.870  193.379
  497.250    8.885    0.148    0.289   80.648  193.185
  497.500    8.006    0.160    0.294   84.062  193.498
  497.750    7.444    0.166    0.295   86.137  193.507
  498.000    7.091    0.158    0.290   88.820  193.414
  498.250    6.869    0.150    0.286   90.893  193.119
  498.500    6.716    0.141    0.291   92.967  192.622
  498.750    6.739    0.132    0.297   95.529  192.224
  499.000    7.162    0.153    0.300   95.291  191.320
  499.250    8.004    0.171    0.301   94.627  190.417
  499.500    9.334    0.177    0.304   95.302  189.614
  499.750   10.986    0.169    0.310   94.881  188.711
  500.000   12.052    0.191    0.310   90.079  188.313
  500.250   13.171    0.237    0.312   91.972  187.816
  500.500   13.488    0.266    0.321   92.707  187.520
  500.750   13.188    0.286    0.332   91.434  187.326
  501.000   10.749    0.282    0.327   93.569  187.132
  501.250    9.384    0.294    0.315   97.104  187.141
  501.500    8.086    0.217    0.305  100.456  187.251
  501.750    7.436    0.183    0.298  103.383  187.260
  502.000    6.889    0.162    0.312  105.579  187.169
  502.250    6.383    0.155    0.318  107.045  187.279
  502.500    5.880    0.170    0.326  110.093  187.084
  502.750    5.612    0.134    0.327  113.263  186.891
  503.000    5.446    0.114    0.327  117.528  186.494
  503.250    5.567    0.139    0.327  123.010  185.894
  503.500    5.950    0.152    0.336  128.431  185.600
  503.750    6.266    0.131    0.332  132.392  185.101
  504.000    6.561    0.124    0.340  130.511  184.298
  504.250    6.707    0.129    0.331  120.049  183.090
  504.500    6.805    0.155    0.323  108.006  182.186
  504.750    6.778    0.177    0.314   96.449  181.384
  505.000    6.701    0.203    0.309   91.647  180.480
  505.250    6.515    0.246    0.285   91.228  179.678
  505.500    6.126    0.177    0.269   94.397  179.585
  505.750    6.368    0.135    0.254   97.566  180.000
  506.000    7.510    0.141    0.245  100.979  180.414
  506.250    9.917    0.157    0.233  104.636  180.728
  506.500   13.492    0.164    0.183  107.014  181.041
  506.750   22.429    0.140    0.132   75.862  180.948
  507.000   29.184    0.122    0.123   65.644  181.160
  507.250   32.977    0.368    0.142   57.191  181.473
  507.500   33.152    0.301    0.202   53.484  181.584
  507.750   28.835    0.211    0.191   57.446  181.898
  508.000   21.740    0.084    0.160   61.711  182.008
  508.250   23.759    0.000    0.127   65.307  182.524
  508.500   26.997    0.000    0.108   61.599  183.040
  508.750   31.955    0.000    0.089   49.860  183.353
  509.000   37.544    0.000    0.072   43.475  183.666
  509.250   41.566    0.000    0.109   40.560  184.080
  509.500   34.070    0.000    0.130   43.912  184.901
  509.750   26.411    0.000    0.138   48.239  185.924
  510.000   22.384    0.000    0.148   51.834  186.441
  510.250   18.899    0.003    0.164   50.926  186.754
  510.500   15.606    0.055    0.244   53.001  186.762
  510.750   11.810    0.083    0.294   54.528  186.771
  511.000    7.633    0.197    0.330   50.639  186.577
  511.250    5.323    0.158    0.356   47.844  185.674
  511.500    4.520    0.122    0.367   43.833  183.857
  511.750    4.035    0.139    0.352   43.778  182.345
  512.000    4.450    0.152    0.344   44.088  181.238
  512.250    5.427    0.160    0.341   44.641  180.537
  512.500    7.035    0.107    0.328   45.742  180.343
  512.750    8.738    0.064    0.314   46.843  180.352
  513.000   11.099    0.043    0.304   47.518  180.259
