~VERSION INFORMATION
 VERS.                 2.0:   CWLS LOG ASCII STANDARD -VERSION 2.0
 WRAP.                  NO:   ONE LINE PER DEPTH STEP
~WELL INFORMATION BLOCK
#MNEM.UNIT           DATA                    DESCRIPTION OF MNEMONIC
#---------    -------------------            -------------------------------
# Generated from Intellog Unique Number	CW_70_72/WELL/532
NULL.         -999.25                        : NULL_VALUE
WELL.         MIKAS CALLING LAKE 06-02       : Well_name    - WELL              
LOC .         06-02-072-20W4                 : Location     - LOCATION          
UWI .         00/06-02-072-20W4/0            : Uwi          - UNIQUE WELL ID    
ENTR.         JAYE                           : Entered      - ENTERED BY        
SRVC.         SCHLUMBERGER                   : Scn          - SERVICE COMPANY   
DATE.         15 FEB 72                      : Date         - LOG DATE          
STRT.M        316.992                        : top_depth    - START DEPTH       
STOP.M        508.992                        : bot_depth    - STOP DEPTH        
STEP.M        0.25                           : increment    - STEP LENGTH       
~CURVE INFORMATION BLOCK
#MNEM UNIT       ERCB CURVE CODE    CURVE DESCRIPTION
#-----------   ------------------   ----------------------------------
DEPT.M        00 001 00 00         : DEPTH        - DEPTH                       
DPHI.V/V      00 890 00 00         : PHID         - DENSITY POROSITY (SANDSTONE)
NPHI.V/V      00 330 00 00         : PHIN         - NEUTRON POROSITY (SANDSTONE)
GR  .API      00 310 00 00         : GR           - GAMMA RAY                   
CALI.MM       00 280 01 00         : CAL          - CALIPER                     
ILD .OHMM     00 120 00 00         : RESD         - DEEP RESISTIVITY (DIL)      
~PARAMETER INFORMATION       
#MNEM.UNIT           DATA             DESCRIPTION OF MNEMONIC
#---------         -----------     ------------------------------
GL  .M        589.483              : gl           - GROUND LEVEL ELEVATION      
EREF.M        593.446              : kb           - ELEVATION OF DEPTH REFERENCE
DATM.M        589.483              : datum        - DATUM ELEVATION             
TDD .M        534.619              : tdd          - TOTAL DEPTH DRILLER         
RUN .         ONE                  : Run          - RUN NUMBER                  
ENG .         COVENY               : Engineer     - RECORDING ENGINEER          
WIT .         ANDERSON             : Witness      - WITNESSED BY                
BASE.         EDM                  : Branch       - HOME BASE OF LOGGING UNIT   
MUD .         GEL                  : Mud_type     - MUD TYPE                    
MATR.         SANDSTONE            : Logunit      - NEUTRON MATRIX              
TMAX.C        23.8889              : BHT          - MAXIMUM RECORDED TEMPERATURE
BHTD.M        535.534              : BHTDEP       - MAXIMUM RECORDED TEMPERATURE
RMT .C        1.66667              : MDTP         - TEMPERATURE OF MUD          
MUDD.KG/M     1164                 : MWT          - MUD DENSITY                 
NEUT.         1                    : NEUTRON      - NEUTRON TYPE                
RESI.         0                    : RESIST       - RESISTIVITY TYPE            
RM  .OHMM     1.97                 : RM           - RESISTIVITY OF MUD          
RMC .OHMM     0                    : RMC          - RESISTIVITY OF MUD CAKE     
RMF .OHMM     1.69                 : RMF          - RESISTIVITY OF MUD FILTRATE 
SUFT.C        -17.7778             : SUFT         - SURFACE TEMPERATURE         
~A  DEPTH     PHID     PHIN       GR      CAL     RESD
  316.992    0.212    0.448  108.889  180.385    3.284
  317.242    0.203    0.449  106.958  180.608    3.251
  317.492    0.207    0.453  105.330  181.033    3.244
  317.742    0.217    0.456  107.098  181.258    3.201
  317.992    0.230    0.457  110.138  180.654    3.192
  318.242    0.224    0.459  110.390  180.671    3.019
  318.492    0.221    0.459  107.853  180.274    3.007
  318.742    0.210    0.460  104.588  179.060    3.119
  318.992    0.228    0.461  104.476  177.639    3.174
  319.242    0.223    0.468  104.486  177.449    3.161
  319.492    0.213    0.491  102.009  177.464    3.073
  319.742    0.207    0.501   98.805  178.814    2.988
  319.992    0.197    0.491   94.085  178.726    3.042
  320.242    0.172    0.467   89.547  175.663    3.219
  320.492    0.127    0.386   80.523  170.852    3.476
  320.742    0.116    0.326   71.621  165.836    3.802
  320.992    0.271    0.321   68.900  162.670    4.175
  321.242    0.299    0.341   72.852  161.352    4.533
  321.492    0.295    0.369   78.135  161.058    4.869
  321.742    0.287    0.406   88.815  161.796    5.003
  321.992    0.276    0.411   90.097  163.556    4.963
  322.242    0.301    0.422   92.046  165.729    4.978
  322.492    0.274    0.441   96.239  167.796    5.212
  322.742    0.242    0.451  102.190  169.144    5.404
  322.992    0.247    0.370   97.894  167.930    5.491
  323.242    0.252    0.369   97.843  166.612    5.438
  323.492    0.233    0.379  101.005  165.702    5.366
  323.742    0.225    0.406  106.289  165.719    5.332
  323.992    0.238    0.430  109.451  166.657    5.281
  324.242    0.242    0.428  110.551  167.905    5.249
  324.492    0.238    0.405  106.256  168.743    5.218
  324.742    0.243    0.408  102.384  168.037    5.244
  324.992    0.253    0.413   99.666  166.208    5.262
  325.242    0.262    0.421   96.037  164.990    5.278
  325.492    0.260    0.428   89.923  165.314    5.303
  325.742    0.247    0.412   83.748  167.075    5.440
  325.992    0.228    0.381   77.816  168.323    5.589
  326.242    0.218    0.399   78.130  168.851    5.795
  326.492    0.234    0.425   80.381  169.075    6.098
  326.742    0.246    0.448   83.240  169.293    5.929
  326.992    0.262    0.458   83.492  169.104    5.557
  327.242    0.248    0.440   82.591  168.814    5.206
  327.492    0.248    0.431   84.662  168.416    4.906
  327.742    0.260    0.418   88.006  168.123    4.769
  327.992    0.260    0.424   93.774  168.140    4.654
  328.242    0.265    0.439   99.119  168.156    4.533
  328.492    0.281    0.439  100.826  168.273    4.431
  328.742    0.294    0.438   98.107  168.083    4.333
  328.992    0.301    0.451   95.509  167.072    4.267
  329.242    0.283    0.461   93.093  166.678    4.187
  329.492    0.258    0.444   95.770  169.670    4.108
  329.742    0.225    0.413   98.630  175.434    4.068
  329.992    0.249    0.420  101.609  175.144    4.044
  330.242    0.262    0.420  103.376  170.127    4.026
  330.492    0.243    0.398  103.385  167.884    4.175
  330.742    0.242    0.391  101.455  167.492    4.386
  330.992    0.236    0.388  103.344  168.224    4.599
  331.242    0.222    0.382  107.112  169.165    4.884
  331.492    0.225    0.361  108.819  170.104    5.343
  331.742    0.245    0.364  107.736  169.914    5.502
  331.992    0.244    0.358  103.381  166.955    5.528
  332.242    0.245    0.337   98.661  165.326    5.535
  332.492    0.246    0.337   95.759  164.418    5.573
  332.742    0.248    0.343   96.739  164.330    5.633
  332.992    0.249    0.351  102.447  164.346    5.683
  333.242    0.244    0.347  101.002  164.469    5.721
  333.492    0.240    0.333   97.918  164.485    5.685
  333.742    0.238    0.332   95.503  164.495    5.508
  333.992    0.229    0.341   94.664  164.717    5.296
  334.242    0.243    0.354   93.521  164.733    5.093
  334.492    0.258    0.362   90.074  164.439    4.887
  334.742    0.271    0.353   85.597  164.557    4.744
  334.992    0.251    0.348   84.090  164.882    4.671
  335.242    0.228    0.337   85.615  165.412    4.643
  335.492    0.246    0.340   93.021  165.737    4.717
  335.742    0.261    0.359   96.365  165.955    4.750
  335.992    0.262    0.365   97.465  166.281    4.827
  336.242    0.262    0.382   98.202  166.604    4.959
  336.492    0.277    0.392   99.667  166.723    4.769
  336.742    0.284    0.365  101.737  167.046    4.395
  336.992    0.276    0.391  104.960  167.983    4.006
  337.242    0.240    0.422  109.698  172.620    3.692
  337.492    0.232    0.486  115.467  180.951    3.460
  337.742    0.214    0.492  115.113  183.019    3.290
  337.992    0.159    0.489  111.484  172.667    3.134
  338.242    0.213    0.486  118.647  179.767    2.964
  338.492    0.228    0.485  124.659  186.762    2.861
  338.742    0.205    0.486  128.427  186.778    2.771
  338.992    0.221    0.485  129.285  181.353    2.775
  339.242    0.221    0.481  126.687  180.752    2.857
  339.492    0.221    0.473  129.668  185.697    3.118
  339.742    0.233    0.466  130.768  187.354    3.443
  339.992    0.229    0.455  126.836  181.005    3.809
  340.242    0.225    0.443  122.723  175.888    4.197
  340.492    0.223    0.428  119.761  173.439    4.616
  340.742    0.212    0.398  117.224  172.635    5.249
  340.992    0.199    0.407  113.839  173.367    5.721
  341.242    0.225    0.431  105.481  173.485    5.739
  341.492    0.255    0.447   95.183  171.553    5.653
  341.742    0.299    0.427   85.856  169.308    5.466
  341.992    0.301    0.385   76.043  165.321    5.383
  342.242    0.296    0.398   78.477  164.104    5.390
  342.492    0.305    0.415   82.306  163.709    5.508
  342.742    0.298    0.369   84.560  163.932    5.744
  342.992    0.278    0.358   87.175  163.946    5.824
  343.242    0.272    0.372   91.247  163.654    5.887
  343.492    0.273    0.374   94.712  163.671    5.894
  343.742    0.268    0.391   97.994  163.786    5.848
  343.992    0.264    0.385   93.154  164.010    5.814
  344.242    0.258    0.418   88.677  163.620    5.789
  344.492    0.256    0.428   89.959  163.630    5.806
  344.742    0.264    0.422   90.393  164.056    5.814
  344.992    0.258    0.425   84.339  164.072    5.854
  345.242    0.250    0.436   83.863  164.089    5.894
  345.492    0.248    0.429   85.873  164.000    5.912
  345.742    0.256    0.428   86.186  163.302    5.909
  345.992    0.252    0.453   86.134  163.210    5.939
  346.242    0.250    0.435   86.872  163.430    5.947
  346.492    0.268    0.415   90.154  163.550    5.878
  346.742    0.282    0.444   87.435  163.772    5.663
  346.992    0.300    0.456   82.109  163.786    5.456
  347.242    0.328    0.416   81.755  163.392    5.295
  347.492    0.324    0.386   83.583  162.793    5.137
  347.742    0.321    0.377   83.834  162.397    4.995
  347.992    0.323    0.377   81.904  162.412    4.909
  348.242    0.324    0.388   82.216  162.840    4.889
  348.492    0.317    0.386   84.892  163.368    4.877
  348.742    0.300    0.401   89.146  162.970    4.874
  348.992    0.285    0.405   91.216  163.913    4.953
  349.242    0.287    0.415   91.226  164.029    5.024
  349.492    0.292    0.424   88.871  163.840    5.068
  349.742    0.266    0.423   87.728  163.345    5.150
  349.992    0.258    0.431   88.405  163.563    5.273
  350.242    0.266    0.434   90.475  164.605    5.280
  350.492    0.280    0.422   94.607  165.338    5.105
  350.742    0.266    0.406  101.467  166.692    4.981
  350.992    0.250    0.421  107.055  167.731    4.961
  351.242    0.235    0.424  109.003  168.672    5.022
  351.492    0.241    0.414  109.013  169.099    5.189
  351.742    0.240    0.400  109.628  167.367    5.253
  351.992    0.248    0.390  114.973  167.489    5.289
  352.242    0.230    0.389  125.228  169.453    5.335
  352.492    0.226    0.376  132.331  171.624    5.363
  352.742    0.227    0.379  131.067  174.618    5.379
  352.992    0.229    0.426  122.103  176.789    5.376
  353.242    0.227    0.433  110.593  175.162    5.363
