~VERSION INFORMATION
 VERS.                 2.0:   CWLS LOG ASCII STANDARD -VERSION 2.0
 WRAP.                  NO:   ONE LINE PER DEPTH STEP
~WELL INFORMATION BLOCK
#MNEM.UNIT           DATA                    DESCRIPTION OF MNEMONIC
#---------    -------------------            -------------------------------
# Generated from Intellog Unique Number	CW_73_75/WELL/3517
WELL.         CABRE EXPLORATION              : Well_name    - WELL
LOC .         00/02-05-074-04W5/0            : Location     - LOCATION
UWI .         00/02-05-074-04W5/0            : Uwi          - UNIQUE WELL ID
ENTR.         T                              : Entered      - ENTERED BY
SRVC.         SCHLUMBERGER                   : Scn          - SERVICE COMPANY
DATE.         05\15\92                       : Date         - LOG DATE
STRT.M        335                            : top_depth    - START DEPTH
STOP.M        590                            : bot_depth    - STOP DEPTH
STEP.M        0.25                           : increment    - STEP LENGTH
 NULL. -999.2500:NULL Value
~CURVE INFORMATION BLOCK
#MNEM UNIT       ERCB CURVE CODE    CURVE DESCRIPTION
#-----------   ------------------   ----------------------------------
DEPT.M        00 001 00 00         : DEPTH        - DEPTH
ILD .OHMM     00 120 00 00         : RESD         - DEEP RESISTIVITY (DIL)
DPHI.V/V      00 890 00 00         : PHID         - DENSITY POROSITY (SANDSTONE)
NPHI.V/V      00 330 00 00         : PHIN         - NEUTRON POROSITY (SANDSTONE)
GR  .API      00 310 00 00         : GR           - GAMMA RAY
~PARAMETER INFORMATION
#MNEM.UNIT           DATA             DESCRIPTION OF MNEMONIC
#---------         -----------     ------------------------------
GL  .M        593                  : gl           - GROUND LEVEL ELEVATION
EREF.M        597                  : kb           - ELEVATION OF DEPTH REFERENCE
DATM.M        597                  : datum        - DATUM ELEVATION
TDD .M        1628                 : tdd          - TOTAL DEPTH DRILLER
RUN .         ONE                  : Run          - RUN NUMBER
ENG .         JO                   : Engineer     - RECORDING ENGINEER
WIT .         TIM                  : Witness      - WITNESSED BY
MUD .         GEL                  : Mud_type     - MUD TYPE
MATR.         SANDSTONE            : Logunit      - NEUTRON MATRIX
TMAX.C        44                   : BHT          - MAXIMUM RECORDED TEMPERATURE
BHTD.M        1628                 : BHTDEP       - MAXIMUM RECORDED TEMPERATURE
RMT .C        15                   : MDTP         - TEMPERATURE OF MUD
MUDD.KG/M     1080                 : MWT          - MUD DENSITY
NEUT.         1                    : NEUTRON      - NEUTRON TYPE
RESI.         0                    : RESIST       - RESISTIVITY TYPE
RM  .OHMM     0.97                 : RM           - RESISTIVITY OF MUD
RMC .OHMM     0.688                : RMC          - RESISTIVITY OF MUD CAKE
RMF .OHMM     0.84                 : RMF          - RESISTIVITY OF MUD FILTRATE
SUFT.C        4                    : SUFT         - SURFACE TEMPERATURE
~A  DEPTH     RESD     PHID     PHIN       GR
# ...
  422.000    4.868    0.502    0.482   48.496
  422.250    5.635    0.425    0.425   53.776
  422.500    6.404    0.524    0.485   57.290
  422.750    6.765    0.462    0.449   58.451
  423.000    6.890    0.380    0.422   58.428
  423.250    7.017    0.336    0.351   57.231
  423.500    7.017    0.336    0.366   56.635
  423.750    6.890    0.336    0.389   55.443
  424.000    6.644    0.332    0.397   57.192
  424.250    6.289    0.326    0.398   61.295
  424.500    5.741    0.317    0.394   65.398
  424.750    4.871    0.301    0.399   67.736
  425.000    4.446    0.281    0.411   68.893
  425.250    3.984    0.264    0.425   68.877
  425.500    3.842    0.251    0.390   74.741
  425.750    3.704    0.249    0.383   76.495
  426.000    3.571    0.245    0.388   73.533
  426.250    3.507    0.257    0.392   69.991
  426.500    3.443    0.280    0.404   65.857
  426.750    3.443    0.292    0.416   66.429
  427.000    3.381    0.287    0.418   68.179
  427.250    3.381    0.258    0.407   69.340
  427.500    3.381    0.247    0.400   70.493
  427.750    3.382    0.244    0.400   72.242
  428.000    3.201    0.249    0.410   71.638
  428.250    3.031    0.250    0.422   69.265
  428.500    2.976    0.247    0.426   66.900
  428.750    3.031    0.254    0.416   63.354
  429.000    3.382    0.268    0.397   60.989
  429.250    3.508    0.273    0.387   62.730
  429.500    3.706    0.261    0.388   66.249
  429.750    3.774    0.243    0.396   69.763
  430.000    3.775    0.231    0.393   71.513
  430.250    3.707    0.230    0.392   72.085
  430.500    3.707    0.229    0.399   70.304
  430.750    3.640    0.229    0.410   67.347
  431.000    3.640    0.230    0.414   63.797
  431.250    3.640    0.232    0.412   61.424
  431.500    3.707    0.239    0.411   59.050
  431.750    3.916    0.261    0.406   58.454
  432.000    4.370    0.287    0.400   56.081
  432.250    4.788    0.303    0.394   54.893
  432.500    4.966    0.313    0.390   53.696
  432.750    4.967    0.324    0.399   52.504
  433.000    4.967    0.331    0.405   53.665
  433.250    4.877    0.332    0.412   57.768
  433.500    4.877    0.325    0.400   59.517
  433.750    4.878    0.310    0.379   57.140
  434.000    4.878    0.276    0.402   55.952
  434.250    4.968    0.237    0.404   53.582
  434.500    5.153    0.224    0.388   50.625
  434.750    5.153    0.202    0.343   48.255
  435.000    5.060    0.170    0.338   49.416
  435.250    4.879    0.141    0.329   55.873
  435.500    4.704    0.154    0.255   62.914
  435.750    4.535    0.205    0.291   64.079
  436.000    4.453    0.249    0.323   66.409
  436.250    4.216    0.250    0.363   67.578
  436.500    4.140    0.226    0.348   69.327
  436.750    3.919    0.219    0.378   71.076
  437.000    3.849    0.231    0.395   71.645
  437.250    3.779    0.245    0.412   69.860
  437.500    3.711    0.257    0.422   68.672
  437.750    3.711    0.262    0.418   65.710
  438.000    4.066    0.269    0.398   63.345
  438.250    4.706    0.274    0.389   60.387
  438.500    4.706    0.285    0.388   60.372
  438.750    4.706    0.297    0.388   61.533
  439.000    4.706    0.314    0.391   61.517
  439.250    4.621    0.302    0.395   61.501
  439.500    4.622    0.306    0.394   60.301
  439.750    4.707    0.314    0.400   59.112
  440.000    4.707    0.322    0.406   57.920
  440.250    4.794    0.315    0.389   56.135
  440.500    4.883    0.300    0.388   55.531
  440.750    5.158    0.306    0.388   55.519
  441.000    5.449    0.325    0.390   54.915
  441.250    5.652    0.333    0.399   54.311
  441.500    5.652    0.341    0.409   53.111
  441.750    5.652    0.344    0.415   52.511
  442.000    5.652    0.351    0.414   51.318
  442.250    5.653    0.347    0.412   53.064
  442.500    5.653    0.320    0.412   55.401
  442.750    5.551    0.302    0.409   57.147
  443.000    5.551    0.287    0.405   58.312
  443.250    5.451    0.280    0.403   59.477
  443.500    5.255    0.276    0.405   61.218
  443.750    5.067    0.269    0.407   62.379
  444.000    4.885    0.265    0.405   62.948
  444.250    4.797    0.243    0.404   62.344
  444.500    4.625    0.248    0.401   61.748
  444.750    4.625    0.273    0.399   61.140
  445.000    4.626    0.293    0.400   60.540
  445.250    4.626    0.300    0.421   60.524
  445.500    4.626    0.314    0.407   66.392
  445.750    4.542    0.310    0.385   69.314
  446.000    4.460    0.277    0.388   70.471
  446.250    4.461    0.253    0.401   71.628
  446.500    4.380    0.251    0.409   71.621
  446.750    4.301    0.243    0.395   73.370
  447.000    4.301    0.239    0.383   75.704
  447.250    4.301    0.234    0.394   74.515
  447.500    4.301    0.244    0.406   73.323
  447.750    4.302    0.253    0.406   71.538
  448.000    4.302    0.272    0.400   72.111
  448.250    4.302    0.273    0.395   72.683
  448.500    4.302    0.258    0.383   69.722
  448.750    4.382    0.245    0.375   68.533
  449.000    4.545    0.252    0.376   65.568
  449.250    4.801    0.280    0.383   63.199
  449.500    5.357    0.287    0.391   59.657
  449.750    6.671    0.308    0.386   56.699
  450.000    8.008    0.317    0.371   54.330
  450.250    8.615    0.327    0.354   51.368
  450.500    9.269    0.336    0.345   49.587
  450.750    9.269    0.340    0.354   49.568
  451.000    9.269    0.341    0.379   49.560
  451.250    8.776    0.343    0.384   50.721
  451.500    8.461    0.343    0.364   51.290
  451.750    8.010    0.343    0.376   51.274
  452.000    7.311    0.340    0.393   51.258
  452.250    6.922    0.328    0.392   51.831
  452.500    6.673    0.315    0.374   53.576
  452.750    6.553    0.304    0.357   56.503
  453.000    6.674    0.302    0.344   57.079
  453.250    6.923    0.302    0.372   54.706
  453.500    7.180    0.310    0.383   52.929
  453.750    7.585    0.316    0.394   49.379
  454.000    8.161    0.323    0.391   48.187
  454.250    8.621    0.329    0.385   47.583
  454.500    8.780    0.332    0.379   48.740
  454.750    8.780    0.332    0.381   48.728
  455.000    8.781    0.329    0.379   48.704
  455.250    8.781    0.326    0.378   48.693
  455.500    8.466    0.323    0.382   48.681
  455.750    8.467    0.323    0.388   48.657
  456.000    8.467    0.325    0.392   48.642
  456.250    8.314    0.326    0.395   49.214
  456.500    8.164    0.329    0.398   50.379
  456.750    8.164    0.331    0.393   52.709
  457.000    8.017    0.332    0.386   54.466
  457.250    7.872    0.332    0.376   57.977
  457.500    7.872    0.331    0.380   57.961
  457.750    7.872    0.331    0.388   57.353
  458.000    7.873    0.330    0.396   56.753
  458.250    7.873    0.327    0.396   56.149
  458.500    8.019    0.325    0.388   55.545
  458.750    8.317    0.327    0.390   56.698
  459.000    8.318    0.327    0.384   56.690
  459.250    8.471    0.327    0.369   57.263
  459.500    8.628    0.324    0.375   59.008
  459.750    8.787    0.321    0.379   61.346
  460.000    8.788    0.318    0.373   64.272
  460.250    8.950    0.314    0.365   68.379
  460.500    8.950    0.311    0.361   84.838
  460.750    9.116    0.319    0.360   97.766
  461.000    9.116    0.319    0.365  109.518
  461.250    8.951    0.318    0.379  120.681
  461.500    8.790    0.314    0.391  124.196
  461.750    8.631    0.307    0.395  114.174
  462.000    8.171    0.298    0.387  107.098
  462.250    7.323    0.288    0.348  100.610
  462.500    6.563    0.178    0.292   91.180
  462.750    5.882    0.072    0.238   74.686
  463.000    5.272    0.133    0.212   56.431
  463.250    4.639    0.158    0.233   48.174
  463.500    4.234    0.182    0.296   59.341
  463.750    4.009    0.199    0.371   64.033
  464.000    3.865    0.228    0.404   66.951
  464.250    3.865    0.247    0.394   67.531
  464.500    3.865    0.259    0.388   67.508
  464.750    4.083    0.264    0.399   67.496
  465.000    4.159    0.260    0.411   68.061
  465.250    4.314    0.256    0.411   68.641
