~VERSION INFORMATION
 VERS.                 2.0:   CWLS LOG ASCII STANDARD -VERSION 2.0
 WRAP.                  NO:   ONE LINE PER DEPTH STEP
~WELL INFORMATION BLOCK
#MNEM.UNIT           DATA                    DESCRIPTION OF MNEMONIC
#---------    -------------------            -------------------------------
# Generated from Intellog Unique Number	CW_82_90/WELL/549
WELL.         MIAMI AMOCO WABASCA 06-34      : Well_name    - WELL
LOC .         00/06-34-084-01W5/0            : Location     - LOCATION
UWI .         00/06-34-084-01W5/0            : Uwi          - UNIQUE WELL ID
ENTR.         JAYE                           : Entered      - ENTERED BY
SRVC.         SCHLUMBERGER                   : Scn          - SERVICE COMPANY
DATE.         29 JAN 75                      : Date         - LOG DATE
STRT.M        274.32                         : top_depth    - START DEPTH
STOP.M        475.57                         : bot_depth    - STOP DEPTH
STEP.M        0.25                           : increment    - STEP LENGTH
 NULL. -999.2500:NULL Value
~CURVE INFORMATION BLOCK
#MNEM UNIT       ERCB CURVE CODE    CURVE DESCRIPTION
#-----------   ------------------   ----------------------------------
DEPT.M        00 001 00 00         : DEPTH        - DEPTH
CALI.MM       00 280 01 00         : CAL          - CALIPER
GR  .API      00 310 00 00         : GR           - GAMMA RAY
NPHI.V/V      00 330 00 00         : PHIN         - NEUTRON POROSITY (SANDSTONE)
DPHI.V/V      00 890 00 00         : PHID         - DENSITY POROSITY (SANDSTONE)
ILD .OHMM     00 120 00 00         : RESD         - DEEP RESISTIVITY (DIL)
~PARAMETER INFORMATION
#MNEM.UNIT           DATA             DESCRIPTION OF MNEMONIC
#---------         -----------     ------------------------------
GL  .M        627.583              : gl           - GROUND LEVEL ELEVATION
EREF.M        630.875              : kb           - ELEVATION OF DEPTH REFERENCE
DATM.M        627.583              : datum        - DATUM ELEVATION
TDD .M        475.488              : tdd          - TOTAL DEPTH DRILLER
RUN .         ONE                  : Run          - RUN NUMBER
ENG .         CROCKFORD            : Engineer     - RECORDING ENGINEER
WIT .         RUDD                 : Witness      - WITNESSED BY
BASE.         EDMONTON             : Branch       - HOME BASE OF LOGGING UNIT
MUD .         DAPP                 : Mud_type     - MUD TYPE
MATR.         SANDSTONE            : Logunit      - NEUTRON MATRIX
TMAX.C        25                   : BHT          - MAXIMUM RECORDED TEMPERATURE
BHTD.M        475.488              : BHTDEP       - MAXIMUM RECORDED TEMPERATURE
RMT .C        17.7778              : MDTP         - TEMPERATURE OF MUD
MUDD.KG/M     9600                 : MWT          - MUD DENSITY
NEUT.         1                    : NEUTRON      - NEUTRON TYPE
RESI.         0                    : RESIST       - RESISTIVITY TYPE
RM  .OHMM     2.8                  : RM           - RESISTIVITY OF MUD
RMC .OHMM     0                    : RMC          - RESISTIVITY OF MUD CAKE
RMF .OHMM     2.34                 : RMF          - RESISTIVITY OF MUD FILTRATE
SUFT.C        -17.7778             : SUFT         - SURFACE TEMPERATURE
~A  DEPTH      CAL       GR     PHIN     PHID     RESD
# ...
  383.820  168.368   94.660    0.428    0.192    8.209
  384.070  167.570   88.690    0.441    0.191    8.382
  384.320  170.609   89.386    0.446    0.178    8.593
  384.570  174.476   89.900    0.431    0.184    8.646
  384.820  176.997   87.962    0.424    0.178    8.797
  385.070  177.037   84.927    0.427    0.168    8.964
  385.320  176.346   84.891    0.439    0.171    9.256
  385.570  170.482   88.701    0.430    0.194    9.416
  385.820  168.978   90.129    0.432    0.210    9.528
  386.070  170.557   92.655    0.440    0.201    9.395
  386.320  170.076   93.043    0.454    0.207    9.131
  386.570  169.706   92.766    0.450    0.210    8.888
  386.820  170.159   93.578    0.443    0.209    8.605
  387.070  169.152   95.126    0.438    0.205    8.363
  387.320  166.912   96.737    0.429    0.194    8.186
  387.570  169.643   98.411    0.418    0.183    8.072
  387.820  171.744  100.084    0.414    0.170    8.032
  388.070  173.127  103.771    0.438    0.169    8.009
  388.320  176.270  105.445    0.451    0.173    7.956
  388.570  178.583  102.347    0.458    0.191    8.035
  388.820  179.345   99.312    0.466    0.185    8.115
  389.070  177.934   96.949    0.465    0.181    8.363
  389.320  170.930   92.266    0.453    0.199    8.651
  389.570  165.900   86.846    0.427    0.197    8.801
  389.820  163.764   89.071    0.414    0.200    9.086
  390.070  163.279   90.984    0.416    0.210    9.398
  390.320  163.005   91.498    0.407    0.232    9.651
  390.570  162.941   90.844    0.411    0.233    9.818
  390.820  162.870   89.766    0.428    0.230    9.861
  391.070  161.356   86.428    0.426    0.233    9.869
  391.320  160.359   82.780    0.428    0.248    9.875
  391.570  159.771   82.190    0.431    0.242    9.882
  391.820  159.817   84.171    0.431    0.230    9.891
  392.070  160.166   88.347    0.433    0.228    9.843
  392.320  160.204   93.873    0.426    0.238    9.796
  392.570  160.233   94.624    0.423    0.232    9.785
  392.820  160.478   91.593    0.415    0.216    9.773
  393.070  160.307   89.717    0.413    0.213    9.744
  393.320  160.753   92.428    0.407    0.207    9.679
  393.570  162.347   93.062    0.402    0.226    9.615
  393.820  162.070   89.356    0.408    0.220    9.465
  394.070  160.663   87.605    0.435    0.212    9.384
  394.320  161.008   88.359    0.436    0.230    9.052
  394.570  162.499   90.706    0.437    0.233    8.716
  394.820  165.013   93.233    0.439    0.219    8.255
  395.070  168.465   96.556    0.448    0.215    7.948
  395.320  175.232   96.576    0.458    0.206    7.737
  395.570  177.234   94.766    0.462    0.192    7.547
  395.820  171.369   92.401    0.445    0.232    7.455
  396.070  165.720   88.818    0.445    0.221    7.311
  396.320  165.865   86.272    0.456    0.215    7.317
  396.570  163.716   85.865    0.453    0.249    7.269
  396.820  160.341   87.234    0.441    0.241    7.141
  397.070  161.201   89.147    0.449    0.231    6.603
  397.320  162.381   88.988    0.471    0.226    5.885
  397.570  164.794   88.275    0.497    0.223    5.443
  397.820  168.977   86.219    0.495    0.226    5.164
  398.070  169.635   82.572    0.462    0.245    4.963
  398.320  169.045   76.665    0.363    0.229    5.133
  398.570  167.119   73.694    0.331    0.151    5.809
  398.820  165.191   72.612    0.360    0.056    7.038
  399.070  166.778   70.191    0.334    0.085    8.355
  399.320  170.539   67.584    0.355    0.074    9.684
  399.570  172.031   68.706    0.373    0.097   11.307
  399.820  169.472   68.237    0.331    0.126   12.939
  400.070  165.689   69.054    0.342    0.086   13.784
  400.320  164.065   73.109    0.392    0.102   13.667
  400.570  163.683   77.838    0.425    0.172   12.685
  400.820  164.661   83.117    0.453    0.207   11.203
  401.070  164.591   84.730    0.469    0.228    9.329
  401.320  163.380   78.944    0.463    0.227    8.076
  401.570  164.042   77.010    0.456    0.230    7.426
  401.820  167.180   78.926    0.449    0.230    6.943
  402.070  169.808   82.552    0.445    0.212    6.661
  402.320  169.740   87.710    0.456    0.210    6.739
  402.570  168.851   92.071    0.465    0.207    6.781
  402.820  169.097   93.137    0.469    0.198    6.638
  403.070  168.604   92.848    0.464    0.193    6.286
  403.320  166.585   95.253    0.463    0.200    6.031
  403.570  166.201   95.462    0.458    0.192    5.861
  403.820  165.611   93.891    0.452    0.196    5.832
  404.070  165.855   90.491    0.438    0.207    5.924
  404.320  167.347   92.038    0.445    0.200    6.070
  404.570  168.103   91.634    0.459    0.205    6.256
  404.820  168.242   92.999    0.475    0.198    6.353
  405.070  168.177   95.897    0.470    0.205    6.465
  405.320  168.423   98.240    0.455    0.193    6.515
  405.570  169.192   98.873    0.445    0.182    6.592
  405.820  169.741   98.656    0.432    0.186    6.671
  406.070  170.392   96.714    0.425    0.187    6.737
  406.320  170.636   95.147    0.428    0.202    6.866
  406.570  167.364   93.274    0.421    0.214    7.011
  406.820  165.226   88.772    0.441    0.201    7.252
  407.070  163.502   80.482    0.450    0.186    7.543
  407.320  162.089   77.018    0.451    0.160    8.064
  407.570  160.469   72.886    0.382    0.129    8.878
  407.820  158.854   69.972    0.355    0.098   10.105
  408.070  159.407   66.388    0.314    0.063   11.606
  408.320  161.098   63.355    0.286    0.028   14.266
  408.570  164.863   62.580    0.270    0.033   16.966
  408.820  168.629   65.228    0.269    0.081   18.409
  409.070  167.836   69.103    0.281    0.115   18.052
  409.320  166.316   73.526    0.336    0.144   17.254
  409.570  163.459   79.170    0.354    0.188   14.691
  409.820  161.629   85.242    0.420    0.189   12.033
  410.070  160.633   88.260    0.444    0.235    9.930
  410.320  160.360   86.691    0.446    0.238    9.266
  410.570  160.297   83.356    0.436    0.251    8.856
  410.820  160.340   80.562    0.417    0.231    8.749
  411.070  160.468   73.433    0.422    0.223    9.083
  411.320  160.819   69.730    0.425    0.221   10.168
  411.570  160.851   66.752    0.388    0.145   11.699
  411.820  163.066   62.802    0.286    0.110   13.736
  412.070  164.968   59.277    0.268    0.045   19.310
  412.320  166.342   62.418    0.262    0.018   27.850
  412.570  166.587   66.167    0.264    0.022   31.176
  412.820  166.624   70.099    0.280    0.032   32.903
  413.070  168.218   82.102    0.325    0.073   30.822
  413.320  168.153   90.254    0.386    0.149   24.604
  413.570  167.773   96.574    0.419    0.177   17.919
  413.820  166.669   98.429    0.404    0.183   14.544
  414.070  164.740   97.043    0.402    0.188   12.657
  414.320  162.402   92.359    0.421    0.189   11.513
  414.570  161.400   94.029    0.434    0.192   10.550
  414.820  160.709   94.174    0.439    0.175   10.195
  415.070  160.337   90.588    0.433    0.154   10.164
  415.320  160.993   89.879    0.413    0.136   10.378
  415.570  162.171   92.590    0.410    0.170   10.795
  415.820  163.443   93.405    0.425    0.185   11.310
  416.070  164.724   90.922    0.399    0.170   11.849
  416.320  164.145   86.174    0.377    0.159   12.416
  416.570  164.904   84.240    0.361    0.132   12.865
  416.820  165.868   84.690    0.376    0.136   13.333
  417.070  166.007   85.081    0.397    0.141   13.663
  417.320  160.251   84.616    0.401    0.147   14.006
  417.570  159.771   83.594    0.390    0.126   14.222
  417.820  162.398   83.066    0.368    0.088   14.602
  418.070  164.808   84.311    0.365    0.109   14.993
  418.320  166.098   87.267    0.387    0.126   15.142
  418.570  165.504   90.222    0.403    0.160   14.877
  418.820  164.920   91.221    0.437    0.179   14.065
  419.070  164.657   90.753    0.424    0.193   13.272
  419.320  164.481   90.898    0.386    0.160   12.800
  419.570  163.996   92.204    0.396    0.141   12.280
  419.820  164.030   96.136    0.428    0.149   11.802
  420.070  164.173   97.140    0.438    0.161   11.158
