~VERSION INFORMATION
 VERS.                 2.0:   CWLS LOG ASCII STANDARD -VERSION 2.0
 WRAP.                  NO:   ONE LINE PER DEPTH STEP
~WELL INFORMATION BLOCK
#MNEM.UNIT           DATA                    DESCRIPTION OF MNEMONIC
#---------    -------------------            -------------------------------
# Generated from Intellog Unique Number	CS_77_79/WELL/862
WELL.         ICGR CHARD                     : Well_name    - WELL
LOC .         00/05-21-078-05W4/0            : Location     - LOCATION
UWI .         00/05-21-078-05W4/0            : Uwi          - UNIQUE WELL ID
ENTR.         JHS                            : Entered      - ENTERED BY
SRVC.         SCHLUMBERGER                   : Scn          - SERVICE COMPANY
STRT.M        155                            : top_depth    - START DEPTH
STOP.M        415                            : bot_depth    - STOP DEPTH
STEP.M        0.25                           : increment    - STEP LENGTH
 NULL. -999.2500:NULL Value
~CURVE INFORMATION BLOCK
#MNEM UNIT       ERCB CURVE CODE    CURVE DESCRIPTION
#-----------   ------------------   ----------------------------------
DEPT.M        00 001 00 00         : DEPTH        - DEPTH
DPHI.V/V      00 890 00 00         : PHID         - DENSITY POROSITY (LIMESTONE)
NPHI.V/V      00 330 00 00         : PHIN         - NEUTRON POROSITY (LIMESTONE)
GR  .API      00 310 00 00         : GR           - GAMMA RAY
ILD .OHMM     00 120 00 00         : RESD         - DEEP RESISTIVITY (DIL)
RHOB.KG/M3    00 350 00 00         : DENS         - BULK DENSITY
~PARAMETER INFORMATION
#MNEM.UNIT           DATA             DESCRIPTION OF MNEMONIC
#---------         -----------     ------------------------------
GL  .M        575.9                : gl           - GROUND LEVEL ELEVATION
EREF.M        579.5                : kb           - ELEVATION OF DEPTH REFERENCE
DATM.M        579.5                : datum        - DATUM ELEVATION
TDD .M        425                  : tdd          - TOTAL DEPTH DRILLER
RUN .         ONE                  : Run          - RUN NUMBER
ENG .         BILL                 : Engineer     - RECORDING ENGINEER
WIT .         JIM                  : Witness      - WITNESSED BY
MUD .         GEL                  : Mud_type     - MUD TYPE
MATR.         LIMESTONE            : Logunit      - NEUTRON MATRIX
TMAX.C        21                   : BHT          - MAXIMUM RECORDED TEMPERATURE
BHTD.M        425                  : BHTDEP       - MAXIMUM RECORDED TEMPERATURE
MATR.         1                    : LOGUNIT      - NEUTRON MATRIX
RMT .C        25                   : MDTP         - TEMPERATURE OF MUD
NEUT.         1                    : NEUTRON      - NEUTRON TYPE
RESI.         0                    : RESIST       - RESISTIVITY TYPE
RMC .OHMM     0.25                 : RMC          - RESISTIVITY OF MUD CAKE
RMF .OHMM     0.25                 : RMF          - RESISTIVITY OF MUD FILTRATE
SUFT.C        15                   : SUFT         - SURFACE TEMPERATURE
~A  DEPTH     PHID     PHIN       GR     RESD     DENS
# ...
  191.500    0.182    0.516   98.386    6.604    0.000
  191.750    0.164    0.490  104.487    6.238    0.000
  192.000    0.168    0.498  107.523    6.120    0.000
  192.250    0.186    0.546  105.050    6.005    0.000
  192.500    0.206    0.534  103.807    6.004    0.000
  192.750    0.221    0.507  105.618    6.117    0.000
  193.000    0.238    0.513  100.703    6.352    0.000
  193.250    0.265    0.512   91.499    6.722    0.000
  193.500    0.299    0.472   84.133    7.820    0.000
  193.750    0.288    0.441   89.620    8.759    0.000
  194.000    0.259    0.438   98.780   10.384    0.000
  194.250    0.257    0.430   84.679   13.278    0.000
  194.500    0.285    0.410   65.681   18.314    0.000
  194.750    0.323    0.391   50.356   22.126    0.000
  195.000    0.333    0.375   41.153   26.731    0.000
  195.250    0.328    0.387   33.785   31.095    0.000
  195.500    0.334    0.396   30.696   32.289    0.000
  195.750    0.340    0.393   29.455   32.900    0.000
  196.000    0.349    0.393   28.821   33.523    0.000
  196.250    0.353    0.398   33.697   32.889    0.000
  196.500    0.355    0.408   36.121   32.885    0.000
  196.750    0.351    0.414   34.263   32.878    0.000
  197.000    0.348    0.415   28.120   32.875    0.000
  197.250    0.348    0.413   24.425   33.495    0.000
  197.500    0.352    0.410   25.012   34.131    0.000
  197.750    0.349    0.410   23.770   34.775    0.000
  198.000    0.350    0.421   23.749   35.435    0.000
  198.250    0.354    0.426   29.844   36.105    0.000
  198.500    0.358    0.423   30.437   36.791    0.000
  198.750    0.354    0.410   27.966   36.783    0.000
  199.000    0.354    0.400   26.108   36.779    0.000
  199.250    0.358    0.401   29.144   36.772    0.000
  199.500    0.362    0.415   26.670   36.768    0.000
  199.750    0.362    0.420   26.042   36.760    0.000
  200.000    0.366    0.426   25.406   36.067    0.000
  200.250    0.369    0.446   25.386   36.747    0.000
  200.500    0.372    0.444   24.752   36.744    0.000
  200.750    0.371    0.430   22.885   36.735    0.000
  201.000    0.368    0.415   23.480   36.043    0.000
  201.250    0.360    0.420   27.133   35.362    0.000
  201.500    0.355    0.419   27.716   34.040    0.000
  201.750    0.357    0.433   28.918   33.398    0.000
  202.000    0.357    0.451   30.736   32.768    0.000
  202.250    0.360    0.420   32.554   31.545    0.000
  202.500    0.364    0.399   36.818   30.948    0.000
  202.750    0.356    0.411   45.973   30.364    0.000
  203.000    0.348    0.416   46.563   29.789    0.000
  203.250    0.349    0.418   48.378   28.677    0.000
  203.500    0.360    0.437   53.254   28.136    0.000
  203.750    0.361    0.452   59.966   27.604    0.000
  204.000    0.356    0.423   64.843   26.574    0.000
  204.250    0.349    0.412   70.942   25.102    0.000
  204.500    0.343    0.441   69.081   24.629    0.000
  204.750    0.340    0.443   58.656   23.266    0.000
  205.000    0.333    0.444   55.568   22.397    0.000
  205.250    0.323    0.452   58.612   21.562    0.000
  205.500    0.322    0.446   67.158   20.758    0.000
  205.750    0.320    0.443   76.930   20.366    0.000
  206.000    0.312    0.451   79.968   19.605    0.000
  206.250    0.309    0.455   79.944   19.603    0.000
  206.500    0.312    0.461   83.593   19.231    0.000
  206.750    0.312    0.473   86.017   18.868    0.000
  207.000    0.307    0.473   87.837   18.866    0.000
  207.250    0.312    0.478   89.650   19.222    0.000
  207.500    0.319    0.488   88.400   19.221    0.000
  207.750    0.319    0.488   85.324   19.584    0.000
  208.000    0.315    0.440   80.401   19.581    0.000
  208.250    0.315    0.412   75.485   19.952    0.000
  208.500    0.331    0.422   66.893   19.948    0.000
  208.750    0.349    0.405   65.034   19.571    0.000
  209.000    0.279    0.404   71.747   18.841    0.000
  209.250    0.257    0.406   79.066   18.139    0.000
  209.500    0.239    0.391   85.166   17.462    0.000
  209.750    0.234    0.381   88.206   17.132    0.000
  210.000    0.246    0.390   85.736   17.129    0.000
  210.250    0.282    0.423   75.920   17.127    0.000
  210.500    0.299    0.444   72.225   17.450    0.000
  210.750    0.308    0.453   78.320   18.120    0.000
  211.000    0.276    0.448   83.195   18.117    0.000
  211.250    0.240    0.449   84.397   17.776    0.000
  211.500    0.265    0.438   82.543   17.439    0.000
  211.750    0.277    0.418   78.233   17.436    0.000
  212.000    0.255    0.399   79.438   17.433    0.000
  212.250    0.255    0.395   86.763   16.783    0.000
  212.500    0.266    0.415   87.347   16.466    0.000
  212.750    0.284    0.446   84.878   16.155    0.000
  213.000    0.294    0.432   83.631   15.552    0.000
  213.250    0.283    0.416   83.613   15.846    0.000
  213.500    0.259    0.420   82.368   15.845    0.000
  213.750    0.249    0.425   82.957   16.452    0.000
  214.000    0.270    0.431   84.767   16.764    0.000
  214.250    0.295    0.436   85.357   16.762    0.000
  214.500    0.294    0.410   85.327   16.445    0.000
  214.750    0.298    0.399   85.929   15.831    0.000
  215.000    0.304    0.398   87.129   15.241    0.000
  215.250    0.273    0.399   91.392   14.397    0.000
  215.500    0.253    0.418   95.046   13.346    0.000
  215.750    0.261    0.445   95.021   12.371    0.000
  216.000    0.271    0.455   93.165   11.686    0.000
  216.250    0.252    0.451   98.039   11.039    0.000
  216.500    0.244    0.480  102.297   10.831    0.000
  216.750    0.256    0.500  104.113   10.626    0.000
  217.000    0.249    0.480  105.319   10.827    0.000
  217.250    0.235    0.469  103.459   11.032    0.000
  217.500    0.235    0.482   93.032   11.675    0.000
  217.750    0.291    0.487   87.501   12.354    0.000
  218.000    0.301    0.455   89.310   12.829    0.000
  218.250    0.271    0.400   94.798   13.322    0.000
  218.500    0.255    0.400  100.896   13.574    0.000
  218.750    0.251    0.410  105.164   12.347    0.000
  219.000    0.245    0.437  108.815   11.230    0.000
  219.250    0.229    0.463  106.341   10.608    0.000
  219.500    0.232    0.446  109.384   10.408    0.000
  219.750    0.258    0.442  111.808   10.406    0.000
  220.000    0.252    0.457  109.950   10.018    0.000
  220.250    0.243    0.473  106.254    9.829    0.000
  220.500    0.248    0.488  103.781    9.827    0.000
  220.750    0.258    0.503  101.923    9.826    0.000
  221.000    0.263    0.510  100.678   10.012    0.000
  221.250    0.267    0.492  102.490   10.396    0.000
  221.500    0.283    0.487  103.083   11.001    0.000
  221.750    0.274    0.491  100.613   11.642    0.000
  222.000    0.276    0.489   95.695   12.556    0.000
  222.250    0.271    0.483   92.613   13.038    0.000
  222.500    0.262    0.457   88.302   13.797    0.000
  222.750    0.253    0.430   88.897   14.059    0.000
  223.000    0.258    0.420   87.649   14.325    0.000
  223.250    0.272    0.419   89.463   14.322    0.000
  223.500    0.254    0.423   96.787   14.052    0.000
  223.750    0.231    0.440  103.496   14.050    0.000
  224.000    0.230    0.481  105.311   14.588    0.000
  224.250    0.255    0.485   92.436   14.866    0.000
  224.500    0.269    0.459   77.720   15.147    0.000
  224.750    0.304    0.455   61.787   15.729    0.000
  225.000    0.329    0.463   53.806   16.333    0.000
  225.250    0.337    0.450   56.845   16.960    0.000
  225.500    0.350    0.428   62.333   17.948    0.000
  225.750    0.353    0.446   65.370   19.357    0.000
  226.000    0.337    0.473   63.507   20.875    0.000
  226.250    0.285    0.440   58.593   21.676    0.000
  226.500    0.055    0.328   50.612   21.673    0.000
  226.750    0.254    0.348   49.366   20.473    0.000
  227.000    0.290    0.425   55.466   18.622    0.000
  227.250    0.335    0.450   62.172   16.938    0.000
  227.500    0.338    0.452   65.826   15.406    0.000
  227.750    0.319    0.452   67.640   13.750    0.000
