~VERSION INFORMATION
 VERS.                 2.0:   CWLS LOG ASCII STANDARD -VERSION 2.0
 WRAP.                  NO:   ONE LINE PER DEPTH STEP
~WELL INFORMATION BLOCK
#MNEM.UNIT           DATA                    DESCRIPTION OF MNEMONIC
#---------    -------------------            -------------------------------
# Generated from Intellog Unique Number	CS_69_70/WELL/906
NULL.         -999.25                        : NULL_VALUE
WELL.         HUSKY OIL OPERATION LTD.       : Well_name    - WELL              
LOC .         00/09-12-070-06W4/0            : Location     - LOCATION          
UWI .         00/09-12-070-06W4/0            : Uwi          - UNIQUE WELL ID    
ENTR.         SP                             : Entered      - ENTERED BY        
SRVC.         SCHLUMBERGER                   : Scn          - SERVICE COMPANY   
STRT.M        315                            : top_depth    - START DEPTH       
STOP.M        560                            : bot_depth    - STOP DEPTH        
STEP.M        0.25                           : increment    - STEP LENGTH       
~CURVE INFORMATION BLOCK
#MNEM UNIT       ERCB CURVE CODE    CURVE DESCRIPTION
#-----------   ------------------   ----------------------------------
DEPT.M        00 001 00 00         : DEPTH        - DEPTH                       
ILD .OHMM     00 120 00 00         : RESD         - DEEP RESISTIVITY (DIL)      
DPHI.V/V      00 890 00 00         : PHID         - DENSITY POROSITY (LIMESTONE)
NPHI.V/V      00 330 00 00         : PHIN         - NEUTRON POROSITY (LIMESTONE)
GR  .API      00 310 00 00         : GR           - GAMMA RAY                   
~PARAMETER INFORMATION       
#MNEM.UNIT           DATA             DESCRIPTION OF MNEMONIC
#---------         -----------     ------------------------------
GL  .M        675.2                : gl           - GROUND LEVEL ELEVATION      
EREF.M        678.8                : kb           - ELEVATION OF DEPTH REFERENCE
DATM.M        675.2                : datum        - DATUM ELEVATION             
TDD .M        567                  : tdd          - TOTAL DEPTH DRILLER         
RUN .         ONE                  : Run          - RUN NUMBER                  
ENG .         BILL                 : Engineer     - RECORDING ENGINEER          
WIT .         JIM                  : Witness      - WITNESSED BY                
MUD .         GEL                  : Mud_type     - MUD TYPE                    
MATR.         LIMESTONE            : Logunit      - NEUTRON MATRIX              
TMAX.C        25                   : BHT          - MAXIMUM RECORDED TEMPERATURE
BHTD.M        567                  : BHTDEP       - MAXIMUM RECORDED TEMPERATURE
MATR.         1                    : LOGUNIT      - NEUTRON MATRIX              
RMT .C        25                   : MDTP         - TEMPERATURE OF MUD          
NEUT.         1                    : NEUTRON      - NEUTRON TYPE                
RESI.         0                    : RESIST       - RESISTIVITY TYPE            
RMC .OHMM     0.25                 : RMC          - RESISTIVITY OF MUD CAKE     
RMF .OHMM     0.25                 : RMF          - RESISTIVITY OF MUD FILTRATE 
SUFT.C        15                   : SUFT         - SURFACE TEMPERATURE         
~A  DEPTH     RESD     PHID     PHIN       GR
# ...
  445.500   12.738    0.357    0.456   60.615
  445.750   12.743    0.356    0.453   61.218
  446.000   13.481    0.353    0.449   61.219
  446.250   14.532    0.350    0.459   60.015
  446.500   15.373    0.343    0.470   60.618
  446.750   14.014    0.340    0.471   58.209
  447.000    9.843    0.343    0.455   54.595
  447.250    7.311    0.325    0.423   53.391
  447.500    5.850    0.293    0.374   61.826
  447.750    5.137    0.219    0.369   70.260
  448.000    4.683    0.227    0.397   73.875
  448.250    4.514    0.262    0.423   76.888
  448.500    5.754    0.276    0.431   81.106
  448.750    7.198    0.278    0.454   82.311
  449.000    8.515    0.271    0.477   81.709
  449.250   10.072    0.268    0.488   76.891
  449.500   11.268    0.278    0.496   71.470
  449.750   11.701    0.302    0.450   66.651
  450.000   11.707    0.318    0.449   66.652
  450.250   10.476    0.316    0.445   72.677
  450.500    9.549    0.308    0.448   73.882
  450.750    9.034    0.297    0.440   71.473
  451.000   10.491    0.290    0.443   67.859
  451.250   11.521    0.296    0.456   64.246
  451.500   12.187    0.302    0.461   64.247
  451.750   13.384    0.295    0.466   66.657
  452.000   13.898    0.236    0.422   62.441
  452.250   12.435    0.180    0.333   57.622
  452.500   10.521    0.142    0.345   59.430
  452.750    8.263    0.197    0.374   68.467
  453.000    6.993    0.308    0.417   77.504
  453.250    6.493    0.312    0.411   81.722
  453.500    5.920    0.291    0.404   84.132
  453.750    5.705    0.274    0.404   84.735
  454.000    5.501    0.268    0.404   84.736
  454.250    5.401    0.277    0.411   84.736
  454.500    5.404    0.289    0.410   87.749
  454.750    5.612    0.289    0.421   84.738
  455.000    5.826    0.291    0.445   80.522
  455.250    6.641    0.309    0.438   81.125
  455.500    7.570    0.306    0.442   81.126
  455.750    8.313    0.299    0.460   78.114
  456.000    8.632    0.311    0.456   73.898
  456.250    7.303    0.317    0.451   70.887
  456.500    4.180    0.309    0.446   68.478
  456.750    3.104    0.312    0.454   73.298
  457.000    2.438    0.329    0.460   75.106
  457.250    2.182    0.336    0.484   78.721
  457.500    2.103    0.341    0.520   81.734
  457.750    2.143    0.346    0.519   76.915
  458.000    2.268    0.353    0.512   74.506
  458.250    2.445    0.340    0.508   72.700
  458.500    2.538    0.330    0.505   78.725
  458.750    2.736    0.322    0.536   79.930
  459.000    3.061    0.309    0.516   79.931
  459.250    3.554    0.307    0.495   78.124
  459.500    3.976    0.303    0.477   76.920
  459.750    4.206    0.305    0.469   79.331
  460.000    4.620    0.305    0.457   81.138
  460.250    4.979    0.303    0.432   81.139
  460.500    5.268    0.301    0.429   76.923
  460.750    5.369    0.277    0.462   72.105
  461.000    5.371    0.179    0.368   70.298
  461.250    5.177    0.142    0.356   75.118
  461.500    4.808    0.231    0.403   79.938
  461.750    4.383    0.277    0.409   81.746
  462.000    3.849    0.279    0.414   82.349
  462.250    3.509    0.278    0.431   82.952
  462.500    3.198    0.277    0.452   84.158
  462.750    3.261    0.269    0.460   84.761
  463.000    3.648    0.266    0.457   85.364
  463.250    4.005    0.265    0.461   83.557
  463.500    4.918    0.263    0.443   76.329
  463.750    5.502    0.280    0.398   71.511
  464.000    6.509    0.295    0.381   68.499
  464.250    7.148    0.301    0.397   66.090
  464.500    7.562    0.256    0.405   65.489
  464.750    7.022    0.205    0.353   72.116
  465.000    5.618    0.148    0.343   78.743
  465.250    4.097    0.141    0.381   88.382
  465.500    3.531    0.198    0.435   93.805
  465.750    3.159    0.228    0.463   95.613
  466.000    3.103    0.237    0.502   94.409
  466.250    3.047    0.234    0.501   92.000
  466.500    3.049    0.233    0.482   88.989
  466.750    2.994    0.240    0.478   87.182
  467.000    2.995    0.256    0.490   92.002
  467.250    2.996    0.257    0.486   97.424
  467.500    3.054    0.243    0.483  102.244
  467.750    3.751    0.238    0.492  102.847
  468.000    4.195    0.234    0.507   95.619
  468.250    5.347    0.228    0.507   82.367
  468.500    6.943    0.198    0.324   72.729
  468.750    8.214    0.080    0.280   64.898
  469.000    8.689    0.061    0.300   69.116
  469.250    8.693    0.145    0.325   72.129
  469.500    7.637    0.205    0.354   72.732
  469.750    7.497    0.233    0.372   73.335
  470.000    9.209    0.245    0.371   73.938
  470.250   10.111    0.262    0.360   64.903
  470.500   11.102    0.285    0.349   60.084
  470.750   12.193    0.277    0.348   63.700
  471.000   12.425    0.244    0.355   66.110
  471.250   12.203    0.252    0.365   66.713
  471.500   12.212    0.256    0.368   65.509
  471.750   12.215    0.261    0.372   64.907
  472.000   12.450    0.263    0.378   64.908
  472.250   13.173    0.260    0.392   64.306
  472.500   13.678    0.252    0.402   63.102
  472.750   14.472    0.246    0.380   61.898
  473.000   15.599    0.238    0.375   61.296
  473.250   15.897    0.221    0.372   57.080
  473.500   16.204    0.146    0.366   52.262
  473.750   15.620    0.012    0.246   51.660
  474.000   14.778   -0.001    0.217   61.299
  474.250   12.981    0.088    0.252   69.131
  474.500   12.054    0.157    0.319   72.144
  474.750   12.753    0.210    0.364   75.156
  475.000   14.534    0.228    0.370   70.940
  475.250   15.960    0.246    0.388   65.519
  475.500   17.526    0.273    0.406   61.303
  475.750   17.864    0.290    0.414   61.304
  476.000   16.286    0.309    0.395   62.510
  476.250   13.781    0.311    0.393   65.522
  476.500   12.795    0.302    0.416   70.343
  476.750   11.238    0.295    0.423   72.753
  477.000   10.244    0.291    0.428   79.982
  477.250    9.338    0.291    0.410   85.405
  477.500    8.512    0.291    0.403   88.417
  477.750    8.054    0.278    0.389   88.418
  478.000    7.763    0.267    0.385   87.214
  478.250    7.913    0.256    0.376   85.408
  478.500    8.374    0.251    0.369   85.409
  478.750    8.695    0.241    0.353   86.011
  479.000    8.861    0.232    0.341   86.615
  479.250    9.914    0.231    0.345   88.422
  479.500   10.684    0.239    0.366   84.809
  479.750   12.409    0.246    0.375   79.990
  480.000   13.624    0.250    0.372   77.581
  480.250   15.822    0.262    0.377   74.570
  480.500   17.051    0.266    0.363   74.571
  480.750   19.799    0.254    0.354   68.547
  481.000   21.341    0.243    0.370   58.307
  481.250   20.192    0.280    0.387   52.283
  481.500   18.067    0.306    0.374   41.441
  481.750   15.868    0.321    0.353   42.646
  482.000   14.734    0.298    0.340   54.093
  482.250   18.094    0.289    0.341   60.118
  482.500   21.809    0.273    0.347   66.142
  482.750   24.394    0.262    0.353   70.360
  483.000   28.860    0.273    0.359   59.517
  483.250   33.511    0.292    0.369   44.458
  483.500   37.487    0.306    0.366   36.025
  483.750   45.182    0.312    0.357   31.809
  484.000   53.455    0.319    0.363   30.605
  484.250   56.549    0.329    0.366   32.413
  484.500   59.830    0.332    0.361   34.823
  484.750   57.674    0.337    0.354   37.836
  485.000   54.561    0.329    0.353   40.246
  485.250   51.630    0.320    0.352   42.656
  485.500   52.620    0.306    0.349   46.272
  485.750   62.260    0.300    0.351   40.851
  486.000   67.091    0.306    0.384   30.610
  486.250   79.378    0.314    0.375   30.009
  486.500   90.480    0.314    0.343   30.612
  486.750   99.335    0.314    0.338   30.613
  487.000  115.353    0.317    0.336   30.613
  487.250  141.645    0.318    0.342   30.012
  487.500  161.431    0.325    0.358   26.398
  487.750  183.984    0.327    0.366   23.387
  488.000  198.305    0.329    0.348   20.978
  488.250  217.798    0.326    0.332   18.569
  488.500  226.144    0.326    0.331   17.967
  488.750  239.280    0.329    0.337   18.570
