~VERSION INFORMATION
 VERS.                 2.0:   CWLS LOG ASCII STANDARD -VERSION 2.0
 WRAP.                  NO:   ONE LINE PER DEPTH STEP
~WELL INFORMATION BLOCK
#MNEM.UNIT           DATA                    DESCRIPTION OF MNEMONIC
#---------    -------------------            -------------------------------
# Generated from Intellog Unique Number	CS_73_76/WELL/957
WELL.         DOME PETROLEUM LIMITED         : Well_name    - WELL
LOC .         00/03-14-075-16W4/0            : Location     - LOCATION
UWI .         00/03-14-075-16W4/0            : Uwi          - UNIQUE WELL ID
ENTR.         SP                             : Entered      - ENTERED BY
SRVC.         SCHLUMBERGER                   : Scn          - SERVICE COMPANY
STRT.M        350                            : top_depth    - START DEPTH
STOP.M        555                            : bot_depth    - STOP DEPTH
STEP.M        0.25                           : increment    - STEP LENGTH
 NULL. -999.2500:NULL Value
~CURVE INFORMATION BLOCK
#MNEM UNIT       ERCB CURVE CODE    CURVE DESCRIPTION
#-----------   ------------------   ----------------------------------
DEPT.M        00 001 00 00         : DEPTH        - DEPTH
GR  .API      00 310 00 00         : GR           - GAMMA RAY
NPHI.V/V      00 330 00 00         : PHIN         - NEUTRON POROSITY (LIMESTONE)
DPHI.V/V      00 890 00 00         : PHID         - DENSITY POROSITY (LIMESTONE)
ILD .OHMM     00 120 00 00         : RESD         - DEEP RESISTIVITY (DIL)
~PARAMETER INFORMATION
#MNEM.UNIT           DATA             DESCRIPTION OF MNEMONIC
#---------         -----------     ------------------------------
GL  .M        715.4                : gl           - GROUND LEVEL ELEVATION
EREF.M        719.4                : kb           - ELEVATION OF DEPTH REFERENCE
DATM.M        715.4                : datum        - DATUM ELEVATION
TDD .M        555                  : tdd          - TOTAL DEPTH DRILLER
RUN .         ONE                  : Run          - RUN NUMBER
ENG .         BILL                 : Engineer     - RECORDING ENGINEER
WIT .         JIM                  : Witness      - WITNESSED BY
MUD .         GEL                  : Mud_type     - MUD TYPE
MATR.         LIMESTONE            : Logunit      - NEUTRON MATRIX
TMAX.C        24                   : BHT          - MAXIMUM RECORDED TEMPERATURE
BHTD.M        555                  : BHTDEP       - MAXIMUM RECORDED TEMPERATURE
MATR.         1                    : LOGUNIT      - NEUTRON MATRIX
RMT .C        25                   : MDTP         - TEMPERATURE OF MUD
NEUT.         1                    : NEUTRON      - NEUTRON TYPE
RESI.         0                    : RESIST       - RESISTIVITY TYPE
RMC .OHMM     0.25                 : RMC          - RESISTIVITY OF MUD CAKE
RMF .OHMM     0.25                 : RMF          - RESISTIVITY OF MUD FILTRATE
SUFT.C        15                   : SUFT         - SURFACE TEMPERATURE
~A  DEPTH       GR     PHIN     PHID     RESD
# ...
  480.500   93.080    0.440    0.262    4.082
  480.750   94.296    0.443    0.275    4.158
  481.000   93.690    0.449    0.276    4.235
  481.250   94.907    0.457    0.260    4.314
  481.500   95.516    0.468    0.248    4.314
  481.750   94.910    0.472    0.233    4.394
  482.000   94.911    0.463    0.244    4.394
  482.250   96.127    0.469    0.242    4.394
  482.500   97.950    0.461    0.242    4.394
  482.750   97.952    0.468    0.251    4.394
  483.000   97.953    0.473    0.237    4.475
  483.250   98.562    0.480    0.227    4.475
  483.500   99.171    0.489    0.252    4.475
  483.750   98.565    0.467    0.250    4.643
  484.000   97.352    0.461    0.236    4.643
  484.250   97.960    0.437    0.224    4.729
  484.500   97.355    0.425    0.216    4.817
  484.750   96.142    0.435    0.210    4.997
  485.000   96.751    0.448    0.234    5.090
  485.250   97.966    0.457    0.241    5.090
  485.500   99.790    0.444    0.237    5.090
  485.750  100.398    0.446    0.256    4.906
  486.000   99.793    0.460    0.245    4.816
  486.250   97.972    0.474    0.233    4.728
  486.500   93.724    0.466    0.233    4.728
  486.750   91.903    0.461    0.216    4.642
  487.000   88.261    0.458    0.187    4.728
  487.250   85.832    0.454    0.248    4.905
  487.500   82.190    0.414    0.263    5.089
  487.750   79.155    0.385    0.208    5.478
  488.000   83.408    0.358    0.138    5.789
  488.250   88.875    0.371    0.236    6.118
  488.500   91.913    0.403    0.246    6.006
  488.750   95.558    0.446    0.235    5.683
  489.000   96.167    0.449    0.245    5.279
  489.250   93.739    0.453    0.235    5.088
  489.500   88.882    0.461    0.214    5.183
  489.750   84.633    0.369    0.202    5.279
  490.000   82.205    0.383    0.257    5.377
  490.250   79.170    0.399    0.298    5.682
  490.500   76.135    0.412    0.327    5.788
  490.750   75.529    0.420    0.323    5.788
  491.000   76.746    0.428    0.330    5.477
  491.250   78.569    0.439    0.329    5.376
  491.500   79.785    0.462    0.322    5.278
  491.750   78.572    0.475    0.323    5.087
  492.000   75.537    0.451    0.335    4.994
  492.250   74.932    0.432    0.323    4.903
  492.500   76.147    0.450    0.297    4.903
  492.750   76.756    0.457    0.304    4.813
  493.000   78.580    0.466    0.312    4.813
  493.250   79.795    0.452    0.299    4.813
  493.500   82.226    0.437    0.287    4.813
  493.750   84.049    0.410    0.284    4.813
  494.000   85.872    0.424    0.263    4.813
  494.250   77.979    0.433    0.228    4.902
  494.500   72.515    0.364    0.178    5.181
  494.750   70.087    0.300    0.127    5.277
  495.000   76.162    0.339    0.201    6.003
  495.250   82.236    0.400    0.232    6.344
  495.500   86.489    0.440    0.239    6.344
  495.750   86.490    0.438    0.264    5.893
  496.000   86.492    0.428    0.289    5.474
  496.250   86.494    0.430    0.282    5.085
  496.500   86.495    0.453    0.288    4.901
  496.750   85.889    0.473    0.281    4.470
  497.000   84.676    0.488    0.294    4.388
  497.250   83.463    0.487    0.304    4.388
  497.500   83.464    0.476    0.310    4.388
  497.750   85.895    0.457    0.299    4.552
  498.000   87.718    0.445    0.311    4.637
  498.250   87.113    0.443    0.301    4.811
  498.500   86.507    0.449    0.304    4.900
  498.750   86.508    0.467    0.298    4.991
  499.000   86.510    0.474    0.286    5.084
  499.250   83.474    0.484    0.286    5.084
  499.500   80.439    0.479    0.275    5.084
  499.750   78.012    0.433    0.273    5.178
  500.000   76.799    0.418    0.269    5.372
  500.250   74.978    0.398    0.246    6.225
  500.500   72.551    0.368    0.197    6.952
  500.750   70.730    0.331    0.106    7.623
  501.000   71.339    0.328    0.153    7.909
  501.250   76.199    0.365    0.206    8.056
  501.500   79.844    0.416    0.249    7.764
  501.750   84.097    0.446    0.295    7.081
  502.000   85.920    0.464    0.305    6.224
  502.250   88.958    0.456    0.295    5.676
  502.500   87.138    0.455    0.277    5.471
  502.750   85.317    0.455    0.273    5.273
  503.000   84.104    0.450    0.275    4.989
  503.250   85.928    0.457    0.278    4.989
  503.500   86.536    0.462    0.281    4.989
  503.750   87.752    0.464    0.277    4.989
  504.000   88.361    0.457    0.270    5.082
  504.250   82.897    0.447    0.266    5.176
  504.500   82.898    0.426    0.252    5.272
  504.750   82.900    0.421    0.259    5.272
  505.000   83.508    0.417    0.270    5.272
  505.250   86.547    0.417    0.275    5.272
  505.500   88.370    0.419    0.282    5.175
  505.750   89.586    0.419    0.285    5.081
  506.000   88.980    0.426    0.289    4.988
  506.250   90.196    0.429    0.272    4.807
  506.500   92.627    0.438    0.275    4.720
  506.750   95.665    0.462    0.282    4.549
  507.000   98.095    0.476    0.293    4.226
  507.250   99.919    0.451    0.257    3.925
  507.500   97.491    0.457    0.248    3.783
  507.750   92.634    0.462    0.260    3.646
  508.000   88.992    0.450    0.264    3.783
  508.250   85.350    0.440    0.269    3.998
  508.500   79.279    0.421    0.273    4.548
  508.750   74.422    0.424    0.214    5.174
  509.000   71.386    0.429    0.168    5.886
  509.250   66.529    0.389    0.108    6.454
  509.500   63.494    0.353    0.116    7.478
  509.750   61.674    0.328    0.148    8.199
  510.000   78.072    0.377    0.190    8.665
  510.250   90.220    0.427    0.232    8.199
  510.500   95.687    0.433    0.243    7.616
  510.750   94.474    0.430    0.231    6.819
  511.000   90.832    0.440    0.208    6.219
  511.250   88.404    0.453    0.212    5.885
  511.500   87.798    0.468    0.214    5.777
  511.750   89.621    0.456    0.230    5.672
  512.000   91.445    0.442    0.226    5.671
  512.250   92.661    0.445    0.214    5.568
  512.500   92.055    0.447    0.213    5.568
  512.750   90.843    0.447    0.217    5.568
  513.000   90.843    0.446    0.219    5.466
  513.250   92.667    0.446    0.225    5.466
  513.500   94.490    0.442    0.217    5.567
  513.750   95.706    0.439    0.219    5.671
  514.000   93.279    0.438    0.214    5.670
  514.250   89.636    0.434    0.205    5.992
  514.500   84.172    0.411    0.197    6.104
  514.750   85.388    0.395    0.186    6.817
  515.000   89.033    0.404    0.212    7.072
  515.250   87.821    0.411    0.227    7.338
  515.500   87.214    0.415    0.207    7.474
  515.750   83.572    0.418    0.203    7.613
  516.000   81.144    0.399    0.196    7.898
  516.250   82.361    0.384    0.180    8.195
  516.500   83.576    0.370    0.166    8.821
  516.750   81.149    0.365    0.144    9.152
  517.000   87.831    0.375    0.167    9.495
  517.250   93.905    0.418    0.184    8.984
  517.500  101.801    0.428    0.180    8.194
  517.750  103.624    0.440    0.178    7.071
  518.000  106.662    0.448    0.190    6.449
  518.250  104.842    0.459    0.219    6.102
  518.500  104.843    0.454    0.215    5.990
  518.750  108.489    0.425    0.197    5.990
  519.000  110.312    0.408    0.202    6.101
  519.250  111.528    0.390    0.212    6.215
  519.500  112.744    0.392    0.212    6.214
  519.750  108.494    0.394    0.202    6.330
  520.000  101.209    0.392    0.203    6.330
  520.250   98.781    0.401    0.194    6.214
  520.500   97.568    0.418    0.200    5.880
  520.750   94.533    0.430    0.213    5.667
  521.000   95.749    0.429    0.201    5.264
  521.250   98.179    0.436    0.180    5.168
  521.500   93.930    0.435    0.157    5.264
  521.750   98.790    0.421    0.162    5.264
  522.000  101.828    0.427    0.197    5.264
  522.250  104.866    0.434    0.224    4.981
  522.500  106.082    0.453    0.244    3.920
  522.750  102.439    0.495    0.262    2.566
  523.000  100.012    0.515    0.267    2.057
  523.250   99.406    0.545    0.258    1.911
  523.500   98.193    0.564    0.243    1.808
  523.750  101.231    0.567    0.232    1.808
