~VERSION INFORMATION
 VERS.                 2.0:   CWLS LOG ASCII STANDARD -VERSION 2.0
 WRAP.                  NO:   ONE LINE PER DEPTH STEP
~WELL INFORMATION BLOCK
#MNEM.UNIT           DATA                    DESCRIPTION OF MNEMONIC
#---------    -------------------            -------------------------------
# Generated from Intellog Unique Number	CW_70_72/WELL/995
NULL.         -999.25                        : NULL_VALUE
WELL.         CHEVRON MCSU 1 MITSUE 09-27    : Well_name    - WELL              
LOC .         09-27-072-05W5                 : Location     - LOCATION          
UWI .         00/09-27-072-05W5/0            : Uwi          - UNIQUE WELL ID    
ENTR.         JAYE                           : Entered      - ENTERED BY        
SRVC.         WESTERN ATLAS                  : Scn          - SERVICE COMPANY   
DATE.         3 MAR 86                       : Date         - LOG DATE          
STRT.M        390                            : top_depth    - START DEPTH       
STOP.M        625                            : bot_depth    - STOP DEPTH        
STEP.M        0.25                           : increment    - STEP LENGTH       
~CURVE INFORMATION BLOCK
#MNEM UNIT       ERCB CURVE CODE    CURVE DESCRIPTION
#-----------   ------------------   ----------------------------------
DEPT.M        00 001 00 00         : DEPTH        - DEPTH                       
DPHI.V/V      00 890 00 00         : PHID         - DENSITY POROSITY (SANDSTONE)
NPHI.V/V      00 330 00 00         : PHIN         - NEUTRON POROSITY (SANDSTONE)
GR  .API      00 310 00 00         : GR           - GAMMA RAY                   
CALI.MM       00 280 01 00         : CAL          - CALIPER                     
ILD .OHMM     00 120 00 00         : RESD         - DEEP RESISTIVITY (DIL)      
~PARAMETER INFORMATION       
#MNEM.UNIT           DATA             DESCRIPTION OF MNEMONIC
#---------         -----------     ------------------------------
GL  .M        585.42               : gl           - GROUND LEVEL ELEVATION      
EREF.M        591                  : kb           - ELEVATION OF DEPTH REFERENCE
DATM.M        585.42               : datum        - DATUM ELEVATION             
TDD .M        1700                 : tdd          - TOTAL DEPTH DRILLER         
RUN .         ONE                  : Run          - RUN NUMBER                  
ENG .         SENTSEN              : Engineer     - RECORDING ENGINEER          
WIT .         SUO                  : Witness      - WITNESSED BY                
BASE.         LEDUC                : Branch       - HOME BASE OF LOGGING UNIT   
MUD .         GEL-CHEM             : Mud_type     - MUD TYPE                    
MATR.         SANDSTONE            : Logunit      - NEUTRON MATRIX              
TMAX.C        51                   : BHT          - MAXIMUM RECORDED TEMPERATURE
BHTD.M        1701.25              : BHTDEP       - MAXIMUM RECORDED TEMPERATURE
RMT .C        25                   : MDTP         - TEMPERATURE OF MUD          
MUDD.KG/M     1370                 : MWT          - MUD DENSITY                 
NEUT.         1                    : NEUTRON      - NEUTRON TYPE                
RESI.         0                    : RESIST       - RESISTIVITY TYPE            
RM  .OHMM     0.76                 : RM           - RESISTIVITY OF MUD          
RMC .OHMM     1.19                 : RMC          - RESISTIVITY OF MUD CAKE     
RMF .OHMM     0.7                  : RMF          - RESISTIVITY OF MUD FILTRATE 
SUFT.C        32                   : SUFT         - SURFACE TEMPERATURE         
~A  DEPTH     PHID     PHIN       GR      CAL     RESD
# ...
  426.500    0.341    0.535   42.167  249.432    3.487
  426.750    0.314    0.678   44.065  244.040    3.658
  427.000    0.297    0.438   47.342  238.022    3.846
  427.250    0.293    0.466   42.164  237.016    4.073
  427.500    0.285    0.438   39.117  236.214    4.259
  427.750    0.268    0.411   38.386  235.520    4.477
  428.000    0.262    0.394   42.600  235.238    4.636
  428.250    0.270    0.388   53.137  235.064    4.693
  428.500    0.282    0.394   36.441  235.720    4.708
  428.750    0.298    0.394   39.468  236.584    4.599
  429.000    0.319    0.422   43.806  236.413    4.460
  429.250    0.326    0.436   43.139  233.625    4.300
  429.500    0.311    0.418   46.475  234.500    4.185
  429.750    0.299    0.405   45.557  236.404    4.120
  430.000    0.286    0.409   49.459  238.533    4.078
  430.250    0.285    0.394   49.918  238.559    4.059
  430.500    0.312    0.409   52.629  237.130    4.056
  430.750    0.316    0.431   51.460  236.224    4.053
  431.000    0.317    0.426   46.910  236.261    4.050
  431.250    0.324    0.405   49.120  236.293    4.093
  431.500    0.328    0.392   45.449  235.707    4.120
  431.750    0.328    0.402   45.717  235.942    4.148
  432.000    0.319    0.411   54.751  235.980    4.153
  432.250    0.306    0.418   51.267  235.487    4.111
  432.500    0.299    0.425   52.413  235.729    4.062
  432.750    0.296    0.424   53.686  237.119    4.020
  433.000    0.293    0.392   49.886  238.298    3.995
  433.250    0.290    0.373   46.212  238.123    3.992
  433.500    0.280    0.395   51.617  237.428    3.974
  433.750    0.270    0.417   51.762  236.734    3.978
  434.000    0.268    0.435   52.534  235.831    4.005
  434.250    0.291    0.448   52.928  235.229    4.010
  434.500    0.308    0.411   45.874  234.643    4.053
  434.750    0.264    0.415   43.451  234.463    4.119
  435.000    0.262    0.436   57.996  234.081    4.201
  435.250    0.291    0.451   54.074  233.797    4.294
  435.500    0.279    0.470   48.395  234.249    4.488
  435.750    0.283    0.467   41.340  236.786    4.754
  436.000    0.267    0.451   46.118  242.350    5.007
  436.250    0.290    0.440   52.836  245.930    4.855
  436.500    0.320    0.432   55.487  247.424    4.525
  436.750    0.290    0.413   51.563  249.341    4.266
  437.000    0.245    0.414   39.500  249.578    4.075
  437.250    0.241    0.397   36.203  247.210    3.921
  437.500    0.251    0.414   40.542  246.724    3.788
  437.750    0.256    0.436   50.078  248.115    3.680
  438.000    0.252    0.442   48.533  253.365    3.548
  438.250    0.254    0.430   50.117  259.239    3.382
  438.500    0.252    0.431   53.454  267.621    3.299
  438.750    0.260    0.467   55.291  280.173    3.253
  439.000    0.271    0.586   58.691  280.937    3.319
  439.250    0.277    0.694   56.897  268.971    3.450
  439.500    0.246    0.643   54.412  265.667    3.723
  439.750    0.213    0.409   47.545  259.025    4.026
  440.000    0.213    0.413   42.430  251.855    4.184
  440.250    0.238    0.445   46.082  242.916    4.189
  440.500    0.272    0.453   50.109  237.422    4.154
  440.750    0.311    0.440   48.125  234.635    4.167
  441.000    0.338    0.427   40.695  234.042    4.195
  441.250    0.333    0.397   36.770  234.598    4.264
  441.500    0.323    0.369   45.119  235.677    4.309
  441.750    0.317    0.400   40.817  235.814    4.321
  442.000    0.315    0.408   31.509  234.695    4.318
  442.250    0.316    0.395   33.848  231.915    4.290
  442.500    0.326    0.393   37.248  232.157    4.287
  442.750    0.326    0.415   42.964  234.066    4.228
  443.000    0.325    0.450   40.667  237.439    4.092
  443.250    0.337    0.418   36.869  240.810    4.005
  443.500    0.356    0.429   36.636  241.057    3.840
  443.750    0.351    0.443   37.659  240.150    3.787
  444.000    0.341    0.440   37.365  239.448    3.819
  444.250    0.351    0.413   38.263  238.654    3.897
  444.500    0.342    0.406   40.914  238.470    4.073
  444.750    0.330    0.407   43.564  238.401    4.179
  445.000    0.334    0.418   40.514  238.434    4.254
  445.250    0.339    0.429   41.599  238.052    4.332
  445.500    0.340    0.460   45.060  237.566    4.386
  445.750    0.334    0.418   38.382  237.601    4.424
  446.000    0.314    0.436   30.012  237.835    4.413
  446.250    0.309    0.440   39.488  238.703    4.343
  446.500    0.307    0.415   41.824  239.885    4.243
  446.750    0.301    0.401   42.532  240.336    4.272
  447.000    0.293    0.424   46.557  242.456    4.458
  447.250    0.251    0.419   42.696  244.475    4.802
  447.500    0.205    0.365   37.081  246.285    5.472
  447.750    0.107    0.258   35.227  247.987    6.018
  448.000    0.072    0.200   35.244  248.855    6.544
  448.250    0.099    0.238   35.390  247.107    7.024
  448.500    0.143    0.257   35.411  243.804    6.888
  448.750    0.205    0.291   38.495  240.814    5.933
  449.000    0.284    0.467   43.651  238.652    5.376
  449.250    0.340    0.457   44.171  237.852    4.993
  449.500    0.336    0.427   39.309  237.885    4.550
  449.750    0.309    0.403   38.513  238.760    4.178
  450.000    0.284    0.403   40.035  240.354    4.143
  450.250    0.289    0.404   36.426  242.157    4.109
  450.500    0.310    0.402   32.751  243.657    4.075
  450.750    0.317    0.417   36.026  242.748    4.126
  451.000    0.327    0.424   41.495  240.801    4.209
  451.250    0.316    0.413   39.072  239.269    4.222
  451.500    0.331    0.396   38.029  239.304    4.147
  451.750    0.340    0.389   36.983  239.439    4.075
  452.000    0.331    0.402   33.247  240.104    4.019
  452.250    0.318    0.422   39.152  240.548    3.978
  452.500    0.310    0.402   43.866  241.000    3.975
  452.750    0.306    0.393   47.267  241.762    4.047
  453.000    0.318    0.406   42.717  242.107    4.083
  453.250    0.315    0.436   48.497  243.709    4.079
  453.500    0.315    0.417   37.247  244.785    4.046
  453.750    0.314    0.388   37.456  245.753    3.975
  454.000    0.296    0.408   40.795  246.001    3.868
  454.250    0.320    0.407   39.186  245.721    3.808
  454.500    0.321    0.417   44.902  245.125    3.770
  454.750    0.306    0.445   50.245  244.424    3.781
  455.000    0.303    0.420   41.499  243.519    3.842
  455.250    0.302    0.408   36.011  242.511    3.942
  455.500    0.300    0.434   39.849  242.133    3.999
  455.750    0.300    0.453   40.119  241.538    4.033
  456.000    0.306    0.411   41.641  241.254    4.038
  456.250    0.305    0.414   40.598  240.872    4.019
  456.500    0.292    0.423   40.368  240.071    3.956
  456.750    0.290    0.440   39.949  240.413    3.858
  457.000    0.298    0.467   39.154  241.597    3.819
  457.250    0.292    0.467   41.991  243.402    3.809
  457.500    0.289    0.455   47.458  245.839    3.828
  457.750    0.304    0.442   42.785  247.648    3.832
  458.000    0.314    0.428   39.296  249.347    3.814
  458.250    0.312    0.404   35.435  250.736    3.755
  458.500    0.306    0.397   38.272  251.082    3.661
  458.750    0.298    0.404   40.672  250.910    3.543
  459.000    0.289    0.452   42.381  250.105    3.442
  459.250    0.276    0.465   51.792  247.217    3.427
  459.500    0.287    0.428   50.435  246.000    3.483
  459.750    0.301    0.416   41.064  246.655    3.606
  460.000    0.285    0.399   40.210  248.679    3.679
  460.250    0.499    0.972   43.107  252.461    3.774
  460.500    0.571    0.993   39.809  263.241    3.814
  460.750    0.431    0.562   42.083  276.735    3.826
  461.000    0.269    0.444   52.496  265.603    3.766
  461.250    0.219    0.413   56.210  255.517    3.617
  461.500    0.273    0.441   59.422  256.176    3.540
  461.750    0.331    0.486   61.008  260.486    3.491
  462.000    0.307    0.499   62.217  234.020    3.489
  462.250    0.283    0.458   59.232  233.841    3.532
  462.500    0.280    0.442   58.128  235.025    3.610
  462.750    0.278    0.434   54.200  236.101    3.648
