~VERSION INFORMATION
 VERS.                 2.0:   CWLS LOG ASCII STANDARD -VERSION 2.0
 WRAP.                  NO:   ONE LINE PER DEPTH STEP
~WELL INFORMATION BLOCK
#MNEM.UNIT           DATA                    DESCRIPTION OF MNEMONIC
#---------    -------------------            -------------------------------
# Generated from Intellog Unique Number	CS_77_79/WELL/868
WELL.         CAVALIER ET AL PORTAGE         : Well_name    - WELL
LOC .         00/06-10-078-15W4/0            : Location     - LOCATION
UWI .         00/06-10-078-15W4/0            : Uwi          - UNIQUE WELL ID
ENTR.         JHS                            : Entered      - ENTERED BY
SRVC.         SCHLUMBERGER                   : Scn          - SERVICE COMPANY
STRT.M        225                            : top_depth    - START DEPTH
STOP.M        453                            : bot_depth    - STOP DEPTH
STEP.M        0.25                           : increment    - STEP LENGTH
 NULL. -999.2500:NULL Value
~CURVE INFORMATION BLOCK
#MNEM UNIT       ERCB CURVE CODE    CURVE DESCRIPTION
#-----------   ------------------   ----------------------------------
DEPT.M        00 001 00 00         : DEPTH        - DEPTH
DPHI.V/V      00 890 00 00         : PHID         - DENSITY POROSITY (LIMESTONE)
NPHI.V/V      00 330 00 00         : PHIN         - NEUTRON POROSITY (LIMESTONE)
GR  .API      00 310 00 00         : GR           - GAMMA RAY
ILD .OHMM     00 120 00 00         : RESD         - DEEP RESISTIVITY (DIL)
~PARAMETER INFORMATION
#MNEM.UNIT           DATA             DESCRIPTION OF MNEMONIC
#---------         -----------     ------------------------------
GL  .M        631.2                : gl           - GROUND LEVEL ELEVATION
EREF.M        635.2                : kb           - ELEVATION OF DEPTH REFERENCE
DATM.M        635.2                : datum        - DATUM ELEVATION
TDD .M        453.7                : tdd          - TOTAL DEPTH DRILLER
RUN .         ONE                  : Run          - RUN NUMBER
ENG .         BILL                 : Engineer     - RECORDING ENGINEER
WIT .         JIM                  : Witness      - WITNESSED BY
MUD .         GEL                  : Mud_type     - MUD TYPE
MATR.         LIMESTONE            : Logunit      - NEUTRON MATRIX
TMAX.C        21                   : BHT          - MAXIMUM RECORDED TEMPERATURE
BHTD.M        453.7                : BHTDEP       - MAXIMUM RECORDED TEMPERATURE
MATR.         1                    : LOGUNIT      - NEUTRON MATRIX
RMT .C        25                   : MDTP         - TEMPERATURE OF MUD
NEUT.         1                    : NEUTRON      - NEUTRON TYPE
RESI.         0                    : RESIST       - RESISTIVITY TYPE
RMC .OHMM     0.25                 : RMC          - RESISTIVITY OF MUD CAKE
RMF .OHMM     0.25                 : RMF          - RESISTIVITY OF MUD FILTRATE
SUFT.C        15                   : SUFT         - SURFACE TEMPERATURE
~A  DEPTH     PHID     PHIN       GR     RESD
# ...
  268.500    0.162    0.434  109.219    7.706
  268.750    0.169    0.428  117.796    7.565
  269.000    0.204    0.429  120.250    7.566
  269.250    0.205    0.424  119.030    8.962
  269.500    0.228    0.414  112.301   10.033
  269.750    0.235    0.392  110.469   11.024
  270.000    0.225    0.378  111.698   11.236
  270.250    0.214    0.392  114.153   11.240
  270.500    0.203    0.406  110.483   11.034
  270.750    0.198    0.413  109.876   10.631
  271.000    0.209    0.415  108.045   10.243
  271.250    0.233    0.413  106.212   10.056
  271.500    0.250    0.424  106.217    9.870
  271.750    0.263    0.430  107.446   10.060
  272.000    0.265    0.424  111.737   10.254
  272.250    0.259    0.415  117.865   10.453
  272.500    0.252    0.406  120.932   10.856
  272.750    0.255    0.404  119.099   11.273
  273.000    0.272    0.395  106.859   12.157
  273.250    0.289    0.390   95.843   13.108
  273.500    0.304    0.391   87.276   13.873
  273.750    0.315    0.402   78.097   14.681
  274.000    0.316    0.403   68.918   15.535
  274.250    0.319    0.396   65.862   15.835
  274.500    0.319    0.391   65.254   15.839
  274.750    0.297    0.393   67.708   15.844
  275.000    0.282    0.403   65.264   15.848
  275.250    0.280    0.418   66.493   15.852
  275.500    0.238    0.398   62.825   15.857
  275.750    0.211    0.361   65.279   15.862
  276.000    0.195    0.327   63.448   15.867
  276.250    0.200    0.298   61.614   15.287
  276.500    0.187    0.335   64.681   14.454
  276.750    0.181    0.364   67.134   13.925
  277.000    0.222    0.388   70.814   12.682
  277.250    0.258    0.430   73.269   11.768
  277.500    0.272    0.424   73.886   11.127
  277.750    0.288    0.414   75.114   10.325
  278.000    0.295    0.402   78.180    9.228
  278.250    0.294    0.397   81.246    8.564
  278.500    0.282    0.405   84.312    8.250
  278.750    0.262    0.418   88.603    7.656
  279.000    0.251    0.421   90.445    7.239
  279.250    0.235    0.420   86.164    6.717
  279.500    0.239    0.429   95.966    6.351
  279.750    0.229    0.440  103.317    6.005
  280.000    0.222    0.451  112.506    5.786
  280.250    0.228    0.441  113.735    5.897
  280.500    0.223    0.427  105.781    6.358
  280.750    0.220    0.431  100.276    7.253
  281.000    0.220    0.446   97.219    7.970
  281.250    0.235    0.460  100.286    8.123
  281.500    0.246    0.464  107.637    7.826
  281.750    0.251    0.453  114.377    7.540
  282.000    0.250    0.450  116.830    6.867
  282.250    0.241    0.457  111.939    6.616
  282.500    0.239    0.449  108.269    6.495
  282.750    0.238    0.426  104.600    6.745
  283.000    0.237    0.404  100.320    7.411
  283.250    0.249    0.386   97.263    8.614
  283.500    0.261    0.382   93.594    9.289
  283.750    0.271    0.387   90.538    9.830
  284.000    0.272    0.386   89.930    9.650
  284.250    0.277    0.392   91.772    9.473
  284.500    0.244    0.404   91.778    8.627
  284.750    0.235    0.414   91.782    7.427
  285.000    0.226    0.425   96.073    7.022
  285.250    0.219    0.426  100.363    6.765
  285.500    0.215    0.426  103.429    6.767
  285.750    0.226    0.442  107.107    6.769
  286.000    0.241    0.459  102.828    7.031
  286.250    0.257    0.467  103.443    7.302
  286.500    0.276    0.442  103.449    7.874
  286.750    0.290    0.421  100.392    8.490
  287.000    0.301    0.411   96.112    9.505
  287.250    0.310    0.393   89.993   10.842
  287.500    0.315    0.377   76.528   12.842
  287.750    0.315    0.360   65.513   15.793
  288.000    0.320    0.351   58.170   18.356
  288.250    0.332    0.354   53.278   21.338
  288.500    0.344    0.389   58.180   21.748
  288.750    0.360    0.409   63.695   20.954
  289.000    0.377    0.438   68.599   19.444
  289.250    0.376    0.450   68.604   18.384
  289.500    0.356    0.455   67.383   17.061
  289.750    0.339    0.458   71.675   16.747
  290.000    0.330    0.453   68.618   16.752
  290.250    0.318    0.443   66.174   17.075
  290.500    0.322    0.439   63.731   18.070
  290.750    0.345    0.417   61.898   19.485
  291.000    0.346    0.409   61.903   21.011
  291.250    0.349    0.400   63.744   21.822
  291.500    0.351    0.393   65.587   22.662
  291.750    0.341    0.398   66.203   23.100
  292.000    0.333    0.409   64.986   23.108
  292.250    0.346    0.415   63.765   23.111
  292.500    0.349    0.416   63.158   22.268
  292.750    0.350    0.427   63.163   21.861
  293.000    0.347    0.434   63.168   20.671
  293.250    0.356    0.439   61.947   20.290
  293.500    0.350    0.431   61.340   19.548
  293.750    0.347    0.418   61.956   18.141
  294.000    0.349    0.418   63.188   17.153
  294.250    0.339    0.420   63.192   16.218
  294.500    0.335    0.424   63.198   15.920
  294.750    0.339    0.426   61.978   15.053
  295.000    0.347    0.417   60.145   13.969
  295.250    0.339    0.416   58.926   13.713
  295.500    0.352    0.420   58.319   13.213
  295.750    0.352    0.420   58.323   12.971
  296.000    0.346    0.418   59.554   12.497
  296.250    0.343    0.420   60.169   12.267
  296.500    0.354    0.426   61.398   12.043
  296.750    0.345    0.417   63.854   12.047
  297.000    0.342    0.411   65.082   11.825
  297.250    0.358    0.418   66.310   12.054
  297.500    0.347    0.429   65.092   12.058
  297.750    0.341    0.437   60.811   12.062
  298.000    0.344    0.430   57.754   12.064
  298.250    0.355    0.429   58.371   12.068
  298.500    0.346    0.433   60.824   12.072
  298.750    0.350    0.440   64.503   12.075
  299.000    0.353    0.450   66.957   12.079
  299.250    0.346    0.459   63.289   12.082
  299.500    0.338    0.451   59.620   12.086
  299.750    0.328    0.444   58.401   12.320
  300.000    0.333    0.434   58.406   12.094
  300.250    0.324    0.429   60.859   12.098
  300.500    0.330    0.425   62.088   12.100
  300.750    0.336    0.423   62.707   11.878
  301.000    0.345    0.428   64.548   11.882
  301.250    0.336    0.452   63.328   11.665
  301.500    0.340    0.456   59.047   11.668
  301.750    0.337    0.449   57.828   11.894
  302.000    0.331    0.439   60.895   11.897
  302.250    0.344    0.434   61.510   12.127
  302.500    0.339    0.428   59.678   11.904
  302.750    0.344    0.429   57.846   11.909
  303.000    0.346    0.430   60.303   11.911
  303.250    0.358    0.428   60.919   11.693
  303.500    0.355    0.424   60.922   11.696
  303.750    0.362    0.423   60.927   11.701
  304.000    0.384    0.423   60.932   11.703
  304.250    0.387    0.427   59.101   11.708
  304.500    0.390    0.431   57.268   11.711
  304.750    0.380    0.446   57.273   11.714
  305.000    0.381    0.452   57.890   11.939
  305.250    0.373    0.455   59.733   11.943
  305.500    0.367    0.460   60.963   11.946
  305.750    0.368    0.451   60.967   12.177
  306.000    0.375    0.445   59.135   12.411
  306.250    0.368    0.444   59.140   12.184
  306.500    0.379    0.452   59.756   12.187
  306.750    0.368    0.460   57.925   11.964
  307.000    0.357    0.467   56.704   11.745
  307.250    0.348    0.477   57.323   11.750
  307.500    0.341    0.457   58.551   11.752
  307.750    0.334    0.447   60.393   11.757
  308.000    0.324    0.437   61.010   11.983
  308.250    0.336    0.433   63.465   12.213
  308.500    0.346    0.431   63.469   12.217
  308.750    0.352    0.431   62.861   12.220
  309.000    0.362    0.433   61.642   12.457
  309.250    0.367    0.430   57.361   12.460
  309.500    0.371    0.434   59.816   12.463
  309.750    0.364    0.428   60.432   12.467
  310.000    0.360    0.422   61.049   12.707
  310.250    0.363    0.414   64.116   12.710
  310.500    0.359    0.424   61.059   12.955
  310.750    0.351    0.434   61.065   12.960
  311.000    0.349    0.456   62.294   13.209
  311.250    0.357    0.479   61.685   13.214
  311.500    0.368    0.463   60.466   13.217
  311.750    0.373    0.454   59.248   13.221
