~VERSION INFORMATION
 VERS.                 2.0:   CWLS LOG ASCII STANDARD -VERSION 2.0
 WRAP.                  NO:   ONE LINE PER DEPTH STEP
~WELL INFORMATION BLOCK
#MNEM.UNIT           DATA                    DESCRIPTION OF MNEMONIC
#---------    -------------------            -------------------------------
# Generated from Intellog Unique Number	CW_79_81/WELL/642
WELL.         07-36-079-21W4                 : Well_name    - WELL
LOC .         00/07-36-079-21W4/0            : Location     - LOCATION
UWI .         00/07-36-079-21W4/0            : Uwi          - UNIQUE WELL ID
ENTR.         MAX                            : Entered      - ENTERED BY
SRVC.         SCHLUMBERGER                   : Scn          - SERVICE COMPANY
STRT.M        215                            : top_depth    - START DEPTH
STOP.M        417                            : bot_depth    - STOP DEPTH
STEP.M        0.25                           : increment    - STEP LENGTH
 NULL. -999.2500:NULL Value
~CURVE INFORMATION BLOCK
#MNEM UNIT       ERCB CURVE CODE    CURVE DESCRIPTION
#-----------   ------------------   ----------------------------------
DEPT.M        00 001 00 00         : DEPTH        - DEPTH
ILD .OHMM     00 120 00 00         : RESD         - DEEP RESISTIVITY (DIL)
NPHI.V/V      00 330 00 00         : PHIN         - NEUTRON POROSITY (SANDSTONE)
DPHI.V/V      00 890 00 00         : PHID         - DENSITY POROSITY (SANDSTONE)
CALI.MM       00 280 01 00         : CAL          - CALIPER
GR  .API      00 310 00 00         : GR           - GAMMA RAY
~PARAMETER INFORMATION
#MNEM.UNIT           DATA             DESCRIPTION OF MNEMONIC
#---------         -----------     ------------------------------
GL  .M        572.05               : gl           - GROUND LEVEL ELEVATION
EREF.M        575.35               : kb           - ELEVATION OF DEPTH REFERENCE
DATM.M        572.05               : datum        - DATUM ELEVATION
TDD .M        420                  : tdd          - TOTAL DEPTH DRILLER
RUN .         ONE                  : Run          - RUN NUMBER
ENG .         BILL                 : Engineer     - RECORDING ENGINEER
WIT .         JIM                  : Witness      - WITNESSED BY
MUD .         GEL                  : Mud_type     - MUD TYPE
MATR.         SANDSTONE            : Logunit      - NEUTRON MATRIX
TMAX.C        29.4                 : BHT          - MAXIMUM RECORDED TEMPERATURE
BHTD.M        420                  : BHTDEP       - MAXIMUM RECORDED TEMPERATURE
RMT .C        23                   : MDTP         - TEMPERATURE OF MUD
MUDD.KG/M     1130                 : MWT          - MUD DENSITY
NEUT.         1                    : NEUTRON      - NEUTRON TYPE
RESI.         0                    : RESIST       - RESISTIVITY TYPE
RM  .OHMM     6.08                 : RM           - RESISTIVITY OF MUD
RMC .OHMM     0.25                 : RMC          - RESISTIVITY OF MUD CAKE
RMF .OHMM     5.02                 : RMF          - RESISTIVITY OF MUD FILTRATE
SUFT.C        -10                  : SUFT         - SURFACE TEMPERATURE
~A  DEPTH     RESD     PHIN     PHID      CAL       GR
# ...
  251.500    6.795    0.490    0.224  181.390  111.987
  251.750    6.861    0.484    0.206  177.431  113.504
  252.000    7.519    0.474    0.211  167.483  112.331
  252.250    8.314    0.471    0.207  174.017  105.462
  252.500    9.622    0.476    0.217  172.045   95.601
  252.750   10.834    0.481    0.242  170.083   89.932
  253.000   12.090    0.481    0.248  165.625   89.356
  253.250   11.457    0.484    0.269  155.682   92.368
  253.500    9.136    0.478    0.268  153.715   92.091
  253.750    7.486    0.493    0.285  155.748   90.015
  254.000    6.657    0.505    0.295  156.293   90.035
  254.250    5.455    0.512    0.281  156.813   91.854
  254.500    5.076    0.522    0.244  159.346   93.970
  254.750    4.682    0.546    0.233  163.371   93.388
  255.000    4.642    0.553    0.232  161.412   91.015
  255.250    4.688    0.541    0.238  159.949   90.140
  255.500    4.954    0.529    0.225  159.479   87.764
  255.750    5.784    0.542    0.230  160.011   85.686
  256.000    7.330    0.544    0.234  160.049   83.011
  256.250    8.638    0.507    0.238  160.078   80.039
  256.500   10.179    0.486    0.243  160.115   78.260
  256.750   10.953    0.482    0.275  159.654   76.184
  257.000   10.763    0.472    0.299  159.683   71.414
  257.250   10.577    0.471    0.289  159.720   68.744
  257.500   10.682    0.472    0.283  159.259   66.970
  257.750   10.592    0.475    0.321  159.292   65.488
  258.000   10.314    0.482    0.307  159.325   65.810
  258.250    9.172    0.472    0.307  159.363   67.624
  258.500    8.231    0.457    0.307  159.392   66.449
  258.750    8.015    0.459    0.303  158.926   65.575
  259.000    8.020    0.452    0.290  158.461   65.293
  259.250    9.981    0.466    0.242  159.500   64.717
  259.500   12.419    0.490    0.165  160.029   63.235
  259.750   13.608    0.517    0.142  160.557   59.662
  260.000   16.037    0.512    0.210  160.598   55.790
  260.250   17.415    0.442    0.237  159.139   52.815
  260.500   18.072    0.412    0.259  159.172   49.547
  260.750   18.072    0.436    0.264  159.201   51.361
  261.000   18.263    0.450    0.306  158.736   52.282
  261.250   19.299    0.444    0.299  158.765   50.505
  261.500   19.486    0.447    0.295  158.312   47.234
  261.750   19.860    0.432    0.299  158.337   46.952
  262.000   20.609    0.416    0.329  158.374   47.573
  262.250   21.974    0.438    0.330  158.411   46.693
  262.500   24.299    0.443    0.336  157.937   46.413
  262.750   27.117    0.409    0.322  157.975   49.130
  263.000   27.632    0.346    0.218  158.511   50.949
  263.250   27.151    0.282    0.175  158.541   50.069
  263.500   25.963    0.243    0.139  158.574   46.800
  263.750   23.942    0.232    0.072  158.607   45.318
  264.000   21.292    0.256    0.073  157.642   46.538
  264.250   19.279    0.332    0.126  157.684   47.154
  264.500   18.104    0.328    0.133  158.212   47.179
  264.750   17.160    0.355    0.281  157.747   48.095
  265.000   16.859    0.416    0.306  155.784   50.513
  265.250   16.417    0.462    0.300  155.318   50.832
  265.500   15.988    0.471    0.294  155.855   49.657
  265.750   15.569    0.460    0.321  155.397   47.883
  266.000   15.025    0.453    0.309  156.420   47.601
  266.250   14.496    0.423    0.293  156.458   47.921
  266.500   13.988    0.399    0.308  157.984   48.836
  266.750   13.377    0.396    0.297  158.021   52.454
  267.000   12.794    0.423    0.314  158.055   56.664
  267.250   11.906    0.462    0.332  157.593   57.881
  267.500   10.682    0.464    0.332  156.624   58.503
  267.750    9.160    0.472    0.320  155.668   61.218
  268.000    8.220    0.477    0.326  155.697   63.333
  268.250    8.220    0.473    0.315  156.733   67.545
  268.500    7.726    0.492    0.265  158.762   71.458
  268.750    7.523    0.512    0.239  159.789   78.367
  269.000    8.021    0.529    0.260  159.324   81.087
  269.250    9.452    0.533    0.283  159.864   79.305
  269.500    9.989    0.517    0.307  159.394   76.930
  269.750    9.552    0.504    0.320  157.432   74.255
  270.000    9.051    0.502    0.309  155.469   72.780
  270.250    8.655    0.487    0.311  155.506   70.108
  270.500    8.352    0.499    0.310  156.043   72.521
  270.750    7.914    0.510    0.305  156.080   71.942
  271.000    7.432    0.491    0.295  155.610   71.363
  271.250    7.303    0.502    0.293  155.644   73.484
  271.500    7.376    0.504    0.299  155.677   77.095
  271.750    7.515    0.476    0.296  157.207   82.803
  272.000    8.161    0.508    0.291  158.239   84.922
  272.250    8.703    0.505    0.279  158.771   82.549
  272.500    8.950    0.508    0.284  158.809   80.471
  272.750    8.955    0.517    0.300  159.341   76.900
  273.000    8.721    0.521    0.319  159.383   72.426
  273.250    8.416    0.495    0.322  159.915   70.652
  273.500    8.047    0.494    0.315  159.940   73.968
  273.750    7.695    0.476    0.310  159.977   75.790
  274.000    7.359    0.484    0.290  160.011   77.599
  274.250    6.972    0.518    0.292  159.545   79.116
  274.500    6.371    0.551    0.320  159.583   69.255
  274.750    5.666    0.578    0.354  159.620   63.586
  275.000    5.085    0.591    0.418  160.144   82.472
  275.250    4.951    0.605    0.389  160.681   95.968
  275.500    4.821    0.595    0.337  161.712  103.474
  275.750    4.825    0.575    0.229  165.742  103.197
  276.000    4.916    0.533    0.223  168.270   99.921
  276.250    5.102    0.527    0.200  168.312   93.658
  276.500    5.199    0.520    0.185  168.337   93.074
  276.750    5.298    0.509    0.191  165.883   91.300
  277.000    5.349    0.522    0.197  163.925   94.017
  277.250    5.502    0.513    0.205  163.451   91.343
  277.500    5.658    0.506    0.215  163.983   88.965
  277.750    5.559    0.481    0.216  163.513   89.586
  278.000    5.512    0.497    0.196  165.551   89.906
  278.250    5.879    0.510    0.186  166.087   90.524
  278.500    7.184    0.528    0.220  167.115   87.553
  278.750    8.089    0.523    0.222  165.152   83.678
  279.000    8.865    0.524    0.260  162.187   80.706
  279.250    9.034    0.520    0.263  158.236   80.125
  279.500    9.040    0.495    0.276  153.279   81.342
  279.750    8.723    0.491    0.274  152.314   82.864
  280.000    8.495    0.501    0.285  151.853   84.079
  280.250    8.500    0.487    0.280  150.880   84.701
  280.500    8.740    0.482    0.246  150.913   80.529
  280.750    9.070    0.489    0.250  151.949   79.651
  281.000    9.243    0.488    0.280  153.978   80.866
  281.250    9.165    0.493    0.287  154.515   81.190
  281.500    9.089    0.486    0.285  154.544   81.807
  281.750    9.095    0.478    0.282  154.581   81.230
  282.000    9.102    0.482    0.275  154.619   80.355
  282.250    8.943    0.484    0.256  154.656   80.073
  282.500    8.630    0.489    0.269  154.690   80.095
  282.750    8.403    0.498    0.260  154.220   79.816
  283.000    8.334    0.469    0.254  153.750   80.434
  283.250    8.264    0.479    0.277  153.783   82.847
  283.500    8.047    0.479    0.272  156.316   82.269
  283.750    7.908    0.479    0.253  159.343   81.398
  284.000    7.842    0.490    0.238  159.880   82.014
  284.250    7.847    0.472    0.255  159.414   83.831
  284.500    7.642    0.473    0.266  159.951   86.543
  284.750    7.307    0.489    0.232  159.988   86.867
  285.000    6.738    0.497    0.236  160.013   85.388
  285.250    6.622    0.498    0.238  160.051   85.111
  285.500    6.627    0.487    0.226  160.583   84.834
  285.750    6.877    0.480    0.226  160.616   81.860
  286.000    7.399    0.465    0.236  160.151   77.982
  286.250    8.109    0.480    0.240  159.689   73.511
  286.500    8.414    0.499    0.281  158.728   75.033
  286.750    8.652    0.486    0.284  158.259   70.260
  287.000    9.227    0.485    0.268  158.292   64.291
  287.250    9.928    0.500    0.268  158.325   59.521
  287.500   10.880    0.487    0.298  158.363   58.046
  287.750   11.188    0.471    0.317  157.901   58.665
