~VERSION INFORMATION
 VERS.                 2.0:   CWLS LOG ASCII STANDARD -VERSION 2.0
 WRAP.                  NO:   ONE LINE PER DEPTH STEP
~WELL INFORMATION BLOCK
#MNEM.UNIT           DATA                    DESCRIPTION OF MNEMONIC
#---------    -------------------            -------------------------------
# Generated from Intellog Unique Number	CS_77_79/WELL/898
WELL.         TRANS-PRAIRIE PIPELINES        : Well_name    - WELL
LOC .         00/07-15-077-12W4/0            : Location     - LOCATION
UWI .         00/07-15-077-12W4/0            : Uwi          - UNIQUE WELL ID
ENTR.         SP                             : Entered      - ENTERED BY
SRVC.         SCHLUMBERGER                   : Scn          - SERVICE COMPANY
STRT.M        242.621                        : top_depth    - START DEPTH
STOP.M        467.871                        : bot_depth    - STOP DEPTH
STEP.M        0.25                           : increment    - STEP LENGTH
 NULL. -999.2500:NULL Value
~CURVE INFORMATION BLOCK
#MNEM UNIT       ERCB CURVE CODE    CURVE DESCRIPTION
#-----------   ------------------   ----------------------------------
DEPT.M        00 001 00 00         : DEPTH        - DEPTH
GR  .API      00 310 00 00         : GR           - GAMMA RAY
DPHI.V/V      00 890 00 00         : PHID         - DENSITY POROSITY (SANDSTONE)
NPHI.V/V      00 330 00 00         : PHIN         - NEUTRON POROSITY (SANDSTONE)
ILD .OHMM     00 120 00 00         : RESD         - DEEP RESISTIVITY (DIL)
~PARAMETER INFORMATION
#MNEM.UNIT           DATA             DESCRIPTION OF MNEMONIC
#---------         -----------     ------------------------------
GL  .M        635.66               : gl           - GROUND LEVEL ELEVATION
EREF.M        639.166              : kb           - ELEVATION OF DEPTH REFERENCE
DATM.M        635.66               : datum        - DATUM ELEVATION
TDD .M        472.44               : tdd          - TOTAL DEPTH DRILLER
RUN .         ONE                  : Run          - RUN NUMBER
ENG .         BILL                 : Engineer     - RECORDING ENGINEER
WIT .         JIM                  : Witness      - WITNESSED BY
MUD .         GEL                  : Mud_type     - MUD TYPE
MATR.         SANDSTONE            : Logunit      - NEUTRON MATRIX
TMAX.C        21.1111              : BHT          - MAXIMUM RECORDED TEMPERATURE
BHTD.M        472.44               : BHTDEP       - MAXIMUM RECORDED TEMPERATURE
MATR.         1                    : LOGUNIT      - NEUTRON MATRIX
RMT .C        25                   : MDTP         - TEMPERATURE OF MUD
NEUT.         1                    : NEUTRON      - NEUTRON TYPE
RESI.         0                    : RESIST       - RESISTIVITY TYPE
RMC .OHMM     0.25                 : RMC          - RESISTIVITY OF MUD CAKE
RMF .OHMM     0.25                 : RMF          - RESISTIVITY OF MUD FILTRATE
SUFT.C        15                   : SUFT         - SURFACE TEMPERATURE
~A  DEPTH       GR     PHID     PHIN     RESD
# ...
  416.621   68.273    0.262    0.471   22.381
  416.871   69.247    0.298    0.499   30.671
  417.121   71.617    0.322    0.489   39.968
  417.371   66.394    0.323    0.474   55.733
  417.621   61.734    0.318    0.474   66.829
  417.871   58.486    0.312    0.465   68.332
  418.121   61.150    0.302    0.465   59.683
  418.371   65.849    0.280    0.431   43.007
  418.621   72.064    0.263    0.451   29.022
  418.871   78.103    0.236    0.470   19.626
  419.121   84.412    0.253    0.481   17.277
  419.371   92.525    0.276    0.456   20.731
  419.621   79.942    0.286    0.398   23.999
  419.871   69.038    0.287    0.391   31.730
  420.121   63.266    0.296    0.397   46.043
  420.371   61.860    0.285    0.385   52.317
  420.621   62.470    0.274    0.387   54.871
  420.871   62.840    0.264    0.404   42.141
  421.121   63.167    0.266    0.415   29.579
  421.371   63.653    0.253    0.427   23.092
  421.621   64.904    0.249    0.445   18.998
  421.871   66.269    0.254    0.469   16.397
  422.121   70.202    0.252    0.472   13.554
  422.371   75.766    0.244    0.452   12.509
  422.621   79.882    0.203    0.463   11.044
  422.871   81.963    0.188    0.458    9.940
  423.121   83.948    0.157    0.491    9.218
  423.371   89.231    0.187    0.500    9.049
  423.621   93.020    0.216    0.531   10.336
  423.871   95.917    0.261    0.556   12.411
  424.121   91.398    0.298    0.554   16.202
  424.371   73.312    0.303    0.528   22.518
  424.621   62.817    0.308    0.464   27.900
  424.871   55.292    0.307    0.418   32.489
  425.121   55.398    0.296    0.423   32.411
  425.371   56.414    0.281    0.449   30.743
  425.621   58.541    0.283    0.472   28.934
  425.871   57.824    0.299    0.470   26.994
  426.121   56.873    0.194    0.454   26.157
  426.371   56.855    0.174    0.429   24.552
  426.621   56.617    0.232    0.406   23.761
  426.871   53.948    0.276    0.417   22.628
  427.121   51.081    0.275    0.403   21.317
  427.371   47.485    0.271    0.392   20.130
  427.621   44.047    0.251    0.387   19.224
  427.871   53.069    0.255    0.396   18.653
  428.121   58.548    0.252    0.438   17.672
  428.371   62.748    0.238    0.439   16.861
  428.621   69.080    0.230    0.438   16.808
  428.871   71.747    0.236    0.460   17.157
  429.121   71.194    0.248    0.460   18.077
  429.371   70.561    0.258    0.442   21.020
  429.621   67.493    0.270    0.422   24.259
  429.871   60.975    0.290    0.411   26.100
  430.121   56.011    0.283    0.414   26.150
  430.371   50.708    0.259    0.417   23.461
  430.621   57.394    0.240    0.418   19.919
  430.871   67.207    0.220    0.430   15.457
  431.121   77.220    0.193    0.471   12.346
  431.371   86.093    0.156    0.471   10.452
  431.621   90.692    0.152    0.461   10.031
  431.871   90.987    0.177    0.447   10.030
  432.121   87.809    0.181    0.458   10.603
  432.371   84.498    0.208    0.471   11.249
  432.621   75.761    0.234    0.492   12.807
  432.871   70.090    0.262    0.470   13.581
  433.121   68.479    0.245    0.456   13.713
  433.371   73.395    0.223    0.474   13.454
  433.621   76.195    0.203    0.480   12.671
  433.871   78.014    0.215    0.474   12.293
  434.121   78.699    0.215    0.448   12.165
  434.371   78.604    0.216    0.444   12.056
  434.621   77.072    0.214    0.449   12.056
  434.871   73.088    0.214    0.475   12.172
  435.121   70.193    0.207    0.505   12.048
  435.371   69.270    0.214    0.526   12.265
  435.621   73.369    0.250    0.507   12.566
  435.871   69.584    0.272    0.477   13.198
  436.121   64.910    0.264    0.465   13.469
  436.371   65.669    0.246    0.464   13.131
  436.621   70.030    0.210    0.475   12.330
  436.871   77.683    0.184    0.508   10.903
  437.121   82.790    0.190    0.526   10.334
  437.371   84.202    0.198    0.511   10.032
  437.621   82.429    0.202    0.468   10.002
  437.871   80.727    0.215    0.458   10.221
  438.121   78.784    0.214    0.456   10.645
  438.371   77.038    0.202    0.485   11.451
  438.621   76.118    0.200    0.526   12.514
  438.871   79.105    0.199    0.549   13.509
  439.121   81.655    0.199    0.531   14.310
  439.371   80.270    0.221    0.520   15.512
  439.621   74.608    0.239    0.527   15.581
  439.871   68.323    0.236    0.521   14.499
  440.121   65.905    0.214    0.480   12.618
  440.371   66.955    0.187    0.463   10.726
  440.621   70.349    0.096    0.442    9.363
  440.871   77.166    0.175    0.518    8.832
  441.121   86.921    0.173    0.529    8.822
  441.371   93.550    0.194    0.538    9.482
  441.621   92.244    0.207    0.523    9.872
  441.871   89.126    0.203    0.485   10.440
  442.121   84.892    0.230    0.499   10.743
  442.371   83.003    0.240    0.516   10.470
  442.621   82.214    0.229    0.495   10.354
  442.871   78.378    0.210    0.499   10.522
  443.121   80.266    0.198    0.529   10.621
  443.371   82.484    0.217    0.501   10.486
  443.621   79.868    0.223    0.465    9.843
  443.871   78.578    0.198    0.440    9.352
  444.121   82.943    0.179    0.501    8.893
  444.371   88.132    0.184    0.503    8.754
  444.621   89.867    0.195    0.502    9.051
  444.871   90.772    0.197    0.513    9.619
  445.121   88.580    0.218    0.512   10.667
  445.371   84.825    0.240    0.512   11.235
  445.621   79.478    0.255    0.510   11.738
  445.871   73.334    0.230    0.479   11.651
  446.121   70.962    0.193    0.502   12.008
  446.371   78.134    0.187    0.493   11.964
  446.621   84.807    0.204    0.478   11.736
  446.871   80.459    0.230    0.456   11.502
  447.121   75.662    0.218    0.439   11.519
  447.371   77.354    0.205    0.432   11.495
  447.621   83.665    0.209    0.488   11.734
  447.871   87.209    0.194    0.504   11.889
  448.121   89.810    0.225    0.477   11.913
  448.371   90.019    0.244    0.454   12.162
  448.621   89.668    0.212    0.443   12.285
  448.871   90.155    0.197    0.494   12.645
  449.121   93.571    0.215    0.510   13.533
  449.371   92.622    0.222    0.506   13.916
  449.621   91.807    0.246    0.458   14.634
  449.871   81.441    0.255    0.453   14.586
  450.121   77.150    0.246    0.488   14.605
  450.371   75.582    0.253    0.488   14.274
  450.621   75.584    0.229    0.476   13.894
  450.871   75.584    0.208    0.460   12.822
  451.121   75.585    0.192    0.446   12.098
  451.371   76.156    0.174    0.456   11.050
  451.621   77.190    0.132    0.442    9.763
  451.871   78.497    0.147    0.424    8.888
  452.121   81.467    0.223    0.436    8.109
  452.371   81.459    0.227    0.461    7.658
  452.621   78.705    0.233    0.455    7.539
  452.871   75.877    0.215    0.433    7.521
  453.121   76.371    0.178    0.417    7.701
  453.371   78.988    0.198    0.428    7.799
  453.621   76.577    0.205    0.446    7.976
  453.871   75.464    0.200    0.451    7.786
  454.121   75.902    0.192    0.538    7.555
  454.371   77.640    0.203    0.606    7.322
  454.621   82.069    0.210    0.590    7.249
  454.871   84.647    0.197    0.554    7.234
  455.121   81.862    0.208    0.505    7.413
  455.371   77.837    0.239    0.459    7.788
  455.621   76.466    0.214    0.409    7.824
  455.871   75.160    0.183    0.476    7.270
  456.121   76.191    0.267    0.519    6.658
  456.371   78.364    0.254    0.491    6.234
  456.621   74.307    0.229    0.457    6.115
  456.871   69.640    0.224    0.458    6.018
  457.121   69.386    0.236    0.437    5.646
  457.371   68.609    0.259    0.434    5.323
  457.621   62.469    0.278    0.450    5.295
  457.871   55.278    0.278    0.492    5.354
  458.121   53.889    0.284    0.498    5.529
  458.371   53.208    0.265    0.505    5.751
  458.621   53.977    0.247    0.479    5.719
  458.871   54.512    0.267    0.478    5.552
  459.121   55.321    0.250    0.476    5.129
  459.371   53.694    0.266    0.486    4.713
  459.621   50.301    0.325    0.473    4.297
  459.871   45.727    0.316    0.442    4.282
