~VERSION INFORMATION
 VERS.                 2.0:   CWLS LOG ASCII STANDARD -VERSION 2.0
 WRAP.                  NO:   ONE LINE PER DEPTH STEP
~WELL INFORMATION BLOCK
#MNEM.UNIT           DATA                    DESCRIPTION OF MNEMONIC
#---------    -------------------            -------------------------------
# Generated from Intellog Unique Number	CS_69_70/WELL/849
NULL.         -999.25                        : NULL_VALUE
WELL.         AMOCO CANADA PETROLEUM         : Well_name    - WELL              
LOC .         00/07-31-070-14W4/0            : Location     - LOCATION          
UWI .         00/07-31-070-14W4/0            : Uwi          - UNIQUE WELL ID    
ENTR.         SP                             : Entered      - ENTERED BY        
SRVC.         SCHLUMBERGER                   : Scn          - SERVICE COMPANY   
STRT.F        1050                           : top_depth    - START DEPTH       
STOP.F        1760.3                         : bot_depth    - STOP DEPTH        
STEP.F        0.82                           : increment    - STEP LENGTH       
~CURVE INFORMATION BLOCK
#MNEM UNIT       ERCB CURVE CODE    CURVE DESCRIPTION
#-----------   ------------------   ----------------------------------
DEPT.F        00 001 00 00         : DEPTH        - DEPTH                       
GR  .API      00 310 00 00         : GR           - GAMMA RAY                   
NPHI.V/V      00 330 00 00         : PHIN         - NEUTRON POROSITY (SANDSTONE)
DPHI.V/V      00 890 00 00         : PHID         - DENSITY POROSITY (SANDSTONE)
ILD .OHMM     00 120 00 00         : RESD         - DEEP RESISTIVITY (DIL)      
~PARAMETER INFORMATION       
#MNEM.UNIT           DATA             DESCRIPTION OF MNEMONIC
#---------         -----------     ------------------------------
GL  .F        2039.71              : gl           - GROUND LEVEL ELEVATION      
EREF.F        2053.71              : kb           - ELEVATION OF DEPTH REFERENCE
DATM.F        2039.71              : datum        - DATUM ELEVATION             
TDD .F        1900                 : tdd          - TOTAL DEPTH DRILLER         
RUN .         ONE                  : Run          - RUN NUMBER                  
ENG .         BILL                 : Engineer     - RECORDING ENGINEER          
WIT .         JIM                  : Witness      - WITNESSED BY                
MUD .         GEL                  : Mud_type     - MUD TYPE                    
MATR.         SANDSTONE            : Logunit      - NEUTRON MATRIX              
TMAX.C        25.5556              : BHT          - MAXIMUM RECORDED TEMPERATURE
BHTD.M        512.369              : BHTDEP       - MAXIMUM RECORDED TEMPERATURE
MATR.         1                    : LOGUNIT      - NEUTRON MATRIX              
RMT .C        25                   : MDTP         - TEMPERATURE OF MUD          
NEUT.         1                    : NEUTRON      - NEUTRON TYPE                
RESI.         0                    : RESIST       - RESISTIVITY TYPE            
RMC .OHMM     0.25                 : RMC          - RESISTIVITY OF MUD CAKE     
RMF .OHMM     0.25                 : RMF          - RESISTIVITY OF MUD FILTRATE 
SUFT.C        15                   : SUFT         - SURFACE TEMPERATURE         
~A  DEPTH       GR     PHIN     PHID     RESD
 1050.000   97.530    0.486    0.260    2.267
 1050.820   97.526    0.474    0.264    2.262
 1051.640   97.519    0.465    0.265    2.305
 1052.460   97.512    0.474    0.265    2.348
 1053.280   98.687    0.484    0.259    2.489
 1054.100   99.273    0.493    0.256    2.485
 1054.920  101.631    0.501    0.242    2.533
 1055.740  102.809    0.498    0.240    2.578
 1056.560  102.211    0.496    0.241    2.627
 1057.380  101.614    0.491    0.240    2.624
 1058.200  101.017    0.470    0.234    2.672
 1059.020   98.646    0.461    0.233    2.723
 1059.840   95.091    0.465    0.234    2.720
 1060.660   94.496    0.470    0.234    2.769
 1061.480   95.079    0.475    0.235    2.766
 1062.300   94.481    0.479    0.239    2.819
 1063.120   93.294    0.484    0.245    2.929
 1063.940   88.558    0.481    0.252    3.105
 1064.760   83.824    0.473    0.251    3.290
 1065.580   71.403    0.446    0.228    3.418
 1066.400   73.169    0.392    0.252    3.484
 1067.220   76.119    0.403    0.267    3.479
 1068.040   80.249    0.412    0.272    3.543
 1068.860   81.425    0.411    0.267    3.539
 1069.690   81.421    0.407    0.263    3.603
 1070.510   81.414    0.403    0.261    3.673
 1071.330   86.137    0.401    0.256    3.892
 1072.150   90.859    0.404    0.252    3.966
 1072.970   95.581    0.414    0.252    4.041
 1073.790   97.940    0.427    0.256    4.198
 1074.610   96.750    0.444    0.257    4.192
 1075.430   94.971    0.462    0.260    4.025
 1076.250   94.375    0.469    0.268    3.638
 1077.070   90.822    0.458    0.275    3.223
 1077.890   81.358    0.435    0.291    2.913
 1078.710   68.938    0.422    0.308    2.741
 1079.530   52.381    0.416    0.323    2.527
 1080.350   45.281    0.416    0.332    2.426
 1081.170   44.684    0.416    0.332    2.282
 1081.990   46.451    0.414    0.332    2.191
 1082.810   52.356    0.412    0.331    2.102
 1083.630   57.077    0.413    0.330    2.057
 1084.450   58.254    0.414    0.326    2.055
 1085.270   61.202    0.417    0.322    2.177
 1086.090   64.744    0.423    0.313    2.263
 1086.910   70.056    0.432    0.307    2.400
 1087.730   73.007    0.438    0.299    2.700
 1088.550   76.547    0.438    0.285    2.979
 1089.370   80.679    0.430    0.271    3.287
 1090.190   85.400    0.419    0.261    3.553
 1091.010   89.531    0.410    0.252    3.765
 1091.830   91.889    0.410    0.248    3.836
 1092.650   90.701    0.408    0.239    3.906
 1093.470   88.330    0.404    0.242    3.904
 1094.290   86.552    0.405    0.249    3.896
 1095.110   83.590    0.405    0.254    3.815
 1095.930   80.037    0.407    0.254    3.736
 1096.750   76.485    0.409    0.254    3.657
 1097.570   81.207    0.414    0.256    3.439
 1098.390   85.339    0.425    0.267    3.300
 1099.210   85.331    0.433    0.298    3.169
 1100.030   76.460    0.409    0.312    3.040
 1100.850   67.587    0.410    0.323    2.917
 1101.670   66.988    0.416    0.321    2.800
 1102.490   66.981    0.423    0.315    2.742
 1103.310   65.202    0.423    0.308    2.736
 1104.130   64.013    0.419    0.309    2.734
 1104.950   64.007    0.412    0.311    2.730
 1105.770   63.999    0.406    0.309    2.835
 1106.590   61.628    0.393    0.304    2.889
 1107.410   59.850    0.378    0.286    3.063
 1108.230   59.251    0.363    0.121    3.310
 1109.060   59.835    0.346    0.112    3.375
 1109.880   60.423    0.332    0.169    3.370
 1110.700   62.188    0.334    0.263    3.298
 1111.520   64.546    0.366    0.287    3.164
 1112.340   66.903    0.387    0.300    3.038
 1113.160   66.900    0.404    0.310    2.801
 1113.980   67.483    0.418    0.315    2.689
 1114.800   67.477    0.423    0.314    2.530
 1115.620   68.062    0.424    0.309    2.680
 1116.440   68.055    0.420    0.292    2.786
 1117.260   66.867    0.388    0.244    2.954
 1118.080   65.678    0.363    0.112    3.067
 1118.900   66.263    0.356    0.158    3.065
 1119.720   69.805    0.402    0.230    3.120
 1120.540   71.569    0.447    0.293    3.057
 1121.360   71.564    0.459    0.293    2.991
 1122.180   72.151    0.468    0.292    2.929
 1123.000   74.509    0.465    0.291    2.868
 1123.820   78.049    0.456    0.288    2.750
 1124.640   77.450    0.420    0.286    2.694
 1125.460   79.810    0.423    0.280    2.637
 1126.280   80.395    0.446    0.272    2.582
 1127.100   76.251    0.461    0.255    2.630
 1127.920   72.107    0.446    0.208    2.845
 1128.740   69.143    0.414    0.156    3.075
 1129.560   73.868    0.367    0.127    3.260
 1130.380   80.363    0.348    0.129    3.386
 1131.200   85.677    0.372    0.175    3.384
 1132.020   89.807    0.394    0.220    3.446
 1132.840   89.802    0.401    0.235    3.441
 1133.660   93.341    0.429    0.239    3.505
 1134.480   95.699    0.444    0.236    3.501
 1135.300   98.057    0.436    0.229    3.497
 1136.120  101.007    0.434    0.227    3.490
 1136.940  102.774    0.439    0.220    3.487
 1137.760  103.950    0.441    0.217    3.413
 1138.580  107.490    0.446    0.212    3.342
 1139.400  112.805    0.453    0.211    3.335
 1140.220  118.710    0.463    0.212    3.266
 1141.040  119.293    0.467    0.216    3.261
 1141.860  118.105    0.467    0.221    3.256
 1142.680  117.506    0.468    0.225    3.319
 1143.500  116.912    0.463    0.234    3.517
 1144.320  116.311    0.440    0.239    3.878
 1145.140  116.308    0.422    0.242    4.030
 1145.960  116.302    0.416    0.246    4.027
 1146.780  113.340    0.416    0.251    4.183
 1147.600  109.785    0.416    0.255    4.262
 1148.430  107.415    0.415    0.257    4.341
 1149.250  105.042    0.415    0.258    4.424
 1150.070  104.447    0.414    0.260    4.418
 1150.890  102.076    0.412    0.262    4.500
 1151.710   99.704    0.412    0.263    4.494
 1152.530   97.336    0.412    0.267    4.488
 1153.350   92.599    0.414    0.269    4.480
 1154.170   92.591    0.415    0.269    4.475
 1154.990   97.316    0.416    0.267    4.295
 1155.810  105.583    0.415    0.260    4.119
 1156.630  107.943    0.415    0.252    4.033
 1157.450  107.344    0.417    0.244    4.028
 1158.270  105.564    0.425    0.235    3.944
 1159.090  104.376    0.434    0.244    4.019
 1159.910  103.186    0.436    0.261    4.174
 1160.730  102.592    0.439    0.256    4.252
 1161.550  101.994    0.445    0.248    4.333
 1162.370  101.986    0.438    0.234    4.415
 1163.190  102.571    0.431    0.222    4.493
 1164.010  104.929    0.432    0.214    4.490
 1164.830  106.696    0.437    0.208    4.484
 1165.650  109.055    0.438    0.204    4.478
 1166.470  109.048    0.439    0.200    4.385
 1167.290  109.042    0.442    0.194    4.291
 1168.110  109.627    0.449    0.187    4.202
 1168.930  110.803    0.459    0.186    4.114
 1169.750  111.388    0.466    0.188    3.867
 1170.570  110.790    0.475    0.198    3.711
 1171.390  110.194    0.483    0.209    3.634
 1172.210  106.638    0.481    0.231    3.487
 1173.030  104.860    0.473    0.242    3.484
 1173.850  102.491    0.472    0.248    3.478
 1174.670  100.712    0.472    0.255    3.473
 1175.490  100.704    0.471    0.261    3.470
 1176.310   99.517    0.471    0.270    3.328
 1177.130   98.919    0.471    0.274    3.324
 1177.950   98.913    0.467    0.277    3.255
 1178.770   97.134    0.452    0.270    3.248
 1179.590   92.990    0.429    0.261    3.311
 1180.410   89.435    0.424    0.258    3.509
 1181.230   91.795    0.440    0.264    3.645
 1182.050   97.107    0.446    0.275    3.716
 1182.870   98.283    0.437    0.286    3.783
 1183.690   95.321    0.429    0.296    3.780
 1184.510   89.405    0.426    0.306    3.775
 1185.330   84.079    0.419    0.311    3.768
 1186.150   79.935    0.418    0.303    3.764
 1186.980   82.293    0.444    0.296    3.684
 1187.800   84.651    0.453    0.293    3.679
 1188.620   85.826    0.452    0.289    3.674
 1189.440   85.821    0.448    0.288    3.669
 1190.260   86.997    0.452    0.281    3.665
 1191.080   88.173    0.454    0.272    3.657
 1191.900   88.758    0.452    0.269    3.583
