~VERSION INFORMATION
 VERS.                 2.0:   CWLS LOG ASCII STANDARD -VERSION 2.0
 WRAP.                  NO:   ONE LINE PER DEPTH STEP
~WELL INFORMATION BLOCK
#MNEM.UNIT           DATA                    DESCRIPTION OF MNEMONIC
#---------    -------------------            -------------------------------
# Generated from Intellog Unique Number	CW_73_75/WELL/620
WELL.         ANG ET AL FRANCIS 06-36        : Well_name    - WELL
LOC .         00/06-36-074-22W4/0            : Location     - LOCATION
UWI .         00/06-36-074-22W4/0            : Uwi          - UNIQUE WELL ID
ENTR.         JAYE                           : Entered      - ENTERED BY
SRVC.         SCHLUMBERGER                   : Scn          - SERVICE COMPANY
DATE.         27 MAR 88                      : Date         - LOG DATE
STRT.M        350                            : top_depth    - START DEPTH
STOP.M        560                            : bot_depth    - STOP DEPTH
STEP.M        0.25                           : increment    - STEP LENGTH
 NULL. -999.2500:NULL Value
~CURVE INFORMATION BLOCK
#MNEM UNIT       ERCB CURVE CODE    CURVE DESCRIPTION
#-----------   ------------------   ----------------------------------
DEPT.M        00 001 00 00         : DEPTH        - DEPTH
ILD .OHMM     00 120 00 00         : RESD         - DEEP RESISTIVITY (DIL)
DPHI.V/V      00 890 00 00         : PHID         - DENSITY POROSITY (SANDSTONE)
NPHI.V/V      00 330 00 00         : PHIN         - NEUTRON POROSITY (SANDSTONE)
GR  .API      00 310 00 00         : GR           - GAMMA RAY
CALI.MM       00 280 01 00         : CAL          - CALIPER
~PARAMETER INFORMATION
#MNEM.UNIT           DATA             DESCRIPTION OF MNEMONIC
#---------         -----------     ------------------------------
GL  .M        656.8                : gl           - GROUND LEVEL ELEVATION
EREF.M        660                  : kb           - ELEVATION OF DEPTH REFERENCE
DATM.M        656.8                : datum        - DATUM ELEVATION
TDD .M        620                  : tdd          - TOTAL DEPTH DRILLER
RUN .         ONE                  : Run          - RUN NUMBER
ENG .         POWELL               : Engineer     - RECORDING ENGINEER
WIT .         LIEHTENBELT          : Witness      - WITNESSED BY
BASE.         EDM                  : Branch       - HOME BASE OF LOGGING UNIT
MUD .         GEL CHEM             : Mud_type     - MUD TYPE
MATR.         SANDSTONE            : Logunit      - NEUTRON MATRIX
TMAX.C        47                   : BHT          - MAXIMUM RECORDED TEMPERATURE
BHTD.M        619.5                : BHTDEP       - MAXIMUM RECORDED TEMPERATURE
RMT .C        18                   : MDTP         - TEMPERATURE OF MUD
MUDD.KG/M     1170                 : MWT          - MUD DENSITY
NEUT.         1                    : NEUTRON      - NEUTRON TYPE
RESI.         0                    : RESIST       - RESISTIVITY TYPE
RM  .OHMM     1.26                 : RM           - RESISTIVITY OF MUD
RMC .OHMM     0                    : RMC          - RESISTIVITY OF MUD CAKE
RMF .OHMM     3.44                 : RMF          - RESISTIVITY OF MUD FILTRATE
SUFT.C        0                    : SUFT         - SURFACE TEMPERATURE
~A  DEPTH     RESD     PHID     PHIN       GR      CAL
# ...
  532.500    5.964    0.094    0.395   98.344  173.523
  532.750    6.410    0.167    0.418  101.004  174.182
  533.000    6.646    0.158    0.391   97.735  174.236
  533.250    6.671    0.145    0.374   94.587  173.776
  533.500    6.315    0.121    0.360   88.997  173.119
  533.750    5.977    0.094    0.356   92.144  172.765
  534.000    5.214    0.120    0.399   95.903  172.208
  534.250    5.039    0.153    0.417   96.727  171.640
  534.500    5.088    0.160    0.427   96.942  170.978
  534.750    5.407    0.171    0.437   96.176  170.315
  535.000    5.724    0.164    0.437   92.359  169.657
  535.250    6.025    0.137    0.430   88.050  169.303
  535.500    6.234    0.128    0.399   85.946  169.046
  535.750    6.379    0.140    0.382   86.646  168.791
  536.000    6.367    0.119    0.381   89.182  169.552
  536.250    6.200    0.150    0.416   91.231  171.234
  536.500    6.027    0.128    0.422   91.870  172.411
  536.750    5.948    0.109    0.405   89.273  172.968
  537.000    5.814    0.114    0.395   85.517  173.321
  537.250    5.651    0.146    0.386   93.368  173.783
  537.500    5.535    0.149    0.396   95.172  174.350
  537.750    5.309    0.145    0.394   94.469  174.497
  538.000    5.141    0.157    0.389   93.461  174.547
  538.250    5.132    0.168    0.397   96.119  174.494
  538.500    5.391    0.176    0.410   95.662  174.343
  538.750    6.157    0.161    0.416   91.415  174.291
  539.000    7.073    0.150    0.384   85.273  174.142
  539.250    8.032    0.137    0.361   79.438  174.194
  539.500    9.296    0.125    0.357   77.087  174.140
  539.750   10.437    0.103    0.341   79.499  173.891
  540.000    9.973    0.056    0.323   83.929  173.529
  540.250    9.003    0.044    0.321   92.820  173.079
  540.500    8.080    0.065    0.364  110.268  172.823
  540.750    7.170    0.084    0.387  112.375  172.975
  541.000    6.634    0.141    0.385  111.306  173.636
  541.250    6.315    0.152    0.370  111.337  173.998
  541.500    6.244    0.166    0.373  114.974  174.043
  541.750    6.661    0.198    0.403  115.862  174.103
  542.000    7.200    0.194    0.417  114.608  173.943
  542.250    7.507    0.167    0.413  112.377  173.892
  542.500    7.522    0.138    0.397  109.902  173.945
  542.750    7.423    0.136    0.387  107.612  174.108
  543.000    7.410    0.134    0.379  105.564  174.353
  543.250    7.538    0.116    0.370  104.007  174.505
  543.500    7.610    0.127    0.379  104.648  174.657
  543.750    7.845    0.138    0.392  109.018  175.014
  544.000    8.088    0.143    0.380  114.363  174.965
  544.250    8.401    0.138    0.351  124.233  174.712
  544.500    8.776    0.137    0.368  133.795  174.458
  544.750    9.082    0.137    0.395  139.937  173.898
  545.000    9.309    0.106    0.422  146.324  173.540
  545.250    9.434    0.063    0.450  149.532  173.183
  545.500    9.453    0.058    0.453  143.328  172.620
  545.750    9.507    0.046    0.431  128.327  171.960
  546.000    9.472    0.070    0.401  116.932  171.607
  546.250    9.401    0.108    0.398  111.342  171.961
  546.500    8.898    0.105    0.411  110.029  172.419
  546.750    8.568    0.098    0.425  109.573  172.368
  547.000    8.296    0.092    0.440  107.888  171.813
  547.250    8.110    0.078    0.458  104.684  171.559
  547.500    8.004    0.103    0.484  103.368  171.807
  547.750    7.989    0.115    0.462  109.080  172.169
  548.000    7.989    0.097    0.435  115.041  172.523
  548.250    8.005    0.075    0.433  112.381  172.780
  548.500    7.930    0.086    0.428  108.197  172.733
  548.750    7.621    0.122    0.430  106.579  172.269
  549.000    7.268    0.132    0.444  108.807  171.813
  549.250    7.051    0.121    0.453  111.285  171.458
  549.500    6.946    0.128    0.463  110.030  171.507
  549.750    6.881    0.130    0.465  107.799  171.657
  550.000    6.920    0.133    0.471  108.196  172.017
  550.250    7.027    0.111    0.480  109.817  172.375
  550.500    7.121    0.116    0.473  112.293  172.330
  550.750    7.272    0.121    0.464  119.715  172.171
  551.000    7.327    0.116    0.472  132.884  171.814
  551.250    7.398    0.136    0.486  140.858  171.665
  551.500    7.612    0.131    0.479  157.387  171.816
  551.750    7.967    0.129    0.452  169.884  171.971
  552.000    8.482    0.150    0.424  172.359  172.018
  552.250    9.169    0.167    0.395  166.524  172.379
  552.500    9.725    0.203    0.368  149.262  172.736
  552.750   10.102    0.200    0.375  154.608  172.886
  553.000   10.083    0.127    0.388  147.918  173.143
  553.250    9.932    0.073    0.370  116.541  172.685
  553.500    9.914    0.069    0.230   95.124  169.985
  553.750    9.636    0.140    0.265   87.210  170.238
  554.000    9.456    0.123    0.282   86.630  171.619
  554.250    9.511    0.138    0.284   88.310  170.344
  554.500    9.860    0.134    0.292   83.332  169.169
  554.750   10.262    0.141    0.265   79.146  171.565
  555.000   11.030    0.121    0.255   74.715  174.058
  555.250   11.522    0.133    0.261   72.362  173.907
  555.500   12.815    0.103    0.262   71.233  173.554
  555.750   12.694    0.047    0.254   71.935  174.213
  556.000   12.176    0.040    0.242   75.388  175.698
  556.250   11.858    0.052    0.235   80.490  176.863
  556.500   11.439    0.069    0.249   87.366  178.553
  556.750   10.745    0.092    0.261   92.897  179.102
  557.000    9.626    0.097    0.284   94.944  179.358
  557.250    9.357    0.085    0.305   94.912  179.416
  557.500   10.114    0.054    0.322   93.231  179.360
  557.750   11.552    0.057    0.326   87.825  178.597
  558.000   13.168    0.069    0.340   78.017  176.915
  558.250   14.954    0.065    0.285   65.643  174.118
  558.500   18.460    0.032    0.241   47.342  171.417
  558.750   19.469    0.050    0.241   37.718  168.922
  559.000   18.323    0.060    0.263   32.738  165.305
  559.250   12.280    0.078    0.266   31.487  162.816
  559.500    9.948    0.100    0.252   33.718  167.240
  559.750    8.862    0.080    0.247   35.947  169.228
  560.000    7.471    0.064    0.266   42.518  169.185
