~VERSION INFORMATION
 VERS.                 2.0:   CWLS LOG ASCII STANDARD -VERSION 2.0
 WRAP.                  NO:   ONE LINE PER DEPTH STEP
~WELL INFORMATION BLOCK
#MNEM.UNIT           DATA                    DESCRIPTION OF MNEMONIC
#---------    -------------------            -------------------------------
# Generated from Intellog Unique Number	CW_82_90/WELL/3418
WELL.         SIEBENS CHIPEWYAN              : Well_name    - WELL
LOC .         00/06-07-089-21W4/0            : Location     - LOCATION
UWI .         00/06-07-089-21W4/0            : Uwi          - UNIQUE WELL ID
ENTR.         MAX                            : Entered      - ENTERED BY
SRVC.         SCHLUMBERGER                   : Scn          - SERVICE COMPANY
STRT.M        121.92                         : top_depth    - START DEPTH
STOP.M        239.67                         : bot_depth    - STOP DEPTH
STEP.M        0.25                           : increment    - STEP LENGTH
 NULL. -999.2500:NULL Value
~CURVE INFORMATION BLOCK
#MNEM UNIT       ERCB CURVE CODE    CURVE DESCRIPTION
#-----------   ------------------   ----------------------------------
DEPT.M        00 001 00 00         : DEPTH        - DEPTH
GR  .API      00 310 00 00         : GR           - GAMMA RAY
CALI.MM       00 280 01 00         : CAL          - CALIPER
DPHI.V/V      00 890 00 00         : PHID         - DENSITY POROSITY (SANDSTONE)
NPHI.V/V      00 330 00 00         : PHIN         - NEUTRON POROSITY (SANDSTONE)
ILD .OHMM     00 120 00 00         : RESD         - DEEP RESISTIVITY (DIL)
~PARAMETER INFORMATION
#MNEM.UNIT           DATA             DESCRIPTION OF MNEMONIC
#---------         -----------     ------------------------------
GL  .M        511.15               : gl           - GROUND LEVEL ELEVATION
EREF.M        513.283              : kb           - ELEVATION OF DEPTH REFERENCE
DATM.M        511.15               : datum        - DATUM ELEVATION
TDD .M        242.621              : tdd          - TOTAL DEPTH DRILLER
RUN .         ONE                  : Run          - RUN NUMBER
ENG .         BILL                 : Engineer     - RECORDING ENGINEER
WIT .         JIM                  : Witness      - WITNESSED BY
MUD .         GEL                  : Mud_type     - MUD TYPE
MATR.         SANDSTONE            : Logunit      - NEUTRON MATRIX
TMAX.C        15.5556              : BHT          - MAXIMUM RECORDED TEMPERATURE
BHTD.M        242.621              : BHTDEP       - MAXIMUM RECORDED TEMPERATURE
MATR.         1                    : LOGUNIT      - NEUTRON MATRIX
RMT .C        17                   : MDTP         - TEMPERATURE OF MUD
NEUT.         1                    : NEUTRON      - NEUTRON TYPE
RESI.         0                    : RESIST       - RESISTIVITY TYPE
RMC .OHMM     2                    : RMC          - RESISTIVITY OF MUD CAKE
RMF .OHMM     1.94                 : RMF          - RESISTIVITY OF MUD FILTRATE
SUFT.C        -20.5556             : SUFT         - SURFACE TEMPERATURE
~A  DEPTH       GR      CAL     PHID     PHIN     RESD
  121.920   46.959  272.168    0.381    0.518   27.048
  122.170   47.517  260.192    0.355    0.494   26.533
  122.420   48.078  252.696    0.360    0.494   25.326
  122.670   50.103  247.188    0.360    0.510   25.071
  122.920   53.008  243.663    0.338    0.538   22.666
  123.170   55.907  238.150    0.297    0.536   15.873
  123.420   55.587  235.624    0.253    0.493   13.959
  123.670   51.739  236.087    0.176    0.440   18.835
  123.920   48.477  239.025    0.219    0.385   22.790
  124.170   45.810  244.453    0.327    0.408   26.576
  124.420   42.247  256.841    0.363    0.470   28.557
  124.670   40.457  264.258    0.382    0.512   29.586
  124.920   39.551  275.652    0.396    0.536   28.770
  125.170   38.931  284.063    0.411    0.555   26.476
  125.420   38.608  276.069    0.407    0.539   25.978
  125.670   38.872  290.436    0.385    0.531   26.195
  125.920   39.433  271.510    0.398    0.546   27.391
  126.170   39.690  262.020    0.341    0.517   27.611
  126.420   41.425  257.507    0.349    0.521   27.586
  126.670   42.272  253.982    0.366    0.523   27.558
  126.920   42.833  250.959    0.369    0.547   27.537
  127.170   43.974  247.937    0.359    0.553   27.506
  127.420   44.528  245.908    0.352    0.548   27.488
  127.670   45.383  245.361    0.362    0.551   27.460
  127.920   47.400  246.818    0.379    0.554   26.941
  128.170   49.719  260.195    0.418    0.569   26.914
  128.420   51.744  267.617    0.445    0.557   26.165
  128.670   52.892  252.659    0.443    0.562   25.201
  128.920   54.623  236.214    0.412    0.562   24.729
  129.170   55.757  229.697    0.402    0.558   24.930
  129.420   56.901  234.638    0.394    0.566   25.595
  129.670   58.347  246.529    0.373    0.569   25.809
  129.920   58.904  244.501    0.366    0.558   26.019
  130.170   59.165  236.000    0.380    0.562   25.761
  130.420   60.012  230.492    0.385    0.576   25.273
  130.670   60.863  224.984    0.393    0.589   24.792
  130.920   61.131  221.961    0.390    0.577   24.320
  131.170   61.681  222.910    0.385    0.565   24.081
  131.420   62.238  224.362    0.374    0.555   23.625
  131.670   62.796  217.357    0.374    0.548   23.387
  131.920   62.179  217.820    0.381    0.554   22.947
  132.170   61.856  252.081    0.387    0.579   20.180
  132.420   62.117  287.838    0.391    0.598   15.910
  132.670   65.906  292.770    0.411    0.598   12.658
  132.920   67.928  278.801    0.442    0.594    9.979
  133.170   66.427  278.269    0.421    0.577    9.184
  133.420   65.517  257.842    0.385    0.538    9.177
  133.670   66.662  236.421    0.334    0.503   10.042
  133.920   71.332  223.451    0.306    0.515   10.125
  134.170   78.343  224.401    0.300    0.518    9.405
  134.420   89.470  228.840    0.335    0.528    6.409
  134.670  104.115  233.269    0.314    0.568    5.535
  134.920  113.771  232.235    0.298    0.598    4.779
  135.170  113.741  231.703    0.276    0.598    4.604
  135.420  112.831  232.647    0.274    0.599    4.436
  135.670  113.088  233.607    0.268    0.599    4.351
  135.920  112.472  233.552    0.266    0.599    4.387
  136.170  111.268  233.020    0.271    0.593    4.629
  136.420  110.065  232.985    0.266    0.584    4.797
  136.670  108.861  233.432    0.257    0.597    4.970
  136.920  107.071  233.895    0.258    0.599    5.057
  137.170  104.686  234.839    0.257    0.585    5.098
  137.420  100.254  234.799    0.265    0.557    5.187
  137.670   96.993  234.769    0.271    0.544    5.181
  137.920   99.315  235.719    0.270    0.526    5.131
  138.170  100.459  235.674    0.276    0.533    5.033
  138.420   98.078  235.132    0.290    0.555    5.029
  138.670   95.407  235.599    0.285    0.575    5.117
  138.920   93.606  236.051    0.289    0.551    5.548
  139.170   92.703  236.499    0.296    0.564    6.017
  139.420   91.203  237.463    0.298    0.563    6.585
  139.670   89.706  239.904    0.299    0.556    7.273
  139.920   88.205  233.402    0.285    0.547    8.405
  140.170   84.951  226.894    0.272    0.525    9.540
  140.420   80.222  225.358    0.263    0.508   10.440
  140.670   76.080  225.323    0.244    0.518   11.016
  140.920   76.347  225.278    0.257    0.554   10.709
  141.170   80.720  225.736    0.315    0.569    9.504
  141.420   84.209  228.176    0.324    0.578    8.670
  141.670   87.698  230.125    0.316    0.567    7.764
  141.920   92.075  230.085    0.298    0.555    7.081
  142.170   95.860  228.554    0.272    0.578    6.519
  142.420   98.179  228.012    0.229    0.582    5.527
  142.670  101.671  227.977    0.212    0.566    4.817
  142.920  106.044  228.434    0.193    0.572    4.598
  143.170  115.990  229.369    0.208    0.583    4.552
  143.420  117.432  228.847    0.239    0.596    4.386
  143.670  115.344  228.305    0.254    0.599    4.225
  143.920  113.260  228.762    0.246    0.601    4.220
  144.170  115.575  228.722    0.236    0.602    4.295
  144.420  117.006  228.185    0.238    0.602    4.491
  144.670  115.516  227.648    0.237    0.601    4.738
  144.920  119.005  228.598    0.225    0.601    4.777
  145.170  118.095  229.050    0.222    0.601    4.687
  145.420  116.304  229.010    0.229    0.601    4.434
  145.670  113.634  228.970    0.213    0.601    4.231
  145.920  112.129  230.914    0.239    0.601    4.114
  146.170  110.632  232.365    0.259    0.601    3.999
  146.420  108.548  231.331    0.271    0.601    3.959
  146.670  107.345  227.807    0.276    0.601    4.029
  146.920  103.794  226.767    0.273    0.601    4.329
  147.170  100.242  226.201    0.276    0.598    4.695
  147.420   97.274  225.694    0.272    0.587    5.138
  147.670   95.777  225.659    0.264    0.561    5.622
  147.920   95.740  225.117    0.258    0.534    6.209
  148.170   96.298  225.574    0.262    0.517    6.858
  148.420   96.566  226.031    0.279    0.547    7.436
  148.670   96.826  225.991    0.292    0.553    7.846
  148.920   95.916  224.947    0.293    0.550    8.204
  149.170   93.538  223.918    0.276    0.549    8.897
  149.420   88.806  223.376    0.255    0.543    9.475
  149.670   84.965  223.838    0.255    0.525    9.906
  149.920   79.938  224.296    0.248    0.515    9.897
  150.170   81.963  224.246    0.222    0.497    9.889
  150.420   86.046  224.211    0.210    0.484    9.440
  150.670   90.713  224.171    0.226    0.501    8.455
  150.920   93.615  224.092    0.269    0.521    7.572
  151.170   93.002  224.579    0.272    0.511    7.229
  151.420   94.433  224.544    0.263    0.511    7.354
  151.670   94.693  224.499    0.252    0.508    7.551
  151.920   93.497  224.454    0.249    0.498    7.752
  152.170   91.409  224.409    0.253    0.481    7.746
  152.420   89.619  223.877    0.256    0.482    7.600
  152.670   91.347  222.838    0.258    0.497    7.321
  152.920   94.252  222.793    0.261    0.500    6.738
  153.170   96.864  224.255    0.262    0.493    6.147
  153.420   98.302  224.210    0.252    0.503    6.085
  153.670   96.512  224.170    0.246    0.515    6.969
  153.920   91.782  224.622    0.255    0.541    7.558
  154.170   84.709  224.588    0.267    0.549    8.122
  154.420   79.100  223.544    0.293    0.522    9.217
  154.670   76.722  224.006    0.290    0.519   10.088
  154.920   74.341  224.955    0.276    0.535   11.141
  155.170   74.014  225.417    0.267    0.530   12.192
  155.420   73.981  224.865    0.277    0.505   13.100
  155.670   75.133  223.334    0.325    0.490   13.822
  155.920   78.915  223.797    0.305    0.472   14.322
  156.170   83.582  223.260    0.304    0.479   14.180
  156.420   87.074  223.215    0.284    0.494   13.173
  156.670   85.867  223.677    0.263    0.504   10.013
  156.920   81.725  223.632    0.226    0.477    7.407
  157.170   82.283  224.582    0.181    0.443    5.429
  157.420   86.659  226.033    0.131    0.487    4.439
  157.670   93.674  225.501    0.216    0.538    4.048
  157.920   95.108  223.463    0.269    0.551    3.972
  158.170   95.368  223.925    0.288    0.561    3.969
