~VERSION INFORMATION
 VERS.                 2.0:   CWLS LOG ASCII STANDARD -VERSION 2.0
 WRAP.                  NO:   ONE LINE PER DEPTH STEP
~WELL INFORMATION BLOCK
#MNEM.UNIT           DATA                    DESCRIPTION OF MNEMONIC
#---------    -------------------            -------------------------------
# Generated from Intellog Unique Number	CS_73_76/WELL/2157
WELL.         DOME ET AL KIRBY               : Well_name    - WELL
LOC .         00/05-21-074-04W4/0            : Location     - LOCATION
UWI .         00/05-21-074-04W4/0            : Uwi          - UNIQUE WELL ID
ENTR.         SP                             : Entered      - ENTERED BY
SRVC.         SCHLUMBERGER                   : Scn          - SERVICE COMPANY
STRT.M        210                            : top_depth    - START DEPTH
STOP.M        420                            : bot_depth    - STOP DEPTH
STEP.M        0.25                           : increment    - STEP LENGTH
 NULL. -999.2500:NULL Value
~CURVE INFORMATION BLOCK
#MNEM UNIT       ERCB CURVE CODE    CURVE DESCRIPTION
#-----------   ------------------   ----------------------------------
DEPT.M        00 001 00 00         : DEPTH        - DEPTH
ILD .OHMM     00 120 00 00         : RESD         - DEEP RESISTIVITY (DIL)
DPHI.V/V      00 890 00 00         : PHID         - DENSITY POROSITY (LIMESTONE)
NPHI.V/V      00 330 00 00         : PHIN         - NEUTRON POROSITY (LIMESTONE)
GR  .API      00 310 00 00         : GR           - GAMMA RAY
~PARAMETER INFORMATION
#MNEM.UNIT           DATA             DESCRIPTION OF MNEMONIC
#---------         -----------     ------------------------------
GL  .M        598                  : gl           - GROUND LEVEL ELEVATION
EREF.M        601.9                : kb           - ELEVATION OF DEPTH REFERENCE
DATM.M        598                  : datum        - DATUM ELEVATION
TDD .M        432                  : tdd          - TOTAL DEPTH DRILLER
RUN .         ONE                  : Run          - RUN NUMBER
ENG .         BILL                 : Engineer     - RECORDING ENGINEER
WIT .         JIM                  : Witness      - WITNESSED BY
MUD .         GEL                  : Mud_type     - MUD TYPE
MATR.         LIMESTONE            : Logunit      - NEUTRON MATRIX
TMAX.C        20                   : BHT          - MAXIMUM RECORDED TEMPERATURE
BHTD.M        432                  : BHTDEP       - MAXIMUM RECORDED TEMPERATURE
MATR.         1                    : LOGUNIT      - NEUTRON MATRIX
RMT .C        25                   : MDTP         - TEMPERATURE OF MUD
NEUT.         1                    : NEUTRON      - NEUTRON TYPE
RESI.         0                    : RESIST       - RESISTIVITY TYPE
RMC .OHMM     0.25                 : RMC          - RESISTIVITY OF MUD CAKE
RMF .OHMM     0.25                 : RMF          - RESISTIVITY OF MUD FILTRATE
SUFT.C        15                   : SUFT         - SURFACE TEMPERATURE
~A  DEPTH     RESD     PHID     PHIN       GR
# ...
  297.000    1.539    0.310    0.444   57.025
  297.250    1.540    0.309    0.416   58.884
  297.500    1.541    0.309    0.431   62.603
  297.750    1.543    0.309    0.428   65.083
  298.000    1.543    0.309    0.427   62.603
  298.250    1.545    0.309    0.389   63.223
  298.500    1.546    0.307    0.400   58.884
  298.750    1.547    0.305    0.394   59.504
  299.000    1.548    0.301    0.410   63.223
  299.250    1.549    0.299    0.412   65.703
  299.500    1.522    0.302    0.438   62.603
  299.750    1.522    0.312    0.449   60.744
  300.000    1.523    0.315    0.430   59.504
  300.250    1.468    0.313    0.418   61.983
  300.500    1.442    0.313    0.391   58.884
  300.750    1.389    0.313    0.385   57.025
  301.000    1.390    0.307    0.387   57.025
  301.250    1.365    0.305    0.410   61.364
  301.500    1.340    0.301    0.420   62.603
  301.750    1.341    0.301    0.430   60.124
  302.000    1.342    0.306    0.435   61.983
  302.250    1.369    0.308    0.421   70.041
  302.500    1.397    0.308    0.461   71.281
  302.750    1.397    0.306    0.485   66.942
  303.000    1.426    0.302    0.446   61.983
  303.250    1.426    0.301    0.437   63.843
  303.500    1.511    0.297    0.421   58.264
  303.750    1.632    0.296    0.382   69.421
  304.000    1.938    0.277    0.390   75.000
  304.250    2.215    0.256    0.394   73.141
  304.500    2.437    0.241    0.397   80.579
  304.750    2.533    0.235    0.405   79.959
  305.000    2.683    0.243    0.409   75.000
  305.250    2.737    0.251    0.440   79.959
  305.500    2.739    0.247    0.456   81.198
  305.750    2.742    0.250    0.470   80.579
  306.000    2.744    0.249    0.451   75.620
  306.250    2.746    0.245    0.447   84.297
  306.500    2.749    0.237    0.436   85.537
  306.750    2.751    0.234    0.422   84.917
  307.000    2.752    0.240    0.416   80.579
  307.250    2.807    0.264    0.431   85.537
  307.500    2.809    0.284    0.444   85.537
  307.750    2.865    0.331    0.457   78.719
  308.000    2.922    0.325    0.460   84.917
  308.250    2.980    0.319    0.453   83.678
  308.500    3.041    0.321    0.464   84.917
  308.750    3.043    0.304    0.484   84.297
  309.000    3.045    0.294    0.502   86.157
  309.250    3.105    0.288    0.490   93.595
  309.500    3.107    0.286    0.504   86.157
  309.750    3.110    0.299    0.508   85.537
  310.000    3.114    0.320    0.498   88.016
  310.250    3.115    0.267    0.472   82.438
  310.500    3.059    0.239    0.471   90.496
  310.750    3.060    0.243    0.451   88.016
  311.000    3.007    0.249    0.456   88.636
  311.250    3.009    0.269    0.485   91.736
  311.500    3.012    0.270    0.499   88.636
  311.750    3.014    0.258    0.508   95.454
  312.000    3.016    0.244    0.485   94.215
  312.250    3.018    0.252    0.484  100.413
  312.500    3.019    0.254    0.505  101.033
  312.750    2.966    0.250    0.523   96.074
  313.000    2.968    0.239    0.516   97.314
  313.250    2.970    0.263    0.526   99.793
  313.500    2.917    0.277    0.534  101.033
  313.750    2.863    0.295    0.545   96.074
  314.000    2.759    0.286    0.551   97.934
  314.250    2.658    0.281    0.493  103.512
  314.500    2.466    0.272    0.493  103.512
  314.750    2.376    0.264    0.529  109.091
  315.000    2.289    0.262    0.561  107.231
  315.250    2.291    0.260    0.579  105.372
  315.500    2.337    0.251    0.542  103.512
  315.750    2.383    0.250    0.535  101.653
  316.000    2.431    0.255    0.496  100.413
  316.250    2.432    0.259    0.495  106.612
  316.500    2.481    0.264    0.510  111.570
  316.750    2.483    0.275    0.488  109.091
  317.000    2.485    0.288    0.468  109.711
  317.250    2.534    0.289    0.473  106.612
  317.500    2.635    0.273    0.469  101.033
  317.750    2.687    0.258    0.449   95.454
  318.000    2.740    0.247    0.441   92.355
  318.250    2.640    0.263    0.475   87.397
  318.500    2.592    0.281    0.502   82.438
  318.750    2.405    0.263    0.449   75.000
  319.000    2.406    0.262    0.448   75.620
  319.250    2.319    0.260    0.459   84.297
  319.500    2.277    0.263    0.448   86.157
  319.750    2.279    0.262    0.457   89.256
  320.000    2.324    0.256    0.474   90.496
  320.250    2.371    0.241    0.461   92.355
  320.500    2.373    0.237    0.437   83.058
  320.750    2.330    0.246    0.436   84.297
  321.000    2.288    0.256    0.452   92.355
  321.250    2.246    0.267    0.464   91.736
  321.500    2.164    0.274    0.459   84.917
  321.750    2.046    0.279    0.440   90.496
  322.000    1.971    0.275    0.400   83.058
  322.250    1.899    0.284    0.385   79.339
  322.500    1.729    0.279    0.374   71.281
  322.750    1.634    0.273    0.368   61.983
  323.000    1.574    0.286    0.396   66.942
  323.250    1.546    0.291    0.423   71.901
  323.500    1.518    0.292    0.436   75.000
  323.750    1.519    0.290    0.450   75.620
  324.000    1.520    0.290    0.452   75.620
  324.250    1.551    0.290    0.447   76.240
  324.500    1.582    0.298    0.434   71.901
  324.750    1.644    0.306    0.418   75.000
  325.000    1.709    0.308    0.440   75.620
  325.250    1.743    0.309    0.442   72.521
  325.500    1.712    0.309    0.445   68.802
  325.750    1.713    0.311    0.446   68.802
  326.000    1.815    0.306    0.436   67.562
  326.250    1.960    0.292    0.440   70.661
  326.500    2.116    0.269    0.455   73.141
  326.750    2.328    0.249    0.461   72.521
  327.000    2.420    0.230    0.477   83.678
  327.250    2.515    0.230    0.464   89.876
  327.500    2.615    0.232    0.490   88.016
  327.750    2.719    0.238    0.495   89.876
  328.000    2.826    0.251    0.457   83.678
  328.250    2.937    0.257    0.424   88.636
  328.500    2.996    0.250    0.415   92.975
  328.750    2.998    0.247    0.426   95.454
  329.000    2.945    0.254    0.390   91.116
  329.250    2.891    0.263    0.389   87.397
  329.500    2.733    0.263    0.432   83.678
  329.750    2.583    0.256    0.485   89.256
  330.000    2.264    0.260    0.513   87.397
  330.250    2.022    0.268    0.537   85.537
  330.500    1.875    0.308    0.539   90.496
  330.750    1.807    0.294    0.539   94.215
  331.000    1.774    0.285    0.529   97.314
  331.250    1.810    0.293    0.533   96.074
  331.500    1.917    0.294    0.531   98.554
  331.750    2.070    0.293    0.528   95.454
  332.000    2.193    0.295    0.533   97.314
  332.250    2.194    0.306    0.542   93.595
  332.500    2.155    0.316    0.555   94.835
  332.750    2.116    0.325    0.571   96.694
  333.000    2.000    0.325    0.525   99.793
  333.250    1.927    0.300    0.516   90.496
  333.500    1.857    0.296    0.433   83.058
  333.750    1.789    0.313    0.392   70.661
  334.000    1.660    0.324    0.398   70.041
  334.250    1.569    0.340    0.376   62.603
  334.500    1.570    0.349    0.377   57.645
  334.750    1.513    0.352    0.371   58.884
  335.000    1.514    0.350    0.375   58.264
  335.250    1.544    0.348    0.377   57.025
  335.500    1.545    0.345    0.367   52.066
  335.750    1.547    0.344    0.367   55.785
  336.000    1.577    0.344    0.381   60.124
  336.250    1.703    0.343    0.365   60.744
  336.500    1.947    0.341    0.374   58.884
  336.750    2.356    0.338    0.359   65.083
  337.000    2.905    0.330    0.312   59.504
  337.250    3.320    0.307    0.260   57.645
  337.500    3.452    0.123    0.237   55.165
  337.750    3.263    0.147    0.217   52.066
  338.000    2.859    0.185    0.328   58.264
  338.250    2.505    0.246    0.381   64.463
  338.500    2.074    0.302    0.389   68.802
  338.750    1.924    0.335    0.393   58.264
  339.000    1.818    0.330    0.383   58.884
  339.250    1.786    0.334    0.376   61.983
  339.500    1.821    0.337    0.386   64.463
  339.750    1.823    0.323    0.392   63.843
  340.000    1.859    0.320    0.388   66.942
  340.250    1.896    0.320    0.384   65.703
