~VERSION INFORMATION
 VERS.                 2.0:   CWLS LOG ASCII STANDARD -VERSION 2.0
 WRAP.                  NO:   ONE LINE PER DEPTH STEP
~WELL INFORMATION BLOCK
#MNEM.UNIT           DATA                    DESCRIPTION OF MNEMONIC
#---------    -------------------            -------------------------------
# Generated from Intellog Unique Number	CS_67_68/WELL/2165
WELL.         GEOG et al HYLO                : Well_name    - WELL
LOC .         00/06-03-067-14W4/0            : Location     - LOCATION
UWI .         00/06-03-067-14W4/0            : Uwi          - UNIQUE WELL ID
ENTR.         SP                             : Entered      - ENTERED BY
SRVC.         SCHLUMBERGER                   : Scn          - SERVICE COMPANY
STRT.M        335                            : top_depth    - START DEPTH
STOP.M        520                            : bot_depth    - STOP DEPTH
STEP.M        0.25                           : increment    - STEP LENGTH
 NULL. -999.2500:NULL Value
~CURVE INFORMATION BLOCK
#MNEM UNIT       ERCB CURVE CODE    CURVE DESCRIPTION
#-----------   ------------------   ----------------------------------
DEPT.M        00 001 00 00         : DEPTH        - DEPTH
ILD .OHMM     00 120 00 00         : RESD         - DEEP RESISTIVITY (DIL)
DPHI.V/V      00 890 00 00         : PHID         - DENSITY POROSITY (LIMESTONE)
NPHI.V/V      00 330 00 00         : PHIN         - NEUTRON POROSITY (LIMESTONE)
GR  .API      00 310 00 00         : GR           - GAMMA RAY
CALI.MM       00 280 01 00         : CAL          - CALIPER
~PARAMETER INFORMATION
#MNEM.UNIT           DATA             DESCRIPTION OF MNEMONIC
#---------         -----------     ------------------------------
GL  .M        598.4                : gl           - GROUND LEVEL ELEVATION
EREF.M        601.36               : kb           - ELEVATION OF DEPTH REFERENCE
DATM.M        601.36               : datum        - DATUM ELEVATION
TDD .M        520                  : tdd          - TOTAL DEPTH DRILLER
RUN .         ONE                  : Run          - RUN NUMBER
ENG .         BILL                 : Engineer     - RECORDING ENGINEER
WIT .         JIM                  : Witness      - WITNESSED BY
MUD .         GEL                  : Mud_type     - MUD TYPE
MATR.         LIMESTONE            : Logunit      - NEUTRON MATRIX
TMAX.C        16.7                 : BHT          - MAXIMUM RECORDED TEMPERATURE
BHTD.M        521.2                : BHTDEP       - MAXIMUM RECORDED TEMPERATURE
MATR.         1                    : LOGUNIT      - NEUTRON MATRIX
RMT .C        25                   : MDTP         - TEMPERATURE OF MUD
NEUT.         1                    : NEUTRON      - NEUTRON TYPE
RESI.         0                    : RESIST       - RESISTIVITY TYPE
RMC .OHMM     0.25                 : RMC          - RESISTIVITY OF MUD CAKE
RMF .OHMM     0.25                 : RMF          - RESISTIVITY OF MUD FILTRATE
SUFT.C        15                   : SUFT         - SURFACE TEMPERATURE
~A  DEPTH     RESD     PHID     PHIN       GR      CAL
  335.000    2.378    0.234    0.456   97.539  223.043
  335.250    2.369    0.210    0.443   96.210  221.637
  335.500    2.359    0.193    0.432   96.032  220.736
  335.750    2.368    0.186    0.431   99.550  221.550
  336.000    2.394    0.197    0.439  102.947  222.769
  336.250    2.470    0.210    0.449  105.859  222.776
  336.500    2.535    0.220    0.455  108.590  221.268
  336.750    2.572    0.228    0.441  104.294  218.044
  337.000    2.625    0.236    0.446  101.450  215.931
  337.250    2.703    0.234    0.448   99.394  215.737
  337.500    2.759    0.244    0.439   98.368  214.937
  337.750    2.743    0.246    0.423   98.070  213.933
  338.000    2.692    0.237    0.417   94.560  211.517
  338.250    2.637    0.244    0.417   94.141  208.999
  338.500    2.512    0.242    0.408   91.843  208.603
  338.750    2.434    0.229    0.408   90.150  211.235
  339.000    2.376    0.247    0.395   89.185  214.372
  339.250    2.442    0.266    0.385   86.524  218.216
  339.500    2.669    0.274    0.370   81.076  222.161
  339.750    2.907    0.128    0.325   75.203  226.611
  340.000    2.649    0.281    0.312   67.574  201.678
  340.250    2.387    0.298    0.321   57.704  185.328
  340.500    2.245    0.309    0.324   52.013  177.762
  340.750    2.211    0.297    0.319   50.078  177.164
  341.000    2.103    0.287    0.307   54.324  181.715
  341.250    1.888    0.277    0.300   57.478  184.751
  341.500    1.750    0.284    0.307   60.148  184.858
  341.750    1.642    0.296    0.314   56.699  183.856
  342.000    1.573    0.302    0.323   51.796  184.772
  342.250    1.536    0.305    0.329   49.317  186.597
  342.500    1.504    0.302    0.333   48.473  188.017
  342.750    1.515    0.301    0.328   48.598  188.630
  343.000    1.675    0.304    0.327   51.571  188.132
  343.250    1.741    0.279    0.332   54.604  187.533
  343.500    1.715    0.256    0.337   54.972  187.137
  343.750    1.693    0.265    0.333   58.551  185.528
  344.000    1.760    0.266    0.335   63.947  183.717
  344.250    1.966    0.256    0.332   63.890  182.413
  344.500    2.239    0.251    0.336   65.349  183.126
  344.750    2.520    0.262    0.334   69.776  184.748
  345.000    2.765    0.257    0.330   72.506  183.948
  345.250    2.988    0.256    0.331   76.025  182.946
  345.500    3.188    0.249    0.335   78.876  181.539
  345.750    3.414    0.211    0.335   81.788  180.334
  346.000    3.649    0.198    0.348   84.761  179.534
  346.250    3.724    0.187    0.367   88.461  179.338
  346.500    3.419    0.179    0.380   91.433  180.659
  346.750    2.909    0.164    0.394   94.952  182.988
  347.000    2.607    0.179    0.410   98.833  186.528
  347.250    2.310    0.210    0.421  103.199  191.989
  347.500    2.090    0.239    0.432  106.596  197.750
  347.750    1.943    0.250    0.438  109.508  205.431
  348.000    2.058    0.293    0.431  102.121  215.132
  348.250    2.116    0.328    0.412   96.007  220.288
  348.500    2.195    0.266    0.396   89.892  197.678
  348.750    2.308    0.233    0.383   84.141  189.102
  349.000    2.449    0.238    0.389   78.026  187.394
  349.250    2.545    0.230    0.377   74.638  186.794
  349.500    2.583    0.218    0.372   74.763  186.297
  349.750    2.602    0.212    0.386   78.040  186.203
  350.000    2.630    0.263    0.380   80.467  184.897
  350.250    2.684    0.282    0.376   81.925  182.683
  350.500    2.754    0.262    0.376   81.869  181.983
  350.750    2.863    0.237    0.374   81.509  183.606
  351.000    3.049    0.228    0.375   82.786  185.430
  351.250    3.187    0.231    0.376   85.335  186.144
  351.500    3.253    0.233    0.379   87.580  186.252
  351.750    3.307    0.236    0.390   88.311  185.856
  352.000    3.418    0.229    0.389   87.165  185.963
  352.250    3.567    0.224    0.384   85.897  185.970
  352.500    3.756    0.236    0.379   84.811  186.281
  352.750    4.136    0.207    0.375   85.360  186.389
  353.000    4.166    0.174    0.375   88.333  186.699
  353.250    4.074    0.143    0.375   91.730  186.908
  353.500    3.775    0.117    0.375   91.734  186.713
  353.750    3.576    0.165    0.363   91.132  186.720
  354.000    3.401    0.184    0.376   93.862  188.545
  354.250    3.289    0.192    0.390   97.623  192.188
  354.500    3.246    0.209    0.407  100.475  195.525
  354.750    3.257    0.229    0.418  105.326  200.481
  355.000    3.361    0.246    0.426  109.025  205.032
  355.250    3.546    0.243    0.410  112.180  208.875
  355.500    3.625    0.216    0.400  114.486  209.791
  355.750    3.461    0.190    0.377  111.704  198.085
  356.000    3.242    0.213    0.364  108.861  191.024
  356.250    2.944    0.237    0.357  103.837  187.498
  356.500    2.708    0.254    0.366   96.147  185.183
  356.750    2.570    0.264    0.375   89.002  183.271
  357.000    2.485    0.264    0.381   85.675  181.966
  357.250    2.508    0.275    0.379   87.557  180.962
  357.500    2.517    0.267    0.363   88.955  179.859
  357.750    2.583    0.261    0.356   90.474  179.059
  358.000    2.690    0.257    0.359   91.447  178.560
  358.250    2.719    0.258    0.357   92.118  179.274
  358.500    2.644    0.265    0.352   92.546  182.815
  358.750    2.482    0.269    0.352   91.217  184.438
  359.000    2.266    0.244    0.363   88.072  185.051
  359.250    2.135    0.220    0.370   86.319  184.857
  359.500    1.979    0.228    0.367   86.928  184.560
  359.750    1.854    0.247    0.376   90.508  184.366
  360.000    1.760    0.264    0.379   93.177  184.374
  360.250    1.686    0.277    0.379   91.243  184.078
  360.500    1.636    0.285    0.373   84.098  183.781
  360.750    1.615    0.301    0.370   73.864  181.870
  361.000    1.621    0.305    0.367   66.477  179.252
  361.250    1.614    0.309    0.365   64.119  177.946
  361.500    1.617    0.313    0.369   63.032  179.165
  361.750    1.675    0.307    0.365   62.976  181.596
  362.000    1.928    0.302    0.357   63.344  183.420
  362.250    2.038    0.292    0.353   63.288  185.244
  362.500    1.942    0.287    0.348   62.322  186.463
  362.750    1.823    0.296    0.349   61.297  187.378
  363.000    1.843    0.302    0.353   60.695  188.395
  363.250    1.934    0.307    0.359   62.033  189.211
  363.500    1.919    0.303    0.360   65.369  189.420
  363.750    1.788    0.295    0.375   69.432  189.325
  364.000    1.752    0.289    0.373   68.588  188.222
  364.250    1.681    0.293    0.371   67.078  186.007
  364.500    1.629    0.303    0.378   65.810  183.793
  364.750    1.575    0.311    0.386   65.087  183.194
  365.000    1.532    0.314    0.392   64.667  183.101
  365.250    1.514    0.319    0.398   64.732  183.007
  365.500    1.511    0.323    0.379   65.403  182.408
  365.750    1.554    0.329    0.369   66.558  182.011
  366.000    1.588    0.326    0.362   67.229  181.917
  366.250    1.660    0.313    0.367   67.293  181.318
  366.500    1.636    0.303    0.374   66.874  181.023
  366.750    1.716    0.315    0.367   66.454  181.030
  367.000    1.968    0.322    0.352   66.095  182.048
  367.250    2.321    0.328    0.336   65.129  182.760
  367.500    2.970    0.328    0.321   63.013  184.182
  367.750    3.974    0.316    0.295   60.534  186.208
  368.000    5.386    0.272    0.255   59.326  186.820
  368.250    6.616    0.153    0.233   59.573  186.827
  368.500    7.860    0.102    0.219   60.668  185.320
  368.750    9.032    0.107    0.213   60.611  182.803
  369.000   10.264    0.113    0.207   57.708  180.992
  369.250   10.669    0.094    0.202   55.046  182.413
  369.500    9.351    0.077    0.199   53.354  186.459
  369.750    7.498    0.069    0.229   52.692  188.889
  370.000    5.676    0.159    0.262   53.302  189.502
  370.250    4.155    0.251    0.327   55.124  186.480
  370.500    3.105    0.281    0.359   58.400  182.348
  370.750    2.485    0.304    0.377   61.130  181.143
  371.000    2.198    0.313    0.394   63.254  180.948
  371.250    1.992    0.317    0.378   62.895  180.451
