~VERSION INFORMATION
 VERS.                 2.0:   CWLS LOG ASCII STANDARD -VERSION 2.0
 WRAP.                  NO:   ONE LINE PER DEPTH STEP
~WELL INFORMATION BLOCK
#MNEM.UNIT           DATA                    DESCRIPTION OF MNEMONIC
#---------    -------------------            -------------------------------
# Generated from Intellog Unique Number	CS_69_70/WELL/849
NULL.         -999.25                        : NULL_VALUE
WELL.         AMOCO CANADA PETROLEUM         : Well_name    - WELL              
LOC .         00/07-31-070-14W4/0            : Location     - LOCATION          
UWI .         00/07-31-070-14W4/0            : Uwi          - UNIQUE WELL ID    
ENTR.         SP                             : Entered      - ENTERED BY        
SRVC.         SCHLUMBERGER                   : Scn          - SERVICE COMPANY   
STRT.F        1050                           : top_depth    - START DEPTH       
STOP.F        1760.3                         : bot_depth    - STOP DEPTH        
STEP.F        0.82                           : increment    - STEP LENGTH       
~CURVE INFORMATION BLOCK
#MNEM UNIT       ERCB CURVE CODE    CURVE DESCRIPTION
#-----------   ------------------   ----------------------------------
DEPT.F        00 001 00 00         : DEPTH        - DEPTH                       
GR  .API      00 310 00 00         : GR           - GAMMA RAY                   
NPHI.V/V      00 330 00 00         : PHIN         - NEUTRON POROSITY (SANDSTONE)
DPHI.V/V      00 890 00 00         : PHID         - DENSITY POROSITY (SANDSTONE)
ILD .OHMM     00 120 00 00         : RESD         - DEEP RESISTIVITY (DIL)      
~PARAMETER INFORMATION       
#MNEM.UNIT           DATA             DESCRIPTION OF MNEMONIC
#---------         -----------     ------------------------------
GL  .F        2039.71              : gl           - GROUND LEVEL ELEVATION      
EREF.F        2053.71              : kb           - ELEVATION OF DEPTH REFERENCE
DATM.F        2039.71              : datum        - DATUM ELEVATION             
TDD .F        1900                 : tdd          - TOTAL DEPTH DRILLER         
RUN .         ONE                  : Run          - RUN NUMBER                  
ENG .         BILL                 : Engineer     - RECORDING ENGINEER          
WIT .         JIM                  : Witness      - WITNESSED BY                
MUD .         GEL                  : Mud_type     - MUD TYPE                    
MATR.         SANDSTONE            : Logunit      - NEUTRON MATRIX              
TMAX.C        25.5556              : BHT          - MAXIMUM RECORDED TEMPERATURE
BHTD.M        512.369              : BHTDEP       - MAXIMUM RECORDED TEMPERATURE
MATR.         1                    : LOGUNIT      - NEUTRON MATRIX              
RMT .C        25                   : MDTP         - TEMPERATURE OF MUD          
NEUT.         1                    : NEUTRON      - NEUTRON TYPE                
RESI.         0                    : RESIST       - RESISTIVITY TYPE            
RMC .OHMM     0.25                 : RMC          - RESISTIVITY OF MUD CAKE     
RMF .OHMM     0.25                 : RMF          - RESISTIVITY OF MUD FILTRATE 
SUFT.C        15                   : SUFT         - SURFACE TEMPERATURE         
~A  DEPTH       GR     PHIN     PHID     RESD
# ...
 1192.720   89.932    0.441    0.263    3.578
 1193.540   90.518    0.432    0.260    3.643
 1194.360   92.285    0.428    0.258    3.639
 1195.180   94.052    0.436    0.254    3.706
 1196.000   93.452    0.454    0.255    3.777
 1196.820   92.856    0.459    0.263    3.922
 1197.640   91.075    0.468    0.270    3.919
 1198.460   89.295    0.473    0.275    3.990
 1199.280   86.335    0.467    0.285    3.987
 1200.100   84.555    0.456    0.283    3.981
 1200.920   86.323    0.448    0.274    3.974
 1201.740   87.499    0.448    0.262    3.970
 1202.560   88.673    0.447    0.264    4.044
 1203.380   89.847    0.437    0.262    4.119
 1204.200   90.435    0.428    0.258    4.114
 1205.020   90.427    0.419    0.259    4.109
 1205.840   91.603    0.418    0.260    4.104
 1206.660   93.962    0.431    0.254    4.099
 1207.480   95.728    0.444    0.243    4.090
 1208.300   95.131    0.441    0.239    4.086
 1209.120   94.534    0.418    0.245    4.082
 1209.940   95.120    0.415    0.251    4.073
 1210.760   94.523    0.410    0.270    4.069
 1211.580   93.333    0.415    0.271    4.063
 1212.400   92.144    0.439    0.274    4.059
 1213.220   91.547    0.445    0.273    4.134
 1214.040   89.176    0.453    0.268    4.211
 1214.860   87.989    0.451    0.262    4.205
 1215.680   90.346    0.449    0.254    4.118
 1216.500   93.888    0.452    0.248    4.031
 1217.320   97.427    0.457    0.247    3.788
 1218.140   99.194    0.469    0.253    3.637
 1218.960  100.371    0.477    0.256    3.562
 1219.780   98.000    0.486    0.251    3.488
 1220.600   95.630    0.484    0.245    3.414
 1221.420   96.215    0.452    0.236    3.619
 1222.240   97.389    0.437    0.240    3.991
 1223.060   97.383    0.424    0.245    4.230
 1223.880   96.785    0.417    0.252    4.576
 1224.700   96.779    0.424    0.249    4.755
 1225.520   95.590    0.432    0.246    5.037
 1226.350   94.402    0.440    0.238    5.135
 1227.170   93.215    0.443    0.232    5.229
 1227.990   90.844    0.403    0.227    5.224
 1228.810   92.020    0.398    0.226    5.215
 1229.630   95.558    0.405    0.233    5.206
 1230.450   95.551    0.411    0.238    5.200
 1231.270   94.957    0.422    0.244    5.193
 1232.090   94.948    0.431    0.249    5.186
 1232.910   94.944    0.434    0.252    5.179
 1233.730   94.938    0.431    0.256    5.071
 1234.550   95.521    0.422    0.261    5.063
 1235.370   96.108    0.406    0.266    5.056
 1236.190   96.693    0.403    0.267    5.047
 1237.010   94.913    0.410    0.266    5.042
 1237.830   91.951    0.422    0.257    5.033
 1238.650   90.761    0.417    0.250    5.029
 1239.470   92.528    0.407    0.246    5.021
 1240.290   93.704    0.407    0.246    5.015
 1241.110   91.924    0.415    0.246    5.005
 1241.930   90.145    0.431    0.250    5.000
 1242.750   88.955    0.458    0.251    4.995
 1243.570   88.358    0.465    0.254    4.891
 1244.390   87.169    0.475    0.254    4.883
 1245.210   85.389    0.473    0.254    4.878
 1246.030   84.201    0.453    0.257    4.871
 1246.850   82.423    0.441    0.261    4.864
 1247.670   80.643    0.445    0.266    4.854
 1248.490   85.366    0.444    0.270    4.849
 1249.310   87.721    0.447    0.271    4.842
 1250.130   87.718    0.454    0.273    4.742
 1250.950   88.301    0.456    0.278    4.639
 1251.770   88.886    0.443    0.283    4.634
 1252.590   87.696    0.436    0.288    4.538
 1253.410   86.510    0.426    0.290    4.441
 1254.230   84.731    0.424    0.287    4.349
 1255.050   82.951    0.431    0.284    4.256
 1255.870   81.763    0.438    0.284    4.168
 1256.690   86.485    0.443    0.292    3.998
 1257.510   91.799    0.452    0.299    3.916
 1258.330   91.791    0.458    0.306    3.832
 1259.150   88.829    0.467    0.315    3.677
 1259.970   86.459    0.475    0.323    3.599
 1260.790   87.635    0.475    0.324    3.524
 1261.610   87.037    0.465    0.322    3.520
 1262.430   84.666    0.453    0.321    3.444
 1263.250   82.296    0.445    0.318    3.442
 1264.070   81.107    0.455    0.318    3.437
 1264.900   79.920    0.471    0.318    3.500
 1265.720   76.366    0.485    0.318    3.637
 1266.540   74.588    0.477    0.320    3.706
 1267.360   72.808    0.466    0.320    3.774
 1268.180   71.620    0.442    0.320    3.844
 1269.000   70.431    0.425    0.323    3.916
 1269.820   71.014    0.406    0.329    3.989
 1270.640   71.599    0.411    0.334    3.985
 1271.460   72.184    0.418    0.343    4.058
 1272.280   71.588    0.422    0.339    4.051
 1273.100   69.809    0.420    0.326    4.049
 1273.920   69.801    0.419    0.317    4.042
 1274.740   71.568    0.422    0.315    4.036
 1275.560   72.744    0.428    0.312    4.030
 1276.380   73.920    0.428    0.311    4.026
 1277.200   74.505    0.424    0.310    3.939
 1278.020   75.681    0.422    0.309    3.935
 1278.840   75.674    0.421    0.308    3.853
 1279.660   75.077    0.421    0.308    3.769
 1280.480   73.885    0.424    0.308    3.765
 1281.300   73.290    0.428    0.308    3.762
 1282.120   72.691    0.436    0.309    3.682
 1282.940   72.096    0.451    0.310    3.676
 1283.760   70.906    0.463    0.314    3.672
 1284.580   69.128    0.457    0.320    3.666
 1285.400   67.347    0.453    0.324    3.589
 1286.220   65.567    0.450    0.326    3.585
 1287.040   64.379    0.453    0.327    3.576
 1287.860   64.371    0.452    0.331    3.575
 1288.680   63.777    0.451    0.336    3.570
 1289.500   61.996    0.449    0.335    3.564
 1290.320   61.398    0.445    0.332    3.560
 1291.140   64.349    0.441    0.327    3.554
 1291.960   67.297    0.427    0.325    3.622
 1292.780   66.107    0.409    0.322    3.614
 1293.600   63.734    0.400    0.318    3.683
 1294.420   62.549    0.386    0.314    3.827
 1295.240   61.953    0.375    0.301    4.138
 1296.060   60.172    0.373    0.280    4.303
 1296.880   58.392    0.304    0.199    4.653
 1297.700   57.204    0.301    0.182    5.032
 1298.520   56.016    0.315    0.195    5.441
 1299.340   57.191    0.363    0.227    6.122
 1300.160   58.369    0.382    0.236    6.114
 1300.980   59.545    0.411    0.272    5.637
 1301.800   60.719    0.434    0.252    5.198
 1302.620   62.485    0.452    0.249    4.990
 1303.440   63.073    0.442    0.285    4.601
 1304.270   64.249    0.431    0.314    4.328
 1305.090   64.834    0.426    0.332    4.155
 1305.910   65.418    0.411    0.332    3.986
 1306.730   64.821    0.403    0.323    3.825
 1307.550   64.224    0.395    0.321    3.745
 1308.370   63.032    0.399    0.323    3.667
 1309.190   62.436    0.408    0.323    3.661
 1310.010   62.431    0.415    0.324    3.657
 1310.830   60.059    0.425    0.323    3.652
 1311.650   58.279    0.425    0.322    3.646
 1312.470   57.091    0.420    0.320    3.640
 1313.290   57.083    0.421    0.320    3.635
 1314.110   57.671    0.425    0.323    3.628
 1314.930   58.256    0.428    0.324    3.625
 1315.750   59.430    0.437    0.324    3.549
 1316.570   60.606    0.448    0.322    3.544
 1317.390   61.191    0.439    0.318    3.470
 1318.210   61.776    0.428    0.317    3.397
 1319.030   62.950    0.430    0.316    3.325
 1319.850   64.126    0.431    0.317    3.256
 1320.670   66.484    0.430    0.322    3.188
 1321.490   68.843    0.424    0.329    3.059
 1322.310   72.976    0.420    0.336    2.994
 1323.130   80.063    0.422    0.352    2.873
 1323.950   87.150    0.430    0.371    2.926
 1324.770   89.508    0.429    0.330    2.982
 1325.590   87.727    0.418    0.291    3.161
 1326.410   84.763    0.424    0.259    3.351
 1327.230   84.169    0.429    0.266    3.480
 1328.050   84.163    0.430    0.277    3.477
 1328.870   82.383    0.427    0.288    3.542
 1329.690   80.603    0.423    0.299    3.536
 1330.510   78.233    0.427    0.309    3.530
 1331.330   75.861    0.437    0.304    3.526
 1332.150   75.265    0.444    0.298    3.522
 1332.970   74.076    0.443    0.289    3.517
 1333.790   73.479    0.440    0.287    3.513
 1334.610   71.106    0.435    0.292    3.507
