~VERSION INFORMATION
 VERS.                 2.0:   CWLS LOG ASCII STANDARD -VERSION 2.0
 WRAP.                  NO:   ONE LINE PER DEPTH STEP
~WELL INFORMATION BLOCK
#MNEM.UNIT           DATA                    DESCRIPTION OF MNEMONIC
#---------    -------------------            -------------------------------
# Generated from Intellog Unique Number	CW_82_90/WELL/3054
WELL.         TEXEX WOODEN                   : Well_name    - WELL
LOC .         00/06-11-087-22W4/0            : Location     - LOCATION
UWI .         00/06-11-087-22W4/0            : Uwi          - UNIQUE WELL ID
ENTR.         MAX                            : Entered      - ENTERED BY
SRVC.         SCHLUMBERGER                   : Scn          - SERVICE COMPANY
STRT.M        106.68                         : top_depth    - START DEPTH
STOP.M        335.18                         : bot_depth    - STOP DEPTH
STEP.M        0.25                           : increment    - STEP LENGTH
 NULL. -999.2500:NULL Value
~CURVE INFORMATION BLOCK
#MNEM UNIT       ERCB CURVE CODE    CURVE DESCRIPTION
#-----------   ------------------   ----------------------------------
DEPT.M        00 001 00 00         : DEPTH        - DEPTH
GR  .API      00 310 00 00         : GR           - GAMMA RAY
CALI.MM       00 280 01 00         : CAL          - CALIPER
DPHI.V/V      00 890 00 00         : PHID         - DENSITY POROSITY (SANDSTONE)
NPHI.V/V      00 330 00 00         : PHIN         - NEUTRON POROSITY (SANDSTONE)
ILD .OHMM     00 120 00 00         : RESD         - DEEP RESISTIVITY (DIL)
~PARAMETER INFORMATION
#MNEM.UNIT           DATA             DESCRIPTION OF MNEMONIC
#---------         -----------     ------------------------------
GL  .M        559.613              : gl           - GROUND LEVEL ELEVATION
EREF.M        563.27               : kb           - ELEVATION OF DEPTH REFERENCE
DATM.M        559.613              : datum        - DATUM ELEVATION
TDD .M        338.633              : tdd          - TOTAL DEPTH DRILLER
RUN .         ONE                  : Run          - RUN NUMBER
ENG .         BILL                 : Engineer     - RECORDING ENGINEER
WIT .         JIM                  : Witness      - WITNESSED BY
MUD .         GEL                  : Mud_type     - MUD TYPE
MATR.         SANDSTONE            : Logunit      - NEUTRON MATRIX
TMAX.C        22.2222              : BHT          - MAXIMUM RECORDED TEMPERATURE
BHTD.M        338.633              : BHTDEP       - MAXIMUM RECORDED TEMPERATURE
MATR.         1                    : LOGUNIT      - NEUTRON MATRIX
RMT .C        14.4444              : MDTP         - TEMPERATURE OF MUD
NEUT.         1                    : NEUTRON      - NEUTRON TYPE
RESI.         0                    : RESIST       - RESISTIVITY TYPE
RMC .OHMM     5.92                 : RMC          - RESISTIVITY OF MUD CAKE
RMF .OHMM     5.92                 : RMF          - RESISTIVITY OF MUD FILTRATE
SUFT.C        -20.5556             : SUFT         - SURFACE TEMPERATURE
~A  DEPTH       GR      CAL     PHID     PHIN     RESD
# ...
  216.180   92.657  210.899    0.224    0.536    5.409
  216.430   92.959  210.439    0.239    0.534    5.560
  216.680   91.242  209.486    0.240    0.529    5.872
  216.930   86.344  209.030    0.250    0.524    6.202
  217.180   81.446  209.064    0.259    0.516    6.551
  217.430   80.019  208.605    0.266    0.511    6.919
  217.680   81.771  208.639    0.259    0.535    7.308
  217.930   79.187  208.666    0.259    0.522    7.860
  218.180   76.602  208.700    0.258    0.517    8.378
  218.430   75.462  209.220    0.280    0.509    8.930
  218.680   72.589  209.740    0.280    0.460    9.431
  218.930   71.159  209.771    0.270    0.458    9.782
  219.180   70.311  209.808    0.230    0.480    9.874
  219.430   69.169  209.349    0.253    0.484    9.186
  219.680   70.349  208.886    0.252    0.490    9.188
  219.930   71.816  208.426    0.251    0.497    9.191
  220.180   72.118  207.488    0.259    0.504    9.277
  220.430   70.694  207.029    0.268    0.507    8.788
  220.680   70.421  206.569    0.266    0.491    8.028
  220.930   72.755  206.596    0.276    0.475    6.883
  221.180   76.534  206.630    0.260    0.495    6.288
  221.430   85.809  207.150    0.246    0.519    5.641
  221.680   90.748  208.650    0.231    0.506    5.248
  221.930   91.347  210.640    0.210    0.493    5.345
  222.180   94.547  212.144    0.235    0.487    4.883
  222.430   96.011  212.668    0.221    0.504    4.626
  222.680   96.612  213.192    0.204    0.537    4.422
  222.930   97.496  213.704    0.199    0.560    4.504
  223.180   98.671  213.738    0.199    0.558    4.671
  223.430   96.953  213.773    0.192    0.544    5.025
  223.680   91.185  212.819    0.186    0.536    5.404
  223.930   88.893  212.854    0.208    0.530    6.137
  224.180   86.307  213.374    0.219    0.506    6.601
  224.430   84.298  212.918    0.221    0.489    6.785
  224.680   79.398  210.507    0.214    0.484    6.974
  224.930   79.996  210.040    0.210    0.490    7.169
  225.180   77.994  208.118    0.211    0.494    7.435
  225.430   77.433  206.675    0.238    0.489    7.854
  225.680   77.159  205.236    0.238    0.482    8.219
  225.930   76.601  203.796    0.239    0.481    9.002
  226.180   77.200  205.296    0.234    0.481    9.595
  226.430   78.662  208.273    0.230    0.485    9.425
  226.680   82.730  208.794    0.253    0.493    7.935
  226.930   89.983  208.824    0.258    0.487    6.621
  227.180   94.053  208.854    0.253    0.494    5.279
  227.430   95.515  209.865    0.246    0.533    4.956
  227.680   91.775  211.866    0.238    0.540    5.379
  227.930   77.906  212.386    0.226    0.503    5.944
  228.180   70.981  212.413    0.255    0.491    7.392
  228.430   70.420  210.973    0.277    0.481    8.319
  228.680   69.255  211.613    0.293    0.483    9.091
  228.930   70.447  210.655    0.283    0.501    9.602
  229.180   71.632  209.705    0.264    0.513    8.942
  229.430   74.575  209.732    0.258    0.512    8.030
  229.680   78.974  209.771    0.253    0.506    6.833
  229.930   84.838  209.799    0.234    0.529    5.920
  230.180   87.781  209.830    0.233    0.551    4.815
  230.430   88.676  209.375    0.240    0.528    4.248
  230.680   88.697  209.410    0.224    0.495    4.251
  230.930   88.425  209.433    0.209    0.497    4.490
  231.180   85.524  208.479    0.220    0.486    4.961
  231.430   82.326  209.009    0.208    0.434    5.734
  231.680   74.746  211.518    0.185    0.407    6.933
  231.930   67.462  213.529    0.123    0.418    8.613
  232.180   66.898  214.055    0.107    0.438   12.469
  232.430   65.746  215.080    0.131    0.393   14.676
  232.680   60.800  214.121    0.120    0.271   15.784
  232.930   54.974  213.662    0.095    0.209   16.522
  233.180   57.915  214.687    0.004    0.272   16.238
  233.430   66.409  214.714    0.045    0.363   15.392
  233.680   79.870  213.760    0.063    0.413   13.336
  233.930   85.148  214.286    0.125    0.464   11.658
  234.180   90.138  215.805    0.123    0.488   10.377
  234.430   89.865  216.826    0.153    0.488    9.489
  234.680   88.132  217.847    0.181    0.485    8.838
  234.930   86.980  219.858    0.190    0.468    8.530
  235.180   86.706  214.945    0.207    0.449    8.382
  235.430   90.238  215.970    0.188    0.452    8.313
  235.680   92.007  219.465    0.190    0.461    8.319
  235.930   92.030  219.995    0.185    0.490    8.326
  236.180   91.460  221.016    0.159    0.492    8.330
  236.430   90.310  218.569    0.186    0.458    8.336
  236.680   85.658  216.131    0.172    0.445    8.343
  236.930   87.719  219.134    0.149    0.452    8.348
  237.180   90.957  217.689    0.166    0.468    8.353
  237.430   92.436  216.723    0.182    0.473    8.285
  237.680   92.457  216.260    0.195    0.494    8.216
  237.930   92.183  216.295    0.189    0.503    8.222
  238.180   89.572  215.341    0.179    0.512    8.153
  238.430   89.006  210.424    0.167    0.515    8.086
  238.680   90.196  210.456    0.168    0.509    8.093
  238.930   89.920  211.481    0.165    0.506    8.170
  239.180   89.941  212.502    0.160    0.501    8.250
  239.430   90.838  214.516    0.164    0.492    8.256
  239.680   92.025  213.562    0.173    0.496    8.261
  239.930   93.507  213.593    0.183    0.496    8.121
  240.180   93.525  214.610    0.186    0.499    8.052
  240.430   93.546  214.653    0.178    0.518    7.843
  240.680   93.270  214.676    0.169    0.501    7.639
  240.930   91.538  215.210    0.176    0.484    7.243
  241.180   91.851  217.225    0.166    0.487    7.054
  241.430   93.915  219.227    0.151    0.487    6.997
  241.680   94.810  222.239    0.162    0.471    7.192
  241.930   94.536  225.231    0.172    0.485    7.666
  242.180   92.806  225.769    0.195    0.496    8.245
  242.430   90.193  219.361    0.186    0.455    8.787
  242.680   78.232  215.932    0.175    0.401    9.451
  242.930   69.777  215.473    0.147    0.323   10.163
  243.180   62.490  214.020    0.118    0.266   11.962
  243.430   62.514  213.062    0.026    0.254   13.578
  243.680   64.867  211.609    0.011    0.282   15.695
  243.930   67.518  210.654    0.015    0.356   17.031
  244.180   68.997  210.191    0.103    0.381   15.436
  244.430   69.020  210.226    0.152    0.429   13.739
  244.680   70.792  209.763    0.270    0.472   11.797
  244.930   74.611  210.289    0.264    0.484    9.949
  245.180   79.010  210.823    0.258    0.487    9.346
  245.430   85.751  211.840    0.241    0.484    8.471
  245.680   90.737  213.850    0.225    0.477    7.539
  245.930   92.803  218.342    0.216    0.469    6.591
  246.180   93.114  221.342    0.206    0.484    6.082
  246.430   92.263  222.371    0.198    0.497    5.925
  246.680   89.942  222.399    0.187    0.499    5.982
  246.930   86.451  222.426    0.183    0.497    6.205
  247.180   81.211  221.472    0.186    0.493    6.857
  247.430   74.511  216.064    0.231    0.490    8.216
  247.680   69.562  212.636    0.251    0.481    9.243
  247.930   64.322  212.177    0.264    0.462   10.684
  248.180   63.760  211.706    0.259    0.445   12.801
  248.430   64.945  210.751    0.263    0.429   14.534
  248.680   67.596  210.783    0.223    0.404   14.674
  248.930   69.662  210.818    0.176    0.404   14.685
  249.180   70.557  211.344    0.146    0.447   14.433
  249.430   70.868  211.874    0.170    0.462   13.932
  249.680   70.304  212.408    0.250    0.447   13.209
  249.930   70.620  212.431    0.244    0.444   12.409
  250.180   71.514  212.463    0.228    0.464   11.977
  250.430   71.821  212.993    0.238    0.472   12.096
  250.680   71.552  213.024    0.223    0.475   12.776
  250.930   70.109  213.067    0.206    0.479   13.865
  251.180   68.082  214.084    0.200    0.452   15.045
  251.430   65.471  214.112    0.242    0.418   17.236
  251.680   61.986  214.151    0.193    0.338   18.871
  251.930   59.372  213.683    0.116    0.268   20.666
  252.180   56.766  213.232    0.036    0.233   21.634
  252.430   64.671  213.259    0.010    0.242   21.265
