~VERSION INFORMATION
 VERS.                 2.0:   CWLS LOG ASCII STANDARD -VERSION 2.0
 WRAP.                  NO:   ONE LINE PER DEPTH STEP
~WELL INFORMATION BLOCK
#MNEM.UNIT           DATA                    DESCRIPTION OF MNEMONIC
#---------    -------------------            -------------------------------
# Generated from Intellog Unique Number	CW_70_72/WELL/3011
NULL.         -999.25                        : NULL_VALUE
WELL.         PEX CANAL 06-31                : Well_name    - WELL              
LOC .         06-31-070-23W4                 : Location     - LOCATION          
UWI .         00/06-31-070-23W4/0            : Uwi          - UNIQUE WELL ID    
ENTR.         jj                             : Entered      - ENTERED BY        
SRVC.         SCHLUMBERGER                   : Scn          - SERVICE COMPANY   
DATE.         13 MAR 83                      : Date         - LOG DATE          
STRT.M        405                            : top_depth    - START DEPTH       
STOP.M        610                            : bot_depth    - STOP DEPTH        
STEP.M        0.25                           : increment    - STEP LENGTH       
~CURVE INFORMATION BLOCK
#MNEM UNIT       ERCB CURVE CODE    CURVE DESCRIPTION
#-----------   ------------------   ----------------------------------
DEPT.M        00 001 00 00         : DEPTH        - DEPTH                       
ILD .OHMM     00 120 00 00         : RESD         - DEEP RESISTIVITY (DIL)      
CALI.MM       00 280 01 00         : CAL          - CALIPER                     
GR  .API      00 310 00 00         : GR           - GAMMA RAY                   
NPHI.V/V      00 330 00 00         : PHIN         - NEUTRON POROSITY (SANDSTONE)
DPHI.V/V      00 890 00 00         : PHID         - DENSITY POROSITY (SANDSTONE)
~PARAMETER INFORMATION       
#MNEM.UNIT           DATA             DESCRIPTION OF MNEMONIC
#---------         -----------     ------------------------------
GL  .M        627.8                : gl           - GROUND LEVEL ELEVATION      
EREF.M        631                  : kb           - ELEVATION OF DEPTH REFERENCE
DATM.M        627.8                : datum        - DATUM ELEVATION             
TDD .M        611                  : tdd          - TOTAL DEPTH DRILLER         
RUN .         ONE                  : Run          - RUN NUMBER                  
ENG .         BRADSHAW             : Engineer     - RECORDING ENGINEER          
WIT .         DENYAR               : Witness      - WITNESSED BY                
BASE.         EDM                  : Branch       - HOME BASE OF LOGGING UNIT   
MUD .         GEL CHEM             : Mud_type     - MUD TYPE                    
MATR.         SANDSTONE            : Logunit      - NEUTRON MATRIX              
TMAX.C        28.9                 : BHT          - MAXIMUM RECORDED TEMPERATURE
BHTD.M        612.1                : BHTDEP       - MAXIMUM RECORDED TEMPERATURE
RMT .C        26.1                 : MDTP         - TEMPERATURE OF MUD          
MUDD.KG/M     1130                 : MWT          - MUD DENSITY                 
NEUT.         1                    : NEUTRON      - NEUTRON TYPE                
RESI.         0                    : RESIST       - RESISTIVITY TYPE            
RM  .OHMM     4.08                 : RM           - RESISTIVITY OF MUD          
RMC .OHMM     0.25                 : RMC          - RESISTIVITY OF MUD CAKE     
RMF .OHMM     3.17                 : RMF          - RESISTIVITY OF MUD FILTRATE 
SUFT.C        0                    : SUFT         - SURFACE TEMPERATURE         
~A  DEPTH     RESD      CAL       GR     PHIN     PHID
# ...
  587.500    5.625  197.043   74.470    0.369    0.145
  587.750    5.855  196.930   77.230    0.348    0.131
  588.000    6.271  196.394   75.591    0.342    0.104
  588.250    6.462  195.967   69.234    0.335    0.088
  588.500    6.927  195.431   67.092    0.326    0.085
  588.750    7.204  195.213   71.046    0.349    0.098
  589.000    7.645  195.098   72.989    0.339    0.096
  589.250    7.958  195.194   76.439    0.343    0.082
  589.500    8.609  195.603   81.652    0.412    0.095
  589.750    8.962  196.011   87.743    0.411    0.135
  590.000    9.686  196.011   87.485    0.399    0.126
  590.250   10.176  196.011   83.457    0.392    0.111
  590.500   10.799  196.605   80.937    0.397    0.097
  590.750   11.672  196.599   82.942    0.390    0.093
  591.000   12.262  196.693   87.966    0.379    0.119
  591.250   13.121  196.894   85.194    0.405    0.108
  591.500   14.725  197.088   76.826    0.395    0.090
  591.750   16.210  197.398   80.277    0.371    0.082
  592.000   17.173  197.703   83.793    0.353    0.101
  592.250   18.905  197.797   86.176    0.366    0.114
  592.500   21.005  197.262   80.638    0.381    0.098
  592.750   22.951  195.788   76.105    0.387    0.087
  593.000   22.990  193.577   77.671    0.386    0.078
  593.250   22.858  192.625   80.620    0.375    0.087
  593.500   22.109  193.138   83.819    0.389    0.090
  593.750   20.995  194.282   85.888    0.407    0.087
  594.000   19.738  195.843   83.305    0.414    0.103
  594.250   18.386  196.252   75.001    0.323    0.098
  594.500   16.971  196.242   67.137    0.286    0.079
  594.750   15.392  196.231   62.478    0.272    0.060
  595.000   14.458  196.013   63.919    0.279    0.070
  595.250   13.357  195.582   59.198    0.298    0.104
  595.500   12.790  195.154   47.499    0.293    0.138
  595.750   12.247  194.723   40.264    0.297    0.163
  596.000   11.630  194.399   41.389    0.331    0.198
  596.250   10.943  193.867   43.772    0.372    0.232
  596.500   10.479  193.019   35.907    0.335    0.234
  596.750    9.942  192.379   30.936    0.288    0.264
  597.000    9.433  191.846   26.466    0.332    0.357
  597.250    8.876  191.732   21.305    0.465    0.477
  597.500    8.578  191.406   23.373    0.519    0.650
  597.750    8.071  191.501   44.113    0.772    0.706
  598.000    7.800  191.807   59.698    0.709    0.530
  598.250    7.475  192.635   77.231    0.633    0.403
  598.500    7.230  191.158   70.875    0.566    0.155
  598.750    7.255  189.157   60.371    0.286    0.157
  599.000    7.279  189.253   51.439    0.263    0.131
  599.250    7.440  192.176   45.901    0.259    0.111
  599.500    7.540  195.832   52.432    0.284    0.099
  599.750    7.497  197.395   67.326    0.296    0.085
  600.000    7.373  197.802   84.733    0.293    0.077
  600.250    8.034  197.270  104.656    0.305    0.081
  600.500    7.365  195.163  136.648    0.352    0.115
  600.750    6.815  192.638  143.117    0.390    0.162
  601.000    6.306  190.430  143.111    0.432    0.174
  601.250    5.847  188.115  137.697    0.484    0.175
  601.500    5.553  187.372  133.040    0.452    0.200
  601.750    5.286  188.513  128.004    0.351    0.197
  602.000    5.068  190.704  126.994    0.324    0.179
  602.250    4.941  193.000  130.446    0.363    0.165
  602.500    4.827  192.046  138.989    0.430    0.166
  602.750    4.804  190.884  146.778    0.470    0.148
  603.000    4.808  189.824  142.623    0.456    0.097
  603.250    4.732  189.502  127.151    0.420    0.103
  603.500    4.428  189.281  117.277    0.359    0.121
  603.750    4.136  189.692  108.343    0.369    0.132
  604.000    3.466  189.890  100.417    0.398    0.094
  604.250    2.994  190.195   93.935    0.429    0.075
  604.500    2.796  190.814   93.804    0.455    0.104
  604.750    2.772  191.538   98.261    0.454    0.139
  605.000    2.833  193.204  103.850    0.438    0.152
  605.250    2.878  193.403  104.473    0.420    0.080
  605.500    2.935  192.241  104.467    0.392    0.048
  605.750    2.998  190.659  104.523    0.377   -0.029
  606.000    2.995  189.916  104.015    0.365   -0.003
  606.250    2.959  189.382  103.568    0.356    0.041
  606.500    2.934  189.372  102.997    0.386    0.009
  606.750    2.904  189.362  103.053    0.404   -0.031
  607.000    2.853  189.665  103.551    0.386   -0.055
  607.250    2.850  189.657  104.360    0.373    0.145
  607.500    2.815  188.495  104.419    0.360    0.235
  607.750    2.833  183.351  103.910    0.367    0.259
  608.000    3.582  185.435  103.653    0.374    0.197
  608.250    3.666  187.313  104.401    0.378    0.166
  608.500    3.669  184.577  104.960    0.378    0.117
  608.750    3.714  182.473  105.395    0.377    0.099
  609.000    3.809  179.109  105.704    0.377    0.121
  609.250    3.884  176.479  105.633    0.379    0.102
  609.500    3.968  174.165  105.629    0.381    0.119
  609.750    4.039  170.070  105.811    0.384    0.115
  610.000    3.975  168.174  105.867    0.385    0.105
