~VERSION INFORMATION
 VERS.                 2.0:   CWLS LOG ASCII STANDARD -VERSION 2.0
 WRAP.                  NO:   ONE LINE PER DEPTH STEP
~WELL INFORMATION BLOCK
#MNEM.UNIT           DATA                    DESCRIPTION OF MNEMONIC
#---------    -------------------            -------------------------------
# Generated from Intellog Unique Number	CW_82_90/WELL/3415
WELL.         CDN SUP SIMON                  : Well_name    - WELL
LOC .         00/03-34-088-20W4/0            : Location     - LOCATION
UWI .         00/03-34-088-20W4/0            : Uwi          - UNIQUE WELL ID
ENTR.         MAX                            : Entered      - ENTERED BY
SRVC.         SCHLUMBERGER                   : Scn          - SERVICE COMPANY
STRT.M        60.96                          : top_depth    - START DEPTH
STOP.M        237.71                         : bot_depth    - STOP DEPTH
STEP.M        0.25                           : increment    - STEP LENGTH
 NULL. -999.2500:NULL Value
~CURVE INFORMATION BLOCK
#MNEM UNIT       ERCB CURVE CODE    CURVE DESCRIPTION
#-----------   ------------------   ----------------------------------
DEPT.M        00 001 00 00         : DEPTH        - DEPTH
GR  .API      00 310 00 00         : GR           - GAMMA RAY
CALI.MM       00 280 01 00         : CAL          - CALIPER
DPHI.V/V      00 890 00 00         : PHID         - DENSITY POROSITY (SANDSTONE)
NPHI.V/V      00 330 00 00         : PHIN         - NEUTRON POROSITY (SANDSTONE)
ILD .OHMM     00 120 00 00         : RESD         - DEEP RESISTIVITY (DIL)
~PARAMETER INFORMATION
#MNEM.UNIT           DATA             DESCRIPTION OF MNEMONIC
#---------         -----------     ------------------------------
GL  .M        517.55               : gl           - GROUND LEVEL ELEVATION
EREF.M        521.513              : kb           - ELEVATION OF DEPTH REFERENCE
DATM.M        517.55               : datum        - DATUM ELEVATION
TDD .M        259.08               : tdd          - TOTAL DEPTH DRILLER
RUN .         ONE                  : Run          - RUN NUMBER
ENG .         BILL                 : Engineer     - RECORDING ENGINEER
WIT .         JIM                  : Witness      - WITNESSED BY
MUD .         GEL                  : Mud_type     - MUD TYPE
MATR.         SANDSTONE            : Logunit      - NEUTRON MATRIX
TMAX.C        24.4444              : BHT          - MAXIMUM RECORDED TEMPERATURE
BHTD.M        259.08               : BHTDEP       - MAXIMUM RECORDED TEMPERATURE
MATR.         1                    : LOGUNIT      - NEUTRON MATRIX
RMT .C        20                   : MDTP         - TEMPERATURE OF MUD
NEUT.         1                    : NEUTRON      - NEUTRON TYPE
RESI.         0                    : RESIST       - RESISTIVITY TYPE
RMC .OHMM     4.3                  : RMC          - RESISTIVITY OF MUD CAKE
RMF .OHMM     4.67                 : RMF          - RESISTIVITY OF MUD FILTRATE
SUFT.C        -20.5556             : SUFT         - SURFACE TEMPERATURE
~A  DEPTH       GR      CAL     PHID     PHIN     RESD
   60.960   84.850  271.678    0.350    0.558   16.285
   61.210   88.097  285.158    0.355    0.566   15.439
   61.460   86.925  298.637    0.369    0.575   15.450
   61.710   83.688  308.623    0.382    0.589   15.743
   61.960   77.507  314.621    0.452    0.596   16.633
   62.210   69.558  311.137    0.520    0.599   17.572
   62.460   61.608  303.164    0.588    0.600   18.733
   62.710   61.025  293.196    0.588    0.601   20.706
   62.960   62.798  281.231    0.579    0.601   23.302
   63.210   69.580  231.353    0.537    0.598   26.225
   63.460   76.068  222.883    0.492    0.590   30.604
   63.710   78.135  221.393    0.518    0.580   33.219
   63.960   77.846  222.403    0.518    0.533   33.545
   64.210   76.378  225.405    0.446    0.509   30.672
   64.460   74.028  228.904    0.391    0.488   25.624
   64.710   73.443  252.362    0.372    0.471   21.023
   64.960   69.324  270.829    0.397    0.480   16.942
   65.210   64.322  305.262    0.431    0.519   16.504
   65.460   60.496  317.743    0.474    0.574   16.814
   65.710   52.547  336.711    0.540    0.595   17.765
   65.960   49.018  375.134    0.573    0.598   19.636
   66.210   51.675  341.719    0.581    0.597   22.098
   66.460   55.510  285.354    0.564    0.571   24.423
   66.710   59.052  270.895    0.536    0.536   27.737
   66.960   61.413  260.927    0.510    0.529   31.217
   67.210   64.660  256.946    0.460    0.525   33.278
   67.460   67.317  253.463    0.407    0.524   34.841
   67.710   68.208  249.981    0.368    0.528   35.186
   67.960   66.739  245.998    0.358    0.537   31.599
   68.210   65.861  237.525    0.368    0.534   26.398
   68.460   67.634  234.043    0.385    0.516   20.891
   68.710   69.996  229.064    0.408    0.490   19.451
   68.960   75.894  262.997    0.357    0.480   17.945
   69.210   80.613  283.460    0.324    0.508   15.544
   69.460   83.270  288.959    0.310    0.539   13.586
   69.710   81.803  287.473    0.322    0.565   12.879
   69.960   82.397  285.485    0.326    0.575   12.889
   70.210   82.404  282.500    0.323    0.568   13.375
   70.460   80.641  280.015    0.323    0.535   13.383
   70.710   78.289  276.533    0.339    0.525   13.163
   70.960   76.823  273.049    0.352    0.550   12.358
   71.210   77.417  272.561    0.359    0.570   12.039
   71.460   78.602  267.581    0.343    0.576   12.604
   71.710   78.606  248.133    0.320    0.538   13.436
   71.960   78.612  227.189    0.338    0.515   14.324
   72.210   79.501  253.141    0.328    0.509   15.269
   72.460   76.855  272.606    0.320    0.517   16.428
   72.710   69.201  270.622    0.312    0.495   17.512
   72.960   65.965  266.140    0.319    0.468   18.838
   73.210   64.498  249.186    0.323    0.448   20.264
   73.460   63.915  248.199    0.320    0.441   22.199
   73.710   64.214  254.694    0.327    0.445   22.018
   73.960   65.693  255.701    0.329    0.446   21.443
   74.210   66.288  258.204    0.319    0.449   20.888
   74.460   65.114  256.217    0.316    0.455   20.903
   74.710   63.058  251.739    0.320    0.463   20.921
   74.960   61.590  248.754    0.317    0.456   20.936
   75.210   61.595  244.272    0.310    0.460   20.955
   75.460   62.486  236.300    0.327    0.471   21.355
   75.710   61.901  228.327    0.341    0.480   21.561
   75.960   59.845  223.848    0.361    0.487   22.169
   76.210   57.493  222.361    0.356    0.492   22.794
   76.460   54.848  221.370    0.356    0.489   23.652
   76.710   53.380  220.382    0.358    0.490   24.103
   76.960   53.090  220.890    0.361    0.499   23.907
   77.210   53.684  221.897    0.351    0.480   22.257
   77.460   56.932  223.904    0.357    0.463   20.720
   77.710   58.704  224.411    0.357    0.455   17.001
   77.960   60.183  225.419    0.355    0.451   14.462
   78.210   61.663  226.923    0.364    0.458   12.192
   78.460   63.730  229.428    0.396    0.466   11.557
   78.710   65.798  232.430    0.418    0.473   10.957
   78.960   68.161  238.426    0.428    0.480   10.576
   79.210   70.228  252.903    0.423    0.491   10.209
   79.460   72.001  258.899    0.414    0.503    9.856
   79.710   73.775  270.383    0.402    0.521    9.862
   79.960   75.548  283.363    0.393    0.525   10.049
   80.210   77.615  300.336    0.397    0.536   10.522
   80.460   78.506  291.863    0.399    0.550   11.320
   80.710   77.627  273.912    0.394    0.524   12.175
   80.960   74.980  233.013    0.376    0.482   12.748
   81.210   72.923  228.533    0.356    0.469   13.228
   81.460   70.572  228.043    0.348    0.461   13.238
   81.710   68.810  223.064    0.356    0.455   13.250
   81.960   68.816  223.572    0.372    0.451   13.378
   82.210   67.642  226.575    0.381    0.450   14.134
   82.460   64.702  230.077    0.392    0.454   16.050
   82.710   62.645  231.582    0.401    0.454   19.070
   82.960   59.704  236.082    0.391    0.411   24.575
   83.210   56.174  247.565    0.309    0.395   36.592
   83.460   50.287  260.048    0.248    0.375   45.075
   83.710   47.053  271.031    0.222    0.383   51.650
   83.960   47.647  310.452    0.199    0.387   55.066
   84.210   47.652  315.950    0.182    0.373   56.619
   84.460   46.775  320.450    0.206    0.353   57.699
   84.710   47.663  315.470    0.212    0.338   60.413
   84.960   48.848  293.528    0.248    0.321   63.244
   85.210   49.442  264.601    0.257    0.312   65.624
   85.460   49.447  251.141    0.256    0.324   66.876
   85.710   48.275  239.177    0.239    0.330   68.144
   85.960   46.807  238.687    0.218    0.341   68.813
   86.210   44.752  238.698    0.191    0.340   66.422
   86.460   44.461  237.708    0.224    0.326   62.983
   86.710   44.761  236.220    0.230    0.321   61.345
   86.960   42.999  258.681    0.237    0.326   61.942
   87.210   40.942  272.658    0.229    0.327   63.123
   87.460   41.242  326.548    0.224    0.330   63.164
   87.710   40.953  326.558    0.234    0.336   63.222
   87.960   41.548  315.591    0.252    0.347   64.422
   88.210   43.027  310.112    0.275    0.357   66.245
   88.460   42.737  312.119    0.294    0.353   67.496
   88.710   41.859  289.677    0.332    0.355   68.165
   88.960   42.159  275.717    0.358    0.377   68.834
   89.210   43.638  248.287    0.351    0.386   70.147
   89.460   45.412  258.774    0.307    0.374   71.484
   89.710   46.006  288.716    0.290    0.339   72.199
   89.960   46.306  324.147    0.294    0.355   73.555
   90.210   46.017  341.119    0.311    0.374   72.955
   90.460   45.434  320.673    0.324    0.380   71.696
   90.710   45.439  318.189    0.364    0.378   69.210
   90.960   45.150  301.736    0.392    0.376   66.805
   91.210   44.566  294.759    0.428    0.344   66.860
   91.460   43.983  282.296    0.443    0.339   66.314
   91.710   43.693  266.341    0.448    0.322   65.761
   91.960   43.699  273.835    0.406    0.309   63.487
   92.210   44.588  279.331    0.378    0.316   59.101
   92.460   45.772  277.346    0.338    0.350   53.553
   92.710   47.840  273.363    0.305    0.379   45.971
   92.960   49.907  268.883    0.293    0.419   42.800
   93.210   51.975  263.903    0.321    0.443   39.492
   93.460   54.928  251.939    0.305    0.457   33.291
   93.710   57.290  240.973    0.305    0.455   27.812
   93.960   59.652  234.995    0.278    0.454   25.432
   94.210   58.185  232.510    0.265    0.451   25.682
   94.460   56.718  231.524    0.240    0.432   27.131
   94.710   56.722  232.030    0.251    0.422   27.897
   94.960   57.613  236.530    0.250    0.445   26.212
   95.210   59.090  234.544    0.256    0.461   23.750
   95.460   62.631  225.572    0.304    0.475   20.385
   95.710   67.940  221.593    0.327    0.471   17.499
   95.960   75.900  220.604    0.296    0.473   15.021
   96.210   85.628  219.613    0.299    0.483   12.213
   96.460   88.286  219.624    0.277    0.481   10.021
   96.710   86.818  221.629    0.252    0.475    9.500
   96.960   85.645  226.129    0.255    0.468    9.170
   97.210   85.650  231.125    0.246    0.476    9.177
