~VERSION INFORMATION
 VERS.                 2.0:   CWLS LOG ASCII STANDARD -VERSION 2.0
 WRAP.                  NO:   ONE LINE PER DEPTH STEP
~WELL INFORMATION BLOCK
#MNEM.UNIT           DATA                    DESCRIPTION OF MNEMONIC
#---------    -------------------            -------------------------------
# Generated from Intellog Unique Number	CS_73_76/WELL/4759
WELL.         AMOCO KIRBY                    : Well_name    - WELL
LOC .         00/07-35-073-05W4/0            : Location     - LOCATION
UWI .         00/07-35-073-05W4/0            : Uwi          - UNIQUE WELL ID
ENTR.         T                              : Entered      - ENTERED BY
SRVC.         SCHLUMBERGER                   : Scn          - SERVICE COMPANY
STRT.M        265                            : top_depth    - START DEPTH
STOP.M        495                            : bot_depth    - STOP DEPTH
STEP.M        0.25                           : increment    - STEP LENGTH
 NULL. -999.2500:NULL Value
~CURVE INFORMATION BLOCK
#MNEM UNIT       ERCB CURVE CODE    CURVE DESCRIPTION
#-----------   ------------------   ----------------------------------
DEPT.M        00 001 00 00         : DEPTH        - DEPTH
GR  .API      00 310 00 00         : GR           - GAMMA RAY
NPHI.V/V      00 330 00 00         : PHIN         - NEUTRON POROSITY (SANDSTONE)
DPHI.V/V      00 890 00 00         : PHID         - DENSITY POROSITY (SANDSTONE)
ILD .OHMM     00 120 00 00         : RESD         - DEEP RESISTIVITY (DIL)
~PARAMETER INFORMATION
#MNEM.UNIT           DATA             DESCRIPTION OF MNEMONIC
#---------         -----------     ------------------------------
GL  .M        660.7                : gl           - GROUND LEVEL ELEVATION
EREF.M        664.4                : kb           - ELEVATION OF DEPTH REFERENCE
DATM.M        664.4                : datum        - DATUM ELEVATION
TDD .M        500                  : tdd          - TOTAL DEPTH DRILLER
RUN .         ONE                  : Run          - RUN NUMBER
ENG .         BILL                 : Engineer     - RECORDING ENGINEER
WIT .         JIM                  : Witness      - WITNESSED BY
MUD .         GEL                  : Mud_type     - MUD TYPE
MATR.         SANDSTONE            : Logunit      - NEUTRON MATRIX
TMAX.C        24                   : BHT          - MAXIMUM RECORDED TEMPERATURE
BHTD.M        500                  : BHTDEP       - MAXIMUM RECORDED TEMPERATURE
MATR.         1                    : LOGUNIT      - NEUTRON MATRIX
RMT .C        23                   : MDTP         - TEMPERATURE OF MUD
NEUT.         1                    : NEUTRON      - NEUTRON TYPE
RESI.         0                    : RESIST       - RESISTIVITY TYPE
RMC .OHMM     0.38                 : RMC          - RESISTIVITY OF MUD CAKE
RMF .OHMM     0.45                 : RMF          - RESISTIVITY OF MUD FILTRATE
SUFT.C        15                   : SUFT         - SURFACE TEMPERATURE
~A  DEPTH       GR     PHIN     PHID     RESD
# ...
  439.000  107.782    0.397    0.197    2.037
  439.250  105.296    0.399    0.205    2.194
  439.500  105.261    0.397    0.201    2.277
  439.750  104.606    0.395    0.201    2.407
  440.000  101.486    0.393    0.207    2.545
  440.250  100.243    0.393    0.211    2.641
  440.500   97.745    0.394    0.216    2.741
  440.750   96.467    0.394    0.228    2.741
  441.000   95.823    0.393    0.226    2.844
  441.250   94.546    0.392    0.221    2.952
  441.500   94.511    0.391    0.215    3.006
  441.750   93.855    0.390    0.208    3.062
  442.000   98.691    0.389    0.202    3.062
  442.250  104.748    0.389    0.206    3.119
  442.500  110.205    0.394    0.208    3.177
  442.750  116.861    0.396    0.205    3.177
  443.000  119.877    0.400    0.184    3.176
  443.250  120.442    0.411    0.177    3.176
  443.500  117.956    0.420    0.171    3.175
  443.750  115.469    0.420    0.182    3.174
  444.000  111.152    0.420    0.204    3.174
  444.250   91.568    0.415    0.210    3.233
  444.500   85.421    0.410    0.253    3.355
  444.750   76.210    0.405    0.258    3.614
  445.000   71.283    0.403    0.282    3.821
  445.250   66.344    0.404    0.287    4.040
  445.500   63.259    0.397    0.298    4.517
  445.750   63.202    0.392    0.301    5.145
  446.000   65.597    0.388    0.300    5.970
  446.250   67.992    0.393    0.296    7.326
  446.500   69.766    0.396    0.289    8.661
  446.750   70.952    0.400    0.287    9.683
  447.000   70.918    0.403    0.282    9.503
  447.250   70.239    0.404    0.275    9.327
  447.500   70.216    0.403    0.265    8.983
  447.750   70.171    0.408    0.265    8.816
  448.000   69.515    0.410    0.271    8.493
  448.250   67.639    0.415    0.291    8.181
  448.500   67.593    0.418    0.295    7.314
  448.750   71.819    0.408    0.292    7.046
  449.000   79.706    0.399    0.267    6.662
  449.250   95.525    0.397    0.247    6.537
  449.500  105.865    0.402    0.240    6.537
  449.750  110.701    0.411    0.277    6.536
  450.000  111.864    0.414    0.310    6.657
  450.250  113.649    0.406    0.322    6.908
  450.500  114.824    0.400    0.298    6.908
  450.750  113.558    0.402    0.274    6.907
  451.000  112.902    0.405    0.266    6.778
  451.250  110.427    0.414    0.282    6.652
  451.500  106.098    0.423    0.301    6.528
  451.750  115.827    0.436    0.296    6.527
  452.000  121.251    0.411    0.290    6.526
  452.250  120.618    0.407    0.277    6.524
  452.500  120.572    0.424    0.272    6.646
  452.750  119.893    0.430    0.274    6.770
  453.000  118.040    0.413    0.276    6.895
  453.250  113.723    0.404    0.275    6.895
  453.500  111.236    0.390    0.269    6.766
  453.750  134.379    0.378    0.263    6.640
  454.000  144.707    0.372    0.254    6.396
  454.250  152.605    0.372    0.252    6.278
  454.500  136.072    0.373    0.252    6.047
  454.750  123.212    0.375    0.259    5.935
  455.000  111.561    0.384    0.281    5.716
  455.250   98.690    0.396    0.303    5.610
  455.500   87.062    0.418    0.310    5.715
  455.750   78.462    0.433    0.319    6.271
  456.000   66.822    0.428    0.334    7.414
  456.250   50.888    0.417    0.348    8.765
  456.500   51.441    0.410    0.354    9.800
  456.750   52.029    0.403    0.345   12.717
  457.000   51.972    0.395    0.338   14.486
  457.250   50.706    0.397    0.338   17.448
  457.500   49.440    0.396    0.341   18.794
  457.750   49.383    0.388    0.346   19.504
  458.000   49.360    0.382    0.351   20.621
  458.250   46.862    0.398    0.352   22.211
  458.500   44.375    0.407    0.352   23.924
  458.750   45.550    0.401    0.352   25.770
  459.000   49.166    0.396    0.351   27.759
  459.250   53.403    0.390    0.345   29.901
  459.500   83.257    0.379    0.321   28.802
  459.750   88.105    0.368    0.315   25.753
  460.000   96.602    0.377    0.308   23.027
  460.250   98.997    0.398    0.281   19.837
  460.500   87.358    0.408    0.276   17.087
  460.750   84.261    0.416    0.280   15.566
  461.000   79.334    0.425    0.286   12.681
  461.250   70.135    0.424    0.292   10.330
  461.500   69.445    0.411    0.300    8.260
  461.750   72.473    0.412    0.311    7.115
  462.000   77.931    0.419    0.319    6.854
  462.250   77.885    0.423    0.329    7.112
  462.500   76.009    0.421    0.326    7.805
  462.750   75.940    0.405    0.300    9.758
  463.000   76.528    0.387    0.295   11.114
  463.250   74.640    0.388    0.288   11.322
  463.500   70.323    0.414    0.294   11.533
  463.750   62.345    0.417    0.325    9.571
  464.000   50.095    0.431    0.343    8.883
  464.250   49.428    0.441    0.349   10.308
  464.500   50.602    0.428    0.357   12.417
  464.750   49.348    0.430    0.362   19.410
  465.000   47.449    0.434    0.361   25.661
  465.250   46.804    0.433    0.364   31.490
  465.500   47.956    0.429    0.369   32.076
  465.750   49.752    0.424    0.374   32.068
  466.000   52.758    0.428    0.370   32.064
  466.250   54.543    0.432    0.364   32.060
  466.500   55.130    0.436    0.351   32.054
  466.750   56.305    0.432    0.344   32.651
  467.000   59.310    0.427    0.349   32.645
  467.250   64.757    0.425    0.351   32.638
  467.500   64.688    0.431    0.353   32.033
  467.750   62.213    0.443    0.353   29.724
  468.000   58.495    0.418    0.353   29.172
  468.250   55.409    0.411    0.352   28.632
  468.500   51.691    0.405    0.352   28.099
  468.750   51.024    0.404    0.354   27.064
  469.000   51.001    0.410    0.362   27.061
  469.250   50.322    0.433    0.371   27.056
  469.500   49.689    0.459    0.378   27.052
  469.750   47.191    0.465    0.384   25.107
  470.000   45.903    0.442    0.380   21.229
  470.250   45.880    0.433    0.370   17.618
  470.500   45.834    0.414    0.357   16.351
  470.750   45.788    0.390    0.347   17.944
  471.000   45.731    0.386    0.346   22.019
  471.250   45.087    0.385    0.344   26.522
  471.500   43.832    0.383    0.340   29.105
  471.750   41.334    0.379    0.334   28.034
  472.000   40.678    0.378    0.334   27.515
  472.250   40.633    0.377    0.334   26.504
  472.500   43.005    0.383    0.333   25.059
  472.750   44.801    0.388    0.328   24.593
  473.000   45.976    0.393    0.323   23.252
  473.250   47.174    0.399    0.325   22.399
  473.500   49.546    0.407    0.332   20.404
  473.750   50.732    0.416    0.337   14.864
  474.000   51.919    0.425    0.342   14.318
  474.250   55.523    0.428    0.336   13.289
  474.500   57.929    0.419    0.318   11.028
  474.750   61.545    0.416    0.306    9.152
  475.000   67.601    0.422    0.306    8.184
  475.250   71.827    0.427    0.307    6.920
  475.500   77.884    0.428    0.280    6.187
  475.750   82.098    0.422    0.261    5.330
  476.000   82.052    0.422    0.251    4.678
  476.250   78.357    0.428    0.272    4.590
  476.500   71.599    0.435    0.278    4.764
  476.750   72.152    0.432    0.283    5.228
  477.000   73.327    0.419    0.292    5.527
  477.250   70.219    0.409    0.301    5.954
  477.500   67.133    0.409    0.298    6.064
  477.750   65.257    0.387    0.284    6.064
  478.000   67.652    0.389    0.289    5.841
  478.250   70.059    0.390    0.294    5.732
  478.500   72.431    0.388    0.280    5.521
  478.750   73.007    0.376    0.266    5.521
  479.000   72.973    0.348    0.238    5.318
  479.250   72.927    0.343    0.234    5.028
  479.500   72.272    0.365    0.239    4.580
  479.750   72.836    0.366    0.245    4.251
  480.000   79.503    0.369    0.252    3.731
  480.250   88.610    0.372    0.241    3.336
  480.500   86.112    0.375    0.229    2.821
  480.750   81.807    0.379    0.230    2.385
  481.000   76.269    0.384    0.234    2.213
  481.250   72.539    0.389    0.235    2.054
  481.500   74.957    0.390    0.229    1.979
  481.750   76.742    0.390    0.221    1.978
  482.000   71.804    0.393    0.224    2.131
  482.250   65.046    0.395    0.238    2.519
