~VERSION INFORMATION
 VERS.                 2.0:   CWLS LOG ASCII STANDARD -VERSION 2.0
 WRAP.                  NO:   ONE LINE PER DEPTH STEP
~WELL INFORMATION BLOCK
#MNEM.UNIT           DATA                    DESCRIPTION OF MNEMONIC
#---------    -------------------            -------------------------------
# Generated from Intellog Unique Number	CC_80_83/WELL/1167
NULL.         -999.25                        : NULL_VALUE
WELL.         CHEVRON CAN OXY ALGAR          : Well_name    - WELL
LOC .         06-34-082-16W4                 : Location     - LOCATION          
UWI .         00/06-34-082-16W400            : Uwi          - UNIQUE WELL ID    
ENTR.         DW                             : Entered      - ENTERED BY        
SRVC.         SCHLUMBERGER                   : Scn          - SERVICE COMPANY   
DATE.         21 MAR 73                      : Date         - LOG DATE
STRT.M        91.44                          : top_depth    - START DEPTH       
STOP.M        265.174                        : bot_depth    - STOP DEPTH        
STEP.M        0.3048                         : increment    - STEP LENGTH       
~CURVE INFORMATION BLOCK
#MNEM UNIT       ERCB CURVE CODE    CURVE DESCRIPTION
#-----------   ------------------   ----------------------------------
DEPT.M        00 001 00 00         : DEPTH        - DEPTH                       
DPHI.V/V      00 890 00 00         : PHID         - DENSITY POROSITY (LIMESTONE)
NPHI.V/V      00 330 00 00         : PHIN         - NEUTRON POROSITY (LIMESTONE)
GR  .API      00 310 00 00         : GR           - GAMMA RAY                   
ILD .OHMM     00 120 00 00         : RESD         - DEEP RESISTIVITY (DIL)      
~PARAMETER INFORMATION       
#MNEM.UNIT           DATA             DESCRIPTION OF MNEMONIC
#---------         -----------     ------------------------------
GL  .M        526.694              : gl           - GROUND LEVEL ELEVATION      
EREF.M        530.352              : kb           - ELEVATION OF DEPTH REFERENCE
DATM.M        530.352              : datum        - DATUM ELEVATION             
TDD .M        266.7                : tdd          - TOTAL DEPTH DRILLER         
RUN .         ONE                  : Run          - RUN NUMBER                  
ENG .         BILL                 : Engineer     - RECORDING ENGINEER          
WIT .         JIM                  : Witness      - WITNESSED BY                
MUD .         GEL                  : Mud_type     - MUD TYPE                    
MATR.         LIMESTONE            : Logunit      - NEUTRON MATRIX              
TMAX.C        27.7778              : BHT          - MAXIMUM RECORDED TEMPERATURE
BHTD.M        265.176              : BHTDEP       - MAXIMUM RECORDED TEMPERATURE
MATR.         1                    : LOGUNIT      - NEUTRON MATRIX              
RMT .C        25                   : MDTP         - TEMPERATURE OF MUD          
NEUT.         1                    : NEUTRON      - NEUTRON TYPE                
RESI.         0                    : RESIST       - RESISTIVITY TYPE            
RMC .OHMM     0.25                 : RMC          - RESISTIVITY OF MUD CAKE     
RMF .OHMM     0.25                 : RMF          - RESISTIVITY OF MUD FILTRATE 
SUFT.C        15                   : SUFT         - SURFACE TEMPERATURE         
~A  DEPTH     PHID     PHIN       GR     RESD
   91.440    0.214    0.387   67.532   13.094
   91.745    0.182    0.387   71.716   12.623
   92.050    0.183    0.428   89.049   11.516
   92.354    0.255    0.526   92.635    9.762
   92.659    0.276    0.537   93.234    6.761
   92.964    0.288    0.521   88.454    5.133
   93.269    0.318    0.510   75.905    5.229
   93.574    0.336    0.421   66.941    5.525
   93.878    0.366    0.409   63.954    8.909
   94.183    0.339    0.452   61.565   16.641
   94.488    0.343    0.519   62.163   16.951
   94.793    0.337    0.515   72.324   11.110
   95.098    0.320    0.578   80.692    6.522
   95.402    0.300    0.600   92.645    4.045
   95.707    0.323    0.569  101.013    3.305
   96.012    0.329    0.592   95.038    3.129
   96.317    0.325    0.595   83.087    3.430
   96.622    0.302    0.540   72.928    4.953
   96.926    0.314    0.476   62.770    7.987
   97.231    0.353    0.386   55.599   13.609
   97.536    0.343    0.390   55.600   19.297
   97.841    0.301    0.434   54.406   20.770
   98.146    0.284    0.528   52.017   17.286
   98.450    0.338    0.422   52.615   13.615
   98.755    0.330    0.463   55.604   11.755
   99.060    0.323    0.500   56.801   10.337
   99.365    0.324    0.547   56.802    9.784
   99.670    0.343    0.549   55.010    9.606
   99.975    0.332    0.550   54.413   10.340
  100.279    0.333    0.491   53.817   10.927
  100.584    0.336    0.431   55.013   10.928
  100.889    0.331    0.510   60.990   10.155
  101.194    0.316    0.544   73.541    8.930
  101.498    0.177    0.522   85.495    7.999
  101.803    0.180    0.503   87.886    8.000
  102.108    0.202    0.488   80.118    8.933
  102.413    0.298    0.502   69.960   11.137
  102.718    0.323    0.476   66.973   14.405
  103.022    0.327    0.506   62.790   16.384
  103.327    0.308    0.486   59.803   18.634
  103.632    0.300    0.453   59.207   18.982
  103.937    0.330    0.441   67.574   16.692
  104.242    0.311    0.471   80.126   13.147
  104.546    0.267    0.486   86.103    9.799
  104.851    0.258    0.543   92.081    7.304
  105.156    0.253    0.576   93.276    6.307
  105.461    0.261    0.578   93.278    7.042
  105.766    0.287    0.528   90.290    8.009
  106.070    0.295    0.509   89.096    9.451
  106.375    0.300    0.494   89.097   11.568
  106.680    0.312    0.475   75.951   13.903
  106.985    0.312    0.466   72.963   15.813
  107.290    0.304    0.452   83.722   16.406
  107.595    0.287    0.447   93.882   15.816
  107.899    0.292    0.475   87.907   15.817
  108.204    0.310    0.453   81.932   15.531
  108.509    0.308    0.460   83.726   15.250
  108.814    0.316    0.490   86.715   15.251
  109.119    0.332    0.506   87.911   15.252
  109.423    0.289    0.521   91.498   14.704
  109.728    0.289    0.525   93.292   13.916
  110.033    0.263    0.473   93.293   12.696
  110.338    0.213    0.459   90.306   11.583
  110.643    0.198    0.449   87.319   10.375
  110.947    0.204    0.453   87.320    8.958
  111.252    0.220    0.465   91.504    8.635
  111.557    0.237    0.491   94.493    8.479
  111.862    0.240    0.494   94.495    8.637
  112.167    0.244    0.463   96.289    8.326
  112.471    0.221    0.488   99.875    7.458
  112.776    0.197    0.543  107.645    6.804
  113.081    0.179    0.561  102.865    5.874
  113.386    0.231    0.524  109.440    5.359
  113.691    0.227    0.562  113.625    4.980
  113.995    0.220    0.590  107.052    4.981
  114.300    0.213    0.578  102.870    5.073
  114.605    0.210    0.608  110.640    5.168
  114.910    0.241    0.623  113.629    5.168
  115.215    0.219    0.626  108.849    4.715
  115.519    0.252    0.616  114.229    3.924
  115.824    0.286    0.608  117.816    3.580
  116.129    0.310    0.540  106.462    3.515
  116.434    0.284    0.509   99.291    4.303
  116.739    0.263    0.471   92.718    5.881
  117.043    0.249    0.464   94.513   10.588
  117.348    0.252    0.480   98.697   11.823
  117.653    0.273    0.495  101.088   11.398
  117.958    0.276    0.522   99.894    9.841
  118.263    0.337    0.576   99.297    8.342
  118.567    0.281    0.565   96.908    8.042
  118.872    0.278    0.590   95.714    8.656
  119.177    0.283    0.469   92.727   10.403
  119.482    0.333    0.464   89.142   11.831
  119.787    0.327    0.466   95.119   13.457
  120.091    0.348    0.491   92.730   13.707
  120.396    0.330    0.520   98.109   13.963
  120.701    0.348    0.507   90.939   14.487
  121.006    0.363    0.445   73.609   15.593
  121.311    0.365    0.460   58.669   17.096
  121.615    0.350    0.451   60.463   17.737
  121.920    0.355    0.465   56.879   18.067
  122.225    0.345    0.488   55.684   17.741
  122.530    0.348    0.489   58.076   17.102
  122.835    0.354    0.458   61.663   16.792
  123.139    0.341    0.448   63.456   16.795
  123.444    0.324    0.491   65.251   16.490
  123.749    0.310    0.539   64.654   15.896
  124.054    0.329    0.556   59.276   14.772
  124.359    0.351    0.471   55.691   14.504
  124.663    0.351    0.454   59.876   14.241
  124.968    0.327    0.495   62.865   14.507
  125.273    0.318    0.518   67.050   14.244
  125.578    0.316    0.494   68.246   12.995
  125.883    0.317    0.466   67.052   11.220
  126.187    0.314    0.452   65.260   10.236
  126.492    0.301    0.430   59.882   10.237
  126.797    0.264    0.393   53.907   11.223
  127.102    0.235    0.423   56.299   13.242
  127.407    0.313    0.458   60.483   15.624
  127.711    0.335    0.520   59.289   16.512
  128.016    0.335    0.508   61.083   16.212
  128.321    0.333    0.501   65.865   14.257
  128.626    0.305    0.507   68.256   12.086
  128.931    0.286    0.528   69.453   10.245
  129.235    0.300    0.497   67.063    9.696
  129.540    0.312    0.472   73.040    9.010
  129.845    0.281    0.521   80.213    9.011
  130.150    0.282    0.551   77.823    9.012
  130.455    0.267    0.502   81.410    8.688
  130.759    0.262    0.543   86.790    8.375
  131.064    0.206    0.508   92.767    7.502
  131.369    0.225    0.541  109.502    6.129
  131.674    0.287    0.569  105.917    5.696
  131.979    0.292    0.539  100.539    6.244
  132.283    0.287    0.605   96.358    6.846
  132.588    0.277    0.581   95.163    7.505
  132.893    0.281    0.549   93.371    8.380
  133.198    0.300    0.525   89.786    9.708
  133.503    0.333    0.521   83.811   10.643
  133.807    0.307    0.495   83.215   11.043
  134.112    0.299    0.460   85.009   11.457
  134.417    0.307    0.437   89.193   11.045
  134.722    0.299    0.479   91.584   10.647
  135.027    0.306    0.490   83.219   10.265
  135.331    0.289    0.513   88.598   10.265
  135.636    0.296    0.575   89.197   11.255
  135.941    0.284    0.568   86.210   12.338
  136.246    0.317    0.526   76.051   15.103
  136.550    0.333    0.507   61.112   16.256
  136.855    0.339    0.525   52.148   17.179
  137.160    0.330    0.519   49.759   17.500
  137.465    0.336    0.494   53.944   17.183
  137.770    0.360    0.519   58.726   16.872
  138.074    0.365    0.484   61.715   16.873
  138.379    0.372    0.519   61.118   16.875
  138.684    0.368    0.501   55.740   16.876
  138.989    0.335    0.458   51.558   17.510
  139.294    0.356    0.489   51.559   17.836
  139.598    0.369    0.512   50.963   17.514
  139.903    0.344    0.498   56.342   17.196
  140.208    0.366    0.515   55.148   16.577
  140.513    0.355    0.526   53.357   16.277
  140.818    0.351    0.503   53.955   16.279
  141.122    0.347    0.475   55.151   16.280
  141.427    0.353    0.476   55.153   16.891
  141.732    0.363    0.471   56.349   17.206
  142.037    0.359    0.471   56.349   17.526
  142.342    0.356    0.515   57.546   17.528
  142.646    0.353    0.486   56.352   16.897
  142.951    0.347    0.506   55.157   15.993
  143.256    0.338    0.529   52.768   15.995
  143.561    0.339    0.513   51.574   15.996
  143.866    0.353    0.514   58.149   15.997
  144.170    0.341    0.484   58.747   16.295
