~VERSION INFORMATION
 VERS.                 2.0:   CWLS LOG ASCII STANDARD -VERSION 2.0
 WRAP.                  NO:   ONE LINE PER DEPTH STEP
~WELL INFORMATION BLOCK
#MNEM.UNIT           DATA                    DESCRIPTION OF MNEMONIC
#---------    -------------------            -------------------------------
# Generated from Intellog Unique Number	CS_73_76/WELL/4140
WELL.         J M HJBER CURPORATION          : Well_name    - WELL
LOC .         00/06-03-074-18W4/0            : Location     - LOCATION
UWI .         00/06-03-074-18W4/0            : Uwi          - UNIQUE WELL ID
ENTR.         T                              : Entered      - ENTERED BY
SRVC.         SCHLUMBERGER                   : Scn          - SERVICE COMPANY
STRT.M        274.32                         : top_depth    - START DEPTH
STOP.M        493.82                         : bot_depth    - STOP DEPTH
STEP.M        0.25                           : increment    - STEP LENGTH
 NULL. -999.2500:NULL Value
~CURVE INFORMATION BLOCK
#MNEM UNIT       ERCB CURVE CODE    CURVE DESCRIPTION
#-----------   ------------------   ----------------------------------
DEPT.M        00 001 00 00         : DEPTH        - DEPTH
DELT.US/F     00 520 00 00         : DELT         - SONIC TRAVEL TIME
ILD .OHMM     00 120 00 00         : RESD         - DEEP RESISTIVITY (DIL)
GR  .API      00 310 00 00         : GR           - GAMMA RAY
~PARAMETER INFORMATION
#MNEM.UNIT           DATA             DESCRIPTION OF MNEMONIC
#---------         -----------     ------------------------------
GL  .M        591.16               : gl           - GROUND LEVEL ELEVATION
EREF.M        594.208              : kb           - ELEVATION OF DEPTH REFERENCE
DATM.M        594.208              : datum        - DATUM ELEVATION
TDD .M        505.968              : tdd          - TOTAL DEPTH DRILLER
RUN .         ONE                  : Run          - RUN NUMBER
ENG .         BILL                 : Engineer     - RECORDING ENGINEER
WIT .         JIM                  : Witness      - WITNESSED BY
MUD .         GEL                  : Mud_type     - MUD TYPE
MATR.         SANDSTONE            : Logunit      - NEUTRON MATRIX
TMAX.C        16.6667              : BHT          - MAXIMUM RECORDED TEMPERATURE
BHTD.M        505.968              : BHTDEP       - MAXIMUM RECORDED TEMPERATURE
MATR.         1                    : LOGUNIT      - NEUTRON MATRIX
RMT .C        16.6667              : MDTP         - TEMPERATURE OF MUD
NEUT.         1                    : NEUTRON      - NEUTRON TYPE
RESI.         0                    : RESIST       - RESISTIVITY TYPE
RMC .OHMM     3.28                 : RMC          - RESISTIVITY OF MUD CAKE
RMF .OHMM     2.85                 : RMF          - RESISTIVITY OF MUD FILTRATE
SUFT.C        15                   : SUFT         - SURFACE TEMPERATURE
~A  DEPTH     DELT     RESD       GR
# ...
  382.820  396.484    9.126   58.575
  383.070  397.156    9.296   58.559
  383.320  396.502    9.285   58.549
  383.570  392.516    9.460   59.156
  383.820  390.533    9.454   59.146
  384.070  390.544    9.443   59.756
  384.320  391.891    9.621   60.984
  384.570  392.563    9.612   62.215
  384.820  393.910    9.603   63.447
  385.070  394.588    9.592   64.056
  385.320  394.600    9.586   65.288
  385.570  394.615    9.394   65.897
  385.820  393.954    9.029   66.510
  386.070  393.306    8.513   67.742
  386.320  393.306    7.868   67.723
  386.570  393.992    7.565   67.710
  386.820  392.675    7.413   67.701
  387.070  392.681    7.403   67.688
  387.320  392.029    7.398   68.297
  387.570  392.038    7.250   69.529
  387.820  392.055    6.703   70.757
  388.070  392.064    6.571   71.992
  388.320  392.073    6.194   72.605
  388.570  392.085    5.955   73.833
  388.820  392.766    5.506   75.065
  389.070  394.107    4.994   76.296
  389.320  398.785    4.530   77.528
  389.570  401.458    4.029   78.140
  389.820  406.133    3.950   80.616
  390.070  410.811    4.102   83.092
  390.320  409.490    4.260   86.190
  390.570  405.502    4.510   88.665
  390.820  398.852    4.867   89.275
  391.070  389.537    5.255   88.637
  391.320  383.554    5.896   85.514
  391.570  380.904    6.874   84.260
  391.820  380.252    7.279   81.137
  392.070  380.261    7.855   78.014
  392.320  380.270    7.549   76.754
  392.570  380.284    7.401   76.119
  392.820  380.965    6.713   76.107
  393.070  380.974    5.746   77.338
  393.320  380.983    5.014   79.195
  393.570  381.664    4.460   82.286
  393.820  382.342    4.122   82.902
  394.070  382.350    4.121   84.134
  394.320  383.031    4.363   84.121
  394.570  385.042    4.801   84.109
  394.820  386.383    5.599   85.337
  395.070  390.397    6.528   86.565
  395.320  391.735    6.782   87.181
  395.570  393.746    7.320   87.790
  395.820  394.426    8.052   84.664
  396.070  394.438    8.047   83.407
  396.320  392.454    8.041   83.398
  396.570  390.462    7.878   84.626
  396.820  386.482    7.869   85.239
  397.070  384.493    7.711   85.226
  397.320  383.169    7.704   83.969
  397.570  382.515    7.552   83.957
  397.820  382.529    7.543   84.566
  398.070  382.538    7.394   84.554
  398.320  382.553    7.242   84.541
  398.570  382.565    7.100   84.525
  398.820  382.573    7.094   83.890
  399.070  382.591    6.950   83.881
  399.320  383.263    6.811   83.868
  399.570  383.275    6.806   84.472
  399.820  383.953    6.667   84.465
  400.070  384.633    6.664   84.449
  400.320  385.311    6.404   84.437
  400.570  385.992    6.157   85.046
  400.820  386.667    5.802   86.278
  401.070  387.342    5.688   86.268
  401.320  388.692    5.360   87.500
  401.570  389.367    5.358   87.487
  401.820  390.045    5.250   88.097
  402.070  391.392    5.246   89.328
  402.320  392.733    5.141   88.071
  402.570  394.077    5.132   83.082
  402.820  396.087    5.131   78.093
  403.070  398.097    5.028   73.725
  403.320  402.778    5.024   66.248
  403.570  404.119    5.018   61.258
  403.820  407.462    5.013   56.891
  404.070  406.144    5.009   54.390
  404.320  402.159    5.003   55.618
  404.570  400.166    5.297   56.850
  404.820  396.187    5.396   56.837
  405.070  394.861    5.497   57.443
  405.320  388.877    5.706   57.434
  405.570  378.230    5.702   57.418
  405.820  378.911    5.589   56.783
  406.070  382.250    5.475   56.768
  406.320  386.259    5.366   56.136
  406.570  391.600    5.259   56.123
  406.820  398.273    5.154   56.114
  407.070  400.950    5.051   56.098
  407.320  401.634    4.949   56.711
  407.570  401.639    4.945   57.314
  407.820  400.985    4.940   57.926
  408.070  400.331    4.935   59.155
  408.320  399.676    4.932   59.771
  408.570  399.025    5.023   60.374
  408.820  399.033    5.019   60.364
  409.070  399.711    5.014   60.349
  409.320  402.391    5.010   59.717
  409.570  405.064    5.005   59.085
  409.820  406.408    4.997   58.447
  410.070  407.092    4.994   57.809
  410.320  405.765    4.896   57.178
  410.570  402.449    4.890   56.540
  410.820  399.793    4.792   56.534
  411.070  399.142    4.787   56.521
  411.320  400.483    4.784   56.505
  411.570  404.492    4.780   57.118
  411.820  406.502    4.776   57.102
  412.070  405.851    4.772   57.090
  412.320  404.527    4.859   57.074
  412.570  403.206    4.854   57.067
  412.820  399.890    4.851   57.052
  413.070  397.904    4.845   57.042
  413.320  395.254    4.843   57.026
  413.570  393.930    4.836   57.636
  413.820  392.609    4.834   58.245
  414.070  390.620    4.924   58.233
  414.320  385.302    6.085   56.354
  414.570  377.986    7.968   54.472
  414.820  362.676    9.847   53.221
  415.070  277.416   11.264   51.339
  415.320  258.109    9.827   50.707
  415.570  254.793    8.916   50.073
  415.820  270.123    7.778   51.304
  416.070  302.780    6.922   55.024
  416.320  332.103    6.401   56.878
  416.570  362.758    5.693   58.731
  416.820  390.083    5.368   59.338
  417.070  399.424    5.061   59.328
  417.320  400.771    4.771   59.938
  417.570  400.110    4.497   59.922
  417.820  397.463    4.324   60.535
  418.070  396.143    4.076   62.379
  418.320  394.819    4.071   62.994
  418.570  394.828    4.069   64.229
  418.820  396.175    4.064   67.321
  419.070  398.182    4.062   68.558
  419.320  402.194    4.056   71.034
  419.570  406.872    4.132   76.621
  419.820  411.544    4.130   80.963
  420.070  414.220    4.206   85.305
  420.320  414.232    4.202   87.780
  420.570  412.911    4.279   87.139
  420.820  409.595    4.359   86.511
  421.070  405.607    4.441   84.626
  421.320  400.955    4.524   83.997
  421.570  394.308    4.788   82.109
  421.820  392.319    4.878   82.099
  422.070  390.338    5.065   82.090
  422.320  389.677    5.060   82.080
  422.570  389.689    5.056   82.064
  422.820  390.370    4.953   82.671
  423.070  391.051    4.951   83.287
  423.320  391.057    4.851   83.271
  423.570  391.735    4.846   83.258
  423.820  393.748    4.749   83.249
  424.070  395.089    4.655   83.230
  424.320  396.436    4.387   83.220
  424.570  397.780    4.385   83.833
  424.820  397.789    4.297   83.820
  425.070  399.139    4.210   83.804
  425.320  399.811    4.125   83.795
  425.570  401.158    4.121   83.779
  425.820  402.502    4.197   84.389
  426.070  403.843    4.195   85.001
  426.320  405.190    4.355   86.226
  426.570  405.865    4.436   86.842
  426.820  405.879    4.696   88.689
  427.070  405.222    4.972   89.305
  427.320  401.237    5.066   90.537
  427.570  393.924    5.258   91.146
  427.820  390.602    5.357   92.378
  428.070  387.949    5.351   92.365
  428.320  387.294    5.349   89.864
  428.570  378.646    5.343   80.520
  428.820  347.348    5.237   74.906
  429.070  361.349    5.132   78.000
  429.320  368.689    5.028   78.616
  429.570  386.690    4.927   78.603
  429.820  384.700    4.923   76.724
  430.070  376.718    5.632   73.601
  430.320  363.406    6.960   69.856
  430.570  341.435    9.850   64.241
  430.820  322.794   11.711   60.493
  431.070  276.171   11.254   58.617
  431.320  270.188   10.407   62.337
  431.570  326.826    9.437   67.923
  431.820  344.824    8.900   74.132
  432.070  358.159    8.070   79.099
  432.320  370.162    7.911   83.441
  432.570  378.834    7.604   86.539
  432.820  382.845    7.745   87.767
  433.070  382.191    8.043   86.507
  433.320  380.207    8.352   85.879
  433.570  378.881    9.011   85.244
  433.820  375.562    9.360   85.854
  434.070  367.579    9.536   85.838
  434.320  349.605    9.903   82.093
  434.570  332.296    9.894   77.722
  434.820  338.969    9.506   77.713
  435.070  338.315    9.139   79.566
  435.320  335.662    8.614   82.042
  435.570  351.668    8.446   87.006
  435.820  355.007    8.118   92.592
  436.070  363.010    7.953   89.466
  436.320  370.350    7.796   87.590
  436.570  378.355    7.785   84.464
  436.820  381.035    7.780   83.826
