~VERSION INFORMATION
 VERS.                 2.0:   CWLS LOG ASCII STANDARD -VERSION 2.0
 WRAP.                  NO:   ONE LINE PER DEPTH STEP
~WELL INFORMATION BLOCK
#MNEM.UNIT           DATA                    DESCRIPTION OF MNEMONIC
#---------    -------------------            -------------------------------
# Generated from Intellog Unique Number	CW_79_81/WELL/201
WELL.         SCURRY ATKINSON MISTEHAE 07-34 : Well_name    - WELL
LOC .         00/07-34-079-03W5/0            : Location     - LOCATION
UWI .         00/07-34-079-03W5/0            : Uwi          - UNIQUE WELL ID
ENTR.         JJ                             : Entered      - ENTERED BY
SRVC.         SCHLUMBERGER                   : Scn          - SERVICE COMPANY
DATE.         23 FEB 73                      : Date         - LOG DATE
STRT.M        383.438                        : top_depth    - START DEPTH
STOP.M        511.438                        : bot_depth    - STOP DEPTH
STEP.M        0.25                           : increment    - STEP LENGTH
 NULL. -999.2500:NULL Value
~CURVE INFORMATION BLOCK
#MNEM UNIT       ERCB CURVE CODE    CURVE DESCRIPTION
#-----------   ------------------   ----------------------------------
DEPT.M        00 001 00 00         : DEPTH        - DEPTH
DELT.US/F     00 520 00 00         : DELT         - SONIC TRAVEL TIME
GR  .API      00 310 00 00         : GR           - GAMMA RAY
ILD .OHMM     00 120 00 00         : RESD         - DEEP RESISTIVITY (DIL)
~PARAMETER INFORMATION
#MNEM.UNIT           DATA             DESCRIPTION OF MNEMONIC
#---------         -----------     ------------------------------
GL  .M        595.793              : gl           - GROUND LEVEL ELEVATION
EREF.M        599.084              : kb           - ELEVATION OF DEPTH REFERENCE
DATM.M        599.084              : datum        - DATUM ELEVATION
TDD .M        515.722              : tdd          - TOTAL DEPTH DRILLER
RUN .         ONE                  : Run          - RUN NUMBER
ENG .         CUTRESS & BENOWSKI   : Engineer     - RECORDING ENGINEER
WIT .         MARTYNA              : Witness      - WITNESSED BY
BASE.         EDMONTON             : Branch       - HOME BASE OF LOGGING UNIT
MUD .         GEL-CHEM             : Mud_type     - MUD TYPE
MATR.         SANDSTONE            : Logunit      - NEUTRON MATRIX
TMAX.C        23.8889              : BHT          - MAXIMUM RECORDED TEMPERATURE
BHTD.M        516.026              : BHTDEP       - MAXIMUM RECORDED TEMPERATURE
RMT .C        20                   : MDTP         - TEMPERATURE OF MUD
MUDD.KG/M     1044                 : MWT          - MUD DENSITY
NEUT.         1                    : NEUTRON      - NEUTRON TYPE
RESI.         0                    : RESIST       - RESISTIVITY TYPE
RM  .OHMM     6.62                 : RM           - RESISTIVITY OF MUD
RMC .OHMM     6.62                 : RMC          - RESISTIVITY OF MUD CAKE
RMF .OHMM     6.62                 : RMF          - RESISTIVITY OF MUD FILTRATE
SUFT.C        5                    : SUFT         - SURFACE TEMPERATURE
~A  DEPTH     DELT       GR     RESD
# ...
  437.688  384.457   85.158    5.017
  437.938  384.523   87.474    5.114
  438.188  380.251   89.850    5.311
  438.438  374.206   92.044    5.468
  438.688  365.532   86.802    5.465
  438.938  364.743   84.974    5.401
  439.188  372.168   88.082    5.398
  439.438  378.147   86.741    5.293
  439.688  382.812   88.081    4.948
  439.938  387.674   91.190    4.725
  440.188  393.719   93.932    4.801
  440.438  393.981   96.126    5.219
  440.688  381.562   98.320    6.119
  440.938  372.822   98.564    6.939
  441.188  371.442   92.895    7.358
  441.438  372.296   89.847    7.776
  441.688  365.199   84.361    8.134
  441.938  359.547   81.557    8.251
  442.188  365.921   83.508    8.207
  442.438  372.885   86.128    7.922
  442.688  363.620   83.507    7.718
  442.938  359.020   86.920    8.377
  443.188  366.248   88.992    8.835
  443.438  355.800   86.005    8.249
  443.688  339.175   85.274    7.824
  443.938  326.361   82.897    7.519
  444.188  348.833   86.614    7.315
  444.438  370.057   91.124    7.030
  444.688  365.785   93.623    6.786
  444.938  369.070   89.661    6.642
  445.188  365.785   86.552    6.657
  445.438  367.755   82.529    6.675
  445.688  371.500   86.247    6.712
  445.938  373.209   90.513    6.728
  446.188  371.828   88.624    6.725
  446.438  367.228   86.185    6.620
  446.688  364.337   83.686    6.536
  446.938  363.088   83.320    6.332
  447.188  363.022   89.476    6.189
  447.438  363.876   89.841    6.064
  447.688  365.124   86.062    5.960
  447.938  366.766   84.721    5.937
  448.188  368.737   84.477    5.893
  448.438  370.971   85.025    5.970
  448.688  369.065   86.000    6.327
  448.938  362.559   90.389    6.685
  449.188  357.499   90.998    7.023
  449.438  359.207   87.767    7.321
  449.688  360.915   90.205    7.498
  449.938  356.052   83.988    7.676
  450.188  357.563   82.708    7.752
  450.438  353.095   86.547    7.669
  450.688  352.043   88.315    7.645
  450.938  358.351   92.032    7.641
  451.188  353.948   93.434    7.476
  451.438  345.142   91.910    7.433
  451.688  342.382   91.361    7.289
  451.938  354.407   93.555    7.205
  452.188  364.460   98.309    7.202
  452.438  360.188  102.393    7.219
  452.688  353.091  101.600    7.335
  452.938  347.177  100.503    7.433
  453.188  343.431   96.358    7.389
  453.438  347.702  100.563    6.964
  453.688  356.967   98.125    6.298
  453.938  372.933   99.648    5.631
  454.188  386.732  104.829    5.366
  454.438  387.126  107.511    5.242
  454.688  365.967  103.731    5.741
  454.938  351.642   99.099    6.822
  455.188  342.114   91.724    8.345
  455.438  336.923   87.457   10.790
  455.688  343.230   83.129   13.940
  455.938  325.817   77.887   18.956
  456.188  272.133   69.780   22.909
  456.438  257.479   63.502   26.138
  456.688  254.062   58.199   27.139
  456.938  290.661   62.526   27.215
  457.188  317.339   70.450   26.448
  457.438  321.675   77.276   25.059
  457.688  294.800   74.655   24.032
  457.938  272.261   66.548   22.883
  458.188  254.585   58.259   21.674
  458.438  255.965   52.590   20.748
  458.688  271.866   50.883   19.540
  458.938  325.418   59.050   18.452
  459.188  336.654   68.498   17.043
  459.438  345.393   70.631   16.236
  459.688  350.978   71.606   15.992
  459.938  353.212   76.238   16.028
  460.188  349.334   74.835   15.904
  460.438  350.977   72.092   15.479
  460.688  350.188   72.214   14.170
  460.938  345.588   80.442   12.661
  461.188  342.565   84.831   10.870
  461.438  348.412   80.015    9.180
  461.688  353.012   81.722    7.811
  461.938  353.603   76.662    7.105
  462.188  353.405   79.161    6.599
  462.438  353.602   85.073    6.274
  462.688  354.784   84.646    6.291
  462.938  358.201   79.831    6.528
  463.188  364.443   81.781    6.605
  463.438  367.859   85.438    6.762
  463.688  369.830   86.230    7.040
  463.938  368.713   84.401    7.398
  464.188  363.258   82.999    7.294
  464.438  359.644   83.304    7.170
  464.688  364.572   87.448    7.005
  464.938  369.828   90.922    6.841
  465.188  369.762   90.922    6.718
  465.438  368.053   86.777    6.955
  465.688  369.038   82.388    7.594
  465.938  361.942   82.693    8.513
  466.188  352.479   80.315    9.253
  466.438  344.002   77.450   10.094
  466.688  337.365   76.109   11.235
  466.938  342.622   74.951   13.098
  467.188  344.855   73.000   13.757
  467.438  340.584   71.964   13.894
  467.688  336.181   76.291   14.011
  467.938  333.749   76.291   14.289
  468.188  334.603   73.426   15.028
  468.438  335.194   76.778   16.250
  468.688  319.884   77.753   17.833
  468.938  294.783   70.987   20.681
  469.188  276.384   63.612   23.407
  469.438  264.161   56.054   26.276
  469.688  253.253   54.164   27.959
  469.938  238.206   54.834   26.269
  470.188  251.281   59.466   22.209
  470.438  279.799   63.367   19.274
  470.688  314.033   68.913   15.355
  470.938  327.042   74.886   12.399
  471.188  339.067   80.737   10.207
  471.438  344.849   84.943    8.818
  471.688  343.863   87.807    8.212
  471.938  346.491   89.148    7.847
  472.188  349.644   92.073    7.562
  472.438  353.061   90.001    7.559
  472.688  355.820   84.454    7.776
  472.938  350.892   79.578    7.913
  473.188  348.394   80.918    7.829
  473.438  347.671   83.722    7.645
  473.688  346.291   84.819    7.501
  473.938  343.137   80.552    7.276
  474.188  341.822   80.856    6.771
  474.438  344.319   85.671    6.606
  474.688  343.135   89.998    6.804
  474.938  338.667   91.583    7.142
  475.188  335.644   87.682    7.420
  475.438  334.658   82.196    7.456
  475.688  336.103   79.758    7.332
  475.938  336.037   79.879    7.127
  476.188  335.248   81.464    6.883
  476.438  336.890   84.085    6.638
  476.688  341.555   86.766    6.494
  476.938  347.666   89.143    6.351
  477.188  353.316   92.617    6.267
  477.438  356.141   88.838    6.344
  477.688  350.162   86.156    6.340
  477.938  350.030   84.997    6.257
  478.188  359.097   89.325    6.253
  478.438  365.011   99.320    6.249
  478.688  343.261  100.661    6.186
  478.938  351.934   96.882    6.122
  479.188  367.506  101.758    6.098
  479.438  372.303  104.988    6.095
  479.688  362.840  107.730    6.171
  479.938  351.210  110.961    6.389
  480.188  340.761  113.459    6.727
  480.438  332.745  104.499    7.185
  480.688  325.845   97.612    7.563
  480.938  324.267   96.088    8.181
  481.188  319.273   93.832    8.439
  481.438  312.702   89.139    8.617
  481.688  315.527   85.299    8.734
  481.938  325.646   92.917    8.750
  482.188  326.631  101.511    8.706
  482.438  324.396  106.813    8.542
  482.688  326.302  103.705    8.197
  482.938  332.478  107.849    7.632
  483.188  345.291  112.908    6.966
  483.438  364.412  118.942    6.078
  483.688  376.042  121.258    5.252
  483.938  382.875  121.562    5.087
  484.188  357.117  115.589    5.285
  484.438  342.923   95.597    5.803
  484.688  334.052   90.964    6.241
  484.938  343.185   95.474    6.760
  485.188  353.370   99.192    7.379
  485.438  350.938   96.998    7.597
  485.688  343.776   79.931    7.151
  485.938  340.621   66.583    7.649
  486.188  342.395   50.369    8.670
  486.438  340.029   45.859    9.510
  486.688  321.170   48.297   10.651
  486.938  305.663   52.563   12.294
  487.188  327.017   53.416   13.696
  487.438  338.648   56.341   14.777
  487.688  345.547   60.547   14.231
  487.938  343.509   66.459   12.300
  488.188  340.158   73.712   10.971
  488.438  347.385   79.928    9.662
  488.688  356.321   84.195    8.695
  488.938  365.914   93.703    8.230
  489.188  372.879   93.946    9.230
  489.438  363.417   70.663   10.974
  489.688  354.217   62.800   13.701
  489.938  347.252   55.851   17.392
  490.188  341.666   52.133   22.388
  490.438  338.249   52.438   26.060
  490.688  335.489   47.988   27.300
  490.938  328.392   47.500   27.539
  491.188  314.789   48.170   27.776
  491.438  300.136   50.364   27.732
  491.688  313.277   54.935   26.885
