~VERSION INFORMATION
 VERS.                 2.0:   CWLS LOG ASCII STANDARD -VERSION 2.0
 WRAP.                  NO:   ONE LINE PER DEPTH STEP
~WELL INFORMATION BLOCK
#MNEM.UNIT           DATA                    DESCRIPTION OF MNEMONIC
#---------    -------------------            -------------------------------
# Generated from Intellog Unique Number	CW_79_81/WELL/199
WELL.         CHEVRON ET AL HORIZON          : Well_name    - WELL
LOC .         00/04-02-079-19W4/0            : Location     - LOCATION
UWI .         00/04-02-079-19W4/0            : Uwi          - UNIQUE WELL ID
ENTR.         MAX                            : Entered      - ENTERED BY
SRVC.         SCHLUMBERGER                   : Scn          - SERVICE COMPANY
STRT.M        179.832                        : top_depth    - START DEPTH
STOP.M        382.332                        : bot_depth    - STOP DEPTH
STEP.M        0.25                           : increment    - STEP LENGTH
 NULL. -999.2500:NULL Value
~CURVE INFORMATION BLOCK
#MNEM UNIT       ERCB CURVE CODE    CURVE DESCRIPTION
#-----------   ------------------   ----------------------------------
DEPT.M        00 001 00 00         : DEPTH        - DEPTH
ILD .OHMM     00 120 00 00         : RESD         - DEEP RESISTIVITY (DIL)
NPHI.V/V      00 330 00 00         : PHIN         - NEUTRON POROSITY (SANDSTONE)
DPHI.V/V      00 890 00 00         : PHID         - DENSITY POROSITY (SANDSTONE)
CALI.MM       00 280 01 00         : CAL          - CALIPER
GR  .API      00 310 00 00         : GR           - GAMMA RAY
~PARAMETER INFORMATION
#MNEM.UNIT           DATA             DESCRIPTION OF MNEMONIC
#---------         -----------     ------------------------------
GL  .M        555.346              : gl           - GROUND LEVEL ELEVATION
EREF.M        558.698              : kb           - ELEVATION OF DEPTH REFERENCE
DATM.M        555.346              : datum        - DATUM ELEVATION
TDD .M        382.524              : tdd          - TOTAL DEPTH DRILLER
RUN .         ONE                  : Run          - RUN NUMBER
ENG .         BILL                 : Engineer     - RECORDING ENGINEER
WIT .         JIM                  : Witness      - WITNESSED BY
MUD .         GEL                  : Mud_type     - MUD TYPE
MATR.         SANDSTONE            : Logunit      - NEUTRON MATRIX
TMAX.C        25                   : BHT          - MAXIMUM RECORDED TEMPERATURE
BHTD.M        382.524              : BHTDEP       - MAXIMUM RECORDED TEMPERATURE
RMT .C        13.3333              : MDTP         - TEMPERATURE OF MUD
MUDD.KG/M     10300                : MWT          - MUD DENSITY
NEUT.         1                    : NEUTRON      - NEUTRON TYPE
RESI.         0                    : RESIST       - RESISTIVITY TYPE
RM  .OHMM     5.98                 : RM           - RESISTIVITY OF MUD
RMC .OHMM     5.98                 : RMC          - RESISTIVITY OF MUD CAKE
RMF .OHMM     6.05                 : RMF          - RESISTIVITY OF MUD FILTRATE
SUFT.C        -15                  : SUFT         - SURFACE TEMPERATURE
~A  DEPTH     RESD     PHIN     PHID      CAL       GR
# ...
  289.332    6.163    0.562    0.233  196.040   82.030
  289.582    6.176    0.530    0.221  196.065   80.334
  289.832    6.176    0.514    0.207  196.180   80.387
  290.082    6.203    0.535    0.220  196.282   81.047
  290.332    6.269    0.543    0.226  196.396   82.271
  290.582    6.290    0.561    0.218  197.006   82.631
  290.832    6.352    0.552    0.220  196.613   82.098
  291.082    6.364    0.529    0.226  196.219   81.288
  291.332    6.434    0.537    0.232  194.846   81.070
  291.582    6.508    0.499    0.218  193.944   81.408
  291.832    6.521    0.490    0.218  194.059   83.232
  292.082    6.532    0.498    0.214  194.237   84.463
  292.332    6.544    0.524    0.212  194.758   83.937
  292.582    6.678    0.539    0.219  195.851   82.249
  292.832    6.691    0.546    0.221  195.953   82.894
  293.082    6.954    0.532    0.222  195.572   83.540
  293.332    7.225    0.494    0.218  195.203   83.022
  293.582    7.575    0.448    0.137  194.314   75.173
  293.832    8.621    0.327    0.045  194.899   67.624
  294.082   10.457    0.308    0.025  195.496   64.464
  294.332   11.583    0.360    0.105  195.598   68.622
  294.582   11.391    0.392    0.149  195.217   81.274
  294.832    9.959    0.540    0.198  194.810   85.439
  295.082    8.320    0.554    0.203  194.912   84.043
  295.332    7.543    0.567    0.209  195.039   81.169
  295.582    7.225    0.553    0.215  194.633   83.001
  295.832    7.171    0.524    0.215  194.747   83.939
  296.082    7.320    0.506    0.235  194.341   83.714
  296.332    7.398    0.566    0.234  194.468   83.188
  296.582    7.398    0.575    0.225  194.062   82.363
  296.832    7.431    0.559    0.214  194.176   80.675
  297.082    7.512    0.521    0.237  194.278   81.913
  297.332    7.593    0.553    0.237  194.380   84.307
  297.582    7.679    0.563    0.221  193.986   83.204
  297.832    7.766    0.546    0.212  194.088   82.386
  298.082    7.779    0.535    0.211  194.215   85.088
  298.332    7.653    0.518    0.205  194.330   86.311
  298.582    7.530    0.511    0.212  194.431   86.086
  298.832    7.548    0.534    0.203  194.025   85.853
  299.082    7.548    0.558    0.189  194.139   87.384
  299.332    7.584    0.587    0.204  193.746   86.574
  299.582    7.591    0.562    0.197  193.835   86.619
  299.832    7.605    0.552    0.194  193.949   86.994
  300.082    7.551    0.541    0.190  194.051   87.917
  300.332    7.433    0.566    0.204  194.661   89.456
  300.582    7.311    0.597    0.200  194.750   88.338
  300.832    7.259    0.595    0.193  194.865   87.227
  301.082    7.143    0.580    0.181  194.967   83.198
  301.332    7.157    0.576    0.202  194.573   82.957
  301.582    7.171    0.581    0.216  194.700   82.740
  301.832    7.316    0.566    0.222  194.789   82.215
  302.082    7.397    0.548    0.227  194.891   82.560
  302.332    7.547    0.524    0.210  194.993   84.384
  302.582    7.632    0.540    0.220  194.612   86.500
  302.832    7.651    0.557    0.211  194.231   85.389
  303.082    7.663    0.549    0.198  194.332   83.979
  303.332    7.540    0.549    0.181  194.460   84.632
  303.582    7.351    0.553    0.209  194.549   86.463
  303.832    7.036    0.544    0.210  194.663   86.223
  304.082    6.559    0.539    0.210  194.740   84.242
  304.332    6.221    0.537    0.215  194.359   84.287
  304.582    5.745    0.536    0.215  194.460   86.411
  304.832    5.351    0.573    0.205  194.079   88.812
  305.082    4.897    0.595    0.209  194.181   92.091
  305.332    4.603    0.579    0.202  194.283   95.964
  305.582    4.612    0.555    0.189  193.902   99.243
  305.832    4.835    0.519    0.203  193.991  101.945
  306.082    4.835    0.500    0.217  193.610  102.005
  306.332    5.083    0.478    0.197  193.737   95.334
  306.582    6.508    0.431    0.183  193.826   86.021
  306.832    7.405    0.362    0.165  193.432   67.928
  307.082    8.738    0.380    0.127  193.534   63.306
  307.332   11.397    0.332    0.139  193.153   61.317
  307.582   13.823    0.263    0.061  193.751   55.516
  307.832   14.908    0.237    0.042  193.852   43.299
  308.082   14.396    0.266    0.096  193.980   46.279
  308.332   13.288    0.360    0.124  194.564   58.646
  308.582   10.901    0.492    0.229  194.653   67.193
  308.832    8.622    0.494    0.226  194.768   75.748
  309.082    8.254    0.536    0.221  195.391   83.425
  309.332    7.975    0.557    0.214  195.467   83.778
  309.582    7.852    0.539    0.206  195.582   81.212
  309.832    7.863    0.527    0.207  195.188   80.687
  310.082    7.880    0.524    0.212  195.290   82.510
  310.332    7.893    0.512    0.208  195.391   82.563
  310.582    7.842    0.507    0.213  195.506   83.794
  310.832    7.786    0.505    0.219  195.138   83.876
  311.082    7.797    0.506    0.214  195.214   83.936
  311.332    7.797    0.509    0.224  195.316   83.396
  311.582    7.833    0.530    0.234  195.443   82.286
  311.832    7.990    0.521    0.215  195.545   82.353
  312.082    8.005    0.535    0.207  195.634   83.877
  312.332    8.022    0.561    0.214  195.761   83.652
  312.582    8.038    0.562    0.210  195.876   82.826
  312.832    8.038    0.579    0.202  195.952   82.016
  313.082    7.931    0.578    0.202  195.571   81.498
  313.332    7.659    0.556    0.206  195.673   81.851
  313.582    7.533    0.540    0.213  195.774   84.845
  313.832    7.548    0.516    0.200  195.889   88.410
  314.082    7.492    0.549    0.194  196.067   89.356
  314.332    7.508    0.554    0.190  196.093   88.830
  314.582    7.533    0.567    0.189  196.220   87.435
  314.832    7.606    0.530    0.193  196.309   86.617
  315.082    7.691    0.514    0.208  196.398   87.255
  315.332    7.921    0.498    0.194  196.513   89.086
  315.582    8.155    0.487    0.203  196.627   88.553
  315.832    8.471    0.499    0.209  196.233   86.272
  316.082    8.724    0.473    0.210  196.843   79.893
  316.332    8.741    0.470    0.205  197.428   79.376
  316.582    8.760    0.485    0.221  197.555   83.533
  316.832    8.697    0.504    0.219  197.136   86.535
  317.082    8.635    0.498    0.223  197.263   86.880
  317.332    8.588    0.493    0.220  197.378   87.233
  317.582    8.514    0.519    0.210  197.454   88.756
  317.832    8.451    0.518    0.196  197.581   86.768
  318.082    8.397    0.501    0.214  197.671   86.550
  318.332    8.409    0.517    0.202  197.785   88.367
  318.582    8.348    0.514    0.198  197.874   89.890
  318.832    8.291    0.503    0.195  198.497   89.950
  319.082    8.235    0.510    0.193  198.599   88.840
  319.332    8.247    0.530    0.190  199.183   88.607
  319.582    8.190    0.530    0.206  199.298   88.967
  319.832    8.133    0.505    0.203  199.400   89.035
  320.082    7.670    0.509    0.204  201.917   87.882
  320.332    7.688    0.496    0.197  201.043   87.960
  320.582    7.638    0.515    0.198  200.664   86.867
  320.832    7.593    0.530    0.182  200.286   85.748
  321.082    7.680    0.549    0.190  199.907   86.411
  321.332    7.771    0.537    0.195  199.048   87.376
  321.582    7.860    0.531    0.206  198.174   86.549
  321.832    7.879    0.520    0.199  197.810   88.676
  322.082    7.691    0.504    0.212  197.912   89.330
  322.332    7.436    0.492    0.209  197.563   90.277
  322.582    7.005    0.511    0.204  197.170   93.867
  322.832    6.956    0.513    0.202  197.302   93.652
  323.082    7.042    0.532    0.208  196.908   91.664
  323.332    7.314    0.521    0.215  196.574   88.230
  323.582    7.807    0.474    0.198  196.662   83.900
  323.832    8.112    0.450    0.173  196.793   83.978
  324.082    8.281    0.486    0.202  197.421   86.974
  324.332    8.232    0.492    0.216  198.529   88.816
  324.582    7.957    0.465    0.222  199.141   87.715
  324.832    7.363    0.485    0.222  199.258   87.483
  325.082    7.245    0.504    0.214  198.909   86.398
  325.332    7.268    0.515    0.219  198.501   83.834
  325.582    7.619    0.492    0.234  197.656   80.374
