~VERSION INFORMATION
 VERS.                 2.0:   CWLS LOG ASCII STANDARD -VERSION 2.0
 WRAP.                  NO:   ONE LINE PER DEPTH STEP
~WELL INFORMATION BLOCK
#MNEM.UNIT           DATA                    DESCRIPTION OF MNEMONIC
#---------    -------------------            -------------------------------
# Generated from Intellog Unique Number	CS_73_76/WELL/1085
WELL.         BOW VALLEY EXPLORATION         : Well_name    - WELL
LOC .         00/06-30-075-14W4/0            : Location     - LOCATION
UWI .         00/06-30-075-14W4/0            : Uwi          - UNIQUE WELL ID
ENTR.         SP                             : Entered      - ENTERED BY
SRVC.         SCHLUMBERGER                   : Scn          - SERVICE COMPANY
STRT.M        377.952                        : top_depth    - START DEPTH
STOP.M        584.952                        : bot_depth    - STOP DEPTH
STEP.M        0.25                           : increment    - STEP LENGTH
 NULL. -999.2500:NULL Value
~CURVE INFORMATION BLOCK
#MNEM UNIT       ERCB CURVE CODE    CURVE DESCRIPTION
#-----------   ------------------   ----------------------------------
DEPT.M        00 001 00 00         : DEPTH        - DEPTH
GR  .API      00 310 00 00         : GR           - GAMMA RAY
DPHI.V/V      00 890 00 00         : PHID         - DENSITY POROSITY (SANDSTONE)
NPHI.V/V      00 330 00 00         : PHIN         - NEUTRON POROSITY (SANDSTONE)
ILD .OHMM     00 120 00 00         : RESD         - DEEP RESISTIVITY (DIL)
~PARAMETER INFORMATION
#MNEM.UNIT           DATA             DESCRIPTION OF MNEMONIC
#---------         -----------     ------------------------------
GL  .M        751.759              : gl           - GROUND LEVEL ELEVATION
EREF.M        754.38               : kb           - ELEVATION OF DEPTH REFERENCE
DATM.M        751.759              : datum        - DATUM ELEVATION
TDD .M        584.606              : tdd          - TOTAL DEPTH DRILLER
RUN .         ONE                  : Run          - RUN NUMBER
ENG .         BILL                 : Engineer     - RECORDING ENGINEER
WIT .         JIM                  : Witness      - WITNESSED BY
MUD .         GEL                  : Mud_type     - MUD TYPE
MATR.         SANDSTONE            : Logunit      - NEUTRON MATRIX
TMAX.C        22.2222              : BHT          - MAXIMUM RECORDED TEMPERATURE
BHTD.M        584.606              : BHTDEP       - MAXIMUM RECORDED TEMPERATURE
MATR.         1                    : LOGUNIT      - NEUTRON MATRIX
RMT .C        25                   : MDTP         - TEMPERATURE OF MUD
NEUT.         1                    : NEUTRON      - NEUTRON TYPE
RESI.         0                    : RESIST       - RESISTIVITY TYPE
RMC .OHMM     0.25                 : RMC          - RESISTIVITY OF MUD CAKE
RMF .OHMM     0.25                 : RMF          - RESISTIVITY OF MUD FILTRATE
SUFT.C        15                   : SUFT         - SURFACE TEMPERATURE
~A  DEPTH       GR     PHID     PHIN     RESD
  377.952  106.200    0.272    0.554    2.235
  378.202  107.900    0.264    0.560    2.235
  378.452  113.434    0.254    0.551    2.236
  378.702  116.280    0.248    0.553    2.236
  378.952  116.932    0.252    0.563    2.232
  379.202  113.872    0.257    0.550    2.279
  379.452  115.096    0.250    0.550    2.351
  379.702  115.666    0.245    0.555    2.424
  379.952  113.921    0.237    0.529    2.553
  380.202  113.885    0.229    0.526    2.633
  380.452  115.495    0.219    0.543    2.657
  380.702  116.397    0.209    0.543    2.744
  380.952  117.346    0.197    0.532    2.878
  381.202  118.049    0.218    0.534    3.045
  381.452  116.995    0.228    0.527    3.172
  381.702  111.943    0.232    0.504    3.243
  381.952  107.390    0.223    0.480    3.164
  382.202  103.939    0.211    0.455    3.017
  382.452  104.817    0.243    0.473    2.875
  382.702  109.386    0.246    0.502    2.680
  382.952  110.902    0.233    0.520    2.561
  383.202  111.357    0.234    0.548    2.505
  383.452  113.410    0.222    0.571    2.512
  383.702  114.014    0.236    0.582    2.678
  383.952  113.277    0.251    0.552    2.767
  384.202  113.328    0.228    0.535    2.853
  384.452  114.496    0.217    0.509    2.822
  384.702  113.109    0.209    0.508    2.735
  384.952  111.093    0.216    0.525    2.702
  385.202  107.799    0.231    0.533    2.727
  385.452  110.915    0.230    0.535    2.805
  385.702  113.332    0.233    0.521    2.854
  385.952  110.758    0.237    0.518    2.774
  386.202  110.440    0.228    0.511    2.756
  386.452  110.640    0.230    0.488    2.791
  386.702  107.389    0.238    0.470    2.971
  386.952  107.247    0.219    0.479    3.322
  387.202  106.022    0.203    0.514    3.687
  387.452   99.477    0.179    0.533    4.097
  387.702   94.175    0.136    0.475    4.599
  387.952   89.094    0.080    0.425    5.041
  388.202   92.328    0.147    0.427    5.380
  388.452   95.564    0.194    0.434    5.720
  388.702   92.052    0.255    0.443    5.853
  388.952   77.484    0.313    0.460    5.854
  389.202   69.551    0.338    0.451    5.684
  389.452   69.147    0.325    0.439    5.352
  389.702   74.696    0.302    0.438    5.047
  389.952   80.128    0.290    0.459    5.119
  390.202   86.010    0.289    0.484    5.454
  390.452   80.758    0.319    0.499    5.860
  390.702   76.100    0.321    0.439    6.065
  390.952   83.478    0.305    0.416    5.785
  391.202   97.339    0.278    0.428    5.466
  391.452  104.318    0.250    0.446    4.941
  391.702  111.514    0.223    0.465    4.813
  391.952  115.276    0.222    0.483    5.217
  392.202  117.457    0.239    0.497    5.718
  392.452  107.631    0.275    0.485    6.122
  392.702   95.087    0.299    0.462    6.401
  392.952   89.456    0.319    0.449    6.751
  393.202   88.682    0.325    0.442    6.804
  393.452   90.542    0.318    0.440    6.921
  393.702   93.845    0.326    0.438    7.070
  393.952   96.996    0.325    0.434    7.057
  394.202   97.291    0.317    0.429    7.143
  394.452   99.457    0.309    0.426    7.187
  394.702  104.539    0.299    0.435    7.195
  394.952  108.319    0.295    0.445    7.268
  395.202  109.684    0.293    0.451    7.327
  395.452  110.760    0.306    0.438    7.332
  395.702  109.654    0.313    0.434    7.334
  395.952  108.464    0.316    0.443    7.336
  396.202  109.717    0.312    0.448    7.334
  396.452  107.342    0.302    0.454    7.290
  396.702   99.278    0.300    0.451    7.209
  396.952   88.514    0.297    0.427    7.219
  397.202   77.130    0.289    0.412    7.027
  397.452   68.432    0.302    0.412    6.962
  397.702   63.471    0.327    0.422    6.695
  397.952   59.576    0.348    0.431    6.557
  398.202   60.722    0.345    0.426    6.364
  398.452   64.295    0.331    0.429    6.416
  398.702   67.912    0.311    0.429    6.468
  398.952   72.414    0.305    0.431    6.578
  399.202   74.320    0.310    0.422    6.647
  399.452   76.665    0.296    0.424    6.725
  399.702   78.653    0.281    0.429    6.854
  399.952   79.883    0.272    0.425    6.848
  400.202   78.357    0.285    0.417    6.849
  400.452   76.045    0.300    0.413    6.478
  400.702   75.968    0.301    0.414    6.122
  400.952   78.727    0.287    0.423    5.614
  401.202   81.510    0.293    0.432    5.132
  401.452   82.893    0.298    0.432    4.791
  401.702   86.416    0.312    0.432    4.234
  401.952   90.151    0.288    0.432    3.890
  402.202   95.448    0.253    0.443    3.753
  402.452  102.467    0.229    0.472    3.751
  402.702  107.602    0.191    0.500    3.853
  402.952  126.038    0.170    0.525    3.969
  403.202  128.937    0.172    0.531    3.910
  403.452  128.599    0.192    0.528    3.620
  403.702  128.043    0.192    0.519    3.375
  403.952  130.803    0.211    0.506    3.180
  404.202  131.254    0.200    0.507    2.996
  404.452  136.916    0.164    0.521    2.821
  404.702  138.735    0.207    0.539    2.777
  404.952  138.174    0.200    0.561    2.942
  405.202  137.216    0.207    0.579    3.380
  405.452  136.434    0.220    0.560    3.996
  405.702  136.482    0.191    0.543    4.636
  405.952  136.129    0.213    0.532    5.402
  406.202  132.968    0.247    0.513    6.051
  406.452  129.270    0.264    0.484    6.409
  406.702  124.898    0.268    0.460    6.664
  406.952  124.820    0.260    0.447    6.652
  407.202  125.136    0.252    0.438    6.651
  407.452  124.285    0.243    0.440    6.579
  407.702  120.938    0.242    0.453    6.501
  407.952  117.001    0.271    0.467    6.210
  408.202  114.062    0.286    0.466    5.905
  408.452  110.419    0.288    0.445    5.750
  408.702  105.001    0.277    0.436    5.752
  408.952  118.515    0.262    0.441    5.946
  409.202  125.809    0.235    0.461    6.322
  409.452  127.676    0.225    0.478    6.711
  409.702  123.296    0.249    0.474    7.099
  409.952  115.551    0.249    0.452    7.305
  410.202  111.652    0.264    0.458    7.471
  410.452  106.800    0.271    0.470    7.306
  410.702  106.725    0.277    0.484    7.206
  410.952  110.740    0.277    0.472    6.780
  411.202  113.974    0.268    0.474    6.525
  411.452  117.979    0.260    0.483    6.233
  411.702  120.575    0.252    0.472    5.839
  411.952  120.706    0.255    0.457    5.569
  412.202  122.782    0.261    0.460    5.497
  412.452  126.275    0.271    0.452    5.514
  412.702  128.624    0.262    0.445    5.575
  412.952  126.428    0.242    0.446    5.780
  413.202  119.022    0.214    0.456    6.067
  413.452  110.859    0.189    0.471    6.445
  413.702  101.238    0.226    0.473    6.719
  413.952   90.176    0.240    0.462    6.990
  414.202   80.165    0.247    0.470    7.447
  414.452   78.296    0.316    0.480    7.685
  414.702   80.547    0.333    0.490    7.923
  414.952   77.559    0.336    0.487    8.167
  415.202   74.032    0.345    0.471    8.427
  415.452   71.489    0.345    0.457    8.508
  415.702   69.050    0.341    0.450    8.626
  415.952   67.777    0.331    0.441    8.655
  416.202   67.338    0.323    0.450    8.832
  416.452   69.049    0.314    0.457    8.938
  416.702   69.275    0.324    0.470    9.004
  416.952   69.768    0.327    0.471    8.861
  417.202   70.008    0.316    0.458    8.596
  417.452   70.944    0.300    0.458    8.333
  417.702   71.865    0.284    0.440    7.727
  417.952   73.668    0.276    0.446    7.089
  418.202   79.205    0.289    0.439    6.085
  418.452   87.263    0.303    0.430    5.398
  418.702   91.644    0.310    0.458    5.020
  418.952   98.617    0.305    0.476    4.670
  419.202  107.740    0.302    0.476    4.447
  419.452  115.027    0.291    0.465    4.317
  419.702  119.998    0.273    0.473    4.270
  419.952  118.702    0.276    0.486    4.142
  420.202  116.112    0.284    0.482    4.130
  420.452  115.078    0.277    0.476    4.263
  420.702  117.281    0.270    0.470    4.427
  420.952  117.202    0.259    0.465    4.712
  421.202  116.871    0.253    0.495    5.255
