~VERSION INFORMATION
 VERS.                 2.0:   CWLS LOG ASCII STANDARD -VERSION 2.0
 WRAP.                  NO:   ONE LINE PER DEPTH STEP
~WELL INFORMATION BLOCK
#MNEM.UNIT           DATA                    DESCRIPTION OF MNEMONIC
#---------    -------------------            -------------------------------
# Generated from Intellog Unique Number	CW_82_90/WELL/3070
WELL.         CHEVRON WABASCA 08-34          : Well_name    - WELL
LOC .         00/08-34-085-25W4/0            : Location     - LOCATION
UWI .         00/08-34-085-25W4/0            : Uwi          - UNIQUE WELL ID
ENTR.         JAYE                           : Entered      - ENTERED BY
SRVC.         SCHLUMBERGER                   : Scn          - SERVICE COMPANY
DATE.         01 FEB 1974                    : Date         - LOG DATE
STRT.M        182.88                         : top_depth    - START DEPTH
STOP.M        384.13                         : bot_depth    - STOP DEPTH
STEP.M        0.25                           : increment    - STEP LENGTH
 NULL. -999.2500:NULL Value
~CURVE INFORMATION BLOCK
#MNEM UNIT       ERCB CURVE CODE    CURVE DESCRIPTION
#-----------   ------------------   ----------------------------------
DEPT.M        00 001 00 00         : DEPTH        - DEPTH
GR  .API      00 310 00 00         : GR           - GAMMA RAY
CALI.MM       00 280 01 00         : CAL          - CALIPER
DPHI.V/V      00 890 00 00         : PHID         - DENSITY POROSITY (SANDSTONE)
NPHI.V/V      00 330 00 00         : PHIN         - NEUTRON POROSITY (SANDSTONE)
ILD .OHMM     00 120 00 00         : RESD         - DEEP RESISTIVITY (DIL)
~PARAMETER INFORMATION
#MNEM.UNIT           DATA             DESCRIPTION OF MNEMONIC
#---------         -----------     ------------------------------
GL  .M        564.185              : gl           - GROUND LEVEL ELEVATION
EREF.M        567.538              : kb           - ELEVATION OF DEPTH REFERENCE
DATM.M        564.185              : datum        - DATUM ELEVATION
TDD .M        382.524              : tdd          - TOTAL DEPTH DRILLER
RUN .         ONE                  : Run          - RUN NUMBER
ENG .         ASWAD                : Engineer     - RECORDING ENGINEER
WIT .         WONG & LILLIES       : Witness      - WITNESSED BY
BASE.         EDMONTON             : Branch       - HOME BASE OF LOGGING UNIT
MUD .         FGM                  : Mud_type     - MUD TYPE
MATR.         SANDSTONE            : Logunit      - NEUTRON MATRIX
TMAX.C        30.5556              : BHT          - MAXIMUM RECORDED TEMPERATURE
BHTD.M        382.524              : BHTDEP       - MAXIMUM RECORDED TEMPERATURE
RMT .C        18.8889              : MDTP         - TEMPERATURE OF MUD
MUDD.KG/M     9600                 : MWT          - MUD DENSITY
NEUT.         1                    : NEUTRON      - NEUTRON TYPE
RESI.         0                    : RESIST       - RESISTIVITY TYPE
RM  .OHMM     0                    : RM           - RESISTIVITY OF MUD
RMC .OHMM     5.49                 : RMC          - RESISTIVITY OF MUD CAKE
RMF .OHMM     3.22                 : RMF          - RESISTIVITY OF MUD FILTRATE
SUFT.C        4                    : SUFT         - SURFACE TEMPERATURE
~A  DEPTH       GR      CAL     PHID     PHIN     RESD
# ...
  255.880   57.188  213.780    0.047    0.213   14.538
  256.130   57.204  213.213    0.084    0.233   11.438
  256.380   57.282  208.953    0.143    0.280   10.401
  256.630   57.662  206.450    0.262    0.393   10.428
  256.880   60.121  206.829    0.292    0.507    9.626
  257.130   63.065  206.793    0.269    0.551    8.462
  257.380   67.171  207.372    0.268    0.559    6.645
  257.630   72.070  206.618    0.285    0.571    4.914
  257.880   69.218  207.195    0.281    0.562    4.683
  258.130   68.805  207.488    0.269    0.556    4.776
  258.380   69.982  207.643    0.269    0.558    5.320
  258.630   72.928  210.600    0.259    0.534    5.633
  258.880   77.642  211.907    0.235    0.635    5.820
  259.130   82.664  213.831    0.223    0.619    5.947
  259.380   87.869  214.831    0.229    0.596    5.667
  259.630   92.523  213.861    0.235    0.573    5.000
  259.880   92.051  210.947    0.251    0.547    4.479
  260.130   87.551  209.774    0.257    0.547    4.214
  260.380   84.513  209.536    0.267    0.563    4.216
  260.630   81.417  208.564    0.244    0.571    4.323
  260.880   79.904  210.182    0.238    0.574    4.798
  261.130   80.592  211.914    0.256    0.563    5.305
  261.380   86.040  211.149    0.260    0.556    6.217
  261.630   88.314  209.457    0.260    0.588    6.939
  261.880   91.689  208.289    0.267    0.628    7.758
  262.130   92.924  207.739    0.301    0.623    8.806
  262.380   89.216  209.373    0.295    0.611    9.253
  262.630   84.104  209.430    0.300    0.626    9.670
  262.880   73.985  209.395    0.285    0.627    9.992
  263.130   69.178  208.947    0.260    0.607   10.075
  263.380   68.766  208.297    0.296    0.576   10.256
  263.630   68.236  208.052    0.328    0.551   10.458
  263.880   67.212  207.904    0.333    0.537   10.644
  264.130   67.353  207.674    0.320    0.561   10.552
  264.380   67.486  207.120    0.318    0.572   10.681
  264.630   68.541  206.779    0.338    0.586   10.973
  264.880   66.603  206.847    0.322    0.539   11.150
  265.130   65.091  207.218    0.331    0.554   11.075
  265.380   66.755  207.500    0.323    0.568   10.835
  265.630   63.902  207.765    0.315    0.580   10.843
  265.880   64.100  208.455    0.295    0.588   10.730
  266.130   66.074  209.043    0.248    0.601   10.169
  266.380   67.001  209.517    0.229    0.565   10.169
  266.630   66.225  209.481    0.286    0.565    9.030
  266.880   66.605  209.141    0.301    0.555    7.746
  267.130   68.211  209.224    0.297    0.560    5.293
  267.380   70.972  209.280    0.292    0.514    3.748
  267.630   74.773  210.273    0.287    0.538    3.252
  267.880   76.069  212.090    0.272    0.563    3.463
  268.130   77.123  213.085    0.260    0.601    4.013
  268.380   79.519  213.380    0.278    0.596    4.305
  268.630   83.014  213.336    0.278    0.583    3.937
  268.880   87.120  214.127    0.270    0.570    4.263
  269.130   90.554  214.186    0.263    0.580    5.168
  269.380   90.510  214.065    0.263    0.589    5.360
  269.630   86.557  214.631    0.271    0.574    6.400
  269.880   82.666  218.617    0.249    0.631    8.492
  270.130   83.046  226.631    0.225    0.638    9.495
  270.380   84.652  227.516    0.218    0.611    9.502
  270.630   86.801  216.449    0.194    0.535    8.528
  270.880   87.063  211.774    0.156    0.401    7.697
  271.130   77.310  210.519    0.181    0.402    7.335
  271.380   70.061  208.614    0.252    0.487    7.043
  271.630   66.842  207.755    0.281    0.562    6.763
  271.880   68.871  208.243    0.290    0.557    6.592
  272.130   66.750  209.128    0.305    0.545    6.499
  272.380   67.195  209.717    0.266    0.543    6.479
  272.630   68.490  210.705    0.237    0.549    6.152
  272.880   66.065  213.976    0.220    0.616    5.378
  273.130   68.095  213.125    0.240    0.588    4.936
  273.380   72.934  210.813    0.246    0.555    4.565
  273.630   77.161  209.750    0.262    0.621    4.972
  273.880   80.717  210.020    0.270    0.618    6.095
  274.130   82.629  211.530    0.255    0.628    7.183
  274.380   83.620  213.149    0.254    0.647    7.928
  274.630   86.259  211.971    0.262    0.603    6.623
  274.880   86.945  208.848    0.265    0.568    5.899
  275.130   87.696  208.408    0.272    0.535    5.384
  275.380   84.718  208.585    0.279    0.523    4.850
  275.630   77.714  209.363    0.285    0.528    4.192
  275.880   72.544  210.157    0.270    0.573    3.616
  276.130   73.900  210.325    0.265    0.603    3.808
  276.380   78.188  210.395    0.266    0.602    4.488
  276.630   80.095  210.664    0.269    0.567    4.887
  276.880   81.088  211.251    0.270    0.564    5.195
  277.130   83.789  214.620    0.263    0.608    5.388
  277.380   84.049  216.541    0.244    0.628    5.473
  277.630   87.850  217.638    0.235    0.620    5.591
  277.880   89.270  218.944    0.228    0.600    7.746
  278.130   87.763  220.868    0.219    0.584    8.943
  278.380   88.326  223.730    0.211    0.557    8.782
  278.630   88.156  225.439    0.194    0.526    8.339
  278.880   84.632  216.537    0.167    0.480    7.682
  279.130   82.512  214.539    0.146    0.364    7.517
  279.380   76.360  214.096    0.169    0.415    7.496
  279.630   70.700  216.327    0.205    0.454    7.658
  279.880   70.228  215.266    0.229    0.589    7.882
  280.130   76.042  213.271    0.221    0.566    8.069
  280.380   80.943  213.852    0.224    0.574    8.181
  280.630   82.911  214.953    0.195    0.563    8.296
  280.880   87.078  215.946    0.176    0.517    8.303
  281.130   83.368  216.339    0.163    0.429    8.247
  281.380   82.163  215.360    0.167    0.432    8.206
  281.630   79.676  211.828    0.183    0.483    8.122
  281.880   79.447  212.094    0.222    0.554    8.097
  282.130   83.430  213.508    0.229    0.537    8.057
  282.380   88.879  214.707    0.230    0.516    7.988
  282.630   92.130  216.131    0.214    0.512    7.920
  282.880   92.758  217.112    0.224    0.538    7.866
  283.130   91.002  217.799    0.219    0.580    7.814
  283.380   93.520  219.624    0.215    0.550    7.819
  283.630   93.781  220.923    0.218    0.551    7.929
  283.880   92.330  220.993    0.219    0.539    8.178
  284.130   91.981  218.275    0.222    0.539    8.433
  284.380   91.568  214.941    0.233    0.548    8.392
  284.630   93.539  211.616    0.226    0.528    8.166
  284.880   93.920  211.262    0.214    0.509    8.391
  285.130   92.228  211.645    0.239    0.506    8.587
  285.380   89.740  211.717    0.247    0.548    8.907
  285.630   87.557  211.879    0.239    0.576    9.609
  285.880   87.756  211.441    0.218    0.565   11.095
  286.130   89.480  212.021    0.221    0.557   11.679
  286.380   87.908  212.810    0.211    0.535   11.321
  286.630   87.990  215.557    0.177    0.495   10.198
  286.880   86.352  215.425    0.169    0.395    8.881
  287.130   77.394  213.526    0.203    0.413    7.268
  287.380   74.607  212.566    0.238    0.497    6.130
  287.630   76.938  211.709    0.231    0.492    6.170
  287.880   82.142  214.969    0.220    0.474    6.619
  288.130   84.050  215.758    0.240    0.494    6.357
  288.380   84.493  215.005    0.253    0.508    7.067
  288.630   82.863  213.628    0.271    0.518    8.394
  288.880   82.389  210.088    0.299    0.539    8.351
  289.130   81.426  208.619    0.314    0.504    8.859
  289.380   78.880  208.161    0.309    0.479    9.398
  289.630   69.066  209.069    0.299    0.484    9.008
  289.880   65.606  209.441    0.275    0.489    8.633
  290.130   65.499  209.190    0.243    0.460    8.559
  290.380   66.428  211.955    0.161    0.414    8.581
  290.630   70.045  212.006    0.188    0.407    8.587
  290.880   70.794  209.911    0.246    0.438    8.643
  291.130   66.779  209.159    0.265    0.482    8.099
  291.380   64.902  209.020    0.249    0.475    9.022
  291.630   63.881  209.607    0.248    0.471    9.393
  291.880   63.712  210.298    0.257    0.494    8.703
  292.130   71.850  210.358    0.232    0.544    8.436
