~VERSION INFORMATION
 VERS.                 2.0:   CWLS LOG ASCII STANDARD -VERSION 2.0
 WRAP.                  NO:   ONE LINE PER DEPTH STEP
~WELL INFORMATION BLOCK
#MNEM.UNIT           DATA                    DESCRIPTION OF MNEMONIC
#---------    -------------------            -------------------------------
# Generated from Intellog Unique Number	CW_82_90/WELL/3052
WELL.         I.O.E. BUFFALO RIVER 04-32     : Well_name    - WELL
LOC .         00/04-32-085-23W4/0            : Location     - LOCATION
UWI .         00/04-32-085-23W4/0            : Uwi          - UNIQUE WELL ID
ENTR.         JJ                             : Entered      - ENTERED BY
SRVC.         SCHLUMBERGER                   : Scn          - SERVICE COMPANY
DATE.         24 JAN 66                      : Date         - LOG DATE
STRT.M        213.36                         : top_depth    - START DEPTH
STOP.M        341.36                         : bot_depth    - STOP DEPTH
STEP.M        0.25                           : increment    - STEP LENGTH
 NULL. -999.2500:NULL Value
~CURVE INFORMATION BLOCK
#MNEM UNIT       ERCB CURVE CODE    CURVE DESCRIPTION
#-----------   ------------------   ----------------------------------
DEPT.M        00 001 00 00         : DEPTH        - DEPTH
CALI.MM       00 280 01 00         : CAL          - CALIPER
GR  .API      00 310 00 00         : GR           - GAMMA RAY
DELT.US/F     00 520 00 00         : DELT         - SONIC TRAVEL TIME
ILD .OHMM     00 120 00 00         : RESD         - DEEP RESISTIVITY (DIL)
~PARAMETER INFORMATION
#MNEM.UNIT           DATA             DESCRIPTION OF MNEMONIC
#---------         -----------     ------------------------------
GL  .M        550                  : gl           - GROUND LEVEL ELEVATION
EREF.M        554.736              : kb           - ELEVATION OF DEPTH REFERENCE
DATM.M        554.736              : datum        - DATUM ELEVATION
TDD .M        983.285              : tdd          - TOTAL DEPTH DRILLER
RUN .         ONE                  : Run          - RUN NUMBER
ENG .         BERRY/WOLFRAM        : Engineer     - RECORDING ENGINEER
WIT .         RYAN                 : Witness      - WITNESSED BY
BASE.         EDMONTON             : Branch       - HOME BASE OF LOGGING UNIT
MUD .         GEL                  : Mud_type     - MUD TYPE
MATR.         SANDSTONE            : Logunit      - NEUTRON MATRIX
TMAX.C        32.2222              : BHT          - MAXIMUM RECORDED TEMPERATURE
BHTD.M        982.675              : BHTDEP       - MAXIMUM RECORDED TEMPERATURE
RMT .C        17.7778              : MDTP         - TEMPERATURE OF MUD
MUDD.KG/M     1140                 : MWT          - MUD DENSITY
NEUT.         1                    : NEUTRON      - NEUTRON TYPE
RESI.         0                    : RESIST       - RESISTIVITY TYPE
RM  .OHMM     0.8                  : RM           - RESISTIVITY OF MUD
RMC .OHMM     0.83                 : RMC          - RESISTIVITY OF MUD CAKE
RMF .OHMM     0.54                 : RMF          - RESISTIVITY OF MUD FILTRATE
SUFT.C        5                    : SUFT         - SURFACE TEMPERATURE
~A  DEPTH      CAL       GR     DELT     RESD
# ...
  300.360  352.116   90.408  363.861   10.594
  300.610  366.639   85.046  381.981    9.498
  300.860  370.092   77.673  419.729    7.171
  301.110  386.960   81.519  438.787    6.694
  301.360  308.641   84.053  398.905    6.756
  301.610  347.016   82.969  375.958    7.001
  301.860  333.754   77.865  381.645    7.410
  302.110  308.354   73.206  419.659    7.818
  302.360  294.024   70.256  429.245    8.869
  302.610  304.928   74.408  412.414   10.309
  302.860  309.874   79.256  412.182   11.641
  303.110  262.327   73.088  415.451   14.458
  303.360  251.615   77.940  403.999   23.677
  303.610  257.303   81.938  309.807   26.001
  303.860  255.860   79.946  272.072   23.326
  304.110  255.165   73.427  265.322   19.887
  304.360  262.344   66.206  323.907   17.497
  304.610  265.799   77.091  376.508   16.013
  304.860  268.298   73.344  374.262   14.322
  305.110  269.295   75.978  373.293   13.207
  305.360  270.086   83.244  356.263   12.836
  305.610  262.140   84.923  333.182   13.493
  305.860  260.809   80.015  363.333   14.211
  306.110  261.068   84.262  381.453   14.271
  306.360  257.276   84.788  299.763   13.979
  306.610  256.366   76.358  274.193   15.194
  306.860  260.781   63.150  300.045   16.572
  307.110  265.081   75.244  331.741   16.403
  307.360  266.194   85.930  364.717   14.817
  307.610  267.192   89.073  348.625   13.990
  307.860  269.688   88.337  358.883   13.254
  308.110  271.332   87.560  372.429   13.045
  308.360  274.250   89.285  389.207   12.892
  308.610  278.022   93.484  402.221   12.669
  308.860  271.785   91.091  388.482   12.560
  309.110  267.784   95.992  380.388   12.417
  309.360  266.240   89.573  381.506   12.187
  309.610  272.030   89.192  382.348   11.259
  309.860  274.953   92.738  391.061   10.329
  310.110  277.125   96.078  395.131    9.318
  310.360  284.197  102.790  398.199    9.710
  310.610  302.773  105.228  401.735   10.096
  310.860  324.110  100.166  410.783   11.146
  311.110  246.750   92.390  343.744   12.091
  311.360  251.905   87.683  311.050   12.767
  311.610  262.071   99.828  324.868   13.587
  311.860  262.651   98.944  364.094   14.491
  312.110  263.222   97.758  367.295   12.968
  312.360  264.230   99.842  360.076   14.384
  312.610  265.658   91.465  367.976   17.242
  312.860  278.798   86.605  381.865   19.196
  313.110  247.759   81.848  381.297   21.891
  313.360  247.055   75.735  240.127   23.412
  313.610  247.531   73.139  276.797   23.431
  313.860  250.552   85.585  334.774   19.660
  314.110  253.154   91.393  349.465   16.614
  314.360  253.317   97.499  357.640   16.098
  314.610  253.137   91.586  361.305   17.992
  314.860  252.865   94.325  358.728   19.715
  315.110  251.631   85.342  354.602   21.648
  315.360  250.085   91.549  347.987   22.776
  315.610  248.534   83.271  306.826   22.920
  315.860  249.325   69.160  246.509   21.581
  316.110  253.733   65.960  287.147   19.253
  316.360  256.764   77.602  331.883   17.645
  316.610  256.810   92.816  352.353   17.561
  316.860  256.423   91.427  358.040   19.967
  317.110  254.341   89.741  358.485   21.898
  317.360  251.297   81.108  352.477   25.889
  317.610  254.328   75.294  238.255   31.279
  317.860  247.129   73.105  217.055   33.916
  318.110  251.007   78.157  254.532   34.613
  318.360  255.849   85.071  304.109   28.762
  318.610  256.849   83.985  299.575   24.973
  318.860  256.263   76.007  285.841   22.522
  319.110  256.409   84.127  229.150   19.907
  319.360  261.884   81.080  280.678   18.011
  319.610  270.769   93.981  327.766   15.643
  319.860  274.119  100.489  361.344   14.755
  320.110  274.906   88.541  360.577   15.005
  320.360  275.710   85.190  354.639   15.185
  320.610  275.640   79.880  349.501   15.201
  320.860  275.372   84.481  347.590   14.562
  321.110  275.407   82.993  352.400   13.553
  321.360  275.242   88.195  350.968   12.623
  321.610  275.498   91.234  343.814   11.531
  321.860  275.758   82.757  351.785   10.539
  322.110  277.086   87.957  365.203    9.492
  322.360  278.831   84.408  375.793    9.034
  322.610  288.360   91.474  384.299    9.155
  322.860  283.287   88.927  388.845    9.915
  323.110  283.334   90.458  382.838   11.126
  323.360  280.288   89.221  383.079   11.456
  323.610  265.641   68.518  367.931   11.225
  323.860  262.178   63.761  306.336   10.875
  324.110  270.525   80.835  314.376   10.749
  324.360  295.271   93.281  368.521   10.026
  324.610  291.381   99.593  399.345    8.729
  324.860  288.873   94.381  408.593   12.289
  325.110  301.158   99.987  385.778   15.453
  325.360  286.728   99.907  397.918   18.537
  325.610  293.370   87.808  384.382   22.899
  325.860  273.185   66.096  382.673   27.427
  326.110  266.952   42.124  378.212   32.445
  326.360  266.574   38.575  373.412   36.953
  326.610  272.153   43.625  374.458   40.694
  326.860  282.526   49.937  377.255   45.098
  327.110  287.369   54.335  378.101   47.113
  327.360  285.387   58.279  376.128   47.955
  327.610  285.756   52.867  369.916   48.406
  327.860  287.617   55.606  378.627   48.796
  328.110  289.788   49.992  388.817   49.020
  328.360  292.602   54.042  395.780   49.201
  328.610  294.986   57.178  399.851   49.428
  328.860  297.052   54.788  404.531   49.507
  329.110  299.657   56.015  409.141   49.218
  329.360  301.835   54.830  404.476   48.863
  329.610  304.751   50.727  394.098   48.267
  329.860  308.100   58.798  397.029   47.463
  330.110  308.886   55.801  400.159   46.657
  330.360  307.872   50.840  395.967   45.871
  330.610  307.172   59.766  386.329   44.840
  330.860  307.645   58.229  394.364   43.070
  331.110  309.819   55.433  406.304   40.699
  331.360  311.471   53.344  383.760   31.846
  331.610  313.525   58.092  335.406   34.233
  331.860  322.623   62.238  323.550   37.996
  332.110  331.398   61.807  374.805   42.254
  332.360  308.127   57.654  416.384   45.464
  332.610  305.304   67.485  416.492   47.912
  332.860  306.408   59.154  385.748   48.608
  333.110  307.632   52.335  388.677   33.767
  333.360  308.101   57.844  403.572   26.479
  333.610  307.395   62.544  399.514   20.488
  333.860  306.166   67.242  394.580   15.772
  334.110  312.173   72.643  397.172   13.383
  334.360  345.869   76.991  436.465   11.095
  334.610  367.737   73.944  431.532   11.264
  334.860  316.142   65.315  468.942   11.895
  335.110  326.733   58.395  482.023   13.539
  335.360  313.679   60.628  430.444   14.527
  335.610  295.624   62.561  395.801   14.157
  335.860  298.547   54.185  347.179   12.958
  336.110  311.898   59.690  375.919   11.680
  336.360  335.476   65.544  407.415    9.723
  336.610  291.334   58.975  417.134    9.535
  336.860  278.069   71.876  374.024   10.872
  337.110  282.591   78.088  382.259   12.291
  337.360  284.655   75.290  398.299   12.864
  337.610  263.939   70.782  389.066   12.738
  337.860  258.560   76.640  354.289   12.406
  338.110  265.095   73.544  352.515   11.726
  338.360  265.893   71.250  364.179   10.818
  338.610  266.890   76.353  367.042   10.180
  338.860  286.529   82.211  376.560   10.422
  339.110  313.297   88.116  395.555   11.923
  339.360  253.717   81.498  375.097   14.760
  339.610  234.598   71.362  319.351   18.486
  339.860  231.024   65.042  335.923   21.445
  340.110  232.560   58.271  350.213   28.132
  340.360  235.700   47.782  307.506   44.061
  340.610  237.448   37.489  229.377   46.137
  340.860  237.068   32.383  220.009   45.396
  341.110  234.129   38.036  235.172   42.388
  341.360  230.765   47.313  255.241   34.729
