~VERSION INFORMATION
 VERS.                 2.0:   CWLS LOG ASCII STANDARD -VERSION 2.0
 WRAP.                  NO:   ONE LINE PER DEPTH STEP
~WELL INFORMATION BLOCK
#MNEM.UNIT           DATA                    DESCRIPTION OF MNEMONIC
#---------    -------------------            -------------------------------
# Generated from Intellog Unique Number	CS_67_68/WELL/2182
WELL.         07-36-067-03W4                 : Well_name    - WELL
LOC .         00/07-36-067-03W4/0            : Location     - LOCATION
UWI .         00/07-36-067-03W4/0            : Uwi          - UNIQUE WELL ID
ENTR.         SP                             : Entered      - ENTERED BY
SRVC.         SCHLUMBERGER                   : Scn          - SERVICE COMPANY
STRT.M        370                            : top_depth    - START DEPTH
STOP.M        616                            : bot_depth    - STOP DEPTH
STEP.M        0.25                           : increment    - STEP LENGTH
 NULL. -999.2500:NULL Value
~CURVE INFORMATION BLOCK
#MNEM UNIT       ERCB CURVE CODE    CURVE DESCRIPTION
#-----------   ------------------   ----------------------------------
DEPT.M        00 001 00 00         : DEPTH        - DEPTH
GR  .API      00 310 00 00         : GR           - GAMMA RAY
DPHI.V/V      00 890 00 00         : PHID         - DENSITY POROSITY (LIMESTONE)
NPHI.V/V      00 330 00 00         : PHIN         - NEUTRON POROSITY (LIMESTONE)
CALI.MM       00 280 01 00         : CAL          - CALIPER
ILD .OHMM     00 120 00 00         : RESD         - DEEP RESISTIVITY (DIL)
~PARAMETER INFORMATION
#MNEM.UNIT           DATA             DESCRIPTION OF MNEMONIC
#---------         -----------     ------------------------------
GL  .M        701.08               : gl           - GROUND LEVEL ELEVATION
EREF.M        704.28               : kb           - ELEVATION OF DEPTH REFERENCE
DATM.M        704.28               : datum        - DATUM ELEVATION
TDD .M        622                  : tdd          - TOTAL DEPTH DRILLER
RUN .         ONE                  : Run          - RUN NUMBER
ENG .         BILL                 : Engineer     - RECORDING ENGINEER
WIT .         JIM                  : Witness      - WITNESSED BY
MUD .         GEL                  : Mud_type     - MUD TYPE
MATR.         LIMESTONE            : Logunit      - NEUTRON MATRIX
TMAX.C        28.8                 : BHT          - MAXIMUM RECORDED TEMPERATURE
BHTD.M        622.2                : BHTDEP       - MAXIMUM RECORDED TEMPERATURE
MATR.         1                    : LOGUNIT      - NEUTRON MATRIX
RMT .C        25                   : MDTP         - TEMPERATURE OF MUD
NEUT.         1                    : NEUTRON      - NEUTRON TYPE
RESI.         0                    : RESIST       - RESISTIVITY TYPE
RMC .OHMM     0.25                 : RMC          - RESISTIVITY OF MUD CAKE
RMF .OHMM     0.25                 : RMF          - RESISTIVITY OF MUD FILTRATE
SUFT.C        15                   : SUFT         - SURFACE TEMPERATURE
~A  DEPTH       GR     PHID     PHIN      CAL     RESD
# ...
  516.000   87.120    0.221    0.453  172.456    4.169
  516.250   87.670    0.245    0.461  172.566    3.810
  516.500   87.493    0.248    0.475  171.063    3.520
  516.750   84.172    0.250    0.502  168.150    3.289
  517.000   78.011    0.252    0.516  165.940    3.046
  517.250   74.025    0.257    0.519  164.235    2.646
  517.500   78.142    0.269    0.544  162.732    2.308
  517.750   82.076    0.266    0.569  161.934    2.153
  518.000   85.406    0.271    0.570  161.339    2.073
  518.250   79.487    0.283    0.538  161.045    2.026
  518.500   75.138    0.289    0.540  160.750    2.002
  518.750   73.329    0.290    0.535  160.456    1.979
  519.000   73.032    0.290    0.521  160.161    1.956
  519.250   72.372    0.290    0.549  160.069    1.955
  519.500   74.191    0.291    0.566  159.876    1.983
  519.750   77.884    0.296    0.568  159.784    2.016
  520.000   79.279    0.302    0.572  159.792    2.064
  520.250   78.861    0.304    0.565  160.004    2.091
  520.500   79.168    0.302    0.544  160.413    2.121
  520.750   80.020    0.300    0.520  161.733    2.164
  521.000   80.629    0.288    0.502  162.546    2.262
  521.250   81.784    0.272    0.522  162.856    2.321
  521.500   83.178    0.268    0.528  162.865    2.272
  521.750   84.937    0.270    0.510  162.573    2.168
  522.000   87.542    0.270    0.532  162.477    2.045
  522.250   86.761    0.269    0.553  162.688    1.961
  522.500   86.041    0.268    0.569  162.494    2.116
  522.750   84.897    0.273    0.578  162.201    2.682
  523.000   82.302    0.283    0.518  161.906    3.772
  523.250   78.679    0.291    0.484  161.209    4.788
  523.500   76.266    0.294    0.479  161.218    5.186
  523.750   74.094    0.293    0.486  161.933    5.451
  524.000   72.467    0.290    0.493  162.444    5.635
  524.250   71.564    0.286    0.485  162.653    5.835
  524.500   73.988    0.283    0.477  162.661    5.942
  524.750   76.594    0.281    0.471  162.367    5.940
  525.000   78.533    0.280    0.468  161.872    5.893
  525.250   79.867    0.279    0.476  161.277    5.716
  525.500   81.142    0.275    0.480  160.880    5.555
  525.750   80.119    0.273    0.484  160.587    5.299
  526.000   78.854    0.275    0.484  160.396    5.131
  526.250   78.799    0.276    0.483  160.202    5.053
  526.500   78.985    0.278    0.478  160.108    5.125
  526.750   78.930    0.279    0.472  160.218    5.230
  527.000   78.693    0.280    0.496  160.025    5.335
  527.250   77.247    0.278    0.497  160.132    5.413
  527.500   74.168    0.274    0.460  160.241    5.481
  527.750   71.150    0.280    0.447  160.756    5.489
  528.000   71.337    0.286    0.437  161.266    5.527
  528.250   71.341    0.264    0.453  162.080    5.577
  528.500   68.203    0.221    0.453  162.794    5.616
  528.750   64.519    0.176    0.404  163.205    5.634
  529.000   68.878    0.195    0.374  163.516    5.589
  529.250   73.659    0.245    0.379  163.525    5.513
  529.500   74.511    0.270    0.427  163.633    5.389
  529.750   75.120    0.273    0.454  163.845    5.208
  530.000   77.120    0.273    0.474  163.952    5.100
  530.250   79.846    0.273    0.490  163.961    5.059
  530.500   80.153    0.275    0.485  163.968    5.028
  530.750   81.670    0.277    0.478  163.977    4.969
  531.000   82.823    0.277    0.472  163.886    4.967
  531.250   81.256    0.275    0.465  163.892    5.173
  531.500   82.108    0.274    0.459  163.901    5.592
  531.750   88.823    0.269    0.451  164.213    6.045
  532.000   95.298    0.208    0.469  164.522    6.584
  532.250   91.191    0.149    0.476  164.732    7.091
  532.500   67.677    0.129    0.436  165.244    7.580
  532.750   63.692    0.135    0.357  165.755    8.165
  533.000   60.976    0.167    0.353  165.865    8.842
  533.250   54.270    0.141    0.389  165.774    9.140
  533.500   50.526    0.047    0.259  165.479    8.213
  533.750   52.225    0.137    0.240  165.285    7.083
  534.000   54.104    0.208    0.331  164.790    6.131
  534.250   56.467    0.268    0.404  164.095    5.551
  534.500   57.620    0.306    0.428  163.999    5.168
  534.750   57.748    0.321    0.429  164.008    4.766
  535.000   57.932    0.310    0.417  163.916    4.539
  535.250   61.565    0.289    0.427  164.025    4.202
  535.500   66.830    0.272    0.444  164.036    3.949
  535.750   75.541    0.280    0.449  164.142    3.676
  536.000   84.011    0.292    0.443  164.453    4.133
  536.250   86.495    0.296    0.465  164.461    4.665
  536.500   85.169    0.291    0.482  164.368    5.403
  536.750   80.700    0.288    0.495  164.377    6.143
  537.000   76.232    0.298    0.497  163.882    6.766
  537.250   73.576    0.308    0.473  163.789    7.233
  537.500   68.200    0.311    0.424  163.396    7.575
  537.750   65.363    0.318    0.407  163.201    7.670
  538.000   64.643    0.331    0.411  163.008    7.667
  538.250   69.484    0.339    0.414  163.117    7.692
  538.500   77.349    0.332    0.410  163.124    7.760
  538.750   75.601    0.326    0.409  163.235    7.755
  539.000   72.885    0.320    0.418  163.242    7.707
  539.250   76.034    0.314    0.423  163.452    7.691
  539.500   81.178    0.309    0.403  163.462    7.643
  539.750   82.513    0.305    0.385  163.569    7.583
  540.000   79.254    0.304    0.374  163.678    7.509
  540.250   77.566    0.298    0.382  163.989    7.422
  540.500   77.207    0.258    0.379  164.198    7.267
  540.750   75.822    0.225    0.372  164.509    7.129
  541.000   72.683    0.209    0.366  164.921    7.032
  541.250   72.507    0.204    0.383  165.835    7.016
  541.500   74.386    0.211    0.384  167.053    6.987
  541.750   77.111    0.216    0.371  167.766    6.930
  542.000   79.958    0.215    0.365  168.684    6.901
  542.250   81.051    0.208    0.380  169.396    6.872
  542.500   80.270    0.199    0.374  169.807    6.869
  542.750   79.187    0.195    0.374  170.419    6.878
  543.000   78.890    0.209    0.384  170.530    7.044
  543.250   76.960    0.221    0.391  170.840    7.459
  543.500   73.458    0.212    0.394  170.948    7.639
  543.750   69.412    0.204    0.372  170.957    7.779
  544.000   66.999    0.203    0.353  170.563    7.790
  544.250   72.143    0.205    0.343  170.469    7.829
  544.500   76.017    0.205    0.358  170.175    7.899
  544.750   63.809    0.220    0.377  169.781    7.969
  545.000   55.592    0.254    0.342  169.688    7.980
  545.250   63.396    0.273    0.329  169.596    7.977
  545.500   68.479    0.242    0.349  169.302    7.898
  545.750   71.084    0.223    0.363  168.906    7.777
  546.000   75.926    0.223    0.380  168.412    7.587
  546.250   78.592    0.224    0.401  169.124    7.318
  546.500   82.103    0.208    0.405  171.148    7.100
  546.750   82.712    0.192    0.401  171.963    6.887
  547.000   80.903    0.192    0.414  171.972    6.756
  547.250   80.849    0.205    0.431  171.878    6.740
  547.500   80.732    0.211    0.442  171.484    6.674
  547.750   81.584    0.212    0.411  170.990    6.634
  548.000   84.612    0.211    0.393  170.494    6.593
  548.250   86.793    0.209    0.395  170.099    6.578
  548.500   86.315    0.206    0.426  169.703    6.587
  548.750   85.231    0.202    0.439  169.208    6.695
  549.000   82.938    0.196    0.421  168.208    6.804
  549.250   77.200    0.219    0.402  167.511    6.903
  549.500   74.302    0.233    0.401  167.017    6.952
  549.750   79.205    0.248    0.394  167.024    7.001
  550.000   83.986    0.242    0.385  167.032    7.023
  550.250   83.628    0.214    0.402  167.342    7.020
  550.500   81.095    0.207    0.418  167.552    6.988
  550.750   77.592    0.207    0.412  168.166    6.986
  551.000   76.509    0.204    0.400  168.779    6.931
  551.250   79.718    0.201    0.416  169.291    6.876
  551.500   82.686    0.199    0.401  169.906    6.783
  551.750   85.714    0.203    0.384  170.114    6.692
  552.000   84.691    0.206    0.377  170.424    6.626
  552.250   79.497    0.207    0.380  170.736    6.648
