~VERSION INFORMATION
 VERS.                 2.0:   CWLS LOG ASCII STANDARD -VERSION 2.0
 WRAP.                  NO:   ONE LINE PER DEPTH STEP
~WELL INFORMATION BLOCK
#MNEM.UNIT           DATA                    DESCRIPTION OF MNEMONIC
#---------    -------------------            -------------------------------
# Generated from Intellog Unique Number	CS_73_76/WELL/2809
WELL.         ESSO WINEFRED LAKR             : Well_name    - WELL
LOC .         00/03-31-075-03W4/0            : Location     - LOCATION
UWI .         00/03-31-075-03W4/0            : Uwi          - UNIQUE WELL ID
ENTR.         TIM                            : Entered      - ENTERED BY
SRVC.         SCHLUMBERGER                   : Scn          - SERVICE COMPANY
STRT.M        250                            : top_depth    - START DEPTH
STOP.M        495                            : bot_depth    - STOP DEPTH
STEP.M        0.25                           : increment    - STEP LENGTH
 NULL. -999.2500:NULL Value
~CURVE INFORMATION BLOCK
#MNEM UNIT       ERCB CURVE CODE    CURVE DESCRIPTION
#-----------   ------------------   ----------------------------------
DEPT.M        00 001 00 00         : DEPTH        - DEPTH
ILD .OHMM     00 120 00 00         : RESD         - DEEP RESISTIVITY (DIL)
DPHI.V/V      00 890 00 00         : PHID         - DENSITY POROSITY (SANDSTONE)
NPHI.V/V      00 330 00 00         : PHIN         - NEUTRON POROSITY (SANDSTONE)
GR  .API      00 310 00 00         : GR           - GAMMA RAY
~PARAMETER INFORMATION
#MNEM.UNIT           DATA             DESCRIPTION OF MNEMONIC
#---------         -----------     ------------------------------
GL  .M        623.9                : gl           - GROUND LEVEL ELEVATION
EREF.M        627.65               : kb           - ELEVATION OF DEPTH REFERENCE
DATM.M        627.65               : datum        - DATUM ELEVATION
TDD .M        505                  : tdd          - TOTAL DEPTH DRILLER
RUN .         ONE                  : Run          - RUN NUMBER
ENG .         BILL                 : Engineer     - RECORDING ENGINEER
WIT .         JIM                  : Witness      - WITNESSED BY
MUD .         GEL                  : Mud_type     - MUD TYPE
MATR.         SANDSTONE            : Logunit      - NEUTRON MATRIX
TMAX.C        32                   : BHT          - MAXIMUM RECORDED TEMPERATURE
BHTD.M        505                  : BHTDEP       - MAXIMUM RECORDED TEMPERATURE
RMT .C        20                   : MDTP         - TEMPERATURE OF MUD
MUDD.KG/M     1160                 : MWT          - MUD DENSITY
NEUT.         1                    : NEUTRON      - NEUTRON TYPE
RESI.         0                    : RESIST       - RESISTIVITY TYPE
RM  .OHMM     1.5                  : RM           - RESISTIVITY OF MUD
RMC .OHMM     2.2                  : RMC          - RESISTIVITY OF MUD CAKE
RMF .OHMM     3.1                  : RMF          - RESISTIVITY OF MUD FILTRATE
SUFT.C        4                    : SUFT         - SURFACE TEMPERATURE
~A  DEPTH     RESD     PHID     PHIN       GR
# ...
  380.500    2.664    0.271    0.504   75.033
  380.750    2.618    0.276    0.453   71.293
  381.000    2.771    0.284    0.421   69.424
  381.250    3.101    0.300    0.390   66.936
  381.500    3.737    0.315    0.375   65.692
  381.750    4.850    0.379    0.415   63.206
  382.000    7.441    0.465    0.216   61.961
  382.250    9.658    0.471    0.210   60.095
  382.500   12.774    0.469    0.208   58.857
  382.750   15.977    0.470    0.208   58.239
  383.000   18.554    0.475    0.209   57.624
  383.250   19.292    0.470    0.213   57.635
  383.500   19.305    0.458    0.223   58.271
  383.750   18.974    0.436    0.231   58.287
  384.000   18.319    0.426    0.238   57.047
  384.250   18.006    0.417    0.245   55.806
  384.500   18.017    0.414    0.255   55.817
  384.750   17.075    0.411    0.270   56.450
  385.000   16.778    0.405    0.276   56.461
  385.250   15.891    0.402    0.287   56.471
  385.500   15.055    0.403    0.303   56.482
  385.750   14.793    0.406    0.317   55.241
  386.000   13.753    0.404    0.332   53.375
  386.250   13.030    0.395    0.342   50.258
  386.500   12.114    0.251    0.261   45.891
  386.750   11.685    0.066    0.238   40.897
  387.000   10.664    0.036    0.166   39.031
  387.250    9.915    0.008    0.180   42.795
  387.500    9.391    0.062    0.215   47.812
  387.750    9.761    0.109    0.248   52.826
  388.000    9.956    0.250    0.335   57.218
  388.250    9.606    0.327    0.372   59.730
  388.500    9.265    0.343    0.396   60.366
  388.750    8.614    0.344    0.424   58.500
  389.000    7.441    0.350    0.457   56.637
  389.250    7.175    0.345    0.469   56.642
  389.500    6.432    0.315    0.474   57.904
  389.750    6.318    0.301    0.474   62.293
  390.000    6.096    0.286    0.466   66.056
  390.250    5.882    0.261    0.445   67.943
  390.500    5.675    0.248    0.419   67.959
  390.750    5.578    0.247    0.406   67.970
  391.000    5.486    0.244    0.415   68.606
  391.250    5.491    0.243    0.423   70.493
  391.500    5.496    0.254    0.422   70.503
  391.750    5.608    0.259    0.423   68.637
  392.000    5.614    0.260    0.427   66.771
  392.250    5.621    0.264    0.428   66.156
  392.500    5.733    0.265    0.426   66.167
  392.750    5.743    0.245    0.424   65.549
  393.000    5.644    0.219    0.427   64.934
  393.250    5.551    0.195    0.430   64.945
  393.500    5.557    0.241    0.438   65.581
  393.750    5.460    0.249    0.448   65.592
  394.000    5.467    0.261    0.453   64.351
  394.250    5.474    0.271    0.451   63.116
  394.500    5.483    0.244    0.447   65.003
  394.750    5.389    0.242    0.452   66.890
  395.000    5.297    0.254    0.465   68.149
  395.250    5.112    0.261    0.477   70.664
  395.500    4.929    0.265    0.495   71.300
  395.750    4.584    0.265    0.517   69.434
  396.000    4.108    0.268    0.536   68.194
  396.250    3.890    0.272    0.586   68.832
  396.500    3.615    0.268    0.586   68.838
  396.750    3.424    0.266    0.571   69.474
  397.000    3.183    0.272    0.562   69.487
  397.250    3.015    0.274    0.557   69.497
  397.500    2.803    0.279    0.554   68.257
  397.750    2.705    0.278    0.554   69.519
  398.000    2.516    0.275    0.554   71.405
  398.250    2.472    0.268    0.564   72.667
  398.500    2.342    0.262    0.572   75.182
  398.750    2.301    0.258    0.545   72.691
  399.000    2.304    0.257    0.494   70.827
  399.250    2.350    0.255    0.477   70.207
  399.500    2.442    0.251    0.462   69.592
  399.750    2.634    0.250    0.448   68.977
  400.000    2.895    0.246    0.441   68.993
  400.250    3.007    0.242    0.432   68.998
  400.500    3.303    0.239    0.422   69.014
  400.750    3.696    0.237    0.422   69.022
  401.000    4.215    0.234    0.419   68.405
  401.250    4.629    0.231    0.416   67.797
  401.500    4.991    0.228    0.414   67.177
  401.750    5.190    0.218    0.421   67.191
  402.000    5.292    0.217    0.445   67.198
  402.250    5.299    0.220    0.455   67.837
  402.500    5.307    0.236    0.464   68.471
  402.750    5.216    0.248    0.472   69.732
  403.000    5.221    0.246    0.493   70.993
  403.250    5.039    0.255    0.515   74.757
  403.500    4.774    0.269    0.520   79.771
  403.750    4.690    0.264    0.509   86.037
  404.000    4.281    0.250    0.486   84.796
  404.250    3.907    0.238    0.443   75.425
  404.500    3.633    0.235    0.430   72.313
  404.750    3.504    0.232    0.430   71.073
  405.000    3.320    0.232    0.435   73.582
  405.250    3.203    0.232    0.445   77.349
  405.500    3.147    0.233    0.455   77.987
  405.750    3.038    0.233    0.474   78.621
  406.000    3.099    0.231    0.479   79.879
  406.250    3.159    0.227    0.476   82.394
  406.500    3.163    0.227    0.471   83.028
  406.750    3.170    0.232    0.456   80.539
  407.000    3.172    0.232    0.424   78.671
  407.250    3.235    0.230    0.402   74.931
  407.500    3.761    0.232    0.387   71.814
  407.750    4.053    0.238    0.366   68.069
  408.000    4.620    0.254    0.349   62.453
  408.250    5.267    0.266    0.335   62.461
  408.500    6.231    0.265    0.336   61.223
  408.750    7.941    0.258    0.341   59.983
  409.000    9.222    0.250    0.339   59.993
  409.250   10.514    0.168    0.332   60.004
  409.500   11.989    0.122    0.295   58.138
  409.750   12.458    0.078    0.297   57.523
  410.000   12.470    0.121    0.299   57.536
  410.250   12.032    0.223    0.298   58.172
  410.500   11.830    0.279    0.293   60.687
  410.750   11.414    0.282    0.302   61.318
  411.000   11.219    0.296    0.322   61.954
  411.250   10.828    0.305    0.338   62.593
  411.500   10.255    0.297    0.348   61.349
  411.750    9.713    0.292    0.357   59.486
  412.000    9.547    0.286    0.366   58.246
  412.250   10.298    0.282    0.374   57.636
  412.500   10.497    0.280    0.379   57.019
  412.750   10.511    0.276    0.383   57.029
  413.000   10.728    0.275    0.384   57.037
  413.250   10.735    0.275    0.384   57.673
  413.500   10.554    0.276    0.382   58.309
  413.750   10.568    0.277    0.379   58.945
  414.000   10.578    0.280    0.375   58.330
  414.250   10.999    0.282    0.369   55.839
  414.500   11.009    0.287    0.356   50.220
  414.750   11.233    0.293    0.340   47.731
  415.000   11.255    0.282    0.329   47.742
  415.250   11.055    0.271    0.341   49.626
  415.500   10.866    0.264    0.345   55.892
  415.750   10.680    0.252    0.341   65.915
  416.000   10.501    0.242    0.333   71.555
  416.250   10.318    0.219    0.318   75.318
  416.500   10.328    0.207    0.307   77.828
  416.750   10.344    0.198    0.307   75.337
  417.000   10.361    0.211    0.316   72.846
  417.250   10.371    0.218    0.318   72.856
  417.500   10.387    0.219    0.329   72.867
  417.750   10.394    0.221    0.340   72.877
  418.000   10.605    0.224    0.340   72.888
  418.250   10.619    0.226    0.338   72.901
  418.500   10.835    0.229    0.335   74.162
  418.750   10.852    0.225    0.334   76.052
  419.000   11.066    0.224    0.329   76.691
  419.250   11.502    0.221    0.332   77.324
  419.500   11.729    0.219    0.337   77.335
  419.750   11.964    0.220    0.343   77.968
  420.000   12.199    0.221    0.347   78.604
  420.250   12.447    0.225    0.349   78.615
  420.500   12.463    0.227    0.353   79.253
  420.750   12.713    0.231    0.355   79.261
  421.000   12.729    0.231    0.354   78.649
  421.250   12.745    0.232    0.353   78.034
  421.500   12.758    0.233    0.348   77.416
  421.750   12.778    0.233    0.345   76.801
  422.000   12.790    0.232    0.343   76.814
  422.250   12.811    0.234    0.342   78.076
  422.500   13.316    0.244    0.339   78.087
  422.750   13.578    0.253    0.338   68.715
  423.000   13.850    0.247    0.336   61.220
  423.250   14.131    0.237    0.334   62.484
  423.500   14.410    0.230    0.333   64.996
  423.750   14.433    0.229    0.333   67.509
