~VERSION INFORMATION
 VERS.                 2.0:   CWLS LOG ASCII STANDARD -VERSION 2.0
 WRAP.                  NO:   ONE LINE PER DEPTH STEP
~WELL INFORMATION BLOCK
#MNEM.UNIT           DATA                    DESCRIPTION OF MNEMONIC
#---------    -------------------            -------------------------------
# Generated from Intellog Unique Number	CW_82_90/WELL/3427
WELL.         TEXEX CORN                     : Well_name    - WELL
LOC .         00/07-14-089-25W4/0            : Location     - LOCATION
UWI .         00/07-14-089-25W4/0            : Uwi          - UNIQUE WELL ID
ENTR.         MAX                            : Entered      - ENTERED BY
SRVC.         SCHLUMBERGER                   : Scn          - SERVICE COMPANY
STRT.M        167.64                         : top_depth    - START DEPTH
STOP.M        337.14                         : bot_depth    - STOP DEPTH
STEP.M        0.25                           : increment    - STEP LENGTH
 NULL. -999.2500:NULL Value
~CURVE INFORMATION BLOCK
#MNEM UNIT       ERCB CURVE CODE    CURVE DESCRIPTION
#-----------   ------------------   ----------------------------------
DEPT.M        00 001 00 00         : DEPTH        - DEPTH
ILD .OHMM     00 120 00 00         : RESD         - DEEP RESISTIVITY (DIL)
NPHI.V/V      00 330 00 00         : PHIN         - NEUTRON POROSITY (SANDSTONE)
DPHI.V/V      00 890 00 00         : PHID         - DENSITY POROSITY (SANDSTONE)
CALI.MM       00 280 01 00         : CAL          - CALIPER
GR  .API      00 310 00 00         : GR           - GAMMA RAY
~PARAMETER INFORMATION
#MNEM.UNIT           DATA             DESCRIPTION OF MNEMONIC
#---------         -----------     ------------------------------
GL  .M        597.713              : gl           - GROUND LEVEL ELEVATION
EREF.M        601.066              : kb           - ELEVATION OF DEPTH REFERENCE
DATM.M        597.713              : datum        - DATUM ELEVATION
TDD .M        338.633              : tdd          - TOTAL DEPTH DRILLER
RUN .         ONE                  : Run          - RUN NUMBER
ENG .         BILL                 : Engineer     - RECORDING ENGINEER
WIT .         JIM                  : Witness      - WITNESSED BY
MUD .         GEL                  : Mud_type     - MUD TYPE
MATR.         SANDSTONE            : Logunit      - NEUTRON MATRIX
TMAX.C        22.7778              : BHT          - MAXIMUM RECORDED TEMPERATURE
BHTD.M        338.633              : BHTDEP       - MAXIMUM RECORDED TEMPERATURE
MATR.         1                    : LOGUNIT      - NEUTRON MATRIX
RMT .C        17.7778              : MDTP         - TEMPERATURE OF MUD
NEUT.         1                    : NEUTRON      - NEUTRON TYPE
RESI.         0                    : RESIST       - RESISTIVITY TYPE
RMC .OHMM     4.42                 : RMC          - RESISTIVITY OF MUD CAKE
RMF .OHMM     2.42                 : RMF          - RESISTIVITY OF MUD FILTRATE
SUFT.C        -26.1111             : SUFT         - SURFACE TEMPERATURE
~A  DEPTH     RESD     PHIN     PHID      CAL       GR
# ...
  240.640    2.438    0.590    0.263  236.678  103.401
  240.890    2.505    0.589    0.291  238.615  101.327
  241.140    2.573    0.580    0.317  237.591  101.882
  241.390    2.741    0.558    0.354  230.604  103.611
  241.640    2.921    0.563    0.387  180.019  104.462
  241.890    3.317    0.564    0.387  157.173  104.433
  242.140    3.907    0.552    0.381  157.624  103.821
  242.390    4.950    0.539    0.355  159.065  103.502
  242.640    5.778    0.539    0.330  152.084  101.427
  242.890    6.155    0.553    0.295  146.584   99.645
  243.140    5.616    0.556    0.287  146.038  101.664
  243.390    4.720    0.546    0.298  149.462  104.852
  243.640    4.228    0.537    0.303  155.857  104.244
  243.890    3.822    0.545    0.321  161.752  100.703
  244.140    3.488    0.562    0.358  163.695   99.503
  244.390    3.270    0.582    0.367  157.204  100.055
  244.640    3.066    0.596    0.339  136.339  101.791
  244.890    2.901    0.598    0.354  136.300  100.594
  245.140    2.926    0.598    0.376  149.125   98.220
  245.390    3.061    0.598    0.389  155.532   97.609
  245.640    3.116    0.598    0.379  169.360   98.164
  245.890    3.115    0.597    0.360  178.723   98.726
  246.140    3.084    0.583    0.347  183.627   99.577
  246.390    3.083    0.574    0.336  185.564  101.885
  246.640    3.110    0.566    0.326  184.038  103.617
  246.890    3.137    0.555    0.319  181.499  102.417
  247.140    3.222    0.547    0.346  181.460   99.754
  247.390    3.464    0.548    0.363  182.401   96.805
  247.640    3.725    0.554    0.385  185.334   93.846
  247.890    4.116    0.557    0.372  196.684   91.483
  248.140    4.590    0.550    0.327  200.603   93.797
  248.390    5.213    0.543    0.304  203.519   95.808
  248.640    5.503    0.536    0.274  205.952   95.203
  248.890    5.450    0.514    0.273  206.898   93.129
  249.140    5.018    0.498    0.277  206.847   89.881
  249.390    4.454    0.526    0.278  208.289   90.147
  249.640    4.215    0.536    0.273  210.226   91.873
  249.890    3.988    0.540    0.263  213.644   94.479
  250.140    3.914    0.534    0.242  219.544   96.793
  250.390    3.877    0.509    0.231  221.976   99.693
  250.640    3.770    0.495    0.205  222.433   98.785
  250.890    3.734    0.503    0.183  224.859  103.148
  251.140    3.698    0.523    0.213  226.301  105.169
  251.390    3.696    0.528    0.237  225.755  103.676
  251.640    3.694    0.514    0.235  225.710  103.354
  251.890    3.693    0.526    0.225  233.587  103.331
  252.140    3.691    0.541    0.234  230.569  104.176
  252.390    3.656    0.554    0.217  232.501  105.615
  252.640    3.654    0.552    0.206  231.470  108.219
  252.890    3.652    0.540    0.222  229.438  110.822
  253.140    3.650    0.534    0.224  227.907  110.211
  253.390    3.648    0.518    0.216  227.361  106.085
  253.640    3.646    0.526    0.201  226.816  105.470
  253.890    3.644    0.538    0.186  228.257  108.665
  254.140    3.642    0.537    0.188  231.686  113.320
  254.390    3.641    0.527    0.209  231.140  113.586
  254.640    3.639    0.525    0.211  229.113  110.338
  254.890    3.637    0.536    0.211  226.085  107.675
  255.140    3.668    0.541    0.210  225.545  107.359
  255.390    3.700    0.541    0.207  224.019  106.744
  255.640    3.732    0.540    0.201  219.994  106.425
  255.890    3.730    0.537    0.192  221.942  105.514
  256.140    3.727    0.533    0.202  223.378  104.028
  256.390    3.727    0.526    0.237  219.865   99.317
  256.640    3.828    0.524    0.250  222.782   98.410
  256.890    4.116    0.521    0.262  225.208   95.457
  257.140    4.305    0.510    0.266  225.175   94.553
  257.390    4.187    0.507    0.277  224.629   96.861
  257.640    3.890    0.548    0.251  225.575   98.304
  257.890    3.549    0.577    0.237  227.512  100.319
  258.140    3.359    0.572    0.264  232.917  101.173
  258.390    3.296    0.560    0.266  235.349  102.314
  258.640    3.295    0.547    0.259  232.321  103.165
  258.890    3.447    0.534    0.253  229.804  102.839
  259.140    3.672    0.521    0.248  228.757  100.772
  259.390    3.841    0.502    0.238  232.181   96.353
  259.640    4.284    0.508    0.237  236.105   91.935
  259.890    5.092    0.499    0.269  236.544   88.979
  260.140    5.783    0.483    0.252  235.019   86.323
  260.390    6.449    0.457    0.178  231.010   81.605
  260.640    6.504    0.424    0.116  223.033   81.582
  260.890    6.211    0.431    0.194  218.023   85.070
  261.140    5.513    0.466    0.242  216.497   90.310
  261.390    5.265    0.479    0.232  218.434   94.958
  261.640    5.408    0.501    0.237  225.320   97.857
  261.890    5.709    0.499    0.244  223.777   96.079
  262.140    5.919    0.482    0.244  221.267   93.116
  262.390    6.136    0.478    0.258  226.171   92.212
  262.640    6.360    0.495    0.285  241.969   91.597
  262.890    6.534    0.501    0.269  234.999   90.992
  263.140    6.773    0.486    0.252  226.031   90.673
  263.390    6.957    0.460    0.235  216.077   90.643
  263.640    7.212    0.449    0.210  208.584   90.614
  263.890    7.341    0.449    0.192  208.055   90.298
  264.140    7.271    0.458    0.166  208.505   89.094
  264.390    7.007    0.467    0.152  209.446   87.605
  264.640    6.510    0.460    0.133  210.887   86.698
  264.890    6.049    0.446    0.114  211.327   87.256
  265.140    5.518    0.432    0.139  212.768   89.278
  265.390    4.854    0.467    0.220  213.720   91.592
  265.640    4.429    0.485    0.241  213.664   93.318
  265.890    4.153    0.496    0.223  215.105   94.458
  266.140    4.039    0.505    0.248  216.057   92.680
  266.390    4.422    0.492    0.229  215.511   90.309
  266.640    4.109    0.486    0.242  216.452   93.501
  266.890    3.582    0.504    0.291  215.906   94.352
  267.140    3.180    0.505    0.286  215.366   96.663
  267.390    2.848    0.502    0.260  216.813   99.855
  267.640    2.528    0.539    0.251  220.731  104.221
  267.890    2.392    0.561    0.261  220.186  107.702
  268.140    2.327    0.593    0.244  216.172  109.135
  268.390    2.326    0.589    0.249  216.127  109.112
  268.640    2.367    0.581    0.259  214.100  108.790
  268.890    2.432    0.572    0.244  217.022  108.763
  269.140    2.498    0.584    0.226  220.947  104.926
  269.390    2.589    0.594    0.249  231.300  103.440
  269.640    2.861    0.580    0.267  225.806  103.411
  269.890    3.104    0.561    0.251  224.264  101.044
  270.140    3.400    0.538    0.237  224.720   96.921
  270.390    4.153    0.489    0.243  217.243   92.210
  270.640    4.982    0.456    0.214  215.211   87.210
  270.890    6.086    0.429    0.188  215.161   81.036
  271.140    6.308    0.420    0.103  217.599   86.272
  271.390    6.248    0.470    0.140  221.011   92.390
  271.640    6.076    0.481    0.210  223.939   90.023
  271.890    5.749    0.476    0.213  225.380   91.752
  272.140    5.293    0.477    0.234  219.390   96.114
  272.390    4.919    0.495    0.245  218.844  101.351
  272.640    4.488    0.505    0.227  218.794   99.569
  272.890    4.170    0.523    0.219  218.755   98.369
  273.140    3.982    0.540    0.209  216.728   99.220
  273.390    3.767    0.543    0.228  222.127  100.949
  273.640    3.631    0.538    0.257  232.982  102.678
  273.890    3.435    0.528    0.269  230.956  103.230
  274.140    3.403    0.519    0.264  226.936  102.622
  274.390    3.217    0.524    0.244  216.095  102.304
  274.640    3.192    0.545    0.226  216.156  104.381
  274.890    3.224    0.552    0.224  216.718  106.466
  275.140    3.256    0.541    0.219  218.758  107.967
  275.390    3.349    0.535    0.219  219.313  107.126
  275.640    3.506    0.508    0.237  219.891  108.048
  275.890    3.638    0.504    0.237  218.954  109.836
  276.140    3.809    0.512    0.212  218.512  110.160
  276.390    3.952    0.506    0.205  221.054  108.743
  276.640    4.290    0.514    0.206  222.104  104.099
  276.890    4.699    0.487    0.206  220.208  100.925
