~VERSION INFORMATION
 VERS.                 2.0:   CWLS LOG ASCII STANDARD -VERSION 2.0
 WRAP.                  NO:   ONE LINE PER DEPTH STEP
~WELL INFORMATION BLOCK
#MNEM.UNIT           DATA                    DESCRIPTION OF MNEMONIC
#---------    -------------------            -------------------------------
# Generated from Intellog Unique Number	CN_91_93/WELL/4547
WELL.         PARA ET AL LIEGE               : Well_name    - WELL
LOC .         00/08-27-093-19W4/0            : Location     - LOCATION
UWI .         00/08-27-093-19W4/0            : Uwi          - UNIQUE WELL ID
ENTR.         TIM                            : Entered      - ENTERED BY
SRVC.         SCHLUMBERGER                   : Scn          - SERVICE COMPANY
DATE.         01/30/92                       : Date         - LOG DATE
STRT.M        110                            : top_depth    - START DEPTH
STOP.M        247                            : bot_depth    - STOP DEPTH
STEP.M        0.25                           : increment    - STEP LENGTH
 NULL. -999.2500:NULL Value
~CURVE INFORMATION BLOCK
#MNEM UNIT       ERCB CURVE CODE    CURVE DESCRIPTION
#-----------   ------------------   ----------------------------------
DEPT.M        00 001 00 00         : DEPTH        - DEPTH
GR  .API      00 310 00 00         : GR           - GAMMA RAY
NPHI.V/V      00 330 00 00         : PHIN         - NEUTRON POROSITY (SANDSTONE)
DPHI.V/V      00 890 00 00         : PHID         - DENSITY POROSITY (SANDSTONE)
ILD .OHMM     00 120 00 00         : RESD         - DEEP RESISTIVITY (DIL)
~PARAMETER INFORMATION
#MNEM.UNIT           DATA             DESCRIPTION OF MNEMONIC
#---------         -----------     ------------------------------
GL  .M        523.8                : gl           - GROUND LEVEL ELEVATION
EREF.M        527.8                : kb           - ELEVATION OF DEPTH REFERENCE
DATM.M        527.8                : datum        - DATUM ELEVATION
TDD .M        244                  : tdd          - TOTAL DEPTH DRILLER
RUN .         ONE                  : Run          - RUN NUMBER
ENG .         JO                   : Engineer     - RECORDING ENGINEER
WIT .         TIM                  : Witness      - WITNESSED BY
MUD .         GEL                  : Mud_type     - MUD TYPE
MATR.         SANDSTONE            : Logunit      - NEUTRON MATRIX
TMAX.C        25                   : BHT          - MAXIMUM RECORDED TEMPERATURE
BHTD.M        247                  : BHTDEP       - MAXIMUM RECORDED TEMPERATURE
RMT .C        10                   : MDTP         - TEMPERATURE OF MUD
MUDD.KG/M     1090                 : MWT          - MUD DENSITY
NEUT.         1                    : NEUTRON      - NEUTRON TYPE
RESI.         0                    : RESIST       - RESISTIVITY TYPE
RM  .OHMM     4.22                 : RM           - RESISTIVITY OF MUD
RMC .OHMM     6                    : RMC          - RESISTIVITY OF MUD CAKE
RMF .OHMM     6                    : RMF          - RESISTIVITY OF MUD FILTRATE
SUFT.C        4                    : SUFT         - SURFACE TEMPERATURE
~A  DEPTH       GR     PHIN     PHID     RESD
  110.000   81.321    0.441    0.282    7.458
  110.250   91.205    0.451    0.286    6.659
  110.500  102.943    0.459    0.286    6.061
  110.750  107.290    0.477    0.284    5.517
  111.000  105.470    0.479    0.284    5.021
  111.250  103.035    0.479    0.279    4.747
  111.500  100.599    0.479    0.276    4.492
  111.750  100.011    0.478    0.271    4.411
  112.000  100.047    0.479    0.264    4.334
  112.250  100.061    0.482    0.262    4.343
  112.500  100.705    0.486    0.267    4.350
  112.750  100.733    0.495    0.271    4.357
  113.000  100.145    0.503    0.248    4.362
  113.250   99.557    0.506    0.233    4.452
  113.500   97.752    0.478    0.254    4.459
  113.750   98.382    0.473    0.283    4.552
  114.000   98.410    0.481    0.264    4.742
  114.250   97.822    0.496    0.209    4.839
  114.500   96.619    0.504    0.191    5.034
  114.750   97.277    0.466    0.194    5.236
  115.000   98.530    0.448    0.199    5.556
  115.250   99.790    0.437    0.209    5.785
  115.500  100.434    0.439    0.224    5.904
  115.750  100.462    0.449    0.233    6.025
  116.000  101.722    0.453    0.241    6.036
  116.250  102.367    0.449    0.249    6.043
  116.500  101.786    0.451    0.250    5.937
  116.750  101.198    0.455    0.245    5.834
  117.000  102.458    0.457    0.235    5.734
  117.250  104.334    0.462    0.228    5.529
  117.500  105.587    0.468    0.222    5.534
  117.750  104.384    0.472    0.211    5.546
  118.000  100.107    0.465    0.197    5.552
  118.250   97.048    0.460    0.170    5.559
  118.500   97.091    0.443    0.156    5.677
  118.750  100.808    0.437    0.168    5.683
  119.000  103.923    0.443    0.206    5.692
  119.250  103.951    0.458    0.244    5.705
  119.500  103.979    0.483    0.248    5.714
  119.750  105.239    0.501    0.254    5.722
  120.000  107.724    0.491    0.257    5.620
  120.250  109.607    0.486    0.259    5.526
  120.500  107.172    0.489    0.259    5.428
  120.750  104.729    0.492    0.250    5.434
  121.000  102.909    0.490    0.245    5.341
  121.250  101.705    0.480    0.243    5.248
  121.500   99.893    0.469    0.243    5.258
  121.750   98.073    0.452    0.247    5.262
  122.000   96.253    0.450    0.249    5.272
  122.250   95.666    0.460    0.244    5.382
  122.500   97.542    0.479    0.232    5.496
  122.750  107.425    0.493    0.231    5.606
  123.000  114.229    0.502    0.240    5.615
  123.250  116.112    0.514    0.252    5.209
  123.500  115.531    0.519    0.263    4.743
  123.750  114.314    0.523    0.268    4.319
  124.000  111.885    0.524    0.266    4.161
  124.250  110.065    0.522    0.255    4.011
  124.500  110.093    0.516    0.247    3.941
  124.750  112.585    0.510    0.247    3.874
  125.000  118.157    0.495    0.255    3.877
  125.250  124.961    0.480    0.260    3.961
  125.500  126.837    0.475    0.260    4.121
  125.750  120.090    0.485    0.251    4.206
  126.000  115.806    0.512    0.235    4.464
  126.250  119.537    0.527    0.236    4.554
  126.500  120.181    0.529    0.241    4.562
  126.750  117.739    0.534    0.259    4.400
  127.000  114.694    0.533    0.273    4.320
  127.250  112.258    0.518    0.285    4.010
  127.500  108.584    0.489    0.293    3.938
  127.750  104.300    0.462    0.288    4.100
  128.000   98.785    0.449    0.210    4.263
  128.250   96.356    0.457    0.199    4.700
  128.500  102.537    0.466    0.210    5.284
  128.750  108.725    0.476    0.228    5.390
  129.000  111.847    0.465    0.245    5.195
  129.250  111.259    0.456    0.254    4.641
  129.500  108.823    0.462    0.257    4.307
  129.750  106.388    0.465    0.267    4.229
  130.000  104.568    0.468    0.278    4.319
  130.250  102.132    0.466    0.281    4.582
  130.500   98.465    0.460    0.225    4.766
  130.750   95.406    0.456    0.159    5.153
  131.000   95.434    0.456    0.170    5.466
  131.250   98.542    0.456    0.201    5.907
  131.500   99.809    0.452    0.252    6.268
  131.750   97.983    0.444    0.285    6.522
  132.000   90.619    0.434    0.306    6.920
  132.250   78.944    0.437    0.322    7.198
  132.500   74.045    0.442    0.310    7.351
  132.750   80.848    0.444    0.280    7.362
  133.000   93.196    0.454    0.239    7.097
  133.250  109.246    0.474    0.203    6.459
  133.500  108.665    0.494    0.179    5.768
  133.750  111.150    0.520    0.200    5.250
  134.000  117.338    0.517    0.204    4.870
  134.250  121.069    0.488    0.232    4.693
  134.500  119.858    0.481    0.243    4.524
  134.750  116.807    0.476    0.257    4.361
  135.000  111.907    0.471    0.270    4.206
  135.250  109.472    0.466    0.264    4.130
  135.500  108.268    0.459    0.253    4.061
  135.750  111.992    0.457    0.252    4.064
  136.000  111.404    0.464    0.253    4.072
  136.250  110.823    0.470    0.254    4.076
  136.500  110.235    0.483    0.255    4.084
  136.750  111.496    0.504    0.255    4.090
  137.000  112.147    0.514    0.256    4.174
  137.250  109.095    0.507    0.255    4.603
  137.500  105.428    0.494    0.255    5.073
  137.750  102.376    0.475    0.254    5.590
  138.000   98.708    0.452    0.252    5.927
  138.250   95.650    0.439    0.248    6.532
  138.500   91.989    0.450    0.256    7.201
  138.750   92.017    0.467    0.268    7.351
  139.000   92.662    0.466    0.276    6.954
  139.250   95.147    0.465    0.251    6.327
  139.500   99.486    0.471    0.219    5.868
  139.750  102.601    0.476    0.124    5.444
  140.000  105.093    0.490    0.141    5.250
  140.250  111.897    0.498    0.156    5.258
  140.500  119.324    0.487    0.174    5.170
  140.750  122.425    0.486    0.182    5.078
  141.000  126.149    0.488    0.178    4.893
  141.250  126.793    0.490    0.172    4.629
  141.500  124.357    0.496    0.162    4.460
  141.750  121.306    0.510    0.164    4.219
  142.000  120.718    0.527    0.169    4.065
  142.250  123.826    0.527    0.181    3.919
  142.500  125.716    0.520    0.207    3.707
  142.750  125.114    0.514    0.235    3.574
  143.000  123.302    0.512    0.246    3.443
  143.250  122.098    0.521    0.259    3.322
  143.500  121.510    0.542    0.269    3.261
  143.750  120.922    0.559    0.274    3.146
  144.000  119.719    0.560    0.284    3.150
  144.250  119.754    0.548    0.293    3.093
  144.500  119.775    0.541    0.301    3.100
  144.750  119.187    0.536    0.307    3.103
  145.000  117.368    0.524    0.305    3.108
  145.250  113.700    0.511    0.299    3.172
  145.500  108.184    0.479    0.281    3.496
  145.750   99.589    0.433    0.265    4.406
  146.000   95.313    0.405    0.275    5.551
  146.250   95.341    0.411    0.276    6.606
  146.500   95.985    0.416    0.247    7.561
  146.750   94.158    0.403    0.217    8.664
  147.000   87.411    0.374    0.176    9.548
  147.250   85.605    0.373    0.180   10.323
  147.500   86.235    0.385    0.227   10.737
  147.750   89.959    0.400    0.210   10.354
  148.000   93.683    0.416    0.190    9.424
  148.250   98.639    0.431    0.194    8.574
  148.500  103.602    0.434    0.207    7.514
  148.750  105.478    0.437    0.222    7.386
  149.000  107.354    0.434    0.234    7.394
  149.250  104.926    0.428    0.239    7.408
  149.500  101.251    0.422    0.235    7.414
  149.750   96.967    0.417    0.229    7.287
  150.000   97.618    0.404    0.224    7.027
  150.250  101.951    0.417    0.217    6.902
  150.500  107.523    0.435    0.216    6.779
  150.750  113.095    0.450    0.224    6.660
  151.000  111.282    0.454    0.236    6.799
  151.250  108.231    0.449    0.252    7.075
  151.500  104.556    0.442    0.262    7.950
  151.750   97.809    0.447    0.226    8.934
  152.000   89.213    0.448    0.206    9.659
  152.250   78.770    0.441    0.216   10.245
  152.500   71.407    0.428    0.239   10.458
  152.750   77.595    0.413    0.267   10.681
  153.000   80.717    0.404    0.290   10.486
  153.250   81.347    0.397    0.278    9.544
