~VERSION INFORMATION
 VERS.                 2.0:   CWLS LOG ASCII STANDARD -VERSION 2.0
 WRAP.                  NO:   ONE LINE PER DEPTH STEP
~WELL INFORMATION BLOCK
#MNEM.UNIT           DATA                    DESCRIPTION OF MNEMONIC
#---------    -------------------            -------------------------------
# Generated from Intellog Unique Number	CW_70_72/WELL/3302
NULL.         -999.25                        : NULL_VALUE
WELL.         CALSTAN MITSUE                 : Well_name    - WELL              
LOC .         04-18-072-04W5                 : Location     - LOCATION          
UWI .         00/04-18-072-04W5/0            : Uwi          - UNIQUE WELL ID    
ENTR.         CAMPBELL                       : Entered      - ENTERED BY        
SRVC.         SCHLUMBERGER                   : Scn          - SERVICE COMPANY   
DATE.         10 OCT 1964                    : Date         - LOG DATE          
STRT.M        481.584                        : top_depth    - START DEPTH       
STOP.M        624.834                        : bot_depth    - STOP DEPTH        
STEP.M        0.25                           : increment    - STEP LENGTH       
~CURVE INFORMATION BLOCK
#MNEM UNIT       ERCB CURVE CODE    CURVE DESCRIPTION
#-----------   ------------------   ----------------------------------
DEPT.M        00 001 00 00         : DEPTH        - DEPTH                       
ILD .OHMM     00 120 00 00         : RESD         - DEEP RESISTIVITY (DIL)      
DELT.US/F     00 520 00 00         : DELT         - SONIC TRAVEL TIME           
GR  .API      00 310 00 00         : GR           - GAMMA RAY                   
~PARAMETER INFORMATION       
#MNEM.UNIT           DATA             DESCRIPTION OF MNEMONIC
#---------         -----------     ------------------------------
GL  .M        589.3                : gl           - GROUND LEVEL ELEVATION      
EREF.M        593.446              : kb           - ELEVATION OF DEPTH REFERENCE
DATM.M        593.446              : datum        - DATUM ELEVATION             
TDD .M        1691.34              : tdd          - TOTAL DEPTH DRILLER         
RUN .         ONE                  : Run          - RUN NUMBER                  
MUD .         GEL                  : Mud_type     - MUD TYPE                    
MATR.         SANDSTONE            : Logunit      - NEUTRON MATRIX              
TMAX.C        53.3333              : BHT          - MAXIMUM RECORDED TEMPERATURE
BHTD.M        1691.34              : BHTDEP       - MAXIMUM RECORDED TEMPERATURE
RMT .C        17.7778              : MDTP         - TEMPERATURE OF MUD          
MUDD.KG/M     9600                 : MWT          - MUD DENSITY                 
NEUT.         1                    : NEUTRON      - NEUTRON TYPE                
RESI.         0                    : RESIST       - RESISTIVITY TYPE            
RM  .OHMM     1.38                 : RM           - RESISTIVITY OF MUD          
RMC .OHMM     1.97                 : RMC          - RESISTIVITY OF MUD CAKE     
RMF .OHMM     1.1                  : RMF          - RESISTIVITY OF MUD FILTRATE 
SUFT.C        10                   : SUFT         - SURFACE TEMPERATURE         
~A  DEPTH     RESD     DELT       GR
  481.584    4.457  391.061   59.292
  481.834    4.559  389.132   56.447
  482.084    4.612  386.238   57.380
  482.334    4.714  381.412   58.786
  482.584    4.668  383.347   60.667
  482.834    4.623  323.786   64.905
  483.084    4.529  281.934   67.022
  483.334    4.337  348.907   69.610
  483.584    3.949  364.686   74.795
  483.834    3.365  380.788   75.493
  484.084    3.075  379.182   75.007
  484.334    2.981  379.829   76.887
  484.584    3.083  379.510   79.238
  484.834    3.185  383.700   79.227
  485.084    3.237  380.161   77.090
  485.334    3.290  377.267   73.535
  485.584    3.539  390.149   72.817
  485.834    3.690  387.577   69.262
  486.084    3.791  387.581   68.305
  486.334    3.795  389.837   67.585
  486.584    3.848  385.977   65.920
  486.834    3.803  387.590   64.728
  487.084    3.856  389.203   63.300
  487.334    3.958  389.206   63.289
  487.584    4.059  390.498   64.696
  487.834    4.063  390.823   65.154
  488.084    4.067  389.860   64.672
  488.334    4.169  388.254   64.425
  488.584    4.173  388.580   65.123
  488.834    4.030  391.481   65.112
  489.084    3.935  391.162   64.864
  489.334    3.695  389.555   68.161
  489.584    3.502  385.052   72.873
  489.834    3.262  377.327   71.444
  490.084    3.070  373.467   71.198
  490.334    2.877  363.489   73.549
  490.584    2.736  357.054   77.555
  490.834    2.689  350.939   82.031
  491.084    2.644  357.382   80.839
  491.334    2.648  368.655   79.884
  491.584    2.652  373.487   83.888
  491.834    2.607  357.392   85.767
  492.084    2.611  357.718   79.849
  492.334    2.566  361.585   78.185
  492.584    2.570  359.656   77.466
  492.834    2.573  351.610   77.216
  493.084    2.626  341.633   76.734
  493.334    2.679  347.754   76.724
  493.584    2.682  349.367   78.364
  493.834    2.686  341.965   80.716
  494.084    2.642  358.711   80.941
  494.334    2.646  370.305   82.345
  494.584    2.649  357.429   83.517
  494.834    2.652  371.278   79.492
  495.084    2.658  371.281   71.212
  495.334    2.660  352.288   66.477
  495.584    2.860  351.004   66.227
  495.834    3.109  409.927   64.327
  496.084    3.358  462.089   61.953
  496.334    3.411  466.922   60.526
  496.584    3.415  339.426   58.389
  496.834    3.712  347.801   51.999
  497.084    4.304  350.380   50.807
  497.334    4.944  348.774   50.323
  497.584    5.438  347.811   51.730
  497.834    5.686  345.238   58.333
  498.084    5.592  348.462   65.409
  498.334    5.449  368.427   72.955
  498.584    4.915  376.157   68.930
  498.834    4.183  360.385   69.155
  499.084    3.893  385.823   70.558
  499.334    3.505  392.588   68.659
  499.584    2.922  457.951   66.050
  499.834    2.730  486.931   62.496
  500.084    2.831  392.920   62.248
  500.334    3.129  391.314   59.875
  500.584    3.476  384.555   58.211
  500.834    3.920  376.832   61.740
  501.084    4.415  373.615   60.784
  501.334    4.615  370.078   60.776
  501.584    4.618  380.706   60.762
  501.834    4.573  387.470   60.752
  502.084    4.429  383.932   60.741
  502.334    4.238  380.072   61.436
  502.584    3.996  380.719   61.428
  502.834    3.657  387.806   61.654
  503.084    3.270  392.317   62.823
  503.334    2.980  399.403   64.230
  503.584    2.641  391.357   65.163
  503.834    1.910  404.239   65.152
  504.084    1.669  408.429   59.708
  504.334    1.574  442.560   55.208
  504.584    1.335  557.506   54.725
  504.834    1.191  591.961   59.675
  505.084    1.146  519.199   63.916
  505.334    1.100  531.759   70.755
  505.584    1.104  575.550   77.122
  505.834    1.157  715.932   76.166
  506.084    1.210  695.651   74.028
  506.334    1.410  710.787   74.016
  506.584    1.560  717.552   74.007
  506.834    1.907  436.799   74.230
  507.084    2.156  412.011   75.638
  507.334    2.307  379.173   79.643
  507.584    2.310  374.991   79.159
  507.834    2.265  410.733   76.786
  508.084    2.122  403.975   77.955
  508.334    2.028  352.142   79.362
  508.584    2.081  367.921   81.475
  508.834    2.182  381.447   83.828
  509.084    2.186  383.704   83.580
  509.334    2.191  377.268   84.277
  509.584    2.048  377.594   84.266
  509.834    1.757  386.934   84.018
  510.084    1.565  389.192   83.772
  510.334    1.374  360.540   82.579
  510.584    1.328  365.372   82.805
  510.834    1.283  360.547   83.503
  511.084    1.287  367.955   84.201
  511.334    1.291  374.720   84.424
  511.584    1.442  355.405   82.997
  511.834    1.641  354.764   81.566
  512.084    1.890  345.431   83.446
  512.334    2.139  358.313   85.561
  512.584    2.289  369.263   86.021
  512.834    2.343  373.130   84.357
  513.084    2.346  386.334   82.929
  513.334    2.301  355.428   81.500
  513.584    2.305  363.803   81.018
  513.834    2.309  369.602   80.771
  514.084    2.313  364.454   78.633
  514.334    2.316  353.510   75.314
  514.584    2.467  360.597   73.883
  514.834    2.765  366.074   74.348
  515.084    2.965  366.399   75.991
  515.334    3.165  366.725   77.160
  515.584    3.218  371.557   73.842
  515.834    3.270  378.966   70.049
  516.084    3.275  377.038   71.930
  516.334    3.327  387.022   75.462
  516.584    3.330  397.972   78.286
  516.834    3.383  365.457   71.424
  517.084    3.387  371.256   72.593
  517.334    3.391  373.191   73.055
  517.584    3.345  378.024   73.515
  517.834    3.350  383.822   74.923
  518.084    3.305  372.557   76.801
  518.334    3.308  358.394   77.971
  518.584    3.214  366.124   78.668
  518.834    3.072  366.128   81.020
  519.084    2.928  368.385   84.552
  519.334    2.883  367.423   85.014
  519.584    2.789  362.596   82.640
  519.834    2.596  359.702   81.448
  520.084    2.454  365.823   80.493
  520.334    2.409  365.826   76.701
  520.584    2.413  365.829   73.382
  520.834    2.514  366.156   71.481
  521.084    2.714  367.768   70.762
  521.334    2.865  387.090   70.043
  521.584    3.114  392.888   68.850
  521.834    3.313  399.653   66.948
  522.084    3.220  396.437   65.284
  522.334    3.126  390.001   63.382
  522.584    3.129  393.868   63.845
  522.834    3.035  402.886   66.430
  523.084    2.990  397.094   67.602
  523.334    2.993  390.980   67.588
  523.584    2.998  392.916   66.633
  523.834    3.050  396.138   65.914
  524.084    3.103  398.396   65.432
  524.334    3.254  396.145   64.946
  524.584    3.404  394.216   64.227
  524.834    3.555  359.126   63.980
  525.084    3.608  356.231   63.259
  525.334    3.808  358.488   62.776
  525.584    4.007  362.355   62.529
  525.834    4.256  363.003   63.463
  526.084    4.456  359.787   65.340
  526.334    4.313  357.536   66.745
  526.584    4.268  363.657   66.972
  526.834    4.272  372.998   66.489
  527.084    4.471  375.898   65.061
  527.334    4.573  369.784   63.159
  527.584    4.430  351.436   64.803
  527.834    4.238  362.064   64.791
  528.084    3.949  368.828   64.307
  528.334    3.903  375.593   64.298
  528.584    3.809  386.221   64.522
  528.834    3.813  383.327   63.330
  529.084    3.670  388.482   62.373
  529.334    3.575  387.841   61.418
  529.584    3.482  377.220   63.059
  529.834    3.387  368.852   65.174
  530.084    3.294  365.636   66.109
  530.334    3.346  367.249   62.791
  530.584    3.545  378.199   60.888
  530.834    3.843  398.165   60.168
  531.084    3.897  421.350   57.796
  531.334    3.999  450.974   54.240
  531.584    4.247  378.535   51.632
  531.834    4.594  217.876   54.691
  532.084    4.990  362.121   58.697
  532.334    5.434  372.106   63.174
  532.584    5.781  363.738   67.652
  532.834    5.638  365.673   72.128
  533.084    5.396  362.457   73.061
  533.334    5.156  358.597   72.576
  533.584    5.012  356.024   75.873
  533.834    5.065  352.486   79.643
  534.084    5.167  345.084   79.160
  534.334    5.171  332.531   73.242
  534.584    5.126  359.579   68.980
  534.834    4.884  364.412   66.133
  535.084    4.644  360.552   63.288
  535.334    4.402  367.317   63.041
  535.584    4.308  295.843   64.210
