~VERSION INFORMATION
 VERS.                 2.0:   CWLS LOG ASCII STANDARD -VERSION 2.0
 WRAP.                  NO:   ONE LINE PER DEPTH STEP
~WELL INFORMATION BLOCK
#MNEM.UNIT           DATA                    DESCRIPTION OF MNEMONIC
#---------    -------------------            -------------------------------
# Generated from Intellog Unique Number	CS_73_76/WELL/2177
WELL.         AMOCO CANADA PETOLEUM          : Well_name    - WELL
LOC .         00/07-27-074-09W4/0            : Location     - LOCATION
UWI .         00/07-27-074-09W4/0            : Uwi          - UNIQUE WELL ID
ENTR.         SP                             : Entered      - ENTERED BY
SRVC.         SCHLUMBERGER                   : Scn          - SERVICE COMPANY
STRT.M        286.512                        : top_depth    - START DEPTH
STOP.M        490.512                        : bot_depth    - STOP DEPTH
STEP.M        0.25                           : increment    - STEP LENGTH
 NULL. -999.2500:NULL Value
~CURVE INFORMATION BLOCK
#MNEM UNIT       ERCB CURVE CODE    CURVE DESCRIPTION
#-----------   ------------------   ----------------------------------
DEPT.M        00 001 00 00         : DEPTH        - DEPTH
GR  .API      00 310 00 00         : GR           - GAMMA RAY
DPHI.V/V      00 890 00 00         : PHID         - DENSITY POROSITY (SANDSTONE)
NPHI.V/V      00 330 00 00         : PHIN         - NEUTRON POROSITY (SANDSTONE)
ILD .OHMM     00 120 00 00         : RESD         - DEEP RESISTIVITY (DIL)
~PARAMETER INFORMATION
#MNEM.UNIT           DATA             DESCRIPTION OF MNEMONIC
#---------         -----------     ------------------------------
GL  .M        661.416              : gl           - GROUND LEVEL ELEVATION
EREF.M        665.074              : kb           - ELEVATION OF DEPTH REFERENCE
DATM.M        661.416              : datum        - DATUM ELEVATION
TDD .M        594.36               : tdd          - TOTAL DEPTH DRILLER
RUN .         ONE                  : Run          - RUN NUMBER
ENG .         BILL                 : Engineer     - RECORDING ENGINEER
WIT .         JIM                  : Witness      - WITNESSED BY
MUD .         GEL                  : Mud_type     - MUD TYPE
MATR.         SANDSTONE            : Logunit      - NEUTRON MATRIX
TMAX.C        24.4444              : BHT          - MAXIMUM RECORDED TEMPERATURE
BHTD.M        594.36               : BHTDEP       - MAXIMUM RECORDED TEMPERATURE
MATR.         1                    : LOGUNIT      - NEUTRON MATRIX
RMT .C        25                   : MDTP         - TEMPERATURE OF MUD
NEUT.         1                    : NEUTRON      - NEUTRON TYPE
RESI.         0                    : RESIST       - RESISTIVITY TYPE
RMC .OHMM     0.25                 : RMC          - RESISTIVITY OF MUD CAKE
RMF .OHMM     0.25                 : RMF          - RESISTIVITY OF MUD FILTRATE
SUFT.C        15                   : SUFT         - SURFACE TEMPERATURE
~A  DEPTH       GR     PHID     PHIN     RESD
# ...
  417.012   81.283    0.223    0.406    6.165
  417.262   82.748    0.223    0.405    6.055
  417.512   85.111    0.223    0.411    6.063
  417.762   87.447    0.222    0.415    5.924
  418.012   90.026    0.219    0.407    6.042
  418.262   90.525    0.213    0.407    6.142
  418.512   90.088    0.210    0.406    6.556
  418.762   85.418    0.205    0.393    6.776
  419.012   80.832    0.204    0.387    6.969
  419.262   82.508    0.205    0.379    7.036
  419.512   86.194    0.212    0.372    6.865
  419.762   85.428    0.218    0.371    6.612
  420.012   90.243    0.224    0.375    6.535
  420.262   92.297    0.223    0.385    6.336
  420.512   93.422    0.223    0.397    6.129
  420.762   93.370    0.221    0.398    5.858
  421.012   94.413    0.229    0.405    5.740
  421.262   94.707    0.238    0.413    5.625
  421.512   95.373    0.250    0.395    5.635
  421.762   91.771    0.258    0.407    5.626
  422.012   88.489    0.262    0.403    5.747
  422.262   84.808    0.264    0.408    5.812
  422.512   82.951    0.266    0.397    5.962
  422.762   85.028    0.270    0.392    6.078
  423.012   86.410    0.272    0.393    5.968
  423.262   87.607    0.259    0.400    5.850
  423.512   89.221    0.242    0.403    5.764
  423.762   91.284    0.230    0.396    5.373
  424.012   92.507    0.222    0.403    4.880
  424.262   90.363    0.238    0.408    4.471
  424.512   88.565    0.252    0.410    3.958
  424.762   86.109    0.262    0.417    3.506
  425.012   83.574    0.269    0.413    3.272
  425.262   82.705    0.275    0.418    2.857
  425.512   83.455    0.279    0.432    2.675
  425.762   86.671    0.279    0.446    2.557
  426.012   89.350    0.279    0.465    2.375
  426.262   90.160    0.279    0.482    2.269
  426.512   86.727    0.279    0.472    2.203
  426.762   82.765    0.276    0.460    2.141
  427.012   79.172    0.271    0.462    2.145
  427.262   83.293    0.262    0.469    2.148
  427.512   87.585    0.253    0.475    2.157
  427.762   89.549    0.252    0.469    2.257
  428.012   89.874    0.254    0.475    2.572
  428.262   90.259    0.253    0.456    3.031
  428.512   90.839    0.249    0.433    3.495
  428.762   91.714    0.243    0.405    3.867
  429.012   92.707    0.240    0.387    4.209
  429.262   93.648    0.242    0.383    4.399
  429.512   95.372    0.234    0.383    4.583
  429.762   96.895    0.227    0.388    4.790
  430.012   96.020    0.217    0.391    4.999
  430.262   92.414    0.204    0.389    4.989
  430.512   87.149    0.218    0.391    4.903
  430.762   84.880    0.240    0.405    4.887
  431.012   84.336    0.254    0.406    5.128
  431.262   84.387    0.270    0.397    5.699
  431.512   83.541    0.282    0.398    6.815
  431.762   78.142    0.296    0.382    8.011
  432.012   74.005    0.308    0.369    9.611
  432.262   69.672    0.321    0.359   12.249
  432.512   69.207    0.327    0.349   15.535
  432.762   70.206    0.321    0.340   18.288
  433.012   71.156    0.306    0.335   20.631
  433.262   70.571    0.288    0.352   21.495
  433.512   67.935    0.272    0.354   20.365
  433.762   66.251    0.278    0.351   17.471
  434.012   66.769    0.279    0.358   16.024
  434.262   67.841    0.250    0.378   15.318
  434.512   68.131    0.228    0.384   15.058
  434.762   68.201    0.218    0.370   15.357
  435.012   67.261    0.238    0.364   15.278
  435.262   67.607    0.264    0.351   14.499
  435.512   71.108    0.291    0.348   13.038
  435.762   73.418    0.314    0.380   12.150
  436.012   75.451    0.311    0.396   11.412
  436.262   77.403    0.299    0.406   11.072
  436.512   78.010    0.285    0.404   10.769
  436.762   73.330    0.281    0.401   10.746
  437.012   70.514    0.279    0.394   11.676
  437.262   70.821    0.273    0.364   12.142
  437.512   70.227    0.244    0.324   14.185
  437.762   69.680    0.211    0.281   17.085
  438.012   65.175    0.166    0.233   19.672
  438.262   61.715    0.168    0.294   19.709
  438.512   60.354    0.211    0.343   19.476
  438.762   59.299    0.251    0.366   17.569
  439.012   60.501    0.277    0.380   15.770
  439.262   64.961    0.290    0.389   14.621
  439.512   67.753    0.294    0.394   14.319
  439.762   69.894    0.295    0.402   13.753
  440.012   69.551    0.292    0.398   13.500
  440.262   68.660    0.285    0.397   13.553
  440.512   67.104    0.279    0.401   13.275
  440.762   68.681    0.276    0.404   13.009
  441.012   69.912    0.270    0.398   12.624
  441.262   68.210    0.265    0.404   12.248
  441.512   68.625    0.275    0.396   11.881
  441.762   72.292    0.280    0.395   11.336
  442.012   75.116    0.265    0.398   11.047
  442.262   76.540    0.239    0.391   10.069
  442.512   74.984    0.227    0.376    9.463
  442.762   73.505    0.225    0.354    9.161
  443.012   74.674    0.239    0.362    9.012
  443.262   75.613    0.246    0.380    9.001
  443.512   77.323    0.245    0.395    8.999
  443.762   78.833    0.244    0.386    9.005
  444.012   78.810    0.240    0.387    9.074
  444.262   77.804    0.237    0.376    9.172
  444.512   77.682    0.241    0.366    9.177
  444.762   77.754    0.248    0.359    9.177
  445.012   76.092    0.248    0.355    9.181
  445.262   75.119    0.248    0.353    9.377
  445.512   74.127    0.250    0.354   10.341
  445.762   73.153    0.261    0.337   12.727
  446.012   72.388    0.275    0.321   16.437
  446.262   68.338    0.288    0.308   23.501
  446.512   63.923    0.294    0.313   33.704
  446.762   60.273    0.294    0.324   43.480
  447.012   63.747    0.298    0.322   49.645
  447.262   70.431    0.299    0.320   51.821
  447.512   48.737    0.301    0.311   52.265
  447.762   39.670    0.301    0.303   51.263
  448.012   37.101    0.300    0.300   50.177
  448.262   36.735    0.299    0.306   45.592
  448.512   39.114    0.298    0.313   41.854
  448.762   43.984    0.301    0.321   38.590
  449.012   49.319    0.302    0.317   36.463
  449.262   52.477    0.306    0.307   35.407
  449.512   55.858    0.311    0.315   35.789
  449.762   52.972    0.308    0.330   39.770
  450.012   52.110    0.297    0.338   42.136
  450.262   52.654    0.289    0.328   44.713
  450.512   57.188    0.281    0.322   45.069
  450.762   60.197    0.273    0.322   43.214
  451.012   62.456    0.275    0.320   39.781
  451.262   65.546    0.276    0.317   36.758
  451.512   66.580    0.275    0.330   34.526
  451.762   66.682    0.268    0.342   31.973
  452.012   68.478    0.263    0.353   27.924
  452.262   70.260    0.268    0.354   23.910
  452.512   75.154    0.272    0.352   21.515
  452.762   77.571    0.275    0.353   19.332
  453.012   77.748    0.264    0.361   17.297
  453.262   77.792    0.252    0.370   15.508
  453.512   78.628    0.239    0.373   14.188
  453.762   81.122    0.226    0.371   13.186
  454.012   83.372    0.228    0.372   12.004
  454.262   83.484    0.242    0.377   11.547
  454.512   81.135    0.251    0.373   10.646
  454.762   81.513    0.256    0.364   10.372
  455.012   82.855    0.253    0.366    9.858
  455.262   82.683    0.251    0.370    9.591
  455.512   81.734    0.249    0.362    8.977
  455.762   79.361    0.254    0.356    8.689
  456.012   78.529    0.248    0.350    8.422
  456.262   79.118    0.245    0.352    8.154
  456.512   79.087    0.239    0.361    8.063
  456.762   81.275    0.247    0.358    8.152
  457.012   80.972    0.254    0.347    8.153
  457.262   68.999    0.266    0.323    7.921
  457.512   54.397    0.276    0.300    7.848
  457.762   52.305    0.283    0.290    7.568
  458.012   51.218    0.291    0.291    7.227
  458.262   50.235    0.292    0.296    7.036
  458.512   49.383    0.289    0.308    6.669
  458.762   48.052    0.282    0.313    6.618
  459.012   52.282    0.271    0.323    6.621
  459.262   56.661    0.261    0.323    6.835
  459.512   60.246    0.240    0.321    7.060
  459.762   61.727    0.224    0.317    7.512
  460.012   61.649    0.215    0.308    7.927
  460.262   59.924    0.198    0.295    8.336
