~VERSION INFORMATION
 VERS.                 2.0:   CWLS LOG ASCII STANDARD -VERSION 2.0
 WRAP.                  NO:   ONE LINE PER DEPTH STEP
~WELL INFORMATION BLOCK
#MNEM.UNIT           DATA                    DESCRIPTION OF MNEMONIC
#---------    -------------------            -------------------------------
# Generated from Intellog Unique Number	CW_82_90/WELL/3054
WELL.         TEXEX WOODEN                   : Well_name    - WELL
LOC .         00/06-11-087-22W4/0            : Location     - LOCATION
UWI .         00/06-11-087-22W4/0            : Uwi          - UNIQUE WELL ID
ENTR.         MAX                            : Entered      - ENTERED BY
SRVC.         SCHLUMBERGER                   : Scn          - SERVICE COMPANY
STRT.M        106.68                         : top_depth    - START DEPTH
STOP.M        335.18                         : bot_depth    - STOP DEPTH
STEP.M        0.25                           : increment    - STEP LENGTH
 NULL. -999.2500:NULL Value
~CURVE INFORMATION BLOCK
#MNEM UNIT       ERCB CURVE CODE    CURVE DESCRIPTION
#-----------   ------------------   ----------------------------------
DEPT.M        00 001 00 00         : DEPTH        - DEPTH
GR  .API      00 310 00 00         : GR           - GAMMA RAY
CALI.MM       00 280 01 00         : CAL          - CALIPER
DPHI.V/V      00 890 00 00         : PHID         - DENSITY POROSITY (SANDSTONE)
NPHI.V/V      00 330 00 00         : PHIN         - NEUTRON POROSITY (SANDSTONE)
ILD .OHMM     00 120 00 00         : RESD         - DEEP RESISTIVITY (DIL)
~PARAMETER INFORMATION
#MNEM.UNIT           DATA             DESCRIPTION OF MNEMONIC
#---------         -----------     ------------------------------
GL  .M        559.613              : gl           - GROUND LEVEL ELEVATION
EREF.M        563.27               : kb           - ELEVATION OF DEPTH REFERENCE
DATM.M        559.613              : datum        - DATUM ELEVATION
TDD .M        338.633              : tdd          - TOTAL DEPTH DRILLER
RUN .         ONE                  : Run          - RUN NUMBER
ENG .         BILL                 : Engineer     - RECORDING ENGINEER
WIT .         JIM                  : Witness      - WITNESSED BY
MUD .         GEL                  : Mud_type     - MUD TYPE
MATR.         SANDSTONE            : Logunit      - NEUTRON MATRIX
TMAX.C        22.2222              : BHT          - MAXIMUM RECORDED TEMPERATURE
BHTD.M        338.633              : BHTDEP       - MAXIMUM RECORDED TEMPERATURE
MATR.         1                    : LOGUNIT      - NEUTRON MATRIX
RMT .C        14.4444              : MDTP         - TEMPERATURE OF MUD
NEUT.         1                    : NEUTRON      - NEUTRON TYPE
RESI.         0                    : RESIST       - RESISTIVITY TYPE
RMC .OHMM     5.92                 : RMC          - RESISTIVITY OF MUD CAKE
RMF .OHMM     5.92                 : RMF          - RESISTIVITY OF MUD FILTRATE
SUFT.C        -20.5556             : SUFT         - SURFACE TEMPERATURE
~A  DEPTH       GR      CAL     PHID     PHIN     RESD
  106.680  116.886  216.166    0.183    0.559    4.548
  106.930  115.170  216.196    0.164    0.525    4.761
  107.180  114.320  216.230    0.139    0.497    4.893
  107.430  116.074  216.265    0.111    0.512    5.029
  107.680  118.985  216.295    0.195    0.526    5.217
  107.930  118.424  216.325    0.221    0.558    5.362
  108.180  117.003  216.359    0.238    0.566    5.562
  108.430  117.308  216.883    0.223    0.528    5.821
  108.680  118.483  216.910    0.219    0.540    6.149
  108.930  120.236  216.940    0.213    0.540    6.320
  109.180  119.676  216.971    0.230    0.534    6.555
  109.430  119.115  217.005    0.244    0.526    6.616
  109.680  120.871  216.549    0.257    0.518    6.619
  109.930  120.891  216.580    0.261    0.523    6.560
  110.180  121.196  216.610    0.256    0.550    6.159
  110.430  120.929  216.640    0.230    0.557    5.941
  110.680  121.817  216.674    0.223    0.554    5.889
  110.930  122.412  216.701    0.239    0.538    5.784
  111.180  121.853  217.229    0.231    0.528    5.580
  111.430  121.001  217.255    0.223    0.495    5.683
  111.680  115.812  217.286    0.219    0.456    6.168
  111.930   68.961  217.814    0.213    0.407    6.942
  112.180   38.602  220.779    0.237    0.392    8.029
  112.430   26.180  230.611    0.289    0.396    9.716
  112.680   25.043  227.216    0.315    0.398   13.109
  112.930   26.218  225.773    0.303    0.402   19.723
  113.180   27.398  226.293    0.287    0.404   27.098
  113.430   27.413  226.821    0.291    0.404   30.775
  113.680   27.431  227.827    0.288    0.404   31.065
  113.930   27.160  233.740    0.290    0.420   30.792
  114.180   28.335  234.264    0.310    0.411   29.170
  114.430   28.932  230.865    0.318    0.394   28.139
  114.680   28.952  230.406    0.304    0.410   27.891
  114.930   26.945  232.886    0.314    0.421   28.154
  115.180   25.805  243.203    0.308    0.433   28.417
  115.430   24.958  244.217    0.313    0.438   28.946
  115.680   25.844  226.126    0.330    0.422   29.752
  115.930   26.729  231.541    0.328    0.410   30.305
  116.180   27.620  232.065    0.316    0.379   31.150
  116.430   27.351  230.140    0.294    0.356   32.019
  116.680   25.628  233.596    0.285    0.358   32.910
  116.930   24.780  237.059    0.287    0.366   33.520
  117.180   27.981  228.761    0.247    0.376   34.454
  117.430   25.974  232.221    0.249    0.387   35.095
  117.680   24.258  238.133    0.278    0.369   35.424
  117.930   23.986  228.860    0.293    0.354   36.082
  118.180   24.585  232.319    0.281    0.350   36.093
  118.430   25.180  233.823    0.280    0.353   35.136
  118.680   26.068  236.789    0.272    0.364   34.826
  118.930   27.245  243.188    0.268    0.381   34.520
  119.180   28.420  253.517    0.281    0.386   33.910
  119.430   29.598  252.070    0.281    0.388   33.308
  119.680   30.481  244.752    0.286    0.392   32.422
  119.930   32.529  230.576    0.293    0.406   30.715
  120.180   34.569  223.262    0.298    0.441   29.628
  120.430   37.480  219.863    0.304    0.463   28.066
  120.680   40.685  216.472    0.320    0.465   26.347
  120.930   41.573  215.515    0.316    0.443   25.415
  121.180   41.878  215.553    0.320    0.427   25.194
  121.430   41.896  219.996    0.316    0.434   25.199
  121.680   42.205  221.002    0.316    0.459   25.206
  121.930   40.777  218.583    0.332    0.447   25.675
  122.180   39.640  217.144    0.320    0.442   26.152
  122.430   40.236  221.583    0.317    0.445   26.398
  122.680   42.279  226.026    0.323    0.452   26.406
  122.930   44.325  219.688    0.310    0.420   26.174
  123.180   42.028  217.277    0.305    0.425   25.945
  123.430   41.468  216.814    0.318    0.464   26.188
  123.680   42.064  220.273    0.304    0.491   26.673
  123.930   41.795  225.202    0.276    0.453   26.680
  124.180   40.943  217.398    0.209    0.387   26.448
  124.430   40.384  215.959    0.179    0.391   26.215
  124.680   43.876  217.953    0.255    0.416   25.985
  124.930   44.183  217.497    0.310    0.448   24.842
  125.180   42.465  217.524    0.310    0.457   24.848
  125.430   43.353  218.541    0.310    0.457   24.853
  125.680   44.242  219.061    0.293    0.451   24.193
  125.930   43.683  219.582    0.286    0.445   23.337
  126.180   43.697  220.102    0.308    0.442   22.924
  126.430   44.295  220.132    0.294    0.438   22.519
  126.680   46.049  217.717    0.322    0.436   22.120
  126.930   47.224  218.237    0.311    0.433   21.728
  127.180   46.663  222.677    0.309    0.435   21.343
  127.430   47.841  229.075    0.315    0.450   21.156
  127.680   49.886  236.454    0.322    0.463   20.782
  127.930   50.770  239.431    0.331    0.471   20.599
  128.180   51.373  236.518    0.319    0.458   20.052
  128.430   51.386  236.549    0.318    0.449   19.344
  128.680   50.826  224.830    0.327    0.449   18.660
  128.930   50.559  223.880    0.297    0.468   17.999
  129.180   49.998  224.890    0.300    0.462   17.205
  129.430   49.724  226.394    0.311    0.455   16.152
  129.680   49.747  226.914    0.308    0.446   15.722
  129.930   50.922  225.471    0.341    0.443   15.444
  130.180   53.257  223.052    0.332    0.456   15.171
  130.430   55.587  220.641    0.308    0.467   15.037
  130.680   59.076  220.671    0.311    0.492   14.505
  130.930   65.461  220.701    0.301    0.511   13.992
  131.180   70.108  220.242    0.288    0.522   12.782
  131.430   75.914  219.296    0.298    0.535   10.569
  131.680   79.695  217.853    0.296    0.499    8.659
  131.930   81.157  214.952    0.288    0.467    8.741
  132.180   80.888  213.019    0.281    0.449    9.316
  132.430   78.302  212.069    0.269    0.436   10.390
  132.680   76.876  210.638    0.245    0.423   11.800
  132.930   76.896  210.178    0.230    0.437   12.239
  133.180   76.914  210.699    0.230    0.460   12.243
  133.430   76.351  211.709    0.252    0.464   11.918
  133.680   76.080  211.743    0.248    0.452   11.392
  133.930   77.261  211.773    0.252    0.457   10.791
  134.180   79.011  211.811    0.225    0.463   10.222
  134.430   80.190  211.838    0.232    0.460    9.951
  134.680   78.470  211.382    0.251    0.459   10.136
  134.930   73.862  211.408    0.266    0.471   11.001
  135.180   68.670  211.439    0.257    0.463   13.193
  135.430   60.877  211.473    0.256    0.447   15.395
  135.680   57.138  211.993    0.267    0.443   16.114
  135.930   59.179  213.007    0.282    0.436   15.265
  136.180   66.719  213.527    0.275    0.443   12.736
  136.430   83.518  213.558    0.238    0.453    9.972
  136.680   91.639  213.596    0.236    0.504    8.628
  136.930   98.021  213.129    0.225    0.564    7.198
  137.180  108.746  211.203    0.224    0.579    5.585
  137.430  114.554  210.747    0.247    0.581    4.031
  137.680  112.836  210.288    0.290    0.578    3.185
  137.930  109.670  210.804    0.310    0.574    2.883
  138.180  105.348  212.308    0.297    0.564    2.756
  138.430  103.052  212.828    0.278    0.569    2.659
  138.680  103.074  213.839    0.262    0.574    2.612
  138.930  102.513  214.852    0.263    0.578    2.589
  139.180   99.925  214.887    0.269    0.585    2.589
  139.430   97.631  214.917    0.265    0.580    2.590
  139.680   97.360  214.955    0.261    0.580    2.638
  139.930   97.956  214.981    0.250    0.581    2.687
  140.180   98.847  215.008    0.230    0.584    2.737
  140.430   98.575  215.532    0.235    0.586    2.763
  140.680   97.725  215.562    0.230    0.582    2.814
  140.930   96.875  215.593    0.223    0.581    2.866
  141.180   94.868  215.627    0.221    0.576    2.893
  141.430   95.756  215.657    0.221    0.575    2.894
  141.680   98.959  215.688    0.223    0.580    2.869
  141.930   98.398  215.232    0.228    0.583    2.869
  142.180   98.992  215.262    0.250    0.589    2.870
  142.430   99.304  215.782    0.255    0.590    2.897
  142.680   99.035  215.820    0.242    0.581    2.951
  142.930  100.499  215.855    0.245    0.582    3.006
