~VERSION INFORMATION
 VERS.                 2.0:   CWLS LOG ASCII STANDARD -VERSION 2.0
 WRAP.                  NO:   ONE LINE PER DEPTH STEP
~WELL INFORMATION BLOCK
#MNEM.UNIT           DATA                    DESCRIPTION OF MNEMONIC
#---------    -------------------            -------------------------------
# Generated from Intellog Unique Number	CC_88_90/WELL/1062
WELL.         06-19-089-18W4                 : Well_name    - WELL
LOC .         00/06-19-089-18W4/0            : Location     - LOCATION
UWI .         00/06-19-089-18W400            : Uwi          - UNIQUE WELL ID
ENTR.         DW                             : Entered      - ENTERED BY
SRVC.         SCHLUMBERGER                   : Scn          - SERVICE COMPANY
STRT.M        89                             : top_depth    - START DEPTH
STOP.M        212.75                         : bot_depth    - STOP DEPTH
STEP.M        0.25                           : increment    - STEP LENGTH
 NULL. -999.2500:NULL Value
~CURVE INFORMATION BLOCK
#MNEM UNIT       ERCB CURVE CODE    CURVE DESCRIPTION
#-----------   ------------------   ----------------------------------
DEPT.M        00 001 00 00         : DEPTH        - DEPTH
GR  .API      00 310 00 00         : GR           - GAMMA RAY
DPHI.V/V      00 890 00 00         : PHID         - DENSITY POROSITY (SANDSTONE)
NPHI.V/V      00 330 00 00         : PHIN         - NEUTRON POROSITY (SANDSTONE)
ILD .OHMM     00 120 00 00         : RESD         - DEEP RESISTIVITY (DIL)
~PARAMETER INFORMATION
#MNEM.UNIT           DATA             DESCRIPTION OF MNEMONIC
#---------         -----------     ------------------------------
GL  .M        488.7                : gl           - GROUND LEVEL ELEVATION
EREF.M        491.7                : kb           - ELEVATION OF DEPTH REFERENCE
DATM.M        491.7                : datum        - DATUM ELEVATION
TDD .M        217                  : tdd          - TOTAL DEPTH DRILLER
RUN .         ONE                  : Run          - RUN NUMBER
ENG .         BILL                 : Engineer     - RECORDING ENGINEER
WIT .         JIM                  : Witness      - WITNESSED BY
MUD .         GEL                  : Mud_type     - MUD TYPE
MATR.         SANDSTONE            : Logunit      - NEUTRON MATRIX
TMAX.C        21.6                 : BHT          - MAXIMUM RECORDED TEMPERATURE
BHTD.M        217                  : BHTDEP       - MAXIMUM RECORDED TEMPERATURE
MATR.         1                    : LOGUNIT      - NEUTRON MATRIX
RMT .C        25                   : MDTP         - TEMPERATURE OF MUD
NEUT.         1                    : NEUTRON      - NEUTRON TYPE
RESI.         0                    : RESIST       - RESISTIVITY TYPE
RMC .OHMM     0.25                 : RMC          - RESISTIVITY OF MUD CAKE
RMF .OHMM     0.25                 : RMF          - RESISTIVITY OF MUD FILTRATE
SUFT.C        15                   : SUFT         - SURFACE TEMPERATURE
~A  DEPTH       GR     PHID     PHIN     RESD
# ...
  176.000  101.300    0.213    0.376   11.091
  176.250  105.423    0.221    0.386   11.448
  176.500   98.937    0.221    0.387   11.923
  176.750   88.486    0.173    0.402   12.585
  177.000   85.203    0.150    0.379   12.984
  177.250   89.938    0.200    0.326   13.207
  177.500   94.428    0.243    0.348   13.891
  177.750   96.078    0.250    0.376   14.810
  178.000   97.648    0.243    0.394   15.468
  178.250  101.067    0.245    0.399   15.456
  178.500  105.305    0.255    0.396   15.168
  178.750  102.665    0.252    0.394   15.791
  179.000   91.932    0.201    0.376   17.390
  179.250   93.224    0.076    0.308   17.750
  179.500   98.800    0.110    0.269   17.551
  179.750  105.123    0.194    0.317   16.912
  180.000  108.644    0.220    0.368   15.335
  180.250  105.887    0.223    0.365   13.541
  180.500  102.436    0.232    0.369   12.785
  180.750  107.096    0.253    0.375   12.340
  181.000  113.590    0.251    0.381   12.369
  181.250  109.020    0.236    0.379   12.871
  181.500   97.527    0.207    0.384   13.470
  181.750   91.174    0.164    0.387   13.376
  182.000   94.269    0.154    0.361   12.270
  182.250  107.829    0.203    0.353   11.211
  182.500  116.771    0.236    0.367    9.552
  182.750  117.912    0.250    0.406    8.108
  183.000  115.733    0.251    0.440    7.377
  183.250  116.953    0.260    0.449    7.421
  183.500  114.862    0.262    0.456    8.670
  183.750   86.902    0.130    0.451   10.692
  184.000   80.075    0.083    0.398   12.467
  184.250   91.682    0.085    0.352   13.235
  184.500  102.099    0.150    0.358   12.947
  184.750  106.327    0.252    0.389   11.954
  185.000  105.420    0.236    0.402   10.665
  185.250  105.096    0.234    0.391    9.637
  185.500  107.967    0.241    0.385    9.173
  185.750  112.367    0.243    0.384    8.481
  186.000  114.334    0.244    0.396    7.816
  186.250  113.189    0.243    0.419    7.669
  186.500  109.754    0.241    0.422    7.542
  186.750  102.536    0.239    0.414    7.510
  187.000  107.082    0.226    0.400    7.744
  187.250  109.994    0.232    0.410    7.836
  187.500  109.788    0.236    0.416    7.855
  187.750  114.320    0.217    0.392    7.975
  188.000  118.376    0.210    0.387    7.960
  188.250  121.526    0.225    0.419    8.049
  188.500  118.344    0.229    0.403    8.484
  188.750  112.752    0.233    0.382    9.132
  189.000  112.268    0.228    0.390    9.510
  189.250  114.741    0.210    0.388    9.947
  189.500  112.143    0.212    0.357   11.165
  189.750  105.374    0.220    0.359   12.290
  190.000   89.397    0.170    0.386   13.393
  190.250   82.622    0.104    0.326   14.052
  190.500   95.524    0.115    0.261   13.777
  190.750  114.537    0.188    0.306   12.743
  191.000  120.803    0.220    0.378   11.568
  191.250  112.420    0.228    0.392   10.629
  191.500  103.924    0.229    0.379   10.291
  191.750  103.880    0.230    0.374   10.391
  192.000  110.977    0.234    0.371   10.529
  192.250  115.947    0.236    0.359   10.774
  192.500  113.290    0.239    0.351   11.304
  192.750  109.937    0.237    0.366   11.491
  193.000   92.797    0.104    0.394   11.678
  193.250   84.863    0.044    0.345   11.688
  193.500   97.297    0.084    0.285   11.309
  193.750  109.151    0.136    0.330   10.745
  194.000  106.407    0.229    0.425    9.685
  194.250  104.830    0.242    0.454    7.129
  194.500   95.788    0.229    0.437    5.190
  194.750   82.093    0.220    0.418    4.870
  195.000   72.091    0.250    0.399    5.612
  195.250   68.950    0.314    0.373    7.107
  195.500   70.882    0.334    0.351   10.388
  195.750   72.419    0.302    0.349   15.998
  196.000   68.317    0.285    0.386   20.020
  196.250   60.504    0.253    0.383   22.176
  196.500   56.702    0.245    0.356   23.594
  196.750   58.984    0.285    0.369   23.872
  197.000   62.124    0.294    0.391   22.634
  197.250   65.896    0.285    0.390   21.567
  197.500   67.253    0.278    0.380   20.390
  197.750   63.962    0.275    0.370   18.782
  198.000   60.793    0.275    0.384   17.712
  198.250   59.935    0.280    0.394   17.618
  198.500   65.135    0.243    0.347   16.958
  198.750   91.047    0.122    0.325   14.091
  199.000  103.905    0.184    0.365    9.432
  199.250  106.605    0.250    0.418    6.169
  199.500  106.996    0.237    0.441    4.897
  199.750  103.654    0.239    0.441    4.309
  200.000  101.863    0.243    0.433    4.132
  200.250  104.502    0.255    0.432    3.868
  200.500  104.629    0.265    0.449    3.781
  200.750   99.361    0.258    0.458    3.928
  201.000   92.472    0.241    0.436    4.113
  201.250   88.176    0.228    0.393    4.747
  201.500   85.659    0.229    0.359    6.251
  201.750   82.920    0.233    0.349    7.415
  202.000   86.809    0.229    0.352    8.034
  202.250   83.950    0.213    0.365    9.605
  202.500   73.545    0.210    0.379   11.434
  202.750   65.623    0.247    0.385   13.036
  203.000   60.732    0.299    0.391   15.834
  203.250   58.988    0.304    0.401   19.066
  203.500   58.598    0.288    0.379   24.005
  203.750   59.880    0.272    0.353   30.158
  204.000   63.829    0.273    0.348   34.460
  204.250   68.116    0.292    0.366   36.093
  204.500   69.997    0.301    0.407   37.185
  204.750   72.294    0.293    0.418   37.182
  205.000   70.664    0.286    0.398   37.452
  205.250   60.299    0.300    0.380   38.758
  205.500   55.299    0.322    0.376   41.051
  205.750   60.772    0.328    0.376   43.666
  206.000   60.023    0.325    0.373   45.683
  206.250   56.800    0.320    0.368   46.597
  206.500   60.199    0.317    0.362   45.438
  206.750   59.233    0.317    0.365   43.801
  207.000   52.424    0.316    0.379   38.492
  207.250   48.274    0.296    0.369   30.539
  207.500   51.215    0.261    0.326   26.238
  207.750   67.485    0.261    0.333   20.165
  208.000   88.015    0.272    0.333   15.270
  208.250   98.636    0.270    0.383   11.382
  208.500   96.419    0.262    0.451    7.980
  208.750   79.992    0.267    0.451    6.415
  209.000   54.389    0.293    0.401    6.763
  209.250   49.040    0.323    0.348    7.441
  209.500   49.826    0.302    0.344   11.330
  209.750   50.420    0.284    0.357   19.529
  210.000   51.763    0.293    0.357   28.235
  210.250   53.365    0.304    0.357   35.501
  210.500   54.894    0.309    0.365   42.685
  210.750   55.935    0.311    0.369   47.004
  211.000   56.978    0.320    0.371   51.998
  211.250   57.792    0.332    0.371   58.822
  211.500   57.947    0.340    0.374   63.660
  211.750   57.079    0.344    0.381   62.908
  212.000   55.480    0.350    0.381   54.564
  212.250   54.843    0.351    0.362   37.932
  212.500   55.154    0.308    0.353   29.808
  212.750   56.031    0.260    0.356   28.182
