~VERSION INFORMATION
 VERS.                 2.0:   CWLS LOG ASCII STANDARD -VERSION 2.0
 WRAP.                  NO:   ONE LINE PER DEPTH STEP
~WELL INFORMATION BLOCK
#MNEM.UNIT           DATA                    DESCRIPTION OF MNEMONIC
#---------    -------------------            -------------------------------
# Generated from Intellog Unique Number	CS_77_79/WELL/854
WELL.         HB THORNBURY                   : Well_name    - WELL
LOC .         00/05-10-078-12W4/0            : Location     - LOCATION
UWI .         00/05-10-078-12W4/0            : Uwi          - UNIQUE WELL ID
ENTR.         JHS                            : Entered      - ENTERED BY
SRVC.         SCHLUMBERGER                   : Scn          - SERVICE COMPANY
STRT.M        256.032                        : top_depth    - START DEPTH
STOP.M        478.282                        : bot_depth    - STOP DEPTH
STEP.M        0.25                           : increment    - STEP LENGTH
 NULL. -999.2500:NULL Value
~CURVE INFORMATION BLOCK
#MNEM UNIT       ERCB CURVE CODE    CURVE DESCRIPTION
#-----------   ------------------   ----------------------------------
DEPT.M        00 001 00 00         : DEPTH        - DEPTH
RHOB.KG/M3    00 350 00 00         : DENS         - BULK DENSITY
GR  .API      00 310 00 00         : GR           - GAMMA RAY
DPHI.V/V      00 890 00 00         : PHID         - DENSITY POROSITY (SANDSTONE)
NPHI.V/V      00 330 00 00         : PHIN         - NEUTRON POROSITY (SANDSTONE)
ILD .OHMM     00 120 00 00         : RESD         - DEEP RESISTIVITY (DIL)
~PARAMETER INFORMATION
#MNEM.UNIT           DATA             DESCRIPTION OF MNEMONIC
#---------         -----------     ------------------------------
GL  .M        674.797              : gl           - GROUND LEVEL ELEVATION
EREF.M        674.797              : kb           - ELEVATION OF DEPTH REFERENCE
DATM.M        674.797              : datum        - DATUM ELEVATION
TDD .M        484.632              : tdd          - TOTAL DEPTH DRILLER
RUN .         ONE                  : Run          - RUN NUMBER
ENG .         BILL                 : Engineer     - RECORDING ENGINEER
WIT .         JIM                  : Witness      - WITNESSED BY
MUD .         GEL                  : Mud_type     - MUD TYPE
MATR.         SANDSTONE            : Logunit      - NEUTRON MATRIX
TMAX.C        21.6667              : BHT          - MAXIMUM RECORDED TEMPERATURE
BHTD.M        484.632              : BHTDEP       - MAXIMUM RECORDED TEMPERATURE
MATR.         1                    : LOGUNIT      - NEUTRON MATRIX
RMT .C        25                   : MDTP         - TEMPERATURE OF MUD
NEUT.         1                    : NEUTRON      - NEUTRON TYPE
RESI.         0                    : RESIST       - RESISTIVITY TYPE
RMC .OHMM     0.25                 : RMC          - RESISTIVITY OF MUD CAKE
RMF .OHMM     0.25                 : RMF          - RESISTIVITY OF MUD FILTRATE
SUFT.C        15                   : SUFT         - SURFACE TEMPERATURE
~A  DEPTH     DENS       GR     PHID     PHIN     RESD
  256.032    0.000  114.152    0.287    0.611    2.911
  256.282    0.000  110.180    0.279    0.615    2.857
  256.532    0.000  107.394    0.271    0.599    2.858
  256.782    0.000  110.976    0.255    0.569    2.912
  257.032    0.000  113.473    0.254    0.555    3.043
  257.282    0.000  113.519    0.270    0.559    3.100
  257.532    0.000  111.918    0.241    0.524    3.255
  257.782    0.000  113.188    0.236    0.508    3.347
  258.032    0.000  114.576    0.238    0.506    3.523
  258.282    0.000  116.376    0.242    0.550    3.564
  258.532    0.000  115.485    0.246    0.561    3.680
  258.782    0.000  113.849    0.251    0.546    3.795
  259.032    0.000  113.859    0.260    0.527    3.906
  259.282    0.000  114.650    0.268    0.510    4.119
  259.532    0.000  116.974    0.258    0.525    4.240
  259.782    0.000  117.372    0.251    0.527    4.372
  260.032    0.000  117.665    0.240    0.505    4.508
  260.282    0.000  117.166    0.265    0.493    4.655
  260.532    0.000  116.178    0.268    0.510    4.652
  260.782    0.000  115.158    0.256    0.523    4.760
  261.032    0.000  113.103    0.256    0.525    4.746
  261.282    0.000  112.042    0.269    0.522    4.853
  261.532    0.000  111.764    0.252    0.531    4.842
  261.782    0.000  112.172    0.251    0.538    4.832
  262.032    0.000  114.252    0.245    0.532    4.727
  262.282    0.000  117.945    0.223    0.534    4.596
  262.532    0.000  122.101    0.233    0.539    4.336
  262.782    0.000  120.590    0.236    0.541    4.013
  263.032    0.000  116.355    0.230    0.550    3.902
  263.282    0.000  111.459    0.233    0.556    4.022
  263.532    0.000  104.907    0.242    0.593    4.963
  263.782    0.000   77.731    0.208    0.521    6.930
  264.032    0.000   62.144    0.152    0.460   10.310
  264.282    0.000   65.767    0.109    0.377   16.056
  264.532    0.000   67.377    0.117    0.406   22.025
  264.782    0.000   64.907    0.331    0.444   27.518
  265.032    0.000   61.678    0.354    0.450   28.136
  265.282    0.000   59.737    0.356    0.447   27.484
  265.532    0.000   58.811    0.355    0.437   25.688
  265.782    0.000   61.806    0.347    0.448   23.918
  266.032    0.000   64.205    0.349    0.449   21.177
  266.282    0.000   63.182    0.373    0.447   20.637
  266.532    0.000   56.996    0.407    0.463   22.063
  266.782    0.000   50.035    0.423    0.492   26.232
  267.032    0.000   48.685    0.383    0.523   30.359
  267.282    0.000   50.665    0.339    0.444   33.812
  267.532    0.000   55.563    0.316    0.416   35.425
  267.782    0.000   60.499    0.311    0.412   35.336
  268.032    0.000   63.995    0.340    0.418   35.330
  268.282    0.000   64.997    0.346    0.427   35.126
  268.532    0.000   63.986    0.339    0.421   34.737
  268.782    0.000   61.701    0.345    0.420   33.287
  269.032    0.000   61.879    0.355    0.417   32.162
  269.282    0.000   64.607    0.348    0.409   31.172
  269.532    0.000   68.196    0.351    0.423   30.569
  269.782    0.000   73.143    0.338    0.419   29.413
  270.032    0.000   76.096    0.355    0.422   28.567
  270.282    0.000   77.868    0.330    0.433   26.952
  270.532    0.000   79.612    0.323    0.433   25.422
  270.782    0.000   81.603    0.326    0.449   25.020
  271.032    0.000   83.285    0.341    0.455   25.644
  271.282    0.000   82.523    0.335    0.445   25.094
  271.532    0.000   82.970    0.341    0.441   24.531
  271.782    0.000   85.156    0.338    0.453   23.096
  272.032    0.000   89.278    0.314    0.443   21.321
  272.282    0.000   93.035    0.298    0.427   20.316
  272.532    0.000   98.484    0.286    0.432   18.107
  272.782    0.000  104.918    0.280    0.426   16.600
  273.032    0.000  111.391    0.271    0.410   14.920
  273.282    0.000  119.163    0.239    0.403   12.786
  273.532    0.000  121.395    0.215    0.417   10.919
  273.782    0.000  123.917    0.208    0.440    8.530
  274.032    0.000  123.989    0.213    0.466    7.902
  274.282    0.000  120.225    0.249    0.482    8.197
  274.532    0.000  109.529    0.269    0.482    9.727
  274.782    0.000   99.280    0.288    0.453   11.979
  275.032    0.000  102.798    0.327    0.434   18.673
  275.282    0.000  110.771    0.345    0.426   22.722
  275.532    0.000  112.219    0.355    0.422   27.669
  275.782    0.000  108.609    0.339    0.426   31.114
  276.032    0.000  102.041    0.334    0.457   31.660
  276.282    0.000   96.569    0.342    0.462   31.175
  276.532    0.000   96.710    0.331    0.450   29.678
  276.782    0.000   99.283    0.328    0.448   28.173
  277.032    0.000  104.809    0.325    0.447   25.620
  277.282    0.000  109.725    0.316    0.438   23.510
  277.532    0.000  114.377    0.318    0.440   21.515
  277.782    0.000  115.447    0.308    0.437   20.254
  278.032    0.000  113.965    0.293    0.439   19.594
  278.282    0.000  110.109    0.262    0.446   19.010
  278.532    0.000  102.655    0.248    0.439   19.122
  278.782    0.000   87.607    0.235    0.414   21.252
  279.032    0.000   83.955    0.218    0.377   22.836
  279.282    0.000   89.191    0.210    0.352   23.384
  279.532    0.000   94.321    0.209    0.353   22.781
  279.782    0.000   95.810    0.228    0.373   21.159
  280.032    0.000   92.126    0.195    0.397   18.297
  280.282    0.000   78.798    0.211    0.430   17.780
  280.532    0.000   66.031    0.239    0.431   19.767
  280.782    0.000   60.389    0.291    0.413   22.756
  281.032    0.000   57.541    0.263    0.412   25.760
  281.282    0.000   56.905    0.245    0.389   29.716
  281.532    0.000   58.812    0.239    0.383   32.552
  281.782    0.000   66.444    0.313    0.390   33.326
  282.032    0.000   83.138    0.291    0.372   30.455
  282.282    0.000   97.290    0.274    0.358   24.936
  282.532    0.000  124.739    0.245    0.420   17.061
  282.782    0.000  139.962    0.194    0.495    9.714
  283.032    0.000  142.135    0.187    0.541    6.939
  283.282    0.000  137.948    0.189    0.544    6.095
  283.532    0.000  133.586    0.157    0.502    5.791
  283.782    0.000  131.462    0.134    0.467    5.499
  284.032    0.000  135.209    0.112    0.465    5.267
  284.282    0.000  143.851    0.166    0.501    4.953
  284.532    0.000  147.857    0.192    0.528    4.758
  284.782    0.000  148.500    0.204    0.552    4.433
  285.032    0.000  146.429    0.211    0.559    4.058
  285.282    0.000  146.710    0.208    0.571    3.843
  285.532    0.000  145.549    0.208    0.581    3.296
  285.782    0.000  143.844    0.224    0.540    3.114
  286.032    0.000  145.632    0.246    0.523    3.169
  286.282    0.000  143.219    0.249    0.535    3.521
  286.532    0.000  139.800    0.253    0.537    4.533
  286.782    0.000  135.282    0.258    0.501    6.050
  287.032    0.000  128.722    0.275    0.463    8.065
  287.282    0.000  122.535    0.270    0.447   10.060
  287.532    0.000  119.798    0.256    0.447   12.082
  287.782    0.000  118.963    0.254    0.447   12.635
  288.032    0.000  116.757    0.260    0.443   13.200
  288.282    0.000  115.252    0.275    0.459   13.779
  288.532    0.000  117.559    0.294    0.466   13.406
  288.782    0.000  126.267    0.303    0.455   13.047
  289.032    0.000  134.695    0.279    0.450   11.403
  289.282    0.000  138.838    0.243    0.467    9.460
  289.532    0.000  139.449    0.210    0.541    6.495
  289.782    0.000  137.902    0.191    0.489    5.739
  290.032    0.000  140.211    0.166    0.472    5.689
  290.282    0.000  142.074    0.152    0.469    5.820
  290.532    0.000  139.223    0.208    0.460    6.266
  290.782    0.000  130.911    0.242    0.444    7.119
  291.032    0.000  125.002    0.250    0.431    8.493
  291.282    0.000  122.685    0.246    0.428    9.996
  291.532    0.000  119.679    0.258    0.445   11.449
  291.782    0.000  115.839    0.262    0.465   12.475
  292.032    0.000  111.390    0.279    0.452   12.652
  292.282    0.000  111.048    0.295    0.432   12.883
