~VERSION INFORMATION
 VERS.                 2.0:   CWLS LOG ASCII STANDARD -VERSION 2.0
 WRAP.                  NO:   ONE LINE PER DEPTH STEP
~WELL INFORMATION BLOCK
#MNEM.UNIT           DATA                    DESCRIPTION OF MNEMONIC
#---------    -------------------            -------------------------------
# Generated from Intellog Unique Number	CX_WELLS/WELL/3007
WELL.         TRITON ATCOR THORNBURY         : Well_name    - WELL
LOC .         00/08-04-082-12W4/0            : Location     - LOCATION
UWI .         00/08-04-082-12W400            : Uwi          - UNIQUE WELL ID
ENTR.         T                              : Entered      - ENTERED BY
SRVC.         SCHLUMBERGER                   : Scn          - SERVICE COMPANY
STRT.M        300                            : top_depth    - START DEPTH
STOP.M        535                            : bot_depth    - STOP DEPTH
STEP.M        0.25                           : increment    - STEP LENGTH
 NULL. -999.2500:NULL Value
~CURVE INFORMATION BLOCK
#MNEM UNIT       ERCB CURVE CODE    CURVE DESCRIPTION
#-----------   ------------------   ----------------------------------
DEPT.M        00 001 00 00         : DEPTH        - DEPTH
GR  .API      00 310 00 00         : GR           - GAMMA RAY
NPHI.V/V      00 330 00 00         : PHIN         - NEUTRON POROSITY (SANDSTONE)
DPHI.V/V      00 890 00 00         : PHID         - DENSITY POROSITY (SANDSTONE)
ILD .OHMM     00 120 00 00         : RESD         - DEEP RESISTIVITY (OTHER)
~PARAMETER INFORMATION
#MNEM.UNIT           DATA             DESCRIPTION OF MNEMONIC
#---------         -----------     ------------------------------
GL  .M        746                  : gl           - GROUND LEVEL ELEVATION
EREF.M        748.6                : kb           - ELEVATION OF DEPTH REFERENCE
DATM.M        748.6                : datum        - DATUM ELEVATION
TDD .M        546                  : tdd          - TOTAL DEPTH DRILLER
RUN .         ONE                  : Run          - RUN NUMBER
ENG .         BILL                 : Engineer     - RECORDING ENGINEER
WIT .         JIM                  : Witness      - WITNESSED BY
MUD .         GEL                  : Mud_type     - MUD TYPE
MATR.         SANDSTONE            : Logunit      - NEUTRON MATRIX
TMAX.C        27                   : BHT          - MAXIMUM RECORDED TEMPERATURE
BHTD.M        546                  : BHTDEP       - MAXIMUM RECORDED TEMPERATURE
MATR.         1                    : LOGUNIT      - NEUTRON MATRIX
RMT .C        16                   : MDTP         - TEMPERATURE OF MUD
NEUT.         1                    : NEUTRON      - NEUTRON TYPE
RESI.         3.34                 : RESIST       - RESISTIVITY TYPE
RMC .OHMM     2                    : RMC          - RESISTIVITY OF MUD CAKE
RMF .OHMM     3.9                  : RMF          - RESISTIVITY OF MUD FILTRATE
SUFT.C        4                    : SUFT         - SURFACE TEMPERATURE
~A  DEPTH       GR     PHIN     PHID     RESD
# ...
  474.000  101.873    0.448    0.252    4.041
  474.250   97.731    0.440    0.249    4.117
  474.500   94.196    0.465    0.250    4.274
  474.750   94.802    0.471    0.253    4.438
  475.000   97.218    0.481    0.254    4.521
  475.250   98.419    0.480    0.254    4.608
  475.500  102.019    0.479    0.255    4.697
  475.750  105.024    0.481    0.255    4.786
  476.000  106.231    0.492    0.255    4.969
  476.250  106.850    0.518    0.255    5.160
  476.500  107.474    0.527    0.255    5.258
  476.750  108.093    0.528    0.254    5.358
  477.000  108.110    0.524    0.251    5.562
  477.250  108.134    0.500    0.250    5.776
  477.500  106.372    0.487    0.250    5.995
  477.750   98.665    0.440    0.250    6.223
  478.000   94.518    0.429    0.249    6.582
  478.250   88.001    0.430    0.275    6.832
  478.500   86.245    0.441    0.275    7.093
  478.750   90.428    0.448    0.276    7.363
  479.000   93.439    0.423    0.276    7.786
  479.250   89.886    0.414    0.274    8.387
  479.500   87.529    0.411    0.276    8.706
  479.750   86.356    0.408    0.280    9.206
  480.000   85.791    0.404    0.277    9.557
  480.250   85.213    0.391    0.275    9.388
  480.500   82.862    0.358    0.268    9.220
  480.750   79.910    0.373    0.264    9.224
  481.000   76.959    0.396    0.262    9.228
  481.250   75.792    0.397    0.256    9.406
  481.500   81.171    0.403    0.249    9.765
  481.750   88.930    0.407    0.242   10.137
  482.000   93.119    0.407    0.236   10.720
  482.250   97.914    0.397    0.231   11.336
  482.500   97.932    0.387    0.238   11.988
  482.750   97.961    0.380    0.244   12.443
  483.000   98.580    0.378    0.248   13.909
  483.250   99.787    0.375    0.251   15.261
  483.500  100.406    0.379    0.254   16.743
  483.750  102.220    0.383    0.258   19.782
  484.000  104.029    0.390    0.274   22.522
  484.250  103.457    0.394    0.280   26.609
  484.500   89.794    0.363    0.287   29.740
  484.750   77.911    0.354    0.287   33.863
  485.000   73.174    0.358    0.281   36.472
  485.250   70.817    0.368    0.272   41.529
  485.500   72.036    0.376    0.283   43.117
  485.750   70.875    0.377    0.299   43.931
  486.000   68.519    0.350    0.299   42.358
  486.250   65.561    0.340    0.290   39.362
  486.500   63.799    0.339    0.255   30.978
  486.750   63.828    0.346    0.238   26.254
  487.000   64.447    0.355    0.237   24.394
  487.250   64.476    0.365    0.259   22.251
  487.500   63.893    0.373    0.267   19.563
  487.750   63.916    0.378    0.260   17.201
  488.000   66.326    0.376    0.241   15.407
  488.250   71.110    0.379    0.232   14.582
  488.500   80.059    0.383    0.224   13.554
  488.750   89.603    0.403    0.218   13.557
  489.000   97.963    0.406    0.201   13.315
  489.250  104.532    0.410    0.194   13.322
  489.500  109.316    0.414    0.215   13.328
  489.750   92.678    0.390    0.223   14.360
  490.000   74.850    0.365    0.224   15.181
  490.250   70.714    0.354    0.223   17.936
  490.500   73.123    0.336    0.222   20.050
  490.750   74.325    0.330    0.222   20.057
  491.000   76.133    0.323    0.222   20.071
  491.250   77.347    0.332    0.230   19.711
  491.500   76.781    0.349    0.250   20.090
  491.750   75.019    0.358    0.270   20.472
  492.000   73.258    0.365    0.304   21.250
  492.250   73.287    0.380    0.352   25.106
  492.500   73.310    0.460    0.360   37.014
  492.750   71.549    0.432    0.346   49.759
  493.000   69.186    0.393    0.341   59.877
  493.250   64.449    0.378    0.346   68.170
  493.500   59.117    0.367    0.347   56.712
  493.750   55.576    0.360    0.348   39.216
  494.000   66.905    0.366    0.315   33.856
  494.250   68.708    0.376    0.296   29.218
  494.500   74.093    0.387    0.281   24.757
  494.750   78.877    0.392    0.270   20.977
  495.000   86.041    0.401    0.260   18.107
  495.250   89.641    0.403    0.257   17.138
  495.500   89.063    0.402    0.255   16.222
  495.750   89.092    0.400    0.250   14.802
  496.000   89.722    0.400    0.244   14.535
  496.250   90.335    0.400    0.239   14.015
  496.500   90.353    0.401    0.237   13.027
  496.750   90.983    0.406    0.237   12.793
  497.000   90.400    0.413    0.238   12.111
  497.250   87.454    0.417    0.241   11.895
  497.500   85.686    0.416    0.247   11.469
  497.750   89.875    0.414    0.250   11.266
  498.000   89.904    0.412    0.247   11.064
  498.250   86.357    0.406    0.241   11.071
  498.500   86.975    0.403    0.234   11.073
  498.750  101.875    0.399    0.225   11.497
  499.000  106.064    0.394    0.220   11.934
  499.250  110.848    0.391    0.217   12.857
  499.500   96.590    0.391    0.227   14.108
  499.750   91.853    0.390    0.244   15.194
  500.000   85.926    0.390    0.249   15.774
  500.250   93.691    0.390    0.249   15.492
  500.500   96.701    0.388    0.245   15.218
  500.750   97.314    0.386    0.243   15.227
  501.000   97.332    0.384    0.236   15.235
  501.250   97.950    0.377    0.231   15.240
  501.500   96.789    0.376    0.226   15.240
  501.750   95.617    0.374    0.224   14.979
  502.000   92.665    0.375    0.222   14.985
  502.250   89.124    0.375    0.222   14.990
  502.500   86.767    0.374    0.228   15.278
  502.750   84.422    0.372    0.237   15.571
  503.000   83.249    0.371    0.248   15.867
  503.250   82.082    0.373    0.248   16.780
  503.500   80.321    0.373    0.242   18.075
  503.750   81.528    0.372    0.239   20.578
  504.000   83.343    0.371    0.240   23.865
  504.250   83.961    0.371    0.245   27.680
  504.500   83.384    0.376    0.249   30.368
  504.750   80.432    0.381    0.260   33.946
  505.000   75.707    0.385    0.273   34.599
  505.250   73.939    0.382    0.281   34.612
  505.500   70.392    0.374    0.287   33.377
  505.750   63.870    0.359    0.281   32.182
  506.000   56.758    0.362    0.275   29.906
  506.250   57.966    0.366    0.272   26.293
  506.500   60.370    0.366    0.267   23.544
  506.750   62.779    0.359    0.260   19.587
  507.000   66.379    0.356    0.253   18.201
  507.250   68.771    0.348    0.244   17.552
  507.500   81.897    0.353    0.240   17.556
  507.750   83.111    0.377    0.248   18.230
  508.000   84.913    0.381    0.272   18.922
  508.250   86.127    0.383    0.281   21.546
  508.500   82.580    0.388    0.292   23.640
  508.750   79.628    0.389    0.301   24.541
  509.000   78.462    0.388    0.299   25.008
  509.250   75.516    0.383    0.293   26.445
  509.500   71.974    0.363    0.283   27.456
  509.750   67.827    0.358    0.273   25.992
  510.000   68.451    0.341    0.263   24.601
  510.250   70.254    0.332    0.253   20.847
  510.500   73.252    0.337    0.249   19.738
  510.750   76.846    0.349    0.248   19.740
  511.000   79.250    0.360    0.258   19.750
  511.250   76.899    0.360    0.265   19.762
  511.500   74.536    0.356    0.265   19.769
  511.750   75.761    0.347    0.266   19.416
  512.000   76.975    0.341    0.266   18.045
  512.250   78.183    0.334    0.252   16.160
  512.500   81.776    0.326    0.237   14.208
  512.750   85.965    0.314    0.201   12.039
  513.000   90.749    0.340    0.154   10.584
  513.250   96.729    0.344    0.138    9.479
  513.500   99.728    0.356    0.123    8.810
  513.750  102.726    0.367    0.158    8.813
  514.000  103.958    0.393    0.189    8.819
  514.250  103.368    0.402    0.221    8.986
  514.500  102.803    0.416    0.250    9.157
  514.750  102.231    0.395    0.264    9.865
  515.000  101.064    0.384    0.268   10.827
  515.250   96.327    0.375    0.262   11.031
  515.500   92.780    0.372    0.252   11.244
  515.750   91.625    0.378    0.241   11.460
  516.000   91.048    0.380    0.236   11.464
  516.250   89.887    0.385    0.246   11.470
  516.500   88.709    0.379    0.256   11.474
  516.750   87.548    0.371    0.260   11.695
  517.000   87.571    0.357    0.260   11.486
  517.250   89.981    0.353    0.250   10.873
