~VERSION INFORMATION
 VERS.                 2.0:   CWLS LOG ASCII STANDARD -VERSION 2.0
 WRAP.                  NO:   ONE LINE PER DEPTH STEP
~WELL INFORMATION BLOCK
#MNEM.UNIT           DATA                    DESCRIPTION OF MNEMONIC
#---------    -------------------            -------------------------------
# Generated from Intellog Unique Number	CW_76_78/WELL/195
WELL.         SCURRY APL AMOCO 06-17         : Well_name    - WELL
LOC .         00/06-17-078-01W5/0            : Location     - LOCATION
UWI .         00/06-17-078-01W5/0            : Uwi          - UNIQUE WELL ID
ENTR.         JJ                             : Entered      - ENTERED BY
SRVC.         WESTERN ATLAS                  : Scn          - SERVICE COMPANY
DATE.         16 FEB 75                      : Date         - LOG DATE
STRT.M        399.288                        : top_depth    - START DEPTH
STOP.M        527.288                        : bot_depth    - STOP DEPTH
STEP.M        0.25                           : increment    - STEP LENGTH
 NULL. -999.2500:NULL Value
~CURVE INFORMATION BLOCK
#MNEM UNIT       ERCB CURVE CODE    CURVE DESCRIPTION
#-----------   ------------------   ----------------------------------
DEPT.M        00 001 00 00         : DEPTH        - DEPTH
CALI.MM       00 280 01 00         : CAL          - CALIPER
DELT.US/F     00 520 00 00         : DELT         - SONIC TRAVEL TIME
GR  .API      00 310 00 00         : GR           - GAMMA RAY
ILD .OHMM     00 120 00 00         : RESD         - DEEP RESISTIVITY (DIL)
~PARAMETER INFORMATION
#MNEM.UNIT           DATA             DESCRIPTION OF MNEMONIC
#---------         -----------     ------------------------------
GL  .M        606.552              : gl           - GROUND LEVEL ELEVATION
EREF.M        610.514              : kb           - ELEVATION OF DEPTH REFERENCE
DATM.M        606.552              : datum        - DATUM ELEVATION
TDD .M        525.17               : tdd          - TOTAL DEPTH DRILLER
RUN .         ONE                  : Run          - RUN NUMBER
ENG .         THOMPSON             : Engineer     - RECORDING ENGINEER
WIT .         KIRKPATRICK          : Witness      - WITNESSED BY
BASE.         BROOKS               : Branch       - HOME BASE OF LOGGING UNIT
MUD .         MUD/GEL              : Mud_type     - MUD TYPE
MATR.         SANDSTONE            : Logunit      - NEUTRON MATRIX
TMAX.C        25.5556              : BHT          - MAXIMUM RECORDED TEMPERATURE
BHTD.M        526.085              : BHTDEP       - MAXIMUM RECORDED TEMPERATURE
RMT .C        15.5556              : MDTP         - TEMPERATURE OF MUD
MUDD.KG/M     1116                 : MWT          - MUD DENSITY
NEUT.         1                    : NEUTRON      - NEUTRON TYPE
RESI.         0                    : RESIST       - RESISTIVITY TYPE
RM  .OHMM     6                    : RM           - RESISTIVITY OF MUD
RMC .OHMM     2.4                  : RMC          - RESISTIVITY OF MUD CAKE
RMF .OHMM     2.8                  : RMF          - RESISTIVITY OF MUD FILTRATE
SUFT.C        5                    : SUFT         - SURFACE TEMPERATURE
~A  DEPTH      CAL     DELT       GR     RESD
  399.288  172.834  382.195   97.819    6.825
  399.538  169.699  383.251   98.394    6.964
  399.788  170.448  386.084   96.609    7.144
  400.038  170.930  389.938   93.925    7.365
  400.288  171.347  394.408   91.666    7.408
  400.538  170.266  393.102   92.539    7.551
  400.788  170.504  393.858   91.698    7.817
  401.038  171.776  394.726   89.637    7.916
  401.288  172.107  391.756   87.304    7.758
  401.538  170.869  390.369   88.379    7.537
  401.788  170.637  390.611   85.102    7.389
  402.038  170.248  393.149   83.863    7.330
  402.288  170.088  396.075   87.041    7.437
  402.538  170.440  393.261   86.608    7.544
  402.788  171.012  396.416   86.765    7.627
  403.038  171.490  396.947   87.544    7.494
  403.288  171.683  401.845   85.076    7.446
  403.538  171.723  410.817   86.556    7.430
  403.788  171.437  418.211   84.735    7.865
  404.038  169.605  424.852   80.013    8.522
  404.288  167.341  428.586   81.819    9.191
  404.538  166.432  422.368   89.559    9.641
  404.788  166.289  413.998   91.424    9.419
  405.038  166.292  408.672   91.502    8.685
  405.288  166.277  405.644   90.400    7.933
  405.538  166.339  399.081   87.986    7.412
  405.788  167.512  389.964   92.345    7.335
  406.038  170.212  391.422   95.456    7.384
  406.288  170.669  388.699   93.237    7.480
  406.538  170.576  387.863   90.510    7.592
  406.788  171.374  392.332   92.410    7.666
  407.038  172.038  409.765   89.661    7.804
  407.288  172.164  424.069   84.300    8.040
  407.538  171.148  430.577   85.559    8.454
  407.788  168.600  434.547   79.580    8.983
  408.038  168.135  435.875   76.073    9.713
  408.288  168.485  433.351   76.773   10.486
  408.538  168.885  427.690   77.546   11.044
  408.788  169.039  427.110   75.099   11.056
  409.038  169.078  435.245   75.866   10.635
  409.288  169.086  434.003   77.404   10.181
  409.538  169.071  428.335   77.625   10.018
  409.788  168.964  415.329   78.255   10.380
  410.038  168.910  392.644   79.764   11.009
  410.288  169.891  373.082   82.477   11.327
  410.538  169.724  374.641   79.590   11.332
  410.788  169.092  373.631   77.473   10.912
  411.038  169.384  368.952   76.097   10.416
  411.288  170.190  367.001   74.157   10.374
  411.538  170.056  373.097   77.063   10.777
  411.788  170.963  376.574   83.283   10.837
  412.038  170.923  372.135   88.060   10.568
  412.288  171.709  372.841   89.962   10.233
  412.538  171.567  376.641   91.702    9.896
  412.788  171.896  372.126   92.422    9.651
  413.038  173.265  373.100   89.799    9.746
  413.288  173.016  379.081   91.015   10.360
  413.538  173.032  382.906   93.175   11.063
  413.788  173.322  373.025   88.374   11.616
  414.038  173.703  337.638   82.021   12.253
  414.288  173.977  300.913   76.328   13.019
  414.538  173.659  291.655   78.684   13.874
  414.788  174.368  278.789   76.497   15.016
  415.038  175.105  243.808   72.196   16.563
  415.288  174.847  231.624   66.237   18.727
  415.538  174.055  234.503   64.685   20.375
  415.788  173.168  250.758   77.238   19.930
  416.038  172.726  303.829   90.641   16.694
  416.288  173.362  371.459   98.118   13.192
  416.538  174.959  379.109   99.728   10.625
  416.788  176.441  376.031   99.676    8.959
  417.038  175.830  370.408   97.007    7.772
  417.288  174.698  367.022   92.228    7.148
  417.538  173.731  372.126   91.732    6.811
  417.788  172.758  377.364   92.600    6.559
  418.038  173.930  381.676   91.917    6.414
  418.288  174.036  383.824   99.157    6.510
  418.538  173.914  384.164  103.418    6.793
  418.788  174.714  385.676  101.926    7.223
  419.038  175.299  389.662  102.365    7.512
  419.288  175.550  393.381  106.009    7.309
  419.538  175.847  396.365  105.657    6.791
  419.788  176.319  397.400  110.622    6.192
  420.038  176.706  398.205  111.588    5.775
  420.288  177.059  399.999  105.148    5.725
  420.538  177.226  400.751  102.935    5.770
  420.788  177.116  394.155  104.932    6.095
  421.038  176.592  388.095   97.827    6.599
  421.288  175.284  386.212   92.448    7.238
  421.538  172.140  383.212   86.240    7.852
  421.788  171.310  390.799   89.012    8.408
  422.038  172.341  395.934   94.308    8.883
  422.288  171.633  393.798   95.163    8.981
  422.538  171.667  397.364   92.109    8.448
  422.788  173.037  388.923   88.433    8.003
  423.038  171.455  383.705   89.170    7.613
  423.288  169.449  386.756   95.943    7.541
  423.538  170.588  391.697   96.645    7.580
  423.788  173.466  387.506   98.465    7.619
  424.038  173.658  383.027   97.876    7.714
  424.288  174.431  382.615   95.706    8.061
  424.538  175.191  376.987   92.118    8.321
  424.788  175.778  382.346   94.718    8.411
  425.038  175.898  388.872   98.526    8.322
  425.288  175.640  394.634   94.807    8.242
  425.538  174.399  399.478   95.964    8.687
  425.788  173.428  404.495   95.802    9.501
  426.038  170.614  409.083   89.795   10.682
  426.288  169.578  407.945   85.356   12.226
  426.538  170.671  374.242   80.972   13.486
  426.788  171.904  356.120   80.204   14.025
  427.038  172.879  366.847   85.874   13.756
  427.288  173.297  360.697   89.106   12.820
  427.538  173.511  360.351   90.302   11.644
  427.788  173.527  360.955   91.808   10.775
  428.038  172.879  361.982   88.853   11.244
  428.288  173.311  362.292   84.160   11.713
  428.538  174.063  363.104   86.200   11.708
  428.788  173.902  361.066   88.718   11.083
  429.038  174.919  358.145   91.793   10.505
  429.288  175.307  358.654   97.009    9.954
  429.538  175.117  355.961   99.329    9.655
  429.788  173.603  345.092   97.003    9.773
  430.038  172.235  327.757   90.647   10.418
  430.288  172.326  322.397   84.820   11.259
  430.538  173.343  321.845   81.447   12.044
  430.788  174.464  316.895   82.921   12.697
  431.038  175.091  306.807   85.310   12.739
  431.288  175.741  296.191   88.093   13.237
  431.538  176.060  298.474   89.077   14.347
  431.788  175.566  304.264   84.680   15.366
  432.038  174.909  285.730   85.686   16.351
  432.288  174.659  315.739   87.007   16.930
  432.538  175.328  348.839   86.228   15.917
  432.788  175.852  352.706   90.563   14.700
  433.038  175.432  364.091   94.097   13.327
  433.288  173.695  372.953   96.679   11.780
  433.538  173.118  356.905   98.829   10.653
  433.788  173.825  347.852   97.319    9.883
  434.038  174.746  341.954   93.948    9.869
  434.288  175.365  333.334   89.800   10.590
  434.538  175.433  341.128   89.761   11.073
  434.788  175.099  357.821   92.960   11.175
  435.038  174.688  369.081   96.508   10.797
  435.288  174.273  369.284   94.497   10.019
  435.538  173.201  365.340   95.963    9.226
  435.788  170.490  370.954   99.783    9.034
  436.038  169.688  374.504   98.453    9.022
  436.288  171.167  376.648   95.831    9.023
  436.538  172.311  375.217   99.361    9.103
  436.788  171.869  375.412   96.591    9.134
  437.038  170.699  377.299   91.306    9.192
  437.288  169.534  377.687   94.788    9.380
  437.538  168.668  381.212   96.072    9.797
  437.788  168.833  380.905   94.898    9.919
  438.038  170.205  384.484  100.182    9.563
  438.288  172.208  390.428   97.337    8.973
  438.538  174.724  376.796   99.214    8.606
  438.788  174.499  367.643  102.667    8.944
  439.038  172.072  362.054   95.618   10.183
  439.288  171.078  356.736   86.335   12.018
  439.538  170.705  356.769   79.286   14.973
  439.788  170.899  353.128   76.297   18.299
  440.038  171.154  347.044   78.358   21.744
  440.288  171.866  354.038   79.737   23.958
  440.538  172.405  310.287   78.741   24.257
  440.788  173.225  286.811   80.348   22.303
  441.038  174.958  303.197   85.625   20.011
  441.288  177.008  310.115   86.815   17.960
  441.538  176.709  269.424   79.528   16.641
  441.788  176.105  229.469   72.257   17.362
  442.038  175.313  218.227   69.990   20.288
  442.288  176.133  236.077   72.237   25.053
  442.538  176.140  232.254   75.142   29.740
