~VERSION INFORMATION
 VERS.                 2.0:   CWLS LOG ASCII STANDARD -VERSION 2.0
 WRAP.                  NO:   ONE LINE PER DEPTH STEP
~WELL INFORMATION BLOCK
#MNEM.UNIT           DATA                    DESCRIPTION OF MNEMONIC
#---------    -------------------            -------------------------------
# Generated from Intellog Unique Number	CS_77_79/WELL/852
WELL.         CWWE LEISMER                   : Well_name    - WELL
LOC .         00/05-04-078-05W4/0            : Location     - LOCATION
UWI .         00/05-04-078-05W4/0            : Uwi          - UNIQUE WELL ID
ENTR.         JHS                            : Entered      - ENTERED BY
SRVC.         SCHLUMBERGER                   : Scn          - SERVICE COMPANY
STRT.M        165                            : top_depth    - START DEPTH
STOP.M        420                            : bot_depth    - STOP DEPTH
STEP.M        0.25                           : increment    - STEP LENGTH
 NULL. -999.2500:NULL Value
~CURVE INFORMATION BLOCK
#MNEM UNIT       ERCB CURVE CODE    CURVE DESCRIPTION
#-----------   ------------------   ----------------------------------
DEPT.M        00 001 00 00         : DEPTH        - DEPTH
DPHI.V/V      00 890 00 00         : PHID         - DENSITY POROSITY (LIMESTONE)
NPHI.V/V      00 330 00 00         : PHIN         - NEUTRON POROSITY (LIMESTONE)
GR  .API      00 310 00 00         : GR           - GAMMA RAY
ILD .OHMM     00 120 00 00         : RESD         - DEEP RESISTIVITY (DIL)
RHOB.KG/M3    00 350 00 00         : DENS         - BULK DENSITY
~PARAMETER INFORMATION
#MNEM.UNIT           DATA             DESCRIPTION OF MNEMONIC
#---------         -----------     ------------------------------
GL  .M        585.9                : gl           - GROUND LEVEL ELEVATION
EREF.M        589.8                : kb           - ELEVATION OF DEPTH REFERENCE
DATM.M        589.8                : datum        - DATUM ELEVATION
TDD .M        430                  : tdd          - TOTAL DEPTH DRILLER
RUN .         ONE                  : Run          - RUN NUMBER
ENG .         BILL                 : Engineer     - RECORDING ENGINEER
WIT .         JIM                  : Witness      - WITNESSED BY
MUD .         GEL                  : Mud_type     - MUD TYPE
MATR.         LIMESTONE            : Logunit      - NEUTRON MATRIX
TMAX.C        19                   : BHT          - MAXIMUM RECORDED TEMPERATURE
BHTD.M        430                  : BHTDEP       - MAXIMUM RECORDED TEMPERATURE
MATR.         1                    : LOGUNIT      - NEUTRON MATRIX
RMT .C        25                   : MDTP         - TEMPERATURE OF MUD
NEUT.         1                    : NEUTRON      - NEUTRON TYPE
RESI.         0                    : RESIST       - RESISTIVITY TYPE
RMC .OHMM     0.25                 : RMC          - RESISTIVITY OF MUD CAKE
RMF .OHMM     0.25                 : RMF          - RESISTIVITY OF MUD FILTRATE
SUFT.C        15                   : SUFT         - SURFACE TEMPERATURE
~A  DEPTH     PHID     PHIN       GR     RESD     DENS
# ...
  347.500    0.193    0.428  103.476    7.118 2379.950
  347.750    0.192    0.419  107.734    6.864 2381.910
  348.000    0.186    0.446  102.166    6.874 2392.360
  348.250    0.196    0.447   91.675    6.886 2375.280
  348.500    0.218    0.431   87.339    7.032 2337.000
  348.750    0.208    0.412   92.214    7.038 2353.810
  349.000    0.190    0.412   95.246    7.190 2385.430
  349.250    0.191    0.423   93.352    7.197 2383.180
  349.500    0.200    0.432   95.773    6.938 2368.200
  349.750    0.188    0.437  100.653    7.084 2389.270
  350.000    0.165    0.416   97.540    7.229 2427.270
  350.250    0.173    0.397   85.821    7.814 2414.410
  350.500    0.199    0.386   73.493    8.129 2369.780
  350.750    0.205    0.371   79.590    8.295 2359.050
  351.000    0.195    0.366   88.159    8.470 2375.870
  351.250    0.187    0.384   91.793    8.321 2390.560
  351.500    0.184    0.390   91.137    8.177 2394.650
  351.750    0.197    0.393   91.112    8.035 2373.300
  352.000    0.195    0.401   92.295    7.899 2377.350
  352.250    0.195    0.394   90.404    7.764 2377.270
  352.500    0.205    0.377   87.298    7.773 2360.180
  352.750    0.207    0.371   82.960    7.933 2355.790
  353.000    0.202    0.358   85.989    7.946 2364.090
  353.250    0.202    0.366   87.168    8.111 2364.010
  353.500    0.207    0.373   86.516    8.279 2355.390
  353.750    0.194    0.372   86.483    8.452 2378.520
  354.000    0.188    0.375   85.823    8.628 2389.020
  354.250    0.198    0.375   80.254    8.808 2371.920
  354.500    0.206    0.366   74.684    8.822 2356.940
  354.750    0.215    0.355   73.403    9.001 2341.960
  355.000    0.225    0.348   74.604    8.845 2324.870
  355.250    0.223    0.348   80.701    8.860 2328.960
  355.500    0.212    0.348   83.737    8.875 2347.910
  355.750    0.203    0.341   80.010    8.717 2362.600
  356.000    0.212    0.340   73.212    8.731 2347.640
  356.250    0.206    0.348   73.785    8.745 2358.070
  356.500    0.197    0.357   81.732    8.594 2372.770
  356.750    0.194    0.362   84.144    8.608 2379.000
  357.000    0.200    0.362   81.030    8.461 2368.230
  357.250    0.206    0.364   76.082    8.637 2357.440
  357.500    0.207    0.365   74.187    8.652 2355.260
  357.750    0.208    0.344   73.541    8.831 2355.110
  358.000    0.208    0.328   71.659    8.841 2354.990
  358.250    0.209    0.323   74.077    9.026 2352.730
  358.500    0.212    0.330   78.946    9.043 2348.280
  358.750    0.212    0.338   81.980    9.052 2348.210
  359.000    0.208    0.349   78.248    9.068 2354.390
  359.250    0.203    0.358   74.520    9.259 2362.760
  359.500    0.193    0.351   76.328    9.267 2379.580
  359.750    0.186    0.338   85.502    9.462 2392.130
  360.000    0.187    0.332   92.219    9.660 2389.890
  360.250    0.187    0.327   92.787   10.049 2389.740
  360.500    0.186    0.325   95.829   10.650 2391.700
  360.750    0.222    0.332   93.941   11.729 2330.120
  361.000    0.269    0.352   71.779   12.916 2249.480
  361.250    0.312    0.372   58.218   15.348 2177.280
  361.500    0.323    0.408   50.194   17.219 2158.090
  361.750    0.319    0.398   45.234   20.460 2164.300
  362.000    0.312    0.391   39.663   22.961 2176.880
  362.250    0.313    0.386   36.556   25.770 2174.590
  362.500    0.322    0.386   40.193   27.323 2159.640
  362.750    0.337    0.389   43.840   28.412 2134.050
  363.000    0.329    0.386   46.877   28.460 2146.640
  363.250    0.315    0.385   46.214   26.427 2171.940
  363.500    0.327    0.387   43.100   24.999 2150.580
  363.750    0.325    0.398   47.364   22.350 2154.700
  364.000    0.291    0.391   58.385   20.741 2211.780
  364.250    0.257    0.383   75.554   18.897 2270.960
  364.500    0.279    0.394   69.977   18.218 2232.670
  364.750    0.297    0.429   63.792   17.567 2202.860
  365.000    0.279    0.429   62.530   17.264 2232.400
  365.250    0.262    0.397   72.930   17.289 2261.930
  365.500    0.257    0.389   72.886   17.656 2270.250
  365.750    0.277    0.396   67.924   17.674 2236.210
  366.000    0.288    0.400   66.040   17.709 2216.990
  366.250    0.274    0.389   67.847   18.083 2242.300
  366.500    0.255    0.378   70.880   18.099 2273.920
  366.750    0.254    0.378   70.227   18.136 2275.920
  367.000    0.279    0.401   65.879   18.168 2233.380
  367.250    0.290    0.414   60.924   17.840 2214.180
  367.500    0.304    0.404   57.815   17.534 2190.720
  367.750    0.285    0.399   64.538   16.910 2222.390
  368.000    0.259    0.398   71.247   16.618 2266.720
  368.250    0.253    0.391   68.143   16.330 2277.170
  368.500    0.263    0.396   66.257   16.359 2260.060
  368.750    0.256    0.391   71.124   16.376 2272.650
  369.000    0.242    0.392   73.546   16.408 2295.810
  369.250    0.236    0.385   75.356   16.436 2306.300
  369.500    0.235    0.376   75.311   16.146 2308.270
  369.750    0.242    0.376   71.583   16.175 2295.430
  370.000    0.261    0.383   72.760   15.886 2263.500
  370.250    0.267    0.388   74.573   15.916 2252.770
  370.500    0.265    0.399   74.532   15.646 2256.830
  370.750    0.270    0.422   69.576   15.367 2248.220
  371.000    0.280    0.434   60.320   15.400 2231.160
  371.250    0.286    0.437   61.507   15.415 2220.430
  371.500    0.264    0.393   70.061   15.746 2258.430
  371.750    0.241    0.372   69.410   16.067 2298.520
  372.000    0.259    0.373   62.615   16.394 2266.610
  372.250    0.294    0.398   51.511   17.725 2207.140
  372.500    0.313    0.407   46.556   18.078 2175.230
  372.750    0.322    0.396   52.661   19.537 2160.200
  373.000    0.325    0.387   53.852   20.718 2153.740
  373.250    0.333    0.406   45.820   21.963 2140.910
  373.500    0.345    0.418   36.557   23.285 2119.550
  373.750    0.353    0.400   33.451   24.689 2106.690
  374.000    0.357    0.389   34.003   25.190 2100.190
  374.250    0.358    0.395   34.591   25.719 2097.910
  374.500    0.356    0.400   36.398   25.269 2102.060
  374.750    0.346    0.395   40.045   22.161 2118.880
  375.000    0.331    0.402   51.680   18.711 2144.140
  375.250    0.307    0.413   64.543   15.506 2184.280
  375.500    0.286    0.418   66.336   13.856 2220.160
  375.750    0.293    0.408   63.849   12.158 2209.420
  376.000    0.310    0.408   54.583   11.286 2179.620
  376.250    0.305    0.419   55.159   10.679 2187.950
  376.500    0.299    0.422   59.424   10.692 2198.410
  376.750    0.310    0.413   62.457   10.309 2179.170
  377.000    0.296    0.395   61.186    9.571 2204.440
  377.250    0.288    0.387   59.297    8.553 2217.060
  377.500    0.287    0.389   56.191    7.645 2219.020
  377.750    0.303    0.395   53.076    7.232 2191.330
  378.000    0.315    0.405   51.808    6.466 2172.140
  378.250    0.310    0.417   59.138    6.234 2180.470
  378.500    0.292    0.425   66.474    6.127 2209.960
  378.750    0.290    0.410   68.888    6.138 2214.110
  379.000    0.294    0.402   70.691    6.264 2207.600
  379.250    0.283    0.428   71.877    6.273 2226.490
  379.500    0.278    0.443   70.612    6.284 2234.860
  379.750    0.271    0.424   73.022    6.294 2247.440
  380.000    0.261    0.399   74.824    6.301 2264.220
  380.250    0.260    0.391   72.326    6.076 2266.230
  380.500    0.260    0.393   66.138    5.859 2266.050
  380.750    0.260    0.387   61.192    5.649 2265.950
  381.000    0.276    0.373   49.471    5.346 2238.260
  381.250    0.287    0.360   40.218    4.963 2219.050
  381.500    0.288    0.342   37.713    4.788 2216.800
  381.750    0.287    0.332   38.890    4.705 2218.770
  382.000    0.294    0.331   39.477    4.710 2208.040
  382.250    0.299    0.328   36.980    4.810 2199.410
  382.500    0.296    0.322   33.861    4.815 2203.510
  382.750    0.286    0.317   33.206    5.010 2220.330
  383.000    0.277    0.310   33.168    5.212 2237.140
  383.250    0.265    0.306   33.130    5.321 2256.040
  383.500    0.261    0.300   32.470    5.430 2264.410
  383.750    0.258    0.297   33.036    5.439 2268.470
