~VERSION INFORMATION
 VERS.                 2.0:   CWLS LOG ASCII STANDARD -VERSION 2.0
 WRAP.                  NO:   ONE LINE PER DEPTH STEP
~WELL INFORMATION BLOCK
#MNEM.UNIT           DATA                    DESCRIPTION OF MNEMONIC
#---------    -------------------            -------------------------------
# Generated from Intellog Unique Number	CS_73_76/WELL/2170
WELL.         BOW VALLEY EXPLORATION         : Well_name    - WELL
LOC .         00/06-32-074-16W4/0            : Location     - LOCATION
UWI .         00/06-32-074-16W4/0            : Uwi          - UNIQUE WELL ID
ENTR.         SP                             : Entered      - ENTERED BY
SRVC.         SCHLUMBERGER                   : Scn          - SERVICE COMPANY
STRT.M        305                            : top_depth    - START DEPTH
STOP.M        495                            : bot_depth    - STOP DEPTH
STEP.M        0.25                           : increment    - STEP LENGTH
 NULL. -999.2500:NULL Value
~CURVE INFORMATION BLOCK
#MNEM UNIT       ERCB CURVE CODE    CURVE DESCRIPTION
#-----------   ------------------   ----------------------------------
DEPT.M        00 001 00 00         : DEPTH        - DEPTH
ILD .OHMM     00 120 00 00         : RESD         - DEEP RESISTIVITY (DIL)
DPHI.V/V      00 890 00 00         : PHID         - DENSITY POROSITY (LIMESTONE)
NPHI.V/V      00 330 00 00         : PHIN         - NEUTRON POROSITY (LIMESTONE)
GR  .API      00 310 00 00         : GR           - GAMMA RAY
~PARAMETER INFORMATION
#MNEM.UNIT           DATA             DESCRIPTION OF MNEMONIC
#---------         -----------     ------------------------------
GL  .M        659.83               : gl           - GROUND LEVEL ELEVATION
EREF.M        662.86               : kb           - ELEVATION OF DEPTH REFERENCE
DATM.M        659.83               : datum        - DATUM ELEVATION
TDD .M        497                  : tdd          - TOTAL DEPTH DRILLER
RUN .         ONE                  : Run          - RUN NUMBER
ENG .         BILL                 : Engineer     - RECORDING ENGINEER
WIT .         JIM                  : Witness      - WITNESSED BY
MUD .         GEL                  : Mud_type     - MUD TYPE
MATR.         LIMESTONE            : Logunit      - NEUTRON MATRIX
TMAX.C        20                   : BHT          - MAXIMUM RECORDED TEMPERATURE
BHTD.M        497                  : BHTDEP       - MAXIMUM RECORDED TEMPERATURE
MATR.         1                    : LOGUNIT      - NEUTRON MATRIX
RMT .C        25                   : MDTP         - TEMPERATURE OF MUD
NEUT.         1                    : NEUTRON      - NEUTRON TYPE
RESI.         0                    : RESIST       - RESISTIVITY TYPE
RMC .OHMM     0.25                 : RMC          - RESISTIVITY OF MUD CAKE
RMF .OHMM     0.25                 : RMF          - RESISTIVITY OF MUD FILTRATE
SUFT.C        15                   : SUFT         - SURFACE TEMPERATURE
~A  DEPTH     RESD     PHID     PHIN       GR
# ...
  348.500    6.884    0.255    0.424   95.367
  348.750    6.882    0.249    0.429   97.774
  349.000    6.509    0.255    0.428   98.977
  349.250    6.388    0.239    0.431   98.975
  349.500    6.628    0.231    0.450   98.371
  349.750    7.005    0.243    0.463   95.356
  350.000    7.134    0.260    0.470   92.342
  350.250    7.267    0.216    0.457   91.737
  350.500    7.265    0.225    0.463   93.541
  350.750    7.264    0.254    0.463   92.335
  351.000    6.620    0.253    0.452   93.538
  351.250    6.378    0.243    0.449   96.546
  351.500    5.813    0.248    0.457   91.724
  351.750    5.705    0.255    0.466   88.109
  352.000    5.810    0.282    0.452   77.263
  352.250    5.918    0.310    0.435   65.816
  352.500    6.613    0.316    0.427   59.789
  352.750    7.388    0.319    0.406   56.774
  353.000    7.955    0.305    0.399   57.374
  353.250    8.101    0.319    0.406   56.770
  353.500    8.252    0.322    0.413   54.358
  353.750    8.404    0.306    0.416   54.958
  354.000    8.403    0.305    0.391   58.569
  354.250    8.401    0.309    0.398   60.374
  354.500    8.556    0.312    0.407   62.180
  354.750    8.554    0.323    0.417   62.177
  355.000    8.552    0.328    0.428   60.969
  355.250    8.551    0.325    0.433   60.364
  355.500    8.393    0.323    0.416   60.362
  355.750    8.391    0.328    0.404   60.361
  356.000    8.389    0.333    0.404   61.563
  356.250    8.387    0.340    0.409   62.766
  356.500    8.385    0.335    0.426   63.365
  356.750    8.384    0.334    0.433   62.761
  357.000    8.540    0.341    0.431   60.349
  357.250    8.537    0.342    0.402   60.346
  357.500    8.536    0.336    0.396   60.343
  357.750    8.378    0.344    0.404   60.342
  358.000    8.376    0.344    0.416   62.146
  358.250    8.221    0.357    0.425   63.349
  358.500    8.220    0.368    0.437   62.141
  358.750    8.067    0.372    0.447   61.537
  359.000    7.918    0.375    0.439   60.330
  359.250    7.916    0.380    0.445   59.724
  359.500    7.770    0.355    0.441   60.325
  359.750    7.485    0.350    0.410   61.527
  360.000    7.484    0.362    0.433   63.332
  360.250    7.345    0.363    0.461   63.932
  360.500    7.480    0.361    0.450   65.737
  360.750    7.479    0.355    0.430   62.721
  361.000    7.617    0.351    0.422   61.515
  361.250    7.616    0.356    0.441   60.911
  361.500    7.614    0.368    0.444   60.305
  361.750    7.473    0.375    0.453   59.701
  362.000    7.471    0.382    0.460   58.494
  362.250    7.753    0.366    0.421   58.492
  362.500    7.751    0.352    0.425   61.502
  362.750    7.895    0.349    0.442   63.306
  363.000    8.041    0.338    0.435   62.701
  363.250    8.189    0.333    0.421   59.687
  363.500    8.188    0.326    0.406   54.865
  363.750    8.186    0.332    0.418   52.454
  364.000    8.034    0.361    0.425   57.270
  364.250    8.033    0.358    0.425   60.280
  364.500    8.031    0.356    0.422   59.073
  364.750    7.882    0.354    0.429   59.070
  365.000    7.736    0.352    0.439   62.682
  365.250    7.734    0.344    0.424   63.282
  365.500    7.733    0.338    0.420   63.882
  365.750    7.732    0.343    0.421   59.663
  366.000    7.730    0.349    0.425   57.252
  366.250    7.728    0.348    0.418   57.249
  366.500    7.872    0.346    0.421   58.452
  366.750    7.869    0.346    0.430   57.846
  367.000    7.868    0.334    0.438   57.843
  367.250    8.014    0.351    0.426   57.842
  367.500    8.013    0.362    0.414   57.237
  367.750    8.161    0.346    0.409   56.633
  368.000    8.467    0.350    0.412   53.618
  368.250    8.624    0.350    0.417   54.218
  368.500    8.783    0.337    0.429   54.216
  368.750    8.945    0.328    0.433   51.804
  369.000    8.944    0.339    0.442   49.392
  369.250    8.941    0.348    0.435   45.773
  369.500    8.940    0.348    0.427   45.772
  369.750    8.775    0.343    0.432   45.770
  370.000    8.773    0.340    0.430   46.370
  370.250    8.610    0.343    0.423   46.969
  370.500    8.608    0.337    0.424   46.365
  370.750    8.607    0.332    0.441   46.361
  371.000    8.605    0.343    0.443   46.359
  371.250    8.604    0.350    0.443   46.960
  371.500    8.602    0.338    0.440   48.765
  371.750    8.600    0.332    0.423   50.570
  372.000    8.599    0.338    0.418   52.374
  372.250    8.597    0.343    0.421   52.975
  372.500    8.595    0.348    0.429   52.371
  372.750    8.594    0.348    0.449   51.163
  373.000    8.592    0.345    0.460   51.161
  373.250    8.590    0.343    0.431   51.158
  373.500    8.588    0.342    0.432   51.156
  373.750    8.587    0.338    0.444   51.154
  374.000    8.585    0.340    0.437   48.139
  374.250    8.583    0.353    0.425   45.727
  374.500    8.582    0.356    0.424   46.328
  374.750    8.580    0.361    0.441   47.530
  375.000    8.421    0.347    0.447   48.129
  375.250    8.420    0.348    0.437   48.128
  375.500    8.263    0.351    0.435   47.522
  375.750    8.262    0.350    0.417   47.521
  376.000    8.109    0.341    0.416   46.914
  376.250    8.107    0.347    0.417   46.912
  376.500    8.106    0.351    0.411   46.910
  376.750    8.104    0.341    0.416   47.511
  377.000    8.253    0.336    0.425   48.713
  377.250    8.252    0.342    0.432   49.313
  377.500    8.251    0.349    0.428   49.913
  377.750    8.249    0.351    0.420   48.104
  378.000    8.096    0.343    0.417   47.499
  378.250    8.094    0.344    0.424   48.098
  378.500    8.093    0.347    0.449   49.300
  378.750    8.092    0.349    0.457   49.901
  379.000    7.942    0.354    0.462   50.502
  379.250    7.939    0.356    0.441   53.511
  379.500    7.938    0.355    0.428   55.918
  379.750    7.791    0.350    0.420   56.519
  380.000    7.789    0.353    0.425   55.913
  380.250    7.645    0.360    0.434   54.705
  380.500    7.503    0.362    0.431   54.704
  380.750    7.502    0.367    0.435   55.304
  381.000    7.363    0.366    0.439   57.711
  381.250    7.361    0.361    0.443   60.720
  381.500    7.224    0.362    0.450   61.924
  381.750    7.224    0.361    0.469   63.126
  382.000    7.357    0.356    0.468   63.123
  382.250    7.493    0.346    0.456   64.326
  382.500    7.632    0.333    0.469   67.335
  382.750    7.772    0.320    0.476   68.538
  383.000    7.917    0.313    0.469   68.536
  383.250    7.770    0.332    0.473   67.931
  383.500    7.081    0.330    0.453   69.133
  383.750    6.697    0.325    0.428   72.142
  384.000    6.696    0.343    0.433   73.345
  384.250    7.078    0.352    0.452   75.148
  384.500    7.620    0.337    0.453   75.749
  384.750    8.053    0.323    0.452   75.747
  385.000    8.203    0.315    0.454   75.745
  385.250    8.354    0.312    0.458   75.140
  385.500    8.509    0.313    0.451   74.536
  385.750    8.507    0.317    0.441   74.534
  386.000    8.505    0.320    0.436   73.929
  386.250    8.348    0.321    0.434   74.529
  386.500    8.042    0.321    0.444   76.334
  386.750    8.041    0.318    0.456   78.138
  387.000    8.040    0.294    0.461   78.738
  387.250    8.656    0.215    0.367   78.133
  387.500    9.671    0.096    0.295   73.311
  387.750   10.806    0.054    0.240   70.298
  388.000   12.074    0.005    0.199   65.476
  388.250   13.999    0.000    0.186   62.462
  388.500   16.535    0.000    0.182   58.845
  388.750   18.820    0.008    0.185   56.433
  389.000   19.891    0.029    0.198   57.033
  389.250   19.523    0.059    0.231   58.236
  389.500   15.342    0.089    0.263   58.836
  389.750   13.227    0.113    0.303   56.423
  390.000   11.403    0.170    0.337   56.421
  390.250   10.015    0.225    0.381   57.624
  390.500    8.960    0.274    0.400   74.488
  390.750    8.166    0.314    0.423   82.920
  391.000    7.306    0.322    0.450   86.532
  391.250    7.039    0.307    0.451   85.927
  391.500    7.303    0.260    0.426   84.117
  391.750    7.719    0.167    0.420   81.706
