~VERSION INFORMATION
 VERS.                 2.0:   CWLS LOG ASCII STANDARD -VERSION 2.0
 WRAP.                  NO:   ONE LINE PER DEPTH STEP
~WELL INFORMATION BLOCK
#MNEM.UNIT           DATA                    DESCRIPTION OF MNEMONIC
#---------    -------------------            -------------------------------
# Generated from Intellog Unique Number	CS_73_76/WELL/783
WELL.         SULPETRO BRENDA CLYDE LAKE     : Well_name    - WELL
LOC .         00/08-08-073-09W4/2            : Location     - LOCATION
UWI .         00/08-08-073-09W4/2            : Uwi          - UNIQUE WELL ID
ENTR.         SP                             : Entered      - ENTERED BY
SRVC.         SCHLUMBERGER                   : Scn          - SERVICE COMPANY
STRT.M        290                            : top_depth    - START DEPTH
STOP.M        485                            : bot_depth    - STOP DEPTH
STEP.M        0.25                           : increment    - STEP LENGTH
 NULL. -999.2500:NULL Value
~CURVE INFORMATION BLOCK
#MNEM UNIT       ERCB CURVE CODE    CURVE DESCRIPTION
#-----------   ------------------   ----------------------------------
DEPT.M        00 001 00 00         : DEPTH        - DEPTH
ILD .OHMM     00 120 00 00         : RESD         - DEEP RESISTIVITY (DIL)
DPHI.V/V      00 890 00 00         : PHID         - DENSITY POROSITY (LIMESTONE)
NPHI.V/V      00 330 00 00         : PHIN         - NEUTRON POROSITY (LIMESTONE)
GR  .API      00 310 00 00         : GR           - GAMMA RAY
~PARAMETER INFORMATION
#MNEM.UNIT           DATA             DESCRIPTION OF MNEMONIC
#---------         -----------     ------------------------------
GL  .M        662.52               : gl           - GROUND LEVEL ELEVATION
EREF.M        666.7                : kb           - ELEVATION OF DEPTH REFERENCE
DATM.M        662.52               : datum        - DATUM ELEVATION
TDD .M        497.8                : tdd          - TOTAL DEPTH DRILLER
RUN .         ONE                  : Run          - RUN NUMBER
ENG .         BILL                 : Engineer     - RECORDING ENGINEER
WIT .         JIM                  : Witness      - WITNESSED BY
MUD .         GEL                  : Mud_type     - MUD TYPE
MATR.         LIMESTONE            : Logunit      - NEUTRON MATRIX
TMAX.C        21                   : BHT          - MAXIMUM RECORDED TEMPERATURE
BHTD.M        497.8                : BHTDEP       - MAXIMUM RECORDED TEMPERATURE
MATR.         1                    : LOGUNIT      - NEUTRON MATRIX
RMT .C        25                   : MDTP         - TEMPERATURE OF MUD
NEUT.         1                    : NEUTRON      - NEUTRON TYPE
RESI.         0                    : RESIST       - RESISTIVITY TYPE
RMC .OHMM     0.25                 : RMC          - RESISTIVITY OF MUD CAKE
RMF .OHMM     0.25                 : RMF          - RESISTIVITY OF MUD FILTRATE
SUFT.C        15                   : SUFT         - SURFACE TEMPERATURE
~A  DEPTH     RESD     PHID     PHIN       GR
  290.000    2.606    0.231    0.419  116.106
  290.250    2.605    0.237    0.426  119.112
  290.500    2.702    0.238    0.442  120.901
  290.750    2.803    0.237    0.428  120.867
  291.000    2.907    0.222    0.419  120.848
  291.250    2.960    0.200    0.417  120.225
  291.500    3.015    0.202    0.424  118.988
  291.750    3.070    0.213    0.422  118.971
  292.000    3.126    0.215    0.428  120.762
  292.250    3.183    0.203    0.435  121.951
  292.500    3.182    0.201    0.431  120.701
  292.750    3.181    0.206    0.446  120.079
  293.000    3.240    0.211    0.451  118.252
  293.250    3.360    0.207    0.440  117.014
  293.500    3.485    0.211    0.423  116.997
  293.750    3.549    0.200    0.410  118.777
  294.000    3.681    0.186    0.393  118.760
  294.250    3.889    0.177    0.400  118.737
  294.500    3.960    0.175    0.411  118.711
  294.750    4.108    0.174    0.414  118.091
  295.000    4.260    0.171    0.416  118.066
  295.250    4.419    0.169    0.403  118.045
  295.500    4.418    0.163    0.419  116.207
  295.750    4.417    0.158    0.408  113.156
  296.000    4.256    0.164    0.401  110.709
  296.250    4.101    0.168    0.394  111.298
  296.500    4.025    0.175    0.394  113.693
  296.750    3.807    0.179    0.412  115.486
  297.000    3.737    0.178    0.411  115.451
  297.250    3.668    0.175    0.411  115.439
  297.500    3.600    0.175    0.397  117.832
  297.750    3.666    0.180    0.385  119.624
  298.000    3.873    0.184    0.377  117.176
  298.250    3.943    0.175    0.375  117.160
  298.500    4.016    0.168    0.383  118.936
  298.750    4.015    0.162    0.393  120.128
  299.000    3.869    0.179    0.419  120.721
  299.250    3.797    0.183    0.432  120.692
  299.500    3.796    0.185    0.436  120.671
  299.750    3.865    0.187    0.423  120.651
  300.000    3.936    0.178    0.415  118.813
  300.250    4.158    0.177    0.397  115.764
  300.500    4.313    0.181    0.384  111.504
  300.750    4.392    0.182    0.376  110.276
  301.000    4.311    0.183    0.380  112.067
  301.250    4.389    0.180    0.408  112.651
  301.500    4.470    0.171    0.424  110.806
  301.750    5.274    0.177    0.427  109.576
  302.000    6.699    0.200    0.379  103.505
  302.250    7.210    0.216    0.354  100.462
  302.500    8.666    0.228    0.340   95.598
  302.750   10.039    0.198    0.321  105.850
  303.000   10.606    0.164    0.302  113.690
  303.250   10.603    0.144    0.292  117.303
  303.500    9.848    0.140    0.284  116.069
  303.750    9.315    0.133    0.289  109.986
  304.000    9.312    0.122    0.300  108.767
  304.250    9.310    0.125    0.309  113.581
  304.500    9.479    0.139    0.319  114.157
  304.750    9.654    0.155    0.325  111.708
  305.000   10.582    0.159    0.322  109.278
  305.250   11.389    0.162    0.302  105.625
  305.500   11.813    0.148    0.304  103.786
  305.750   12.253    0.141    0.293  102.554
  306.000   13.185    0.164    0.283   98.901
  306.250   13.930    0.164    0.280   95.858
  306.500   14.719    0.158    0.283   92.810
  306.750   16.132    0.192    0.277   90.368
  307.000   17.044    0.212    0.273   85.501
  307.250   17.680    0.236    0.264   80.031
  307.500   18.338    0.255    0.261   78.808
  307.750   17.997    0.234    0.263   80.587
  308.000   16.714    0.216    0.275   83.594
  308.250   16.406    0.202    0.296   89.614
  308.500   14.956    0.182    0.307   92.616
  308.750   14.679    0.167    0.318   97.427
  309.000   14.408    0.185    0.304   99.229
  309.250   14.672    0.199    0.290   97.393
  309.500   16.082    0.210    0.280   90.716
  309.750   16.991    0.191    0.279   87.066
  310.000   17.625    0.181    0.279   87.648
  310.250   16.672    0.172    0.286   90.642
  310.500   15.770    0.177    0.288   92.425
  310.750   15.479    0.180    0.274   92.412
  311.000   15.763    0.201    0.265   88.152
  311.250   16.960    0.202    0.246   83.286
  311.500   17.594    0.196    0.235   81.456
  311.750   19.285    0.190    0.235   77.197
  312.000   20.755    0.201    0.223   73.543
  312.250   22.335    0.216    0.214   71.709
  312.500   23.598    0.230    0.211   69.877
  312.750   23.590    0.236    0.236   72.261
  313.000   23.155    0.218    0.258   75.273
  313.250   21.504    0.201    0.273   82.502
  313.500   18.213    0.181    0.285   87.322
  313.750   15.712    0.166    0.297   93.945
  314.000   15.142    0.159    0.309   96.953
  314.250   13.305    0.157    0.314   99.952
  314.500   12.821    0.153    0.287  101.744
  314.750   13.298    0.152    0.266  101.116
  315.000   15.123    0.190    0.238   95.645
  315.250   17.520    0.209    0.226   88.967
  315.500   19.205    0.233    0.232   84.111
  315.750   20.291    0.257    0.251   78.038
  316.000   18.161    0.198    0.271   81.038
  316.250   16.561    0.164    0.292   90.089
  316.500   13.519    0.149    0.308   96.721
  316.750   13.515    0.206    0.321   97.906
  317.000   14.545    0.235    0.315   88.207
  317.250   16.541    0.248    0.308   78.505
  317.500   18.468    0.240    0.304   71.832
  317.750   19.157    0.236    0.302   68.177
  318.000   18.802    0.248    0.299   69.972
  318.250   18.452    0.257    0.292   66.919
  318.500   17.781    0.249    0.287   65.692
  318.750   15.339    0.208    0.299   78.972
  319.000   13.730    0.175    0.295   91.035
  319.250   12.990    0.155    0.295   97.670
  319.500   11.627    0.136    0.309  104.905
  319.750   10.798    0.122    0.314  110.323
  320.000   10.028    0.123    0.323  113.328
  320.250    9.486    0.125    0.335  116.931
  320.500    9.484    0.128    0.358  115.695
  320.750    9.481    0.130    0.374  112.038
  321.000    9.834    0.130    0.397  113.237
  321.250   10.390    0.132    0.406  124.098
  321.500   11.181    0.159    0.389  120.444
  321.750   11.813    0.187    0.372  105.903
  322.000   11.809    0.201    0.361   95.600
  322.250   11.805    0.203    0.344   85.904
  322.500   12.022    0.184    0.327   84.672
  322.750   12.017    0.162    0.323   91.904
  323.000   12.015    0.142    0.311  101.556
  323.250   12.235    0.134    0.329  108.188
  323.500   12.460    0.168    0.319   97.882
  323.750   12.923    0.184    0.313   85.763
  324.000   13.403    0.188    0.302   84.533
  324.250   13.650    0.158    0.282   91.159
  324.500   13.900    0.139    0.281   99.588
  324.750   14.154    0.123    0.293  101.387
  325.000   13.892    0.124    0.300  103.784
  325.250   13.886    0.129    0.290  103.769
  325.500   14.141    0.132    0.281  103.142
  325.750   14.138    0.131    0.277  101.292
  326.000   14.397    0.129    0.281  101.278
  326.250   14.661    0.128    0.288  101.255
  326.500   15.205    0.127    0.288  100.026
  326.750   15.202    0.128    0.287   96.370
  327.000   15.765    0.139    0.285   92.715
  327.250   16.055    0.147    0.282   89.665
  327.500   16.351    0.147    0.287   87.837
  327.750   16.959    0.138    0.285   87.210
  328.000   17.270    0.134    0.283   90.211
  328.250   17.586    0.137    0.284   88.371
  328.500   17.906    0.157    0.289   82.299
  328.750   17.575    0.178    0.297   78.045
  329.000   16.321    0.184    0.302   82.255
  329.250   15.441    0.160    0.292   91.297
  329.500   13.820    0.152    0.297   99.736
  329.750   12.370    0.138    0.311  104.560
  330.000   11.703    0.127    0.331  111.796
  330.250   10.670    0.124    0.359  121.449
  330.500    9.910    0.125    0.360  117.794
  330.750    9.035    0.137    0.343  111.724
  331.000    8.868    0.159    0.330   98.997
  331.250    9.901    0.183    0.305   89.299
  331.500   11.055    0.173    0.293   82.624
  331.750   12.118    0.164    0.301   85.023
  332.000   12.569    0.160    0.310   90.439
  332.250   12.335    0.151    0.304   92.233
  332.500   12.108    0.137    0.326   95.835
  332.750   11.038    0.133    0.316   95.811
  333.000   10.064    0.146    0.305   96.394
  333.250    9.521    0.153    0.311  102.417
