~VERSION INFORMATION
 VERS.                 2.0:   CWLS LOG ASCII STANDARD -VERSION 2.0
 WRAP.                  NO:   ONE LINE PER DEPTH STEP
~WELL INFORMATION BLOCK
#MNEM.UNIT           DATA                    DESCRIPTION OF MNEMONIC
#---------    -------------------            -------------------------------
# Generated from Intellog Unique Number	CW_79_81/WELL/195
WELL.         CAN DELHI WABASCA 06-36        : Well_name    - WELL
LOC .         00/06-36-080-25W4/0            : Location     - LOCATION
UWI .         00/06-36-080-25W4/0            : Uwi          - UNIQUE WELL ID
ENTR.         JJ                             : Entered      - ENTERED BY
SRVC.         SCHLUMBERGER                   : Scn          - SERVICE COMPANY
DATE.         17 FEB 69                      : Date         - LOG DATE
STRT.M        306.019                        : top_depth    - START DEPTH
STOP.M        437.019                        : bot_depth    - STOP DEPTH
STEP.M        0.25                           : increment    - STEP LENGTH
 NULL. -999.2500:NULL Value
~CURVE INFORMATION BLOCK
#MNEM UNIT       ERCB CURVE CODE    CURVE DESCRIPTION
#-----------   ------------------   ----------------------------------
DEPT.M        00 001 00 00         : DEPTH        - DEPTH
DPHI.V/V      00 890 00 00         : PHID         - DENSITY POROSITY (SANDSTONE)
DELT.US/F     00 520 00 00         : DELT         - SONIC TRAVEL TIME
GR  .API      00 310 00 00         : GR           - GAMMA RAY
ILD .OHMM     00 120 00 00         : RESD         - DEEP RESISTIVITY (DIL)
~PARAMETER INFORMATION
#MNEM.UNIT           DATA             DESCRIPTION OF MNEMONIC
#---------         -----------     ------------------------------
GL  .M        557.083              : gl           - GROUND LEVEL ELEVATION
EREF.M        559.979              : kb           - ELEVATION OF DEPTH REFERENCE
DATM.M        559.979              : datum        - DATUM ELEVATION
TDD .M        445.008              : tdd          - TOTAL DEPTH DRILLER
RUN .         ONE                  : Run          - RUN NUMBER
ENG .         STUEHMER             : Engineer     - RECORDING ENGINEER
WIT .         STAFINSKI & WOROBEC  : Witness      - WITNESSED BY
BASE.         EDM                  : Branch       - HOME BASE OF LOGGING UNIT
MUD .         GEL                  : Mud_type     - MUD TYPE
MATR.         SANDSTONE            : Logunit      - NEUTRON MATRIX
TMAX.C        21.1111              : BHT          - MAXIMUM RECORDED TEMPERATURE
BHTD.M        442.57               : BHTDEP       - MAXIMUM RECORDED TEMPERATURE
RMT .C        21.1111              : MDTP         - TEMPERATURE OF MUD
MUDD.KG/M     1152                 : MWT          - MUD DENSITY
NEUT.         1                    : NEUTRON      - NEUTRON TYPE
RESI.         0                    : RESIST       - RESISTIVITY TYPE
RM  .OHMM     6.33                 : RM           - RESISTIVITY OF MUD
RMC .OHMM     0                    : RMC          - RESISTIVITY OF MUD CAKE
RMF .OHMM     5.01                 : RMF          - RESISTIVITY OF MUD FILTRATE
SUFT.C        5                    : SUFT         - SURFACE TEMPERATURE
~A  DEPTH     PHID     DELT       GR     RESD
# ...
  349.519    0.268  364.299   72.527   16.075
  349.769    0.257  403.337   73.988   12.724
  350.019    0.235  399.438   66.729   12.547
  350.269    0.212  363.007   62.328   13.374
  350.519    0.190  339.880   59.379   14.262
  350.769    0.192  328.342   61.445   14.587
  351.019    0.208  334.256   65.212   13.566
  351.269    0.229  356.238   70.585   12.786
  351.519    0.238  370.844   76.061   11.885
  351.769    0.245  385.384   75.116   10.865
  352.019    0.229  393.932   72.467   10.066
  352.269    0.208  398.792   72.025    9.365
  352.519    0.197  400.358   73.991    8.386
  352.769    0.189  394.748   76.506    7.827
  353.019    0.223  389.467   78.167    7.308
  353.269    0.239  396.764   78.527    7.070
  353.519    0.261  419.668   77.284    7.013
  353.769    0.254  441.386   75.889    7.037
  354.019    0.243  433.800   73.743    7.202
  354.269    0.233  417.454   71.047    7.527
  354.519    0.219  404.269   67.496    7.832
  354.769    0.211  398.791   61.239    8.036
  355.019    0.240  404.443   64.307    8.180
  355.269    0.236  409.829   69.630    8.405
  355.519    0.222  411.264   73.597    8.488
  355.769    0.215  414.346   77.767    8.814
  356.019    0.228  411.172   79.430    9.199
  356.269    0.224  403.850   72.523    9.725
  356.519    0.207  380.261   72.833    9.949
  356.769    0.191  384.594   77.754   10.294
  357.019    0.200  401.109   84.882   10.579
  357.269    0.182  415.320   86.845   11.185
  357.519    0.165  434.998   81.241   12.093
  357.769    0.129  327.379   70.823   12.880
  358.019    0.175  301.486   70.532   13.989
  358.269    0.216  332.622   74.101   15.401
  358.519    0.242  370.474   77.919   15.522
  358.769    0.234  399.174   81.889   14.762
  359.019    0.228  401.794   84.103   13.280
  359.269    0.219  399.674   81.556   12.420
  359.519    0.214  399.661   82.068   12.121
  359.769    0.229  402.280   82.778   11.504
  360.019    0.229  405.099   83.738   11.225
  360.269    0.227  406.732   84.551   10.908
  360.519    0.210  405.271   84.611   10.630
  360.769    0.191  395.973   84.573   10.553
  361.019    0.182  386.214   84.180   10.516
  361.269    0.221  385.542   84.034   10.681
  361.519    0.221  398.107   82.040   10.766
  361.769    0.195  396.117   77.537   11.052
  362.019    0.182  388.136   75.191   11.234
  362.269    0.195  377.322   79.062   11.438
  362.519    0.224  382.974   81.574   11.462
  362.769    0.205  390.335   88.701   11.462
  363.019    0.208  397.827   86.004   10.486
  363.269    0.223  400.385   80.248   10.589
  363.519    0.215  405.377   83.569   10.271
  363.769    0.209  405.955   85.481   10.094
  364.019    0.192  397.316   86.642   10.037
  364.269    0.187  391.113   86.002   10.061
  364.519    0.209  397.882   85.057   10.145
  364.769    0.187  405.047   82.911   10.409
  365.019    0.168  402.664   77.105   10.734
  365.269    0.156  386.713   77.967   10.979
  365.519    0.178  384.527   80.231   10.902
  365.769    0.204  402.161   82.596   10.585
  366.019    0.213  408.731   83.257   10.246
  366.269    0.218  409.775   84.219   10.110
  366.519    0.214  407.259   86.633   10.093
  366.769    0.204  404.084   88.347   10.137
  367.019    0.200  401.436   86.452   10.401
  367.269    0.198  399.976   81.599   10.827
  367.519    0.190  402.003   75.141   11.233
  367.769    0.172  391.652   68.685   11.618
  368.019    0.162  380.641   75.411   11.461
  368.269    0.213  393.730   82.438   11.022
  368.519    0.196  403.005   89.063   10.302
  368.769    0.187  413.198   92.129    9.884
  369.019    0.206  417.993   85.873    9.888
  369.269    0.212  417.784   87.739   10.113
  369.519    0.210  402.424   89.501   10.277
  369.769    0.203  391.613   90.464   10.020
  370.019    0.216  391.533   90.325    9.741
  370.269    0.201  403.110   90.234    9.143
  370.519    0.237  409.881   90.239    8.684
  370.769    0.209  416.979   89.648    8.326
  371.019    0.192  415.320   88.305    8.169
  371.269    0.206  404.045   89.565    8.554
  371.519    0.189  390.203   90.326    9.783
  371.769    0.201  366.614   84.420   11.716
  372.019    0.232  372.988   78.415   13.507
  372.269    0.267  403.070   76.268   16.905
  372.519    0.261  420.114   73.872   19.159
  372.769    0.237  428.135   67.364   21.553
  373.019    0.220  399.871   68.727   22.421
  373.269    0.229  367.787   71.795   22.545
  373.519    0.276  392.204   73.808   21.966
  373.769    0.292  413.001   76.324   20.924
  374.019    0.312  444.203   73.277   19.562
  374.269    0.286  437.275   67.620   19.144
  374.519    0.279  426.725   63.920   18.645
  374.769    0.271  413.343   62.877   18.026
  375.019    0.260  398.183   62.835   17.126
  375.269    0.249  387.305   63.246   16.888
  375.519    0.243  387.095   62.904   17.134
  375.769    0.239  386.157   63.615   17.519
  376.019    0.233  381.141   67.183   17.623
  376.269    0.244  373.753   61.629   17.465
  376.519    0.274  388.819   57.377   17.128
  376.769    0.276  411.526   59.191   16.468
  377.019    0.257  415.661   62.759   15.829
  377.269    0.245  402.278   67.329   15.270
  377.519    0.232  389.097   67.138   15.595
  377.769    0.215  375.978   60.330   17.728
  378.019    0.176  362.267   53.975   21.147
  378.269    0.069  264.791   47.817   25.288
  378.519    0.048  230.007   42.464   28.426
  378.769    0.031  220.049   45.230   33.411
  379.019    0.018  212.462   49.200   38.216
  379.269    0.076  212.910   51.915   39.887
  379.519    0.104  269.400   56.737   34.788
  379.769    0.120  293.422   61.556   31.537
  380.019    0.125  295.649   65.526   26.539
  380.269    0.174  303.801   70.599   22.625
  380.519    0.206  352.652   74.868   19.294
  380.769    0.214  378.584   79.589   16.666
  381.019    0.145  367.178   73.883   14.922
  381.269    0.116  348.135   67.476   14.062
  381.519    0.133  314.141   62.874   13.443
  381.769    0.179  353.903   73.660   12.522
  382.019    0.199  370.485   79.034   10.799
  382.269    0.206  379.493   82.151    9.878
  382.519    0.160  379.938   83.763    8.295
  382.769    0.167  381.772   86.579    6.933
  383.019    0.191  389.991   87.842    6.474
  383.269    0.199  396.957   80.132    6.919
  383.519    0.162  392.599   73.725    7.627
  383.769    0.145  376.780   69.474    8.213
  384.019    0.156  366.559   72.890    9.020
  384.269    0.187  364.374   78.113    9.646
  384.519    0.210  379.771   84.137    9.991
  384.769    0.207  390.690   83.996   10.195
  385.019    0.198  389.752   80.396   10.219
  385.269    0.169  389.214   77.398   10.163
  385.519    0.184  379.716   76.304   10.026
  385.769    0.169  371.933   78.118    9.969
  386.019    0.174  375.477   80.383    9.953
  386.269    0.151  388.569   82.296    9.836
  386.519    0.148  372.486   85.013    9.778
  386.769    0.179  373.725   86.727    9.722
  387.019    0.194  387.673   81.572    9.646
  387.269    0.197  400.567   75.116    9.589
  387.519    0.185  385.736   70.663    9.613
  387.769    0.174  376.372   75.835    9.656
  388.019    0.186  386.567   80.607    9.660
  388.269    0.174  406.837   84.926    9.643
  388.519    0.161  389.831   84.835    9.627
  388.769    0.139  386.130   82.841    9.591
  389.019    0.215  381.641   82.950    9.513
  389.269    0.226  393.875   83.109    9.437
  389.519    0.202  388.726   83.870    9.381
  389.769    0.157  397.537   85.432    9.384
  390.019    0.165  397.393   83.838    9.447
  390.269    0.150  378.083   81.692    9.692
  390.519    0.172  375.635   83.306    9.937
  390.769    0.199  368.246   85.470   10.362
  391.019    0.209  372.708   86.280   11.290
  391.269    0.194  377.768   84.285   12.399
  391.519    0.141  348.121   77.226   12.965
  391.769    0.111  298.980   68.464   12.868
  392.019    0.079  294.158   74.036   12.148
  392.269    0.062  316.009   79.060   11.228
  392.519    0.158  386.920   82.979   10.026
  392.769    0.184  389.146   86.144    8.724
