~VERSION INFORMATION
 VERS.                 2.0:   CWLS LOG ASCII STANDARD -VERSION 2.0
 WRAP.                  NO:   ONE LINE PER DEPTH STEP
~WELL INFORMATION BLOCK
#MNEM.UNIT           DATA                    DESCRIPTION OF MNEMONIC
#---------    -------------------            -------------------------------
# Generated from Intellog Unique Number	CW_73_75/WELL/194
WELL.         WESTCOAST MARTEN H 07-29       : Well_name    - WELL
LOC .         00/07-29-073-23W4/0            : Location     - LOCATION
UWI .         00/07-29-073-23W4/0            : Uwi          - UNIQUE WELL ID
ENTR.         JJ                             : Entered      - ENTERED BY
SRVC.         WESTERN ATLAS                  : Scn          - SERVICE COMPANY
DATE.         21 MAR 71                      : Date         - LOG DATE
STRT.M        475.488                        : top_depth    - START DEPTH
STOP.M        603.488                        : bot_depth    - STOP DEPTH
STEP.M        0.25                           : increment    - STEP LENGTH
 NULL. -999.2500:NULL Value
~CURVE INFORMATION BLOCK
#MNEM UNIT       ERCB CURVE CODE    CURVE DESCRIPTION
#-----------   ------------------   ----------------------------------
DEPT.M        00 001 00 00         : DEPTH        - DEPTH
DELT.US/F     00 520 00 00         : DELT         - SONIC TRAVEL TIME
GR  .API      00 310 00 00         : GR           - GAMMA RAY
ILD .OHMM     00 120 00 00         : RESD         - DEEP RESISTIVITY (DIL)
~PARAMETER INFORMATION
#MNEM.UNIT           DATA             DESCRIPTION OF MNEMONIC
#---------         -----------     ------------------------------
GL  .M        659.282              : gl           - GROUND LEVEL ELEVATION
EREF.M        661.721              : kb           - ELEVATION OF DEPTH REFERENCE
DATM.M        659.282              : datum        - DATUM ELEVATION
TDD .M        605.028              : tdd          - TOTAL DEPTH DRILLER
RUN .         ONE                  : Run          - RUN NUMBER
ENG .         BERGLIND             : Engineer     - RECORDING ENGINEER
WIT .         PEDERSON             : Witness      - WITNESSED BY
BASE.         EDM                  : Branch       - HOME BASE OF LOGGING UNIT
MUD .         MUD                  : Mud_type     - MUD TYPE
MATR.         SANDSTONE            : Logunit      - NEUTRON MATRIX
TMAX.C        23.3333              : BHT          - MAXIMUM RECORDED TEMPERATURE
BHTD.M        605.028              : BHTDEP       - MAXIMUM RECORDED TEMPERATURE
RMT .C        16.6667              : MDTP         - TEMPERATURE OF MUD
MUDD.KG/M     1224                 : MWT          - MUD DENSITY
NEUT.         1                    : NEUTRON      - NEUTRON TYPE
RESI.         0                    : RESIST       - RESISTIVITY TYPE
RM  .OHMM     5.5                  : RM           - RESISTIVITY OF MUD
RMC .OHMM     5.8                  : RMC          - RESISTIVITY OF MUD CAKE
RMF .OHMM     5                    : RMF          - RESISTIVITY OF MUD FILTRATE
SUFT.C        5                    : SUFT         - SURFACE TEMPERATURE
~A  DEPTH     DELT       GR     RESD
# ...
  529.738  369.024   74.100    7.202
  529.988  376.658   78.390    9.901
  530.238  380.101   77.481   12.131
  530.488  354.268   74.013   13.345
  530.738  333.346   68.728   16.669
  530.988  240.245   61.042   18.157
  531.238  215.000   55.267   17.730
  531.488  217.980   60.937   16.249
  531.738  274.020   67.434   13.791
  531.988  324.165   71.332   11.098
  532.238  300.098   67.916    9.656
  532.488  316.378   68.281    9.151
  532.738  340.253   75.616    9.193
  532.988  338.848   76.960    9.822
  533.238  338.169   74.575   10.762
  533.488  274.215   74.595   12.484
  533.738  247.659   68.477   13.113
  533.988  243.569   67.074   11.319
  534.238  252.316   71.660    9.641
  534.488  314.183   77.917    8.668
  534.738  339.831   84.024    8.125
  534.988  354.539   82.766    7.893
  535.238  346.322   78.418    7.779
  535.488  347.077   79.516    7.743
  535.738  349.739   79.881    7.746
  535.988  356.455   79.263    7.749
  536.238  367.430   82.326    7.714
  536.488  366.350   83.425    7.678
  536.738  362.003   86.048    7.758
  536.988  352.278   88.278    7.840
  537.238  343.604   84.224    7.804
  537.488  343.379   84.196    7.612
  537.738  364.179   85.931    7.302
  537.988  376.008   84.285    7.032
  538.238  376.893   84.547    6.879
  538.488  379.355   86.876    6.960
  538.738  379.718   86.698    7.120
  538.988  383.884   88.831    7.240
  539.238  361.653   90.668    7.399
  539.488  350.816   89.017    7.559
  539.738  342.863   89.482    7.679
  539.988  366.477   92.396    7.566
  540.238  378.174   92.466    7.451
  540.488  370.349   88.655    7.220
  540.738  377.266   85.338    7.105
  540.988  378.935   89.486    7.030
  541.238  378.446   91.859    6.955
  541.488  379.402   91.829    6.997
  541.738  379.112   90.326    7.079
  541.988  382.035   91.280    7.121
  542.238  383.966   86.586    7.125
  542.488  383.810   88.573    7.088
  542.738  381.884   89.522    7.092
  542.988  379.957   90.134    7.094
  543.238  383.915   89.023    7.176
  543.488  382.324   88.650    7.218
  543.738  373.648   93.138    7.299
  543.988  369.492   92.765    7.342
  544.238  373.525   87.236    7.383
  544.488  377.819   86.276    7.504
  544.738  377.853   81.777    7.703
  544.988  375.010   82.338    7.861
  545.238  371.708   85.844    8.021
  545.488  365.783   82.281    8.220
  545.738  362.744   82.300    8.301
  545.988  360.879   83.060    8.226
  546.238  360.920   82.099    8.073
  546.488  363.968   80.644    7.959
  546.738  368.456   79.041    7.923
  546.988  367.903   78.915    7.926
  547.238  365.848   82.026    7.929
  547.488  360.772   84.797    7.893
  547.738  360.419   82.363    7.858
  547.988  370.411   84.689    7.822
  548.238  369.726   84.315    7.825
  548.488  373.431   86.154    7.788
  548.738  373.078   82.050    7.791
  548.988  361.192   79.711    7.795
  549.238  373.282   82.676    7.797
  549.488  381.504   89.134    7.801
  549.738  363.530   90.424    7.804
  549.988  356.625   87.107    7.807
  550.238  363.014   86.243    7.771
  550.488  365.019   83.807    7.579
  550.738  352.868   79.312    7.387
  550.988  354.220   80.416    7.195
  551.238  354.252   81.658    7.080
  551.488  353.966   83.791    7.006
  551.738  355.772   81.404    7.086
  551.988  357.969   76.562    7.520
  552.238  334.559   69.760    7.835
  552.488  323.786   65.903    8.346
  552.738  314.459   63.564    8.740
  552.988  303.951   64.077    8.782
  553.238  312.435   66.451    8.512
  553.488  319.745   71.576    8.203
  553.738  328.619   73.412    7.932
  553.988  338.680   77.264    7.622
  554.238  341.272   76.545    7.275
  554.488  339.276   73.721    7.082
  554.738  345.604   78.993    7.046
  554.988  346.490   81.025    7.049
  555.238  351.242   81.487    7.052
  555.488  361.238   82.145    7.094
  555.738  360.420   83.195    7.137
  555.988  362.753   84.787    7.101
  556.238  361.019   86.723    7.064
  556.488  364.594   85.759    7.068
  556.738  371.242   85.732    7.071
  556.988  369.514   84.571    7.074
  557.238  369.681   86.707    7.117
  557.488  373.973   89.433    7.199
  557.738  375.781   90.575    7.396
  557.988  377.457   90.251    7.790
  558.238  376.579   90.516    8.222
  558.488  368.231   95.885    9.046
  558.738  348.947   91.243    9.909
  558.988  330.117   86.746   10.771
  559.238  334.412   82.591   11.477
  559.488  335.432   78.241   12.184
  559.738  315.495   73.941   12.421
  559.988  301.575   73.619   12.151
  560.238  312.031   76.193   11.295
  560.488  332.437   80.482   10.946
  560.738  331.811   87.867   10.559
  560.988  332.574   86.659   10.493
  561.238  335.299   86.482   10.494
  561.488  343.392   85.475   10.693
  561.738  353.056   80.683   11.997
  561.988  339.929   76.134   14.641
  562.238  343.307   71.344   18.390
  562.488  346.816   66.896   26.174
  562.738  232.559   52.872   28.479
  562.988  198.078   52.598   26.315
  563.238  189.471   57.384   22.867
  563.488  202.344   65.601   18.100
  563.738  237.686   72.396    8.933
  563.988  355.553   79.879    7.910
  564.238  359.911   84.761    7.832
  564.488  358.050   85.122    8.031
  564.738  351.470   81.116    8.230
  564.988  347.447   83.148    8.311
  565.238  326.392   83.610    8.155
  565.488  311.951   80.390    7.801
  565.738  347.492   82.228    7.606
  565.988  344.517   87.305    7.489
  566.238  347.368   85.655    7.491
  566.488  352.254   81.454    7.571
  566.738  346.457   81.570    7.692
  566.988  343.224   82.721    7.772
  567.238  338.999   80.529    7.632
  567.488  337.924   82.564    7.713
  567.738  339.927   81.945    7.873
  567.988  350.443   82.013    7.954
  568.238  335.942   83.064    7.957
  568.488  306.503   78.371    7.843
  568.738  301.234   80.260    7.651
  568.988  354.784   83.224    7.614
  569.238  355.342   86.926    7.696
  569.488  353.679   85.570    7.817
  569.738  355.682   86.522    7.936
  569.988  349.949   86.792    8.018
  570.238  335.845   86.269    8.021
  570.488  316.953   89.529    7.907
  570.738  347.379   88.272    7.519
  570.988  353.246   91.877    7.288
  571.238  347.188   92.488    7.174
  571.488  343.757   89.215    7.138
  571.738  344.243   84.425    7.142
  571.988  345.271   81.204    7.183
  572.238  343.148   80.388    7.226
  572.488  337.549   83.113    7.268
  572.738  325.992   81.069    7.231
  572.988  322.299   80.696    6.805
  573.238  346.113   83.320    5.675
  573.488  332.520   83.830    4.350
  573.738  322.870   85.172    3.611
  573.988  395.935   88.778    3.145
  574.238  416.080   91.447    2.836
  574.488  437.927   90.683    2.683
  574.738  447.594   92.618    2.608
  574.988  435.707   93.864    2.611
  575.238  440.656   88.435    2.692
  575.488  439.775   90.419    2.735
  575.738  435.821   91.175    2.855
  575.988  437.296   91.442    3.678
  576.238  442.833   92.983    4.345
  576.488  419.622   92.610    5.286
  576.738  350.558   91.552    5.992
  576.988  332.716   89.312    6.464
  577.238  296.530   86.828    6.156
  577.488  316.808   87.831    6.158
  577.738  376.318   90.746    6.786
  577.988  384.803   89.096    7.297
  578.238  363.944   87.007    7.652
  578.488  340.209   83.636    7.499
  578.738  293.022   74.378    7.111
  578.988  270.919   78.670    6.646
  579.238  349.616   83.552    6.375
  579.488  375.131   85.091    6.379
  579.738  386.700   85.555    6.538
  579.988  371.213   79.782    6.892
  580.238  348.262   80.340    7.130
  580.488  344.497   82.177    7.017
  580.738  357.177   84.998    7.019
  580.988  370.903   85.850    6.827
  581.238  378.143   82.582    6.752
  581.488  352.176   63.504    6.716
  581.738  346.189   56.108    6.641
  581.988  337.844   50.384    6.410
  582.238  348.293   42.009    6.256
  582.488  345.315   40.603    6.104
  582.738  338.411   40.721    6.028
  582.988  345.979   43.393    6.188
  583.238  342.935   47.046    6.465
  583.488  341.929   49.374    6.897
  583.738  342.747   51.162    7.447
