~VERSION INFORMATION
 VERS.                 2.0:   CWLS LOG ASCII STANDARD -VERSION 2.0
 WRAP.                  NO:   ONE LINE PER DEPTH STEP
~WELL INFORMATION BLOCK
#MNEM.UNIT           DATA                    DESCRIPTION OF MNEMONIC
#---------    -------------------            -------------------------------
# Generated from Intellog Unique Number	CS_73_76/WELL/2241
WELL.         MAYNARD ENERGY INCORPORATE     : Well_name    - WELL
LOC .         00/07-21-076-09W4/0            : Location     - LOCATION
UWI .         00/07-21-076-09W4/0            : Uwi          - UNIQUE WELL ID
ENTR.         SP                             : Entered      - ENTERED BY
SRVC.         SCHLUMBERGER                   : Scn          - SERVICE COMPANY
STRT.M        290                            : top_depth    - START DEPTH
STOP.M        500                            : bot_depth    - STOP DEPTH
STEP.M        0.25                           : increment    - STEP LENGTH
 NULL. -999.2500:NULL Value
~CURVE INFORMATION BLOCK
#MNEM UNIT       ERCB CURVE CODE    CURVE DESCRIPTION
#-----------   ------------------   ----------------------------------
DEPT.M        00 001 00 00         : DEPTH        - DEPTH
ILD .OHMM     00 120 00 00         : RESD         - DEEP RESISTIVITY (DIL)
DPHI.V/V      00 890 00 00         : PHID         - DENSITY POROSITY (LIMESTONE)
NPHI.V/V      00 330 00 00         : PHIN         - NEUTRON POROSITY (LIMESTONE)
GR  .API      00 310 00 00         : GR           - GAMMA RAY
~PARAMETER INFORMATION
#MNEM.UNIT           DATA             DESCRIPTION OF MNEMONIC
#---------         -----------     ------------------------------
GL  .M        683.33               : gl           - GROUND LEVEL ELEVATION
EREF.M        686.74               : kb           - ELEVATION OF DEPTH REFERENCE
DATM.M        683.33               : datum        - DATUM ELEVATION
TDD .M        508                  : tdd          - TOTAL DEPTH DRILLER
RUN .         ONE                  : Run          - RUN NUMBER
ENG .         BILL                 : Engineer     - RECORDING ENGINEER
WIT .         JIM                  : Witness      - WITNESSED BY
MUD .         GEL                  : Mud_type     - MUD TYPE
MATR.         LIMESTONE            : Logunit      - NEUTRON MATRIX
TMAX.C        20                   : BHT          - MAXIMUM RECORDED TEMPERATURE
BHTD.M        508                  : BHTDEP       - MAXIMUM RECORDED TEMPERATURE
MATR.         1                    : LOGUNIT      - NEUTRON MATRIX
RMT .C        25                   : MDTP         - TEMPERATURE OF MUD
NEUT.         1                    : NEUTRON      - NEUTRON TYPE
RESI.         0                    : RESIST       - RESISTIVITY TYPE
RMC .OHMM     0.25                 : RMC          - RESISTIVITY OF MUD CAKE
RMF .OHMM     0.25                 : RMF          - RESISTIVITY OF MUD FILTRATE
SUFT.C        15                   : SUFT         - SURFACE TEMPERATURE
~A  DEPTH     RESD     PHID     PHIN       GR
# ...
  420.500    7.103    0.307    0.382   67.960
  420.750    7.102    0.304    0.379   66.751
  421.000    7.101    0.295    0.379   67.976
  421.250    7.101    0.289    0.379   69.207
  421.500    7.182    0.301    0.382   69.821
  421.750    7.181    0.314    0.383   70.442
  422.000    7.262    0.328    0.384   71.058
  422.250    7.262    0.336    0.388   71.070
  422.500    7.261    0.335    0.391   71.081
  422.750    7.261    0.334    0.402   71.090
  423.000    7.260    0.333    0.418   71.095
  423.250    7.177    0.331    0.424   71.713
  423.500    7.177    0.324    0.418   72.329
  423.750    7.012    0.317    0.409   69.900
  424.000    7.011    0.309    0.406   66.859
  424.250    7.092    0.309    0.402   65.039
  424.500    7.256    0.319    0.407   67.488
  424.750    7.419    0.323    0.411   69.935
  425.000    7.500    0.319    0.413   74.826
  425.250    7.500    0.291    0.415   76.049
  425.500    7.335    0.274    0.424   80.939
  425.750    7.253    0.248    0.423   84.605
  426.000    7.006    0.220    0.419   87.052
  426.250    6.513    0.209    0.426   88.892
  426.500    6.021    0.217    0.436   90.118
  426.750    5.119    0.225    0.451   91.959
  427.000    4.380    0.240    0.454   93.183
  427.250    3.888    0.251    0.464   95.021
  427.500    3.723    0.253    0.460   97.469
  427.750    3.968    0.252    0.454   99.309
  428.000    4.459    0.249    0.451  100.537
  428.250    5.196    0.244    0.449  100.544
  428.500    5.605    0.233    0.446   99.944
  428.750    6.097    0.227    0.429   99.342
  429.000    6.506    0.227    0.418   98.742
  429.250    6.751    0.238    0.408   98.749
  429.500    7.160    0.257    0.398   99.981
  429.750    7.405    0.253    0.392  100.595
  430.000    7.569    0.246    0.388   99.385
  430.250    7.650    0.230    0.393   98.174
  430.500    7.403    0.232    0.404   93.918
  430.750    7.157    0.244    0.414   93.926
  431.000    6.500    0.236    0.425   94.544
  431.250    5.926    0.221    0.430   95.775
  431.500    5.434    0.203    0.433   96.390
  431.750    4.531    0.198    0.439   96.399
  432.000    4.285    0.198    0.448   95.798
  432.250    3.874    0.201    0.462   95.199
  432.500    3.136    0.215    0.477   94.596
  432.750    2.807    0.228    0.495   94.605
  433.000    2.642    0.256    0.503   92.172
  433.250    2.478    0.294    0.507   90.352
  433.500    2.395    0.309    0.505   90.366
  433.750    2.312    0.312    0.501   92.814
  434.000    2.312    0.292    0.500   92.818
  434.250    2.311    0.288    0.496   89.776
  434.500    2.310    0.287    0.495   89.789
  434.750    2.392    0.290    0.494   91.629
  435.000    2.391    0.292    0.496   93.468
  435.250    2.390    0.285    0.509   95.305
  435.500    2.554    0.279    0.511   97.139
  435.750    2.635    0.271    0.509   99.585
  436.000    3.044    0.266    0.494   97.765
  436.250    3.453    0.255    0.487   92.287
  436.500    3.862    0.245    0.472   92.906
  436.750    4.436    0.227    0.450   95.352
  437.000    5.091    0.205    0.440   99.633
  437.250    5.745    0.200    0.432  100.858
  437.500    6.155    0.201    0.419  100.866
  437.750    6.646    0.195    0.408   96.607
  438.000    6.891    0.185    0.405   91.739
  438.250    6.562    0.168    0.416   92.358
  438.500    6.070    0.173    0.419   93.585
  438.750    5.578    0.194    0.428   94.201
  439.000    5.003    0.211    0.440   91.162
  439.250    4.593    0.219    0.447   93.610
  439.500    4.100    0.223    0.452   97.891
  439.750    4.017    0.213    0.463   99.726
  440.000    3.935    0.206    0.463  102.781
  440.250    3.770    0.195    0.457  103.401
  440.500    3.688    0.189    0.452  101.580
  440.750    3.605    0.187    0.457   99.152
  441.000    3.604    0.181    0.463   96.112
  441.250    3.522    0.185    0.463   96.118
  441.500    3.521    0.196    0.463   98.569
  441.750    3.438    0.200    0.465   97.356
  442.000    3.192    0.200    0.459  100.417
  442.250    2.863    0.198    0.457  102.252
  442.500    2.616    0.191    0.454  105.918
  442.750    2.534    0.175    0.453  104.098
  443.000    2.697    0.169    0.457  103.496
  443.250    2.860    0.158    0.463  102.903
  443.500    3.351    0.165    0.473  101.688
  443.750    3.515    0.177    0.479   99.864
  444.000    3.842    0.187    0.487   99.876
  444.250    4.087    0.194    0.490   99.273
  444.500    4.086    0.207    0.494   99.891
  444.750    4.004    0.209    0.497  100.509
  445.000    3.921    0.203    0.493  101.738
  445.250    4.003    0.202    0.483  101.745
  445.500    4.165    0.208    0.470   98.096
  445.750    4.657    0.208    0.435   95.058
  446.000    5.230    0.207    0.413   92.626
  446.250    6.213    0.204    0.389   86.539
  446.500    7.442    0.196    0.370   82.889
  446.750   10.228    0.182    0.359   79.237
  447.000   19.512    0.169    0.353   75.588
  447.250   23.577    0.161    0.348   72.549
  447.500   25.203    0.254    0.344   68.288
  447.750   29.268    0.288    0.345   64.028
  448.000   30.081    0.294    0.349   62.208
  448.250   34.146    0.289    0.350   65.876
  448.500   34.959    0.287    0.350   70.153
  448.750   33.333    0.286    0.348   68.331
  449.000   33.333    0.287    0.345   64.683
  449.250   34.959    0.298    0.343   62.250
  449.500   35.772    0.295    0.343   59.825
  449.750   37.398    0.293    0.343   59.223
  450.000   39.024    0.293    0.345   58.621
  450.250   41.463    0.292    0.350   59.238
  450.500   43.902    0.287    0.356   62.296
  450.750   45.529    0.282    0.357   64.743
  451.000   47.968    0.277    0.361   67.191
  451.250   47.968    0.268    0.366   71.469
  451.500   43.089    0.262    0.367   75.135
  451.750   37.398    0.257    0.371   78.192
  452.000   32.520    0.259    0.374   79.419
  452.250   30.894    0.258    0.374   81.257
  452.500   29.268    0.252    0.377   80.046
  452.750   26.829    0.241    0.378   79.448
  453.000   24.390    0.233    0.380   80.673
  453.250   15.866    0.229    0.385   85.562
  453.500   13.406    0.234    0.391   89.838
  453.750   12.258    0.246    0.397   96.553
  454.000   11.765    0.255    0.399  105.099
  454.250   12.257    0.249    0.390  113.034
  454.500   13.649    0.245    0.377  109.385
  454.750   15.534    0.239    0.360   92.930
  455.000   18.238    0.238    0.352   74.645
  455.250   23.238    0.239    0.341   61.850
  455.500   24.876    0.235    0.347   62.468
  455.750   24.957    0.233    0.352   64.310
  456.000   20.776    0.234    0.352   65.535
  456.250   19.382    0.235    0.353   85.056
  456.500   18.890    0.240    0.353   78.967
  456.750   18.971    0.242    0.353   73.490
  457.000   20.036    0.256    0.354   68.622
  457.250   22.740    0.261    0.354   66.797
  457.500   29.051    0.256    0.356   63.758
  457.750   29.542    0.262    0.358   59.497
  458.000   29.787    0.304    0.359   57.677
  458.250   29.869    0.326    0.364   63.174
  458.500   29.130    0.317    0.371   71.110
  458.750   25.933    0.280    0.370   75.388
  459.000   23.719    0.257    0.365   77.227
  459.250   20.276    0.235    0.365   77.845
  459.500   15.767    0.259    0.374   79.680
  459.750   15.192    0.268    0.379   80.910
  460.000   14.946    0.275    0.382   79.090
  460.250   14.863    0.266    0.375   76.048
  460.500   15.026    0.260    0.366   71.790
  460.750   15.599    0.257    0.357   68.749
  461.000   16.500    0.255    0.360   69.367
  461.250   18.057    0.280    0.364   69.985
  461.500   19.122    0.293    0.372   72.433
  461.750   19.941    0.289    0.376   74.273
  462.000   20.268    0.281    0.374   73.670
  462.250   20.350    0.269    0.371   68.802
  462.500   20.267    0.272    0.364   64.543
  462.750   19.446    0.274    0.361   62.722
  463.000   17.971    0.260    0.358   66.389
  463.250   16.740    0.241    0.350   73.106
  463.500   15.756    0.221    0.347   79.212
  463.750   15.264    0.230    0.344   85.926
