~VERSION INFORMATION
 VERS.                 2.0:   CWLS LOG ASCII STANDARD -VERSION 2.0
 WRAP.                  NO:   ONE LINE PER DEPTH STEP
~WELL INFORMATION BLOCK
#MNEM.UNIT           DATA                    DESCRIPTION OF MNEMONIC
#---------    -------------------            -------------------------------
# Generated from Intellog Unique Number	CW_76_78/WELL/2798
WELL.         SCURRY MIN CROOKED 07-19       : Well_name    - WELL
LOC .         00/07-19-077-19W4/0            : Location     - LOCATION
UWI .         00/07-19-077-19W4/0            : Uwi          - UNIQUE WELL ID
ENTR.         JJ                             : Entered      - ENTERED BY
SRVC.         WESTERN ATLAS                  : Scn          - SERVICE COMPANY
DATE.         4 JAN 71                       : Date         - LOG DATE
STRT.M        304.8                          : top_depth    - START DEPTH
STOP.M        432.8                          : bot_depth    - STOP DEPTH
STEP.M        0.25                           : increment    - STEP LENGTH
 NULL. -999.2500:NULL Value
~CURVE INFORMATION BLOCK
#MNEM UNIT       ERCB CURVE CODE    CURVE DESCRIPTION
#-----------   ------------------   ----------------------------------
DEPT.M        00 001 00 00         : DEPTH        - DEPTH
DELT.US/F     00 520 00 00         : DELT         - SONIC TRAVEL TIME
GR  .API      00 310 00 00         : GR           - GAMMA RAY
CALI.MM       00 280 01 00         : CAL          - CALIPER
ILD .OHMM     00 120 00 00         : RESD         - DEEP RESISTIVITY (DIL)
~PARAMETER INFORMATION
#MNEM.UNIT           DATA             DESCRIPTION OF MNEMONIC
#---------         -----------     ------------------------------
GL  .M        562.356              : gl           - GROUND LEVEL ELEVATION
EREF.M        565.404              : kb           - ELEVATION OF DEPTH REFERENCE
DATM.M        562.356              : datum        - DATUM ELEVATION
TDD .M        542.849              : tdd          - TOTAL DEPTH DRILLER
RUN .         ONE                  : Run          - RUN NUMBER
ENG .         RICHER               : Engineer     - RECORDING ENGINEER
WIT .         MARTYNA              : Witness      - WITNESSED BY
BASE.         EDM                  : Branch       - HOME BASE OF LOGGING UNIT
MUD .         MUD                  : Mud_type     - MUD TYPE
MATR.         SANDSTONE            : Logunit      - NEUTRON MATRIX
TMAX.C        28.3333              : BHT          - MAXIMUM RECORDED TEMPERATURE
BHTD.M        543.458              : BHTDEP       - MAXIMUM RECORDED TEMPERATURE
RMT .C        20                   : MDTP         - TEMPERATURE OF MUD
MUDD.KG/M     1080                 : MWT          - MUD DENSITY
NEUT.         1                    : NEUTRON      - NEUTRON TYPE
RESI.         0                    : RESIST       - RESISTIVITY TYPE
RM  .OHMM     4.5                  : RM           - RESISTIVITY OF MUD
RMC .OHMM     4.8                  : RMC          - RESISTIVITY OF MUD CAKE
RMF .OHMM     4                    : RMF          - RESISTIVITY OF MUD FILTRATE
SUFT.C        5                    : SUFT         - SURFACE TEMPERATURE
~A  DEPTH     DELT       GR      CAL     RESD
# ...
  348.300  425.735   95.745  206.562    9.758
  348.550  441.861   88.993  210.607   10.693
  348.800  326.131   83.051  215.831   11.684
  349.050  289.771   85.073  218.384   12.619
  349.300  276.068   86.782  210.593   13.411
  349.550  251.236   84.059  205.570   12.274
  349.800  246.387   77.809  203.760    9.957
  350.050  303.343   70.758  203.332    9.003
  350.300  336.635   64.919  203.553    8.304
  350.550  488.719   62.395  203.871    8.020
  350.800  478.703   62.804  204.080    7.951
  351.050  499.326   64.555  204.400    7.915
  351.300  476.374   64.713  204.814    7.869
  351.550  409.310   65.821  205.236    7.832
  351.800  408.411   64.860  205.811    7.755
  352.050  413.079   61.939  206.012    7.733
  352.300  459.510   60.831  205.992    7.744
  352.550  392.245   63.495  205.681    7.835
  352.800  401.939   66.369  205.455    8.108
  353.050  432.820   65.969  205.667    8.716
  353.300  454.715   64.754  206.429   11.493
  353.550  436.857   62.535  206.843   13.018
  353.800  363.893   58.102  207.374   17.651
  354.050  358.835   52.010  208.035   18.340
  354.300  362.298   47.179  208.542   17.035
  354.550  303.884   44.608  208.787   14.511
  354.800  316.596   48.131  209.303   10.616
  355.050  244.706   54.380  209.407    8.889
  355.300  246.021   57.751  209.294    7.912
  355.550  282.930   61.076  208.858    7.691
  355.800  332.111   65.603  208.105    7.966
  356.050  322.297   65.299  207.375    8.079
  356.300  311.344   65.352  206.820    8.241
  356.550  303.409   67.014  206.922    8.299
  356.800  419.426   65.201  207.692    8.215
  357.050  429.791   64.094  207.978    8.137
  357.300  435.397   64.892  208.509    8.125
  357.550  448.376   62.328  209.378    8.095
  357.800  437.356   61.476  209.816    7.939
  358.050  417.822   63.686  209.902    7.687
  358.300  404.256   68.616  209.607    7.529
  358.550  394.639   70.089  209.368    7.380
  358.800  409.836   66.047  209.164    7.271
  359.050  421.406   68.425  209.253    7.314
  359.300  419.097   72.615  208.960    7.436
  359.550  414.919   74.411  208.833    7.606
  359.800  407.518   70.179  208.525    7.864
  360.050  396.631   64.231  208.497    7.947
  360.300  390.843   69.019  208.186    7.941
  360.550  401.540   66.359  208.184    7.888
  360.800  408.556   62.623  208.185    7.907
  361.050  407.390   61.609  208.206    8.149
  361.300  420.838   64.583  207.874    8.254
  361.550  399.893   69.871  207.862    8.521
  361.800  395.983   71.686  207.351    8.610
  362.050  395.018   69.167  207.245    8.614
  362.300  392.042   68.816  207.142    8.577
  362.550  382.566   67.906  207.023    8.539
  362.800  384.750   66.442  207.024    8.422
  363.050  394.179   64.732  207.123    8.170
  363.300  403.738   68.054  207.210    7.981
  363.550  410.547   69.310  207.522    7.872
  363.800  408.042   70.423  207.464    7.843
  364.050  403.655   72.127  207.513    7.830
  364.300  403.632   71.224  207.831    7.841
  364.550  398.717   71.773  208.508    7.899
  364.800  395.943   75.100  209.015    7.941
  365.050  395.582   69.613  209.320    7.960
  365.300  404.066   70.872  209.537    7.939
  365.550  407.528   71.076  209.883    7.909
  365.800  406.025   72.829  210.172    7.889
  366.050  400.170   74.747  210.714    7.883
  366.300  394.311   72.877  211.133    8.029
  366.550  393.209   67.794  211.232    8.844
  366.800  394.395   69.558  211.358    9.971
  367.050  399.532   67.891  211.442   11.121
  367.300  410.500   68.603  210.819   15.332
  367.550  423.413   69.653  209.011   17.001
  367.800  393.489   68.491  207.842   17.402
  368.050  342.245   62.801  207.502   17.588
  368.300  271.897   56.005  207.277   17.686
  368.550  242.777   48.549  206.997   16.701
  368.800  259.574   45.721  207.198   13.125
  369.050  278.451   53.489  207.617   10.712
  369.300  291.704   61.449  208.371    9.153
  369.550  365.620   66.728  208.788    8.454
  369.800  408.029   73.976  209.508    8.241
  370.050  425.834   79.927  210.907    8.467
  370.300  407.040   82.393  212.210    8.678
  370.550  390.322   80.528  212.926    8.727
  370.800  389.018   79.063  214.229    8.722
  371.050  383.768   77.805  215.045    8.557
  371.300  384.276   75.436  216.122    8.386
  371.550  390.417   78.960  216.890    8.356
  371.800  394.953   77.750  217.394    8.318
  372.050  399.551   79.058  217.517    8.265
  372.300  401.669   85.706  217.084    8.212
  372.550  402.782   88.536  216.778    8.136
  372.800  404.167   89.385  216.846    8.050
  373.050  406.890   91.699  217.809    7.846
  373.300  420.272   94.419  220.383    7.681
  373.550  477.429   94.678  222.605    7.580
  373.800  428.667   92.408  226.229    7.647
  374.050  447.679   92.403  222.921    7.857
  374.300  468.570   97.846  229.240    8.234
  374.550  445.952  100.111  232.191    8.467
  374.800  591.198   94.668  224.306    8.375
  375.050  401.788   97.234  225.261    8.274
  375.300  395.798   98.947  229.214    8.324
  375.550  403.945   94.825  231.978    8.669
  375.800  412.638   96.728  223.238    9.023
  376.050  398.938  104.492  217.488    9.241
  376.300  382.623  105.345  217.364    9.371
  376.550  374.150   99.601  217.380    9.445
  376.800  379.345   96.580  217.077    9.400
  377.050  383.416   94.509  216.615    9.291
  377.300  388.551   96.278  215.995    9.772
  377.550  388.192   97.589  215.462   10.731
  377.800  377.305   93.348  214.717   12.958
  378.050  396.450   89.281  214.170   13.670
  378.300  439.666   87.355  212.798   14.485
  378.550  539.862   83.081  211.816   15.014
  378.800  509.066   77.940  210.877   14.570
  379.050  529.888   73.901  210.526   13.664
  379.300  473.818   67.411  210.540   11.403
  379.550  436.253   70.979  210.733    9.924
  379.800  583.509   77.937  211.274    9.647
  380.050  403.351   83.531  211.631    9.769
  380.300  369.402   88.617  211.720   10.163
  380.550  372.797   91.025  211.596   10.739
  380.800  364.861   90.885  210.981   11.220
  381.050  352.435   91.629  210.831   11.589
  381.300  357.300   90.469  211.159   11.664
  381.550  372.359   84.477  211.480   11.356
  381.800  455.728   79.036  211.904   10.816
  382.050  345.359   83.520  212.984   10.245
  382.300  353.914   89.968  214.481    9.555
  382.550  380.502   86.386  216.403    8.999
  382.800  435.582   89.007  218.114    8.675
  383.050  462.303   95.504  220.019    8.550
  383.300  369.698   90.666  221.517    8.498
  383.550  364.641   87.442  222.357    8.436
  383.800  358.182   84.575  222.670    8.279
  384.050  375.386   83.259  222.767    8.067
  384.300  408.880   88.900  222.975    7.878
  384.550  438.418   96.604  223.392    7.658
  384.800  384.292   99.982  225.207    7.588
  385.050  440.780   97.412  227.759    7.519
  385.300  457.782   94.746  230.856    7.442
  385.550  481.151   98.466  235.007    7.525
  385.800  395.585   97.365  240.346    7.575
  386.050  396.160   93.186  246.418    7.555
  386.300  386.753   90.112  233.198    7.469
  386.550  348.448   86.830  242.924    7.249
  386.800  357.808   83.807  246.303    6.853
  387.050  410.136   83.204  249.004    6.146
  387.300  412.257   83.905  251.022    5.104
  387.550  409.953   87.233  253.554    3.808
  387.800  415.086   92.219  256.972    3.021
  388.050  428.333   94.986  258.574    2.458
  388.300  499.840   90.953  255.999    2.318
  388.550  483.322   89.497  242.672    2.360
  388.800  500.056   86.679  230.089    2.753
  389.050  499.694   84.908  223.902    3.497
  389.300  514.821   83.197  220.168    4.320
  389.550  534.904   83.150  224.220    7.001
  389.800  535.951   83.645  223.787    8.375
  390.050  364.980   82.640  221.241    9.238
  390.300  363.275   77.100  220.589    9.887
  390.550  350.514   75.382  221.903    9.675
  390.800  357.864   80.625  223.478    9.478
  391.050  347.850   84.097  227.000    9.042
  391.300  361.966   83.792  226.567    8.431
  391.550  373.139   77.755  222.607    7.461
