~VERSION INFORMATION
 VERS.                 2.0:   CWLS LOG ASCII STANDARD -VERSION 2.0
 WRAP.                  NO:   ONE LINE PER DEPTH STEP
~WELL INFORMATION BLOCK
#MNEM.UNIT           DATA                    DESCRIPTION OF MNEMONIC
#---------    -------------------            -------------------------------
# Generated from Intellog Unique Number	CW_82_90/WELL/3433
WELL.         TEXEX WOODEN                   : Well_name    - WELL
LOC .         00/07-35-088-24W4/0            : Location     - LOCATION
UWI .         00/07-35-088-24W4/0            : Uwi          - UNIQUE WELL ID
ENTR.         MAX                            : Entered      - ENTERED BY
SRVC.         SCHLUMBERGER                   : Scn          - SERVICE COMPANY
STRT.M        60.96                          : top_depth    - START DEPTH
STOP.M        304.71                         : bot_depth    - STOP DEPTH
STEP.M        0.25                           : increment    - STEP LENGTH
 NULL. -999.2500:NULL Value
~CURVE INFORMATION BLOCK
#MNEM UNIT       ERCB CURVE CODE    CURVE DESCRIPTION
#-----------   ------------------   ----------------------------------
DEPT.M        00 001 00 00         : DEPTH        - DEPTH
ILD .OHMM     00 120 00 00         : RESD         - DEEP RESISTIVITY (DIL)
NPHI.V/V      00 330 00 00         : PHIN         - NEUTRON POROSITY (SANDSTONE)
DPHI.V/V      00 890 00 00         : PHID         - DENSITY POROSITY (SANDSTONE)
CALI.MM       00 280 01 00         : CAL          - CALIPER
GR  .API      00 310 00 00         : GR           - GAMMA RAY
~PARAMETER INFORMATION
#MNEM.UNIT           DATA             DESCRIPTION OF MNEMONIC
#---------         -----------     ------------------------------
GL  .M        524.866              : gl           - GROUND LEVEL ELEVATION
EREF.M        527.914              : kb           - ELEVATION OF DEPTH REFERENCE
DATM.M        524.866              : datum        - DATUM ELEVATION
TDD .M        304.495              : tdd          - TOTAL DEPTH DRILLER
RUN .         ONE                  : Run          - RUN NUMBER
ENG .         BILL                 : Engineer     - RECORDING ENGINEER
WIT .         JIM                  : Witness      - WITNESSED BY
MUD .         GEL                  : Mud_type     - MUD TYPE
MATR.         SANDSTONE            : Logunit      - NEUTRON MATRIX
TMAX.C        14.4444              : BHT          - MAXIMUM RECORDED TEMPERATURE
BHTD.M        304.495              : BHTDEP       - MAXIMUM RECORDED TEMPERATURE
MATR.         1                    : LOGUNIT      - NEUTRON MATRIX
RMT .C        6.66667              : MDTP         - TEMPERATURE OF MUD
NEUT.         1                    : NEUTRON      - NEUTRON TYPE
RESI.         0                    : RESIST       - RESISTIVITY TYPE
RMC .OHMM     4.24                 : RMC          - RESISTIVITY OF MUD CAKE
RMF .OHMM     4.24                 : RMF          - RESISTIVITY OF MUD FILTRATE
SUFT.C        -23.3333             : SUFT         - SURFACE TEMPERATURE
~A  DEPTH     RESD     PHIN     PHID      CAL       GR
   60.960    2.863    0.554    0.310  217.917   99.738
   61.210    3.215    0.568    0.316  217.883  100.348
   61.460    3.185    0.581    0.316  217.324  101.591
   61.710    3.127    0.594    0.317  216.768  105.653
   61.960    3.125    0.580    0.312  216.737  109.718
   62.210    3.267    0.574    0.326  216.709  112.839
   62.460    3.355    0.577    0.318  217.210  115.651
   62.710    3.445    0.541    0.312  217.714  120.344
   62.960    3.569    0.524    0.338  217.686  122.210
   63.210    3.599    0.512    0.333  217.123  121.253
   63.460    3.597    0.537    0.317  216.568  120.921
   63.710    3.563    0.526    0.319  217.068  120.905
   63.960    3.529    0.537    0.324  217.569  121.200
   64.210    3.496    0.578    0.316  217.010  123.698
   64.460    3.401    0.596    0.318  216.982  129.019
   64.710    3.308    0.579    0.311  213.758  134.654
   64.960    3.277    0.554    0.307  213.737  138.718
   65.210    3.305    0.542    0.299  219.026  138.071
   65.460    3.393    0.545    0.307  220.590  136.797
   65.710    3.484    0.570    0.314  216.305  133.641
   65.960    3.610    0.558    0.317  216.274  129.231
   66.210    3.774    0.541    0.321  219.437  121.680
   66.460    4.053    0.545    0.325  223.666  111.614
   66.710    4.236    0.537    0.324  219.917   97.469
   66.960    4.311    0.544    0.337  214.037   83.948
   67.210    4.427    0.543    0.344  218.795   86.759
   67.460    4.345    0.521    0.351  218.235   94.593
   67.710    4.266    0.506    0.358  217.673  111.531
   67.960    4.187    0.495    0.344  219.240  136.946
   68.210    4.147    0.499    0.310  220.804  129.706
   68.460    4.145    0.510    0.295  222.368  102.689
   68.710    4.143    0.539    0.284  222.879   75.355
   68.960    4.141    0.571    0.285  222.844   66.859
   69.210    4.102    0.550    0.292  224.412   68.412
   69.460    4.026    0.531    0.297  225.447   66.510
   69.710    3.988    0.507    0.283  225.945   68.690
   69.960    3.880    0.507    0.279  226.456   68.990
   70.210    3.741    0.521    0.273  227.491   65.519
   70.460    3.639    0.499    0.269  226.929   62.987
   70.710    3.604    0.490    0.269  227.957   61.717
   70.960    3.571    0.484    0.277  227.937   60.757
   71.210    3.569    0.507    0.294  228.437   61.055
   71.460    3.567    0.520    0.288  228.410   62.294
   71.710    3.501    0.536    0.276  224.654   60.706
   71.960    3.468    0.553    0.279  225.161   61.004
   72.210    3.435    0.574    0.287  224.591   66.637
   72.460    3.402    0.564    0.294  224.574   67.879
   72.710    3.370    0.543    0.312  224.012   66.292
   72.960    3.338    0.530    0.332  223.452   62.816
   73.210    3.336    0.536    0.309  222.358   60.920
   73.460    3.334    0.544    0.314  222.334   60.272
   73.710    3.303    0.525    0.316  221.768   60.254
   73.960    3.301    0.507    0.318  221.208   62.121
   74.210    3.299    0.505    0.316  221.184   63.993
   74.460    3.297    0.520    0.325  221.150   67.430
   74.710    3.296    0.529    0.331  220.590   70.240
   74.960    3.294    0.538    0.321  220.563   71.163
   75.210    3.292    0.548    0.311  222.134   71.459
   75.460    3.261    0.576    0.330  222.634   73.012
   75.710    3.230    0.586    0.338  223.138   76.448
   75.960    3.199    0.575    0.333  223.635   74.864
   76.210    3.197    0.577    0.329  223.076   71.705
   76.460    3.167    0.578    0.339  223.052   71.061
   76.710    3.166    0.570    0.322  223.018   71.359
   76.960    3.192    0.535    0.315  223.525   73.226
   77.210    3.219    0.531    0.313  223.494   74.152
   77.460    3.276    0.535    0.303  223.470   75.388
   77.710    3.303    0.533    0.293  222.911   76.629
   77.960    3.362    0.528    0.288  222.879   78.811
   78.210    3.390    0.531    0.275  223.380   81.620
   78.460    3.481    0.547    0.260  223.884   86.311
   78.710    3.574    0.534    0.274  222.262   87.237
   78.960    3.637    0.540    0.285  222.759   85.649
   79.210    3.602    0.550    0.288  223.270   85.317
   79.460    3.412    0.561    0.283  223.770   84.986
   79.710    3.260    0.568    0.290  224.806   83.088
   79.960    3.059    0.556    0.296  224.778   81.500
   80.210    3.003    0.570    0.290  225.282   80.226
   80.460    3.029    0.576    0.278  224.723   78.011
   80.710    3.110    0.585    0.269  225.752   79.251
   80.960    3.193    0.571    0.270  226.791   82.061
   81.210    3.338    0.548    0.269  227.827   85.498
   81.460    3.397    0.529    0.251  229.923   87.677
   81.710    3.487    0.517    0.256  230.955   87.349
   81.960    3.517    0.535    0.262  232.526   86.073
   82.210    3.484    0.539    0.255  233.561   86.369
   82.460    3.451    0.528    0.235  235.657   86.670
   82.710    3.449    0.529    0.244  236.161   85.078
   82.960    3.509    0.533    0.234  235.595   84.438
   83.210    3.603    0.533    0.233  235.574   84.422
   83.460    3.634    0.522    0.235  236.606   85.341
   83.710    3.632    0.513    0.235  237.104   85.955
   83.960    3.696    0.520    0.236  237.614   87.824
   84.210    3.694    0.541    0.241  237.583   89.060
   84.460    3.659    0.564    0.243  236.486   89.358
   84.710    3.723    0.553    0.243  236.461   91.541
   84.960    3.755    0.531    0.237  237.497   91.211
   85.210    3.786    0.516    0.232  238.001   89.623
   85.460    3.819    0.506    0.230  238.502   92.114
   85.710    3.920    0.530    0.235  239.006   90.846
   85.960    4.025    0.501    0.242  238.978   88.002
   86.210    4.097    0.500    0.244  238.947   88.927
   86.460    4.169    0.514    0.244  238.920   92.365
   86.710    4.242    0.525    0.242  240.487   92.662
   86.960    4.278    0.534    0.238  242.583   92.644
   87.210    4.314    0.533    0.231  245.213   92.628
   87.460    4.312    0.513    0.220  245.186   91.668
   87.710    4.348    0.493    0.208  244.095   90.084
   87.960    4.385    0.505    0.209  243.532   84.414
   88.210    4.383    0.509    0.211  243.508   80.630
   88.460    4.341    0.500    0.201  243.473   83.125
   88.710    4.300    0.493    0.191  243.977   85.617
   88.960    4.298    0.505    0.214  244.478   86.542
   89.210    4.296    0.508    0.227  245.517   87.782
   89.460    4.293    0.499    0.219  246.018   89.645
   89.710    4.291    0.504    0.198  245.987   90.259
   89.960    4.288    0.497    0.193  247.022   88.359
   90.210    4.286    0.505    0.214  246.463   85.517
   90.460    4.284    0.527    0.216  245.900   87.698
   90.710    4.281    0.534    0.228  245.348   93.017
   90.960    4.279    0.510    0.221  246.912   94.259
   91.210    4.277    0.507    0.241  247.413   89.529
   91.460    4.274    0.519    0.238  247.389   89.827
   91.710    4.234    0.500    0.253  247.361   86.985
   91.960    4.231    0.495    0.244  247.855   87.280
   92.210    4.229    0.504    0.229  246.771   88.522
   92.460    4.189    0.516    0.206  245.676   89.132
   92.710    4.187    0.522    0.212  244.585   87.547
   92.960    4.184    0.504    0.200  243.494   87.527
   93.210    4.182    0.484    0.206  243.467   88.769
   93.460    4.256    0.486    0.213  245.031   90.004
   93.710    4.330    0.492    0.221  246.598   89.988
   93.960    4.447    0.485    0.226  244.972   88.090
   94.210    4.648    0.481    0.238  244.409   83.678
   94.460    4.816    0.479    0.228  244.917   80.204
   94.710    5.080    0.471    0.218  246.484   78.932
   94.960    5.263    0.453    0.208  247.516   79.855
   95.210    5.552    0.457    0.212  246.957   82.039
   95.460    5.753    0.465    0.220  246.926   85.160
   95.710    6.123    0.447    0.215  246.895   85.460
   95.960    6.517    0.440    0.204  246.874   81.360
   96.210    7.062    0.429    0.181  244.713   76.006
   96.460    7.653    0.409    0.168  243.091   72.848
   96.710    7.857    0.408    0.136  243.063   75.029
   96.960    7.853    0.424    0.131  247.817   78.151
   97.210    7.641    0.442    0.196  247.793   81.276
