~VERSION INFORMATION
 VERS.                 2.0:   CWLS LOG ASCII STANDARD -VERSION 2.0
 WRAP.                  NO:   ONE LINE PER DEPTH STEP
~WELL INFORMATION BLOCK
#MNEM.UNIT           DATA                    DESCRIPTION OF MNEMONIC
#---------    -------------------            -------------------------------
# Generated from Intellog Unique Number	CS_77_79/WELL/892
WELL.         BOW VALLEY INDUSTRIES LTD      : Well_name    - WELL
LOC .         00/07-07-077-14W4/0            : Location     - LOCATION
UWI .         00/07-07-077-14W4/0            : Uwi          - UNIQUE WELL ID
ENTR.         SP                             : Entered      - ENTERED BY
SRVC.         SCHLUMBERGER                   : Scn          - SERVICE COMPANY
STRT.M        260                            : top_depth    - START DEPTH
STOP.M        510                            : bot_depth    - STOP DEPTH
STEP.M        0.25                           : increment    - STEP LENGTH
 NULL. -999.2500:NULL Value
~CURVE INFORMATION BLOCK
#MNEM UNIT       ERCB CURVE CODE    CURVE DESCRIPTION
#-----------   ------------------   ----------------------------------
DEPT.M        00 001 00 00         : DEPTH        - DEPTH
ILD .OHMM     00 120 00 00         : RESD         - DEEP RESISTIVITY (DIL)
DPHI.V/V      00 890 00 00         : PHID         - DENSITY POROSITY (LIMESTONE)
NPHI.V/V      00 330 00 00         : PHIN         - NEUTRON POROSITY (LIMESTONE)
GR  .API      00 310 00 00         : GR           - GAMMA RAY
~PARAMETER INFORMATION
#MNEM.UNIT           DATA             DESCRIPTION OF MNEMONIC
#---------         -----------     ------------------------------
GL  .M        657                  : gl           - GROUND LEVEL ELEVATION
EREF.M        660.5                : kb           - ELEVATION OF DEPTH REFERENCE
DATM.M        657                  : datum        - DATUM ELEVATION
TDD .M        535                  : tdd          - TOTAL DEPTH DRILLER
RUN .         ONE                  : Run          - RUN NUMBER
ENG .         BILL                 : Engineer     - RECORDING ENGINEER
WIT .         JIM                  : Witness      - WITNESSED BY
MUD .         GEL                  : Mud_type     - MUD TYPE
MATR.         LIMESTONE            : Logunit      - NEUTRON MATRIX
TMAX.C        25                   : BHT          - MAXIMUM RECORDED TEMPERATURE
BHTD.M        535                  : BHTDEP       - MAXIMUM RECORDED TEMPERATURE
MATR.         1                    : LOGUNIT      - NEUTRON MATRIX
RMT .C        25                   : MDTP         - TEMPERATURE OF MUD
NEUT.         1                    : NEUTRON      - NEUTRON TYPE
RESI.         0                    : RESIST       - RESISTIVITY TYPE
RMC .OHMM     0.25                 : RMC          - RESISTIVITY OF MUD CAKE
RMF .OHMM     0.25                 : RMF          - RESISTIVITY OF MUD FILTRATE
SUFT.C        15                   : SUFT         - SURFACE TEMPERATURE
~A  DEPTH     RESD     PHID     PHIN       GR
# ...
  303.500    8.036    0.242    0.470  100.801
  303.750    7.889    0.251    0.478  100.207
  304.000    7.890    0.251    0.484   99.628
  304.250    7.891    0.255    0.488   97.819
  304.500    8.041    0.259    0.480   98.456
  304.750    8.349    0.263    0.481   99.086
  305.000    9.340    0.258    0.493   95.454
  305.250    9.880    0.244    0.498   85.116
  305.500   10.067    0.267    0.500   75.380
  305.750   10.259    0.281    0.489   69.306
  306.000   10.261    0.275    0.482   63.846
  306.250    9.887    0.247    0.481   61.430
  306.500   10.075    0.226    0.461   66.952
  306.750   10.267    0.232    0.460   69.410
  307.000   10.462    0.247    0.467   73.102
  307.250   10.464    0.298    0.459   74.346
  307.500   10.465    0.312    0.445   74.362
  307.750   10.274    0.314    0.442   74.399
  308.000    9.536    0.323    0.437   74.416
  308.250    8.369    0.310    0.449   76.269
  308.500    7.915    0.301    0.465   79.955
  308.750    7.485    0.293    0.473   84.253
  309.000    7.078    0.281    0.469   90.383
  309.250    6.570    0.232    0.468   94.064
  309.500    6.098    0.216    0.467   96.523
  309.750    5.876    0.214    0.466   95.338
  310.000    5.769    0.207    0.480   95.356
  310.250    5.769    0.208    0.493   95.988
  310.500    5.770    0.211    0.514   92.968
  310.750    5.771    0.237    0.527   90.550
  311.000    5.666    0.254    0.504   89.967
  311.250    5.773    0.246    0.499   94.262
  311.500    5.883    0.229    0.511   96.121
  311.750    6.108    0.233    0.523   95.555
  312.000    6.224    0.244    0.506   94.344
  312.250    6.225    0.252    0.506   93.761
  312.500    5.998    0.261    0.510   93.781
  312.750    5.999    0.261    0.509   92.590
  313.000    6.465    0.262    0.511   90.799
  313.250    7.099    0.248    0.518   89.598
  313.500    7.942    0.241    0.528   88.392
  313.750    8.559    0.257    0.529   85.371
  314.000    8.561    0.270    0.490   83.563
  314.250    7.799    0.297    0.470   84.210
  314.500    6.845    0.305    0.471   83.016
  314.750    6.595    0.295    0.476   79.991
  315.000    6.596    0.292    0.489   78.176
  315.250    7.109    0.281    0.546   71.499
  315.500    9.063    0.329    0.560   64.812
  315.750   10.331    0.356    0.600   55.690
  316.000   11.775    0.383    0.622   45.350
  316.250   12.690    0.481    0.648   38.665
  316.500   12.932    0.531    0.625   38.698
  316.750   12.460    0.496    0.582   44.824
  317.000   12.005    0.334    0.429   46.669
  317.250   12.008    0.291    0.427   47.923
  317.500   12.235    0.294    0.428   46.116
  317.750   12.469    0.309    0.430   46.764
  318.000   12.471    0.324    0.435   48.001
  318.250   12.473    0.339    0.442   49.236
  318.500   12.476    0.339    0.463   49.269
  318.750   12.477    0.311    0.465   47.469
  319.000   12.479    0.314    0.452   47.485
  319.250   12.481    0.315    0.441   48.736
  319.500   12.719    0.311    0.435   49.373
  319.750   12.961    0.326    0.432   50.007
  320.000   12.963    0.329    0.436   50.637
  320.250   12.965    0.316    0.441   50.661
  320.500   12.967    0.315    0.433   50.083
  320.750   13.214    0.322    0.426   50.118
  321.000   12.973    0.322    0.425   50.138
  321.250   12.974    0.322    0.423   50.160
  321.500   12.976    0.323    0.420   49.581
  321.750   12.979    0.325    0.412   49.608
  322.000   12.981    0.324    0.409   49.632
  322.250   12.984    0.323    0.414   49.660
  322.500   12.986    0.324    0.420   49.683
  322.750   12.748    0.329    0.424   49.706
  323.000   12.750    0.329    0.424   49.727
  323.250   12.752    0.326    0.415   49.747
  323.500   12.754    0.335    0.413   50.383
  323.750   12.756    0.337    0.421   51.631
  324.000   12.760    0.335    0.427   51.666
  324.250   12.761    0.331    0.431   51.071
  324.500   12.527    0.326    0.432   50.483
  324.750   12.298    0.320    0.438   52.946
  325.000   12.072    0.337    0.451   57.247
  325.250   12.074    0.342    0.461   60.327
  325.500   11.853    0.334    0.470   60.958
  325.750   11.854    0.338    0.472   59.152
  326.000   11.638    0.339    0.477   56.132
  326.250   11.639    0.343    0.480   54.930
  326.500   11.427    0.345    0.482   53.740
  326.750   11.429    0.355    0.479   51.941
  327.000   11.430    0.356    0.467   50.740
  327.250   11.220    0.351    0.460   47.720
  327.500   11.223    0.357    0.457   44.708
  327.750   11.225    0.358    0.473   44.111
  328.000   11.227    0.359    0.475   42.928
  328.250   11.228    0.356    0.469   42.329
  328.500   11.230    0.363    0.461   42.352
  328.750   11.024    0.365    0.457   42.992
  329.000   11.027    0.366    0.455   42.404
  329.250   11.029    0.361    0.452   41.818
  329.500   11.239    0.367    0.450   40.635
  329.750   11.241    0.370    0.453   40.051
  330.000   11.242    0.368    0.458   40.691
  330.250   11.244    0.362    0.462   41.327
  330.500   11.246    0.357    0.465   41.963
  330.750   11.460    0.356    0.469   42.599
  331.000   11.462    0.353    0.474   42.624
  331.250   11.463    0.351    0.475   42.034
  331.500   11.466    0.351    0.470   41.437
  331.750   11.468    0.349    0.465   39.647
  332.000   11.470    0.345    0.459   39.663
  332.250   11.688    0.344    0.453   39.075
  332.500   11.690    0.346    0.453   39.728
  332.750   11.693    0.352    0.466   39.148
  333.000   11.694    0.356    0.469   39.168
  333.250   11.696    0.358    0.469   39.186
  333.500   11.698    0.353    0.450   39.205
  333.750   11.700    0.350    0.443   38.009
  334.000   11.702    0.348    0.450   38.045
  334.250   11.704    0.352    0.452   38.061
  334.500   11.707    0.359    0.447   38.696
  334.750   11.709    0.359    0.446   38.730
  335.000   11.710    0.349    0.449   36.921
  335.250   11.713    0.346    0.452   36.340
  335.500   11.714    0.353    0.453   36.376
  335.750   11.716    0.353    0.454   37.003
  336.000   11.719    0.348    0.458   37.017
  336.250   11.504    0.352    0.454   36.441
  336.500   11.505    0.354    0.452   36.477
  336.750   11.295    0.356    0.452   35.886
  337.000   11.510    0.359    0.452   35.904
  337.250   11.729    0.356    0.453   37.158
  337.500   11.953    0.357    0.455   37.784
  337.750   11.094    0.362    0.458   39.050
  338.000   11.734    0.356    0.456   39.071
  338.250   11.738    0.347    0.456   38.478
  338.500   11.739    0.343    0.455   38.497
  338.750   11.962    0.352    0.457   37.914
  339.000   11.964    0.350    0.463   37.933
  339.250   11.967    0.349    0.457   38.583
  339.500   12.195    0.348    0.456   39.221
  339.750   13.389    0.351    0.463   39.232
  340.000   14.430    0.351    0.466   38.661
  340.250   15.845    0.347    0.455   38.675
  340.500   16.450    0.349    0.449   39.934
  340.750   18.062    0.339    0.439   41.169
  341.000   20.976    0.323    0.424   41.798
  341.250   24.359    0.319    0.371   40.001
  341.500   30.482    0.305    0.328   38.797
  341.750   36.065    0.199    0.248   36.390
  342.000   43.478    0.170    0.162   35.190
  342.250   45.990    0.052    0.140   34.605
  342.500   46.863    0.006    0.141   34.630
  342.750   42.695    0.000    0.197   33.441
  343.000   38.178    0.010    0.222   31.029
  343.250   36.103    0.088    0.252   32.277
  343.500   34.143    0.153    0.294   35.348
  343.750   34.793    0.231    0.329   35.376
  344.000   40.405    0.218    0.246   34.175
  344.250   44.365    0.158    0.184   32.986
  344.500   45.208    0.064    0.149   35.458
  344.750   38.944    0.000    0.150   37.930
  345.000   34.179    0.006    0.184   39.155
  345.250   29.996    0.084    0.225   41.621
  345.500   23.980    0.160    0.281   43.476
  345.750   20.656    0.254    0.386   45.943
  346.000   18.129    0.292    0.448   47.192
  346.250   16.210    0.271    0.458   48.435
  346.500   13.963    0.244    0.456   47.235
  346.750   13.206    0.288    0.456   47.262
