~VERSION INFORMATION
 VERS.                 2.0:   CWLS LOG ASCII STANDARD -VERSION 2.0
 WRAP.                  NO:   ONE LINE PER DEPTH STEP
~WELL INFORMATION BLOCK
#MNEM.UNIT           DATA                    DESCRIPTION OF MNEMONIC
#---------    -------------------            -------------------------------
# Generated from Intellog Unique Number	CC_80_83/WELL/2299
NULL.         -999.25                        : NULL_VALUE
WELL.         HB HORSER                      : Well_name    - WELL              
LOC .         07-23-083-13W4                 : Location     - LOCATION          
UWI .         00/07-23-083-13W400            : Uwi          - UNIQUE WELL ID    
ENTR.         DW                             : Entered      - ENTERED BY        
SRVC.         SCHLUMBERGER                   : Scn          - SERVICE COMPANY   
DATE.         17 MAR 75                      : Date         - LOG DATE
STRT.M        91.44                          : top_depth    - START DEPTH       
STOP.M        338.328                        : bot_depth    - STOP DEPTH        
STEP.M        0.3048                         : increment    - STEP LENGTH       
~CURVE INFORMATION BLOCK
#MNEM UNIT       ERCB CURVE CODE    CURVE DESCRIPTION
#-----------   ------------------   ----------------------------------
DEPT.M        00 001 00 00         : DEPTH        - DEPTH                       
DPHI.V/V      00 890 00 00         : PHID         - DENSITY POROSITY (LIMESTONE)
NPHI.V/V      00 330 00 00         : PHIN         - NEUTRON POROSITY (LIMESTONE)
GR  .API      00 310 00 00         : GR           - GAMMA RAY                   
ILD .OHMM     00 120 00 00         : RESD         - DEEP RESISTIVITY (DIL)      
~PARAMETER INFORMATION       
#MNEM.UNIT           DATA             DESCRIPTION OF MNEMONIC
#---------         -----------     ------------------------------
GL  .M        561.442              : gl           - GROUND LEVEL ELEVATION      
EREF.M        563.88               : kb           - ELEVATION OF DEPTH REFERENCE
DATM.M        563.88               : datum        - DATUM ELEVATION             
TDD .M        353.263              : tdd          - TOTAL DEPTH DRILLER         
RUN .         ONE                  : Run          - RUN NUMBER                  
ENG .         BILL                 : Engineer     - RECORDING ENGINEER          
WIT .         JIM                  : Witness      - WITNESSED BY                
MUD .         GEL                  : Mud_type     - MUD TYPE                    
MATR.         LIMESTONE            : Logunit      - NEUTRON MATRIX              
TMAX.C        23.8889              : BHT          - MAXIMUM RECORDED TEMPERATURE
BHTD.M        353.263              : BHTDEP       - MAXIMUM RECORDED TEMPERATURE
MATR.         1                    : LOGUNIT      - NEUTRON MATRIX              
RMT .C        25                   : MDTP         - TEMPERATURE OF MUD          
NEUT.         1                    : NEUTRON      - NEUTRON TYPE                
RESI.         0                    : RESIST       - RESISTIVITY TYPE            
RMC .OHMM     0.25                 : RMC          - RESISTIVITY OF MUD CAKE     
RMF .OHMM     0.25                 : RMF          - RESISTIVITY OF MUD FILTRATE 
SUFT.C        4                    : SUFT         - SURFACE TEMPERATURE         
~A  DEPTH     PHID     PHIN       GR     RESD
# ...
  250.544    0.214    0.443  102.595    8.994
  250.848    0.236    0.432   99.303    9.513
  251.153    0.239    0.443   95.195    9.880
  251.458    0.207    0.468   97.592    9.887
  251.763    0.189    0.475   99.171    9.358
  252.068    0.249    0.480   91.814    9.024
  252.372    0.223    0.485   86.898    9.028
  252.677    0.228    0.489   88.887    9.035
  252.982    0.222    0.468   94.123    9.040
  253.287    0.203    0.448   92.457    9.388
  253.591    0.230    0.458   92.007    9.751
  253.896    0.243    0.463   92.369    9.403
  254.201    0.224    0.449   90.703    9.233
  254.506    0.227    0.464   90.655    8.905
  254.811    0.213    0.470   95.490    8.908
  255.115    0.195    0.453   99.103    9.426
  255.420    0.204    0.444  101.091    9.609
  255.725    0.195    0.443   97.392    9.614
  256.030    0.196    0.442   96.131    9.621
  256.335    0.210    0.459   99.336    9.451
  256.639    0.209    0.471  102.545    9.113
  256.944    0.230    0.463  102.497    8.949
  257.249    0.212    0.447   96.365    8.792
  257.554    0.208    0.443   84.947    8.797
  257.859    0.205    0.467   83.680    8.966
  258.164    0.212    0.495   87.705    9.141
  258.468    0.233    0.523   94.154    9.148
  258.773    0.232    0.497   95.335    9.153
  259.078    0.213    0.468   91.633    8.663
  259.383    0.233    0.454   93.217    8.508
  259.688    0.201    0.454   94.386    7.905
  259.992    0.226    0.454   95.567    7.481
  260.297    0.238    0.492  101.213    6.697
  260.602    0.235    0.481   95.072    6.221
  260.907    0.244    0.481   95.030    5.673
  261.212    0.235    0.506  101.897    4.894
  261.516    0.264    0.517  105.914    4.143
  261.821    0.260    0.537  108.711    3.574
  262.126    0.248    0.563  110.698    3.382
  262.431    0.197    0.593  110.251    3.645
  262.736    0.214    0.558  100.463    4.558
  263.040    0.220    0.502   93.510    5.807
  263.345    0.163    0.457   92.250    7.127
  263.650    0.204    0.452   92.207    8.428
  263.955    0.227    0.473   91.759    9.430
  264.260    0.209    0.462   86.435    9.610
  264.565    0.143    0.454   92.890    9.981
  264.869    0.180    0.456   97.722   10.175
  265.174    0.205    0.469  102.960    9.995
  265.479    0.182    0.455  105.354    9.637
  265.784    0.179    0.446  101.657    9.290
  266.089    0.184    0.452   95.519    9.297
  266.393    0.182    0.463   93.443    9.302
  266.698    0.194    0.481   98.680    9.311
  267.003    0.167    0.479  105.546    9.490
  267.308    0.204    0.471  109.159    9.322
  267.613    0.176    0.500   98.148    8.987
  267.917    0.162    0.503  102.565    8.665
  268.222    0.178    0.491  105.778    8.355
  268.527    0.194    0.476  108.574    8.055
  268.832    0.225    0.491  108.943    5.770
  269.137    0.244    0.460   99.150    3.630
  269.441    0.260    0.487   84.483    3.372
  269.746    0.283    0.513   68.192    3.438
  270.051    0.255    0.540   71.800    3.991
  270.356    0.216    0.567   75.415    6.236
  270.661    0.204    0.500   76.996    7.653
  270.966    0.215    0.484   76.543    9.051
  271.270    0.214    0.474   78.537    8.255
  271.575    0.231    0.474   91.086    7.252
  271.880    0.227    0.446   94.698    6.141
  272.185    0.258    0.479   95.875    5.200
  272.490    0.248    0.503   98.269    4.321
  272.794    0.245    0.513   97.408    4.166
  273.099    0.208    0.508   98.996    4.575
  273.404    0.203    0.505   94.891    5.213
  273.709    0.208    0.487   95.248    5.940
  274.014    0.227    0.491   98.049    5.519
  274.318    0.203    0.527  105.106    4.185
  274.623    0.234    0.519  108.709    3.961
  274.928    0.211    0.521  115.554    3.892
  275.233    0.219    0.524  118.343    3.895
  275.538    0.163    0.548  104.898    3.971
  275.842    0.221    0.546   99.968    3.902
  276.147    0.234    0.506  106.822    3.833
  276.452    0.230    0.515  115.698    3.696
  276.757    0.254    0.492  123.760    3.631
  277.062    0.229    0.528  114.781    3.501
  277.367    0.158    0.553  105.387    3.376
  277.671    0.224    0.520   87.887    3.573
  277.976    0.256    0.423   73.628    4.227
  278.281    0.249    0.435   75.597    5.387
  278.586    0.208    0.465   80.827    7.125
  278.891    0.186    0.474   87.671    9.965
  279.195    0.203    0.455   94.112   12.466
  279.500    0.240    0.477   92.442   12.021
  279.805    0.279    0.500   81.430    9.990
  280.110    0.253    0.527   73.256    8.460
  280.415    0.251    0.420   56.157    8.158
  280.719    0.211    0.416   56.510    8.632
  281.024    0.233    0.443   71.476   11.207
  281.329    0.261    0.457   66.149   15.386
  281.634    0.252    0.442   61.223   17.539
  281.939    0.223    0.433   60.355   17.882
  282.243    0.232    0.419   63.148   18.233
  282.548    0.195    0.401   69.993   19.297
  282.853    0.171    0.398   79.276   20.046
  283.158    0.204    0.411   86.120   19.691
  283.463    0.229    0.449   85.655   17.305
  283.768    0.237    0.448   78.300   14.649
  284.072    0.225    0.425   78.651   11.951
  284.377    0.209    0.432   98.084    9.749
  284.682    0.230    0.465   98.844    9.059
  284.987    0.238    0.463   92.698    8.899
  285.292    0.251    0.463   93.462    9.243
  285.596    0.251    0.447  100.308   10.538
  285.901    0.226    0.445  112.021   12.236
  286.206    0.252    0.461  111.564   14.749
  286.511    0.248    0.475   97.709   16.505
  286.816    0.131    0.438   65.592   17.146
  287.120    0.169    0.373   70.414   18.487
  287.425    0.275    0.435   74.826   19.925
  287.730    0.271    0.451   66.650   24.017
  288.035    0.241    0.413   60.516   30.607
  288.340    0.243    0.422   64.111   39.005
  288.644    0.213    0.400   59.596   45.303
  288.949    0.141    0.355   73.751   46.188
  289.254    0.175    0.342   98.045   34.333
  289.559    0.185    0.398  102.450   20.045
  289.864    0.191    0.401  103.207   14.356
  290.169    0.225    0.426   97.077   12.854
  290.473    0.249    0.446   87.686   13.104
  290.778    0.221    0.439   94.120   15.219
  291.083    0.193    0.428   91.638   17.348
  291.388    0.219    0.432   82.660   20.148
  291.693    0.165    0.378   81.387   20.931
  291.997    0.158    0.402   92.293   18.735
  292.302    0.196    0.396   94.268   16.160
  292.607    0.191    0.419   93.804   15.014
  292.912    0.198    0.397   86.856   14.215
  293.217    0.233    0.391   80.312   14.226
  293.521    0.266    0.406   68.083   15.053
  293.826    0.285    0.400   70.463   16.845
  294.131    0.230    0.387   78.123   18.503
  294.436    0.241    0.399   85.778   19.215
  294.741    0.214    0.430  104.398   18.530
  295.045    0.201    0.418  107.995   15.985
  295.350    0.215    0.440  105.103   12.799
  295.655    0.210    0.445  100.584   10.248
  295.960    0.191    0.460  111.895    8.841
  296.265    0.213    0.466  111.434    8.063
  296.570    0.217    0.470   92.714    7.775
  296.874    0.215    0.463   94.690    7.500
  297.179    0.192    0.458  101.944    7.503
  297.484    0.199    0.454   99.453    8.398
  297.789    0.235    0.449   97.776    9.224
  298.094    0.216    0.457   96.912    9.404
  298.398    0.211    0.446   88.333    9.411
  298.703    0.224    0.448   85.441    9.419
  299.008    0.240    0.452   87.408    9.785
  299.313    0.222    0.441   86.149   10.163
  299.618    0.238    0.429   77.164   11.586
  299.922    0.256    0.456   69.805   13.456
  300.227    0.240    0.447   71.376   15.626
  300.532    0.228    0.450   74.569   18.143
  300.837    0.227    0.417   81.824   20.689
  301.142    0.233    0.428   91.105   20.326
  301.446    0.217    0.453   95.105   19.235
  301.751    0.203    0.468   89.375   16.589
  302.056    0.235    0.457   86.481   12.800
  302.361    0.244    0.450   76.283   11.895
  302.666    0.259    0.449   66.081   13.062
  302.971    0.267    0.449   57.916   16.340
  303.275    0.276    0.434   54.198   20.441
