~VERSION INFORMATION
 VERS.                 2.0:   CWLS LOG ASCII STANDARD -VERSION 2.0
 WRAP.                  NO:   ONE LINE PER DEPTH STEP
~WELL INFORMATION BLOCK
#MNEM.UNIT           DATA                    DESCRIPTION OF MNEMONIC
#---------    -------------------            -------------------------------
# Generated from Intellog Unique Number	CN_94_101/WELL/2618
WELL.         PARAMOUNT RESOURCES LTD.       : Well_name    - WELL
LOC .         00/07-05-094-18W4/0            : Location     - LOCATION
UWI .         00/07-05-094-18W400            : Uwi          - UNIQUE WELL ID
ENTR.         JOETTE                         : Entered      - ENTERED BY
SRVC.         COMPUTALOG                     : Scn          - SERVICE COMPANY
DATE.         06\18\92                       : Date         - LOG DATE
STRT.M        100                            : top_depth    - START DEPTH
STOP.M        254                            : bot_depth    - STOP DEPTH
STEP.M        0.25                           : increment    - STEP LENGTH
 NULL. -999.2500:NULL Value
~CURVE INFORMATION BLOCK
#MNEM UNIT       ERCB CURVE CODE    CURVE DESCRIPTION
#-----------   ------------------   ----------------------------------
DEPT.M        00 001 00 00         : DEPTH        - DEPTH
CALI.MM       00 280 01 00         : CAL          - CALIPER
GR  .API      00 310 00 00         : GR           - GAMMA RAY
NPHI.V/V      00 330 00 00         : PHIN         - NEUTRON POROSITY (SANDSTONE)
DPHI.V/V      00 890 00 00         : PHID         - DENSITY POROSITY (SANDSTONE)
ILD .OHMM     00 120 00 00         : RESD         - DEEP RESISTIVITY (DIL)
~PARAMETER INFORMATION
#MNEM.UNIT           DATA             DESCRIPTION OF MNEMONIC
#---------         -----------     ------------------------------
GL  .M        522                  : gl           - GROUND LEVEL ELEVATION
EREF.M        525.8                : kb           - ELEVATION OF DEPTH REFERENCE
DATM.M        525.8                : datum        - DATUM ELEVATION
TDD .M        253                  : tdd          - TOTAL DEPTH DRILLER
RUN .         ONE                  : Run          - RUN NUMBER
ENG .         JO                   : Engineer     - RECORDING ENGINEER
WIT .         TIM                  : Witness      - WITNESSED BY
MUD .         GEL                  : Mud_type     - MUD TYPE
MATR.         SANDSTONE            : Logunit      - NEUTRON MATRIX
TMAX.C        26                   : BHT          - MAXIMUM RECORDED TEMPERATURE
BHTD.M        253                  : BHTDEP       - MAXIMUM RECORDED TEMPERATURE
RMT .C        16                   : MDTP         - TEMPERATURE OF MUD
MUDD.KG/M     1090                 : MWT          - MUD DENSITY
NEUT.         1                    : NEUTRON      - NEUTRON TYPE
RESI.         0                    : RESIST       - RESISTIVITY TYPE
RM  .OHMM     3.4                  : RM           - RESISTIVITY OF MUD
RMC .OHMM     3.4                  : RMC          - RESISTIVITY OF MUD CAKE
RMF .OHMM     3.4                  : RMF          - RESISTIVITY OF MUD FILTRATE
SUFT.C        4                    : SUFT         - SURFACE TEMPERATURE
~A  DEPTH      CAL       GR     PHIN     PHID     RESD
  100.000  180.831   82.456    0.500    0.286    6.946
  100.250  180.953   84.367    0.497    0.292    6.335
  100.500  180.121   86.826    0.501    0.291    6.118
  100.750  177.300   88.165    0.507    0.258    6.367
  101.000  172.492   86.424    0.505    0.231    6.499
  101.250  168.678   85.329    0.482    0.199    6.763
  101.500  166.892   88.432    0.470    0.239    6.782
  101.750  166.974   93.301    0.477    0.253    6.797
  102.000  167.217   98.194    0.466    0.259    6.684
  102.250  167.338   99.485    0.465    0.255    6.455
  102.500  167.460   96.575    0.452    0.253    6.341
  102.750  167.703   96.076    0.475    0.258    6.237
  103.000  166.790   97.415    0.494    0.249    6.137
  103.250  168.068   95.674    0.475    0.228    6.035
  103.500  170.137   90.403    0.460    0.231    6.049
  103.750  172.328   88.711    0.461    0.257    6.177
  104.000  169.548   89.429    0.464    0.269    6.305
  104.250  167.641   91.316    0.474    0.276    6.566
  104.500  165.815   89.003    0.480    0.281    6.967
  104.750  169.994   80.154    0.463    0.282    6.975
  105.000  171.110   80.251    0.434    0.283    6.859
  105.250  173.260   82.162    0.432    0.282    6.750
  105.500  173.463   84.073    0.438    0.267    6.890
  105.750  172.590   84.718    0.449    0.238    7.170
  106.000  170.764   85.436    0.439    0.230    7.478
  106.250  167.031   85.509    0.430    0.236    7.482
  106.500  166.118   87.396    0.426    0.251    7.359
  106.750  170.297   89.903    0.427    0.268    7.102
  107.000  172.448   92.386    0.431    0.275    6.604
  107.250  172.569   92.483    0.441    0.281    6.252
  107.500  171.778   92.009    0.470    0.282    5.813
  107.750  170.905   92.082    0.478    0.276    5.714
  108.000  169.120   92.775    0.477    0.268    5.724
  108.250  167.334   93.493    0.467    0.275    5.963
  108.500  167.456   91.777    0.463    0.280    6.199
  108.750  165.630   86.482    0.471    0.291    6.455
  109.000  163.844   72.240    0.491    0.301    6.849
  109.250  162.972   63.987    0.466    0.339    7.264
  109.500  162.099   55.734    0.414    0.347    7.704
  109.750  162.343   59.386    0.418    0.332    8.017
  110.000  163.418   63.086    0.464    0.326    8.502
  110.250  164.574   60.201    0.438    0.333    8.678
  110.500  166.765   58.484    0.407    0.332    8.868
  110.750  168.874   62.185    0.393    0.329    8.554
  111.000  172.019   75.428    0.419    0.320    7.806
  111.250  176.198   82.087    0.453    0.295    7.389
  111.500  177.476   90.583    0.465    0.290    6.743
  111.750  177.516   93.638    0.479    0.271    6.382
  112.000  176.684   96.718    0.485    0.265    5.715
  112.250  173.905   97.436    0.490    0.261    5.510
  112.500  173.073   96.316    0.498    0.264    5.419
  112.750  171.247   93.431    0.506    0.273    5.859
  113.000  168.467   87.563    0.488    0.283    6.332
  113.250  166.601   81.672    0.444    0.277    7.114
  113.500  165.728   77.594    0.432    0.254    7.400
  113.750  166.884   81.270    0.431    0.240    7.553
  114.000  171.063   84.995    0.442    0.247    7.574
  114.250  175.242   85.713    0.462    0.259    7.305
  114.500  176.399   85.761    0.485    0.270    6.793
  114.750  176.520   87.076    0.505    0.267    6.678
  115.000  175.648   88.962    0.523    0.260    6.574
  115.250  172.868   90.825    0.524    0.247    6.711
  115.500  170.007   84.361    0.492    0.194    6.980
  115.750  166.234   87.441    0.466    0.188    7.264
  116.000  166.396   92.309    0.442    0.217    7.419
  116.250  169.581   98.992    0.448    0.237    7.435
  116.500  171.650  100.879    0.452    0.240    7.312
  116.750  174.875   99.783    0.460    0.242    7.191
  117.000  175.038   94.537    0.478    0.250    6.815
  117.250  175.159   94.037    0.485    0.259    6.573
  117.500  173.374   95.376    0.496    0.251    6.236
  117.750  172.501   96.046    0.503    0.246    6.246
  118.000  170.675   96.691    0.503    0.249    6.256
  118.250  168.849   96.788    0.471    0.252    6.267
  118.500  167.023   95.120    0.446    0.248    6.281
  118.750  164.203   93.453    0.440    0.234    6.298
  119.000  163.330   93.501    0.433    0.226    6.432
  119.250  162.539   94.219    0.468    0.235    6.446
  119.500  162.742   94.913    0.485    0.245    6.339
  119.750  162.863   96.775    0.496    0.253    6.235
  120.000  162.985   99.258    0.508    0.258    6.132
  120.250  163.188  101.145    0.514    0.262    5.915
  120.500  163.350   98.881    0.506    0.264    5.708
  120.750  164.506   95.375    0.496    0.259    5.512
  121.000  164.668   90.701    0.467    0.258    5.421
  121.250  165.865   88.412    0.437    0.264    5.433
  121.500  166.980   90.299    0.443    0.272    5.442
  121.750  168.096   92.185    0.446    0.268    5.457
  122.000  170.287   94.072    0.426    0.258    5.573
  122.250  172.478   95.387    0.439    0.246    5.914
  122.500  172.599   91.881    0.445    0.241    6.033
  122.750  173.756   84.821    0.419    0.243    6.523
  123.000  172.964   81.339    0.416    0.233    7.053
  123.250  168.156   82.033    0.416    0.185    7.480
  123.500  165.255   88.095    0.474    0.166    7.639
  123.750  164.423   98.332    0.501    0.151    6.964
  124.000  169.636  103.846    0.515    0.157    5.887
  124.250  171.746  102.129    0.511    0.207    4.705
  124.500  172.943   99.889    0.505    0.233    4.211
  124.750  172.111   99.962    0.499    0.258    4.066
  125.000  172.273  101.849    0.486    0.264    4.230
  125.250  170.447  103.736    0.488    0.266    4.402
  125.500  169.575  105.622    0.512    0.272    4.671
  125.750  167.749  106.937    0.519    0.269    4.858
  126.000  164.969  107.582    0.499    0.258    4.869
  126.250  165.091  108.276    0.488    0.244    4.885
  126.500  165.253  108.373    0.479    0.258    4.802
  126.750  168.438  105.512    0.485    0.257    4.545
  127.000  169.553  105.634    0.498    0.242    4.148
  127.250  169.797  106.279    0.518    0.247    3.928
  127.500  169.878  106.997    0.532    0.270    4.016
  127.750  171.074  104.112    0.504    0.286    4.097
  128.000  171.196  100.034    0.496    0.283    4.428
  128.250  173.387   97.149    0.486    0.278    4.785
  128.500  174.502   93.668    0.488    0.267    4.977
  128.750  176.653   92.548    0.482    0.242    5.490
  129.000  176.815   92.694    0.477    0.238    5.601
  129.250  177.018   93.960    0.470    0.233    5.720
  129.500  177.180   96.443    0.468    0.239    5.629
  129.750  177.301   96.540    0.498    0.246    5.638
  130.000  177.504   90.052    0.489    0.248    5.551
  130.250  177.707   75.214    0.456    0.267    5.663
  130.500  173.852   75.907    0.448    0.325    6.009
  130.750  167.015   81.373    0.423    0.319    6.250
  131.000  163.241   91.634    0.403    0.288    6.628
  131.250  161.375   92.352    0.412    0.253    7.033
  131.500  159.630   89.467    0.435    0.240    7.045
  131.750  160.705   90.733    0.445    0.172    6.799
  132.000  162.855   94.409    0.455    0.212    6.565
  132.250  165.005   96.296    0.465    0.233    6.461
  132.500  168.150   94.007    0.462    0.248    6.591
  132.750  171.335   89.357    0.459    0.249    6.738
  133.000  172.491   85.851    0.461    0.252    6.746
  133.250  173.647   81.749    0.461    0.269    6.518
  133.500  174.844   83.684    0.428    0.265    6.173
  133.750  175.006   87.336    0.422    0.254    5.843
  134.000  175.128   91.633    0.446    0.207    5.531
  134.250  172.348   91.730    0.461    0.153    5.047
  134.500  171.557   94.213    0.468    0.153    4.691
  134.750  170.684   99.082    0.491    0.204    4.443
  135.000  169.812  106.337    0.504    0.222    4.207
  135.250  169.061  109.441    0.510    0.234    3.987
  135.500  169.182  106.556    0.516    0.234    3.994
  135.750  169.304  104.863    0.521    0.234    4.079
  136.000  169.507  103.196    0.503    0.237    4.410
  136.250  169.628  100.883    0.500    0.241    4.585
