~VERSION INFORMATION
 VERS.                 2.0:   CWLS LOG ASCII STANDARD -VERSION 2.0
 WRAP.                  NO:   ONE LINE PER DEPTH STEP
~WELL INFORMATION BLOCK
#MNEM.UNIT           DATA                    DESCRIPTION OF MNEMONIC
#---------    -------------------            -------------------------------
# Generated from Intellog Unique Number	CW_79_81/WELL/2461
WELL.         07-23-081-22W4                 : Well_name    - WELL
LOC .         00/07-23-081-22W4/0            : Location     - LOCATION
UWI .         00/07-23-081-22W4/0            : Uwi          - UNIQUE WELL ID
ENTR.         MAX                            : Entered      - ENTERED BY
SRVC.         SCHLUMBERGER                   : Scn          - SERVICE COMPANY
STRT.M        225                            : top_depth    - START DEPTH
STOP.M        439.75                         : bot_depth    - STOP DEPTH
STEP.M        0.25                           : increment    - STEP LENGTH
 NULL. -999.2500:NULL Value
~CURVE INFORMATION BLOCK
#MNEM UNIT       ERCB CURVE CODE    CURVE DESCRIPTION
#-----------   ------------------   ----------------------------------
DEPT.M        00 001 00 00         : DEPTH        - DEPTH
ILD .OHMM     00 120 00 00         : RESD         - DEEP RESISTIVITY (DIL)
NPHI.V/V      00 330 00 00         : PHIN         - NEUTRON POROSITY (SANDSTONE)
DPHI.V/V      00 890 00 00         : PHID         - DENSITY POROSITY (SANDSTONE)
GR  .API      00 310 00 00         : GR           - GAMMA RAY
CALI.MM       00 280 01 00         : CAL          - CALIPER
~PARAMETER INFORMATION
#MNEM.UNIT           DATA             DESCRIPTION OF MNEMONIC
#---------         -----------     ------------------------------
GL  .M        610.7                : gl           - GROUND LEVEL ELEVATION
EREF.M        614                  : kb           - ELEVATION OF DEPTH REFERENCE
DATM.M        610.7                : datum        - DATUM ELEVATION
TDD .M        450                  : tdd          - TOTAL DEPTH DRILLER
RUN .         ONE                  : Run          - RUN NUMBER
ENG .         BILL                 : Engineer     - RECORDING ENGINEER
WIT .         JIM                  : Witness      - WITNESSED BY
MUD .         GEL                  : Mud_type     - MUD TYPE
MATR.         SANDSTONE            : Logunit      - NEUTRON MATRIX
TMAX.C        30                   : BHT          - MAXIMUM RECORDED TEMPERATURE
BHTD.M        450                  : BHTDEP       - MAXIMUM RECORDED TEMPERATURE
MATR.         1                    : LOGUNIT      - NEUTRON MATRIX
RMT .C        21                   : MDTP         - TEMPERATURE OF MUD
NEUT.         1                    : NEUTRON      - NEUTRON TYPE
RESI.         0                    : RESIST       - RESISTIVITY TYPE
RMC .OHMM     4.03                 : RMC          - RESISTIVITY OF MUD CAKE
RMF .OHMM     4.42                 : RMF          - RESISTIVITY OF MUD FILTRATE
SUFT.C        -20                  : SUFT         - SURFACE TEMPERATURE
~A  DEPTH     RESD     PHIN     PHID       GR      CAL
# ...
  371.000    9.658    0.464    0.223   96.431  225.504
  371.250    9.868    0.452    0.223   93.898  226.643
  371.500   10.046    0.443    0.218   93.090  227.181
  371.750   10.112    0.455    0.210   92.911  227.195
  372.000   10.104    0.456    0.223   93.375  227.549
  372.250   10.172    0.456    0.227   95.007  227.498
  372.500   10.410    0.444    0.216   95.565  227.145
  372.750   10.829    0.435    0.206   95.529  226.695
  373.000   11.334    0.434    0.207   95.081  226.345
  373.250   11.701    0.435    0.218   93.698  226.358
  373.500   11.875    0.444    0.199   91.679  226.706
  373.750   11.867    0.445    0.199   89.503  226.660
  374.000   11.728    0.439    0.208   90.718  226.606
  374.250   11.505    0.435    0.215   94.137  226.943
  374.500   11.247    0.437    0.217   97.793  227.578
  374.750   10.907    0.450    0.221   98.989  227.913
  375.000   10.490    0.473    0.228   99.205  227.860
  375.250   10.330    0.482    0.229   94.649  227.803
  375.500   10.286    0.481    0.214   92.408  227.742
  375.750   10.242    0.466    0.204   92.376  227.682
  376.000   10.179    0.449    0.206   93.896  227.726
  376.250   10.155    0.460    0.216   95.958  228.061
  376.500   10.070    0.468    0.217   96.914  228.008
  376.750    9.988    0.458    0.214   97.835  226.761
  377.000    9.908    0.438    0.202   98.397  225.807
  377.250    9.830    0.425    0.195   99.075  225.949
  377.500    9.770    0.423    0.198   99.754  227.285
  377.750    9.777    0.424    0.217   99.273  229.199
  378.000    9.844    0.429    0.208   97.003  229.140
  378.250    9.910    0.446    0.206   96.731  228.693
  378.500    9.977    0.459    0.206   98.065  228.538
  378.750   10.044    0.463    0.211   99.818  229.275
  379.000   10.093    0.460    0.212  100.918  230.508
  379.250   10.053    0.466    0.190  100.057  230.677
  379.500    9.893    0.464    0.157   98.286  229.791
  379.750    9.670    0.444    0.158   97.296  228.148
  380.000    9.453    0.435    0.168   98.278  227.104
  380.250    9.170    0.434    0.191   99.675  226.452
  380.500    8.866    0.433    0.215  100.533  225.895
  380.750    8.640    0.429    0.214   99.944  225.280
  381.000    8.502    0.422    0.203   97.185  226.454
  381.250    8.498    0.439    0.200   98.572  225.616
  381.500    8.586    0.444    0.198   99.966  223.578
  381.750    8.864    0.439    0.194  100.294  221.343
  382.000    9.295    0.428    0.190   98.956  219.504
  382.250    9.810    0.415    0.203   94.826  218.074
  382.500   10.757    0.396    0.214   89.836  217.189
  382.750   12.245    0.386    0.210   85.042  216.747
  383.000   14.390    0.386    0.200   81.847  216.594
  383.250   17.652    0.381    0.184   79.788  216.338
  383.500   22.209    0.355    0.158   77.082  215.882
  383.750   27.654    0.291    0.125   69.624  215.408
  384.000   38.499    0.293    0.190   64.633  215.361
  384.250   40.788    0.373    0.209   64.358  215.298
  384.500   38.898    0.404    0.229   66.584  215.248
  384.750   33.157    0.413    0.226   70.359  215.194
  385.000   27.296    0.407    0.195   74.135  215.133
  385.250   23.550    0.363    0.141   76.006  215.067
  385.500   22.478    0.324    0.116   77.221  215.020
  385.750   22.464    0.313    0.168   75.994  214.963
  386.000   22.449    0.332    0.213   75.128  214.902
  386.250   22.433    0.372    0.242   74.856  214.443
  386.500   22.375    0.411    0.250   75.000  213.791
  386.750   22.462    0.411    0.222   74.568  213.822
  387.000   23.872    0.379    0.186   72.546  214.176
  387.250   26.986    0.340    0.093   68.228  214.510
  387.500   32.602    0.288    0.074   66.230  214.556
  387.750   36.723    0.262    0.083   65.603  214.505
  388.000   35.717    0.270    0.098   65.870  214.550
  388.250   30.672    0.305    0.130   67.516  214.956
  388.500   24.667    0.367    0.172   69.953  215.316
  388.750   20.739    0.390    0.204   72.781  216.449
  389.000   18.095    0.421    0.209   75.965  217.876
  389.250   16.211    0.436    0.203   79.620  219.210
  389.500   14.848    0.432    0.199   82.737  220.152
  389.750   13.805    0.424    0.204   83.821  220.393
  390.000   13.379    0.432    0.216   87.012  219.927
  390.250   12.982    0.438    0.216   88.406  219.870
  390.500   12.596    0.443    0.225   87.477  219.809
  390.750   12.314    0.449    0.229   86.253  219.556
  391.000   12.237    0.450    0.223   84.913  219.011
  391.250   12.704    0.422    0.196   81.037  218.063
  391.500   13.823    0.395    0.160   77.279  217.603
  391.750   15.514    0.361    0.130   74.393  217.149
  392.000   17.154    0.325    0.151   72.217  216.985
  392.250   18.014    0.311    0.178   71.110  217.325
  392.500   17.699    0.326    0.195   71.730  218.169
  392.750   16.104    0.359    0.214   75.819  219.454
  393.000   14.151    0.389    0.206   79.744  220.216
  393.250   12.933    0.413    0.207   79.954  219.768
  393.500   12.167    0.429    0.201   80.514  219.320
  393.750   11.768    0.432    0.198   80.003  218.872
  394.000   11.610    0.426    0.202   78.482  218.324
  394.250   11.568    0.426    0.200   77.394  217.379
  394.500   11.831    0.418    0.179   76.866  216.907
  394.750   12.717    0.389    0.165   76.118  216.057
  395.000   13.748    0.375    0.151   75.191  215.504
  395.250   15.154    0.361    0.138   74.323  215.249
  395.500   16.615    0.345    0.138   74.168  215.389
  395.750   16.594    0.336    0.178   76.693  216.276
  396.000   15.962    0.354    0.193   81.120  217.055
  396.250   14.477    0.383    0.202   85.373  217.401
  396.500   13.677    0.412    0.199   86.584  218.039
  396.750   13.027    0.425    0.200   87.147  218.773
  397.000   12.414    0.421    0.206   88.012  219.408
  397.250   11.864    0.419    0.206   88.534  219.743
  397.500   11.411    0.426    0.209   87.758  219.689
  397.750   11.072    0.429    0.196   86.289  220.426
  398.000   10.742    0.427    0.194   86.975  221.162
  398.250   10.462    0.424    0.200   88.848  221.896
  398.500   10.246    0.423    0.205   91.490  222.532
  398.750   10.090    0.429    0.200   94.774  223.034
  399.000   10.083    0.430    0.186   93.499  223.790
  399.250   10.076    0.434    0.163   91.803  224.135
  399.500   10.124    0.433    0.136   92.240  224.779
  399.750   10.042    0.424    0.135   94.348  225.322
  400.000    9.780    0.414    0.159   97.591  225.865
  400.250    9.405    0.423    0.170  101.706  227.069
  400.500    9.326    0.418    0.168  103.410  227.423
  400.750    9.251    0.428    0.193  105.041  228.154
  401.000    9.229    0.432    0.200  105.784  228.600
  401.250    9.120    0.434    0.205  105.869  229.141
  401.500    8.915    0.435    0.207  105.772  229.675
  401.750    8.688    0.427    0.195  106.403  229.608
  402.000    8.549    0.417    0.200  107.366  229.554
  402.250    8.418    0.413    0.200  107.808  228.710
  402.500    8.428    0.411    0.190  107.000  227.560
  402.750    8.823    0.409    0.177  105.419  226.310
  403.000    9.825    0.408    0.163  103.362  225.162
  403.250   12.191    0.412    0.141   99.851  224.137
  403.500   14.927    0.396    0.139   94.365  223.264
  403.750   18.104    0.399    0.172   90.761  222.408
  404.000   20.606    0.395    0.193   90.194  221.263
  404.250   22.438    0.397    0.204   90.636  219.818
  404.500   23.670    0.405    0.207   90.362  218.172
  404.750   24.039    0.412    0.191   87.795  216.109
  405.000   24.209    0.400    0.180   87.012  213.984
  405.250   24.014    0.396    0.176   86.743  212.737
  405.500   23.297    0.409    0.196   85.399  212.982
  405.750   22.098    0.412    0.213   85.247  214.909
  406.000   20.590    0.400    0.219   84.564  218.024
  406.250   18.841    0.394    0.222   75.934  220.724
  406.500   18.123    0.399    0.228   67.466  218.587
  406.750   19.340    0.382    0.254   64.100  211.403
  407.000   23.103    0.378    0.265   60.912  206.291
  407.250   28.205    0.382    0.272   55.761  203.655
