~VERSION INFORMATION
 VERS.                 2.0:   CWLS LOG ASCII STANDARD -VERSION 2.0
 WRAP.                  NO:   ONE LINE PER DEPTH STEP
~WELL INFORMATION BLOCK
#MNEM.UNIT           DATA                    DESCRIPTION OF MNEMONIC
#---------    -------------------            -------------------------------
# Generated from Intellog Unique Number	CS_73_76/WELL/956
WELL.         CANADIAN WORLDWIDE ENERGY      : Well_name    - WELL
LOC .         00/02-26-076-04W4/0            : Location     - LOCATION
UWI .         00/02-26-076-04W4/0            : Uwi          - UNIQUE WELL ID
ENTR.         SP                             : Entered      - ENTERED BY
SRVC.         SCHLUMBERGER                   : Scn          - SERVICE COMPANY
STRT.M        200                            : top_depth    - START DEPTH
STOP.M        450                            : bot_depth    - STOP DEPTH
STEP.M        0.25                           : increment    - STEP LENGTH
 NULL. -999.2500:NULL Value
~CURVE INFORMATION BLOCK
#MNEM UNIT       ERCB CURVE CODE    CURVE DESCRIPTION
#-----------   ------------------   ----------------------------------
DEPT.M        00 001 00 00         : DEPTH        - DEPTH
ILD .OHMM     00 120 00 00         : RESD         - DEEP RESISTIVITY (DIL)
GR  .API      00 310 00 00         : GR           - GAMMA RAY
NPHI.V/V      00 330 00 00         : PHIN         - NEUTRON POROSITY (LIMESTONE)
DPHI.V/V      00 890 00 00         : PHID         - DENSITY POROSITY (LIMESTONE)
~PARAMETER INFORMATION
#MNEM.UNIT           DATA             DESCRIPTION OF MNEMONIC
#---------         -----------     ------------------------------
GL  .M        587.6                : gl           - GROUND LEVEL ELEVATION
EREF.M        591.1                : kb           - ELEVATION OF DEPTH REFERENCE
DATM.M        587.6                : datum        - DATUM ELEVATION
TDD .M        460                  : tdd          - TOTAL DEPTH DRILLER
RUN .         ONE                  : Run          - RUN NUMBER
ENG .         BILL                 : Engineer     - RECORDING ENGINEER
WIT .         JIM                  : Witness      - WITNESSED BY
MUD .         GEL                  : Mud_type     - MUD TYPE
MATR.         LIMESTONE            : Logunit      - NEUTRON MATRIX
TMAX.C        23                   : BHT          - MAXIMUM RECORDED TEMPERATURE
BHTD.M        460                  : BHTDEP       - MAXIMUM RECORDED TEMPERATURE
MATR.         1                    : LOGUNIT      - NEUTRON MATRIX
RMT .C        25                   : MDTP         - TEMPERATURE OF MUD
NEUT.         1                    : NEUTRON      - NEUTRON TYPE
RESI.         0                    : RESIST       - RESISTIVITY TYPE
RMC .OHMM     0.25                 : RMC          - RESISTIVITY OF MUD CAKE
RMF .OHMM     0.25                 : RMF          - RESISTIVITY OF MUD FILTRATE
SUFT.C        15                   : SUFT         - SURFACE TEMPERATURE
~A  DEPTH     RESD       GR     PHIN     PHID
# ...
  417.500   66.621   34.608    0.295    0.247
  417.750   65.428   33.993    0.300    0.250
  418.000   64.239   33.383    0.295    0.253
  418.250   61.900   32.774    0.291    0.254
  418.500   57.440   32.786    0.289    0.252
  418.750   53.301   32.796    0.285    0.251
  419.000   48.545   32.187    0.285    0.248
  419.250   44.210   33.435    0.296    0.251
  419.500   39.512   36.547    0.317    0.270
  419.750   37.359   37.174    0.332    0.308
  420.000   34.027   34.706    0.353    0.324
  420.250   30.988   32.858    0.381    0.329
  420.500   28.754   31.628    0.380    0.333
  420.750   26.186   32.877    0.391    0.346
  421.000   23.404   33.506    0.398    0.367
  421.250   21.315   37.858    0.391    0.367
  421.500   19.049   42.205    0.384    0.348
  421.750   16.707   50.273    0.386    0.338
  422.000   13.590   58.961    0.388    0.317
  422.250   11.697   58.353    0.384    0.296
  422.500    9.695   60.221    0.395    0.270
  422.750    7.740   70.150    0.402    0.284
  423.000    6.415   64.581    0.386    0.313
  423.250    5.627   46.615    0.382    0.330
  423.500    5.029   48.490    0.393    0.340
  423.750    4.666   48.497    0.381    0.354
  424.000    4.413   46.648    0.374    0.341
  424.250    4.173   44.178    0.373    0.336
  424.500    4.021   47.907    0.383    0.324
  424.750    3.803   54.737    0.397    0.299
  425.000    3.664   62.185    0.389    0.301
  425.250    3.598   54.136    0.383    0.337
  425.500    3.467   42.990    0.374    0.344
  425.750    3.404   41.141    0.373    0.345
  426.000    3.406   41.772    0.377    0.341
  426.250    3.408   44.262    0.374    0.332
  426.500    3.475   49.229    0.373    0.323
  426.750    3.610   58.537    0.372    0.310
  427.000    3.751   69.085    0.379    0.296
  427.250    3.897   80.872    0.395    0.283
  427.500    4.125   89.560    0.407    0.267
  427.750    4.286   91.431    0.418    0.248
  428.000    4.538   89.583    0.422    0.245
  428.250    4.715   88.351    0.421    0.243
  428.500    4.717   87.122    0.426    0.236
  428.750    4.719   85.272    0.428    0.234
  429.000    4.634   85.905    0.420    0.231
  429.250    4.637   87.159    0.409    0.235
  429.500    4.553   87.783    0.407    0.244
  429.750    4.387   88.413    0.413    0.255
  430.000    4.227   84.085    0.418    0.267
  430.250    4.073   76.656    0.420    0.282
  430.500    3.925   71.708    0.407    0.290
  430.750    3.783   74.198    0.417    0.288
  431.000    3.714   68.010    0.419    0.295
  431.250    3.647   61.821    0.399    0.306
  431.500    3.649   49.436    0.389    0.317
  431.750    3.583   48.207    0.371    0.314
  432.000    3.518   53.795    0.368    0.299
  432.250    3.455   81.078    0.378    0.285
  432.500    3.456   77.369    0.385    0.278
  432.750    3.459   67.462    0.389    0.287
  433.000    3.460   54.456    0.373    0.304
  433.250    3.529   47.647    0.364    0.321
  433.500    3.530   46.421    0.359    0.317
  433.750    3.667   48.291    0.357    0.316
  434.000    3.739   50.159    0.354    0.306
  434.250    3.886   53.268    0.350    0.295
  434.500    3.887   58.240    0.338    0.288
  434.750    4.040   60.106    0.334    0.278
  435.000    4.041   60.737    0.337    0.273
  435.250    4.043   55.789    0.340    0.273
  435.500    4.123   47.121    0.340    0.280
  435.750    4.125   40.934    0.335    0.283
  436.000    4.205   37.224    0.328    0.283
  436.250    4.288   34.136    0.319    0.283
  436.500    4.371   33.525    0.308    0.279
  436.750    4.628   34.776    0.286    0.267
  437.000    4.993   36.645    0.273    0.249
  437.250    5.286   37.275    0.255    0.231
  437.500    5.491   34.186    0.251    0.221
  437.750    5.706   35.437    0.248    0.221
  438.000    5.817   39.786    0.260    0.210
  438.250    5.931   63.969    0.297    0.199
  438.500    5.934  104.270    0.325    0.189
  438.750    5.828  108.618    0.350    0.184
  439.000    5.831   99.954    0.367    0.185
  439.250    5.725   93.143    0.370    0.193
  439.500    5.728   76.417    0.370    0.207
  439.750    5.625   70.230    0.368    0.216
  440.000    5.627   75.200    0.366    0.221
  440.250    5.526   81.409    0.362    0.218
  440.500    5.425   88.855    0.367    0.201
  440.750    5.327   69.652    0.384    0.181
  441.000    5.134   52.305    0.379    0.195
  441.250    5.040   38.059    0.362    0.244
  441.500    4.766   43.029    0.356    0.255
  441.750    4.423   36.844    0.353    0.280
  442.000    4.105   31.896    0.360    0.310
  442.250    3.882   26.945    0.369    0.326
  442.500    3.671   21.996    0.380    0.342
  442.750    3.407   19.527    0.380    0.340
  443.000    3.283   20.157    0.378    0.332
  443.250    3.284   19.547    0.374    0.336
  443.500    3.286   18.938    0.368    0.331
  443.750    3.414   20.187    0.361    0.328
  444.000    3.683   24.538    0.352    0.325
  444.250    4.204   30.126    0.345    0.314
  444.500    4.621   38.813    0.334    0.282
  444.750    5.477   51.221    0.316    0.029
  445.000    7.000   53.710    0.303    0.011
  445.250    9.465   53.104    0.292    0.026
  445.500   12.095   53.112    0.278    0.018
  445.750   16.356   49.402    0.267    0.005
  446.000   19.384   23.379    0.251    0.019
  446.250   22.975   18.434    0.214    0.032
  446.500   27.237   17.821    0.172    0.042
  446.750   29.380   19.692    0.160    0.043
  447.000   31.699   19.703    0.156    0.046
  447.250   32.317   19.713    0.153    0.054
  447.500   33.574   19.105    0.153    0.057
  447.750   34.880   19.115    0.151    0.049
  448.000   35.565   19.747    0.149    0.047
  448.250   36.952   20.993    0.148    0.047
  448.500   38.390   23.483    0.135    0.041
  448.750   39.139   24.113    0.129    0.053
  449.000   40.664   24.122    0.154    0.062
  449.250   42.245   22.275    0.160    0.057
  449.500   44.728   19.805    0.165    0.048
  449.750   46.467   16.717    0.165    0.037
  450.000   48.280   18.587    0.164    0.023
