~VERSION INFORMATION
 VERS.                 2.0:   CWLS LOG ASCII STANDARD -VERSION 2.0
 WRAP.                  NO:   ONE LINE PER DEPTH STEP
~WELL INFORMATION BLOCK
#MNEM.UNIT           DATA                    DESCRIPTION OF MNEMONIC
#---------    -------------------            -------------------------------
# Generated from Intellog Unique Number	CW_82_90/WELL/3420
WELL.         TEXACO CORN LAKE               : Well_name    - WELL
LOC .         00/06-11-089-25W4/0            : Location     - LOCATION
UWI .         00/06-11-089-25W4/0            : Uwi          - UNIQUE WELL ID
ENTR.         MAX                            : Entered      - ENTERED BY
SRVC.         COMPUTALOG                     : Scn          - SERVICE COMPANY
STRT.M        200                            : top_depth    - START DEPTH
STOP.M        413                            : bot_depth    - STOP DEPTH
STEP.M        0.25                           : increment    - STEP LENGTH
 NULL. -999.2500:NULL Value
~CURVE INFORMATION BLOCK
#MNEM UNIT       ERCB CURVE CODE    CURVE DESCRIPTION
#-----------   ------------------   ----------------------------------
DEPT.M        00 001 00 00         : DEPTH        - DEPTH
GR  .API      00 310 00 00         : GR           - GAMMA RAY
CALI.MM       00 280 01 00         : CAL          - CALIPER
DPHI.V/V      00 890 00 00         : PHID         - DENSITY POROSITY (SANDSTONE)
NPHI.V/V      00 330 00 00         : PHIN         - NEUTRON POROSITY (SANDSTONE)
ILD .OHMM     00 120 00 00         : RESD         - DEEP RESISTIVITY (DIL)
~PARAMETER INFORMATION
#MNEM.UNIT           DATA             DESCRIPTION OF MNEMONIC
#---------         -----------     ------------------------------
GL  .M        617.98               : gl           - GROUND LEVEL ELEVATION
EREF.M        621.5                : kb           - ELEVATION OF DEPTH REFERENCE
DATM.M        617.98               : datum        - DATUM ELEVATION
TDD .M        415                  : tdd          - TOTAL DEPTH DRILLER
RUN .         ONE                  : Run          - RUN NUMBER
ENG .         BILL                 : Engineer     - RECORDING ENGINEER
WIT .         JIM                  : Witness      - WITNESSED BY
MUD .         GEL                  : Mud_type     - MUD TYPE
MATR.         SANDSTONE            : Logunit      - NEUTRON MATRIX
TMAX.C        16.6                 : BHT          - MAXIMUM RECORDED TEMPERATURE
BHTD.M        415                  : BHTDEP       - MAXIMUM RECORDED TEMPERATURE
MATR.         1                    : LOGUNIT      - NEUTRON MATRIX
RMT .C        15.6                 : MDTP         - TEMPERATURE OF MUD
NEUT.         1                    : NEUTRON      - NEUTRON TYPE
RESI.         0                    : RESIST       - RESISTIVITY TYPE
RMC .OHMM     4                    : RMC          - RESISTIVITY OF MUD CAKE
RMF .OHMM     5.5                  : RMF          - RESISTIVITY OF MUD FILTRATE
SUFT.C        -13.7                : SUFT         - SURFACE TEMPERATURE
~A  DEPTH       GR      CAL     PHID     PHIN     RESD
# ...
  382.500   89.009  218.148    0.166    0.358    8.703
  382.750   89.301  218.132    0.154    0.362    8.619
  383.000   85.075  218.109    0.123    0.370    8.779
  383.250   77.838  217.092    0.098    0.368    9.371
  383.500   81.139  219.081    0.099    0.336   10.003
  383.750   87.149  221.569    0.124    0.317    9.906
  384.000   88.343  221.054    0.158    0.349    9.810
  384.250   81.106  218.524    0.140    0.402   10.278
  384.500   72.664  217.000    0.070    0.235   10.767
  384.750   66.029  215.980    0.011    0.150   11.492
  385.000   67.524  214.956    0.059    0.167   12.734
  385.250   71.126  214.940    0.070    0.230   13.980
  385.500   74.728  214.420    0.049    0.291   15.492
  385.750   78.930  213.900    0.007    0.265   17.821
  386.000   82.835  213.881    0.012    0.252   20.694
  386.250   88.544  213.861    0.062    0.269   19.195
  386.500   92.449  214.344    0.141    0.318   16.365
  386.750   91.232  215.327    0.165    0.307   14.485
  387.000   90.017  217.320    0.171    0.303   12.942
  387.250   90.007  219.811    0.165    0.319   11.138
  387.500   92.102  223.807    0.152    0.325   10.045
  387.750   94.200  226.797    0.135    0.340    8.974
  388.000   95.093  226.781    0.118    0.390    8.402
  388.250   93.274  226.257    0.100    0.430    8.167
  388.500   91.758  225.237    0.079    0.424    8.241
  388.750   88.135  222.709    0.062    0.378    8.879
  389.000   83.004  221.687    0.099    0.278    9.567
  389.250   81.788  221.674    0.117    0.307    9.836
  389.500   86.596  222.659    0.146    0.353    9.833
  389.750   90.800  224.141    0.150    0.357    9.738
  390.000   91.691  224.123    0.136    0.352    9.644
  390.250   93.488  223.607    0.145    0.372    9.641
  390.500   95.584  223.589    0.136    0.401    9.637
  390.750   94.369  221.563    0.090    0.384    9.635
  391.000   91.949  219.536    0.095    0.349    9.632
  391.250   90.734  219.015    0.149    0.333    9.903
  391.500   92.228  218.999    0.173    0.323    9.993
  391.750   93.724  221.488    0.177    0.335    9.989
  392.000   94.616  223.978    0.171    0.346    9.893
  392.250   96.712  226.971    0.164    0.349    9.890
  392.500   99.109  226.955    0.149    0.325   10.263
  392.750   96.390  223.923    0.127    0.272   10.854
  393.000   89.454  220.892    0.002    0.220   12.486
  393.250   87.938  220.374    0.016    0.188   12.718
  393.500   97.560  220.860    0.153    0.278   12.595
  393.750  100.560  224.352    0.173    0.320   11.359
  394.000   99.645  227.349    0.174    0.322    9.505
  394.250  100.236  227.830    0.165    0.346    8.652
  394.500  102.634  226.810    0.157    0.357    8.731
  394.750  102.021  226.789    0.145    0.340    8.810
  395.000   98.699  227.271    0.118    0.314    8.890
  395.250   98.085  225.751    0.127    0.301    8.887
  395.500   99.882  223.224    0.168    0.368    8.885
  395.750  100.172  225.211    0.182    0.393    8.476
  396.000   98.955  228.203    0.179    0.439    8.010
  396.250   98.646  227.179    0.165    0.452    7.429
  396.500   97.730  225.155    0.145    0.421    7.087
  396.750  100.731  223.632    0.144    0.397    6.889
  397.000  109.150  226.626    0.149    0.425    6.634
  397.250  108.537  229.117    0.146    0.413    6.570
  397.500  106.118  229.099    0.145    0.386    6.882
  397.750  102.192  227.575    0.129    0.413    7.415
  398.000   95.859  224.543    0.005    0.299    8.217
  398.250   87.417  222.018    0.026    0.247    9.020
  398.500   84.998  219.993    0.064    0.286    9.102
  398.750  101.245  219.972    0.130    0.324    9.535
  399.000  105.749  221.961    0.169    0.343    9.712
  399.250  103.329  222.447    0.172    0.362    9.709
  399.500   99.406  221.427    0.138    0.361    9.616
  399.750   93.674  220.905    0.121    0.335    9.434
  400.000   95.168  220.888    0.132    0.334    9.256
  400.250   96.362  222.376    0.137    0.369    8.913
  400.500   93.641  223.863    0.124    0.375    8.189
  400.750   89.716  224.346    0.106    0.303    7.961
  401.000   91.210  223.826    0.114    0.288    7.665
  401.250   99.629  224.809    0.132    0.298    7.521
  401.500  101.727  225.292    0.150    0.328    7.175
  401.750  105.027  226.275    0.156    0.334    6.909
  402.000  109.532  227.764    0.155    0.331    6.591
  402.250  112.532  228.752    0.153    0.321    6.228
  402.500  111.619  229.737    0.150    0.311    6.111
  402.750  109.501  230.218    0.152    0.354    6.109
  403.000  108.586  230.700    0.155    0.343    6.107
  403.250  115.198  231.188    0.156    0.329    6.221
  403.500  110.672  232.171    0.156    0.360    6.517
  403.750  106.145  232.656    0.097    0.300    6.956
  404.000  101.917  232.136    0.076    0.263    7.636
  404.250  100.401  229.105    0.105    0.245    7.999
  404.500  108.520  228.589    0.132    0.292    7.922
  404.750  115.735  228.568    0.145    0.317    7.700
  405.000  114.520  227.546    0.136    0.345    7.277
  405.250  112.400  226.023    0.153    0.338    7.008
  405.500  113.596  224.497    0.162    0.326    7.005
  405.750  110.273  223.979    0.135    0.379    7.408
  406.000  106.949  223.456    0.049    0.355    8.132
  406.250   97.604  223.942    0.050    0.300    8.440
  406.500   90.969  225.431    0.075    0.338    8.517
  406.750   93.364  227.920    0.123    0.344    7.899
  407.000   95.465  229.409    0.145    0.340    7.191
  407.250   94.852  229.388    0.148    0.331    6.546
  407.500   93.335  229.372    0.143    0.326    6.187
  407.750   92.419  228.850    0.136    0.337    5.958
  408.000   93.313  228.834    0.130    0.365    5.683
  408.250   94.505  228.815    0.123    0.376    5.576
  408.500   95.399  227.793    0.115    0.363    5.419
  408.750   94.484  227.271    0.111    0.353    5.318
  409.000   92.063  227.255    0.121    0.370    5.217
  409.250   93.254  226.732    0.132    0.378    5.167
  409.500   94.752  227.216    0.144    0.362    5.117
  409.750   97.149  227.704    0.125    0.339    5.115
  410.000  100.148  226.682    0.062    0.327    5.114
  410.250   99.838  225.660    0.087    0.333    5.112
  410.500   97.716  225.641    0.114    0.342    5.158
  410.750   95.900  226.123    0.156    0.350    5.205
  411.000   94.385  226.107    0.147    0.353    5.252
  411.250   94.675  227.087    0.136    0.355    5.251
  411.500   96.768  227.571    0.133    0.356    5.299
  411.750   99.169  227.555    0.144    0.358    5.247
  412.000  101.870  228.038    0.169    0.359    5.101
  412.250  101.857  228.521    0.199    0.362    4.912
  412.500  100.642  229.005    0.222    0.364    4.819
  412.750   99.428  228.986    0.223    0.366    4.772
  413.000   98.815  228.968    0.224    0.370    4.726
