~VERSION INFORMATION
 VERS.                 2.0:   CWLS LOG ASCII STANDARD -VERSION 2.0
 WRAP.                  NO:   ONE LINE PER DEPTH STEP
~WELL INFORMATION BLOCK
#MNEM.UNIT           DATA                    DESCRIPTION OF MNEMONIC
#---------    -------------------            -------------------------------
# Generated from Intellog Unique Number	CW_82_90/WELL/3427
WELL.         TEXEX CORN                     : Well_name    - WELL
LOC .         00/07-14-089-25W4/0            : Location     - LOCATION
UWI .         00/07-14-089-25W4/0            : Uwi          - UNIQUE WELL ID
ENTR.         MAX                            : Entered      - ENTERED BY
SRVC.         SCHLUMBERGER                   : Scn          - SERVICE COMPANY
STRT.M        167.64                         : top_depth    - START DEPTH
STOP.M        337.14                         : bot_depth    - STOP DEPTH
STEP.M        0.25                           : increment    - STEP LENGTH
 NULL. -999.2500:NULL Value
~CURVE INFORMATION BLOCK
#MNEM UNIT       ERCB CURVE CODE    CURVE DESCRIPTION
#-----------   ------------------   ----------------------------------
DEPT.M        00 001 00 00         : DEPTH        - DEPTH
ILD .OHMM     00 120 00 00         : RESD         - DEEP RESISTIVITY (DIL)
NPHI.V/V      00 330 00 00         : PHIN         - NEUTRON POROSITY (SANDSTONE)
DPHI.V/V      00 890 00 00         : PHID         - DENSITY POROSITY (SANDSTONE)
CALI.MM       00 280 01 00         : CAL          - CALIPER
GR  .API      00 310 00 00         : GR           - GAMMA RAY
~PARAMETER INFORMATION
#MNEM.UNIT           DATA             DESCRIPTION OF MNEMONIC
#---------         -----------     ------------------------------
GL  .M        597.713              : gl           - GROUND LEVEL ELEVATION
EREF.M        601.066              : kb           - ELEVATION OF DEPTH REFERENCE
DATM.M        597.713              : datum        - DATUM ELEVATION
TDD .M        338.633              : tdd          - TOTAL DEPTH DRILLER
RUN .         ONE                  : Run          - RUN NUMBER
ENG .         BILL                 : Engineer     - RECORDING ENGINEER
WIT .         JIM                  : Witness      - WITNESSED BY
MUD .         GEL                  : Mud_type     - MUD TYPE
MATR.         SANDSTONE            : Logunit      - NEUTRON MATRIX
TMAX.C        22.7778              : BHT          - MAXIMUM RECORDED TEMPERATURE
BHTD.M        338.633              : BHTDEP       - MAXIMUM RECORDED TEMPERATURE
MATR.         1                    : LOGUNIT      - NEUTRON MATRIX
RMT .C        17.7778              : MDTP         - TEMPERATURE OF MUD
NEUT.         1                    : NEUTRON      - NEUTRON TYPE
RESI.         0                    : RESIST       - RESISTIVITY TYPE
RMC .OHMM     4.42                 : RMC          - RESISTIVITY OF MUD CAKE
RMF .OHMM     2.42                 : RMF          - RESISTIVITY OF MUD FILTRATE
SUFT.C        -26.1111             : SUFT         - SURFACE TEMPERATURE
~A  DEPTH     RESD     PHIN     PHID      CAL       GR
# ...
  313.640    7.756    0.406    0.122  223.090   98.541
  313.890    7.975    0.337    0.089  224.643   91.564
  314.140    8.055    0.342    0.072  220.257   91.019
  314.390    8.137    0.389    0.121  220.813   98.666
  314.640    8.146    0.436    0.194  220.386  102.491
  314.890    8.009    0.430    0.211  218.954  105.161
  315.140    7.394    0.436    0.205  217.553  104.028
  315.390    6.950    0.440    0.191  216.616  106.415
  315.640    6.592    0.448    0.198  216.676  109.372
  315.890    6.599    0.447    0.193  216.744  110.865
  316.140    6.725    0.427    0.193  217.299  110.028
  316.390    6.856    0.425    0.184  217.862  106.562
  316.640    6.861    0.442    0.183  217.922  105.132
  316.890    6.869    0.438    0.189  217.990  104.583
  317.140    6.881    0.426    0.187  218.043  101.993
  317.390    6.822    0.410    0.180  218.111   98.522
  317.640    6.706    0.382    0.160  218.179   94.467
  317.890    6.653    0.360    0.125  218.239   92.169
  318.140    6.600    0.373    0.153  218.307   96.300
  318.390    6.549    0.406    0.199  217.370  101.888
  318.640    6.555    0.427    0.210  217.430  108.065
  318.890    6.444    0.445    0.208  217.506  107.525
  319.140    6.279    0.461    0.219  217.064  105.214
  319.390    6.175    0.473    0.235  215.662  102.040
  319.640    6.070    0.468    0.238  216.202   97.984
  319.890    6.022    0.458    0.254  217.260   95.390
  320.140    5.921    0.460    0.273  214.854   93.092
  320.390    5.927    0.451    0.277  213.924   91.955
  320.640    5.932    0.444    0.253  214.480   93.164
  320.890    5.940    0.458    0.237  216.032   95.834
  321.140    5.945    0.461    0.230  216.587   93.536
  321.390    6.058    0.449    0.208  217.150   97.074
  321.640    6.401    0.438    0.156  217.697  101.789
  321.890    6.825    0.437    0.137  217.773  101.829
  322.140    7.082    0.456    0.155  217.833  101.280
  322.390    7.216    0.455    0.172  218.388   98.983
  322.640    7.356    0.446    0.178  218.951   95.800
  322.890    7.497    0.429    0.145  219.514   90.877
  323.140    7.572    0.408    0.128  219.079   91.506
  323.390    7.647    0.390    0.115  221.119   93.286
  323.640    7.937    0.403    0.199  226.142   96.828
  323.890    7.873    0.449    0.198  227.185  102.712
  324.140    7.740    0.464    0.179  229.727  106.254
  324.390    7.543    0.474    0.182  231.774  106.879
  324.640    7.551    0.463    0.167  227.373  106.339
  324.890    7.695    0.448    0.147  221.001  108.712
  325.140    7.913    0.459    0.160  220.079  113.131
  325.390    8.066    0.452    0.208  220.147  113.468
  325.640    7.930    0.461    0.213  221.190  112.033
  325.890    7.796    0.470    0.199  222.247  110.612
  326.140    7.596    0.476    0.202  223.312  111.237
  326.390    7.468    0.478    0.206  224.362  112.738
  326.640    7.343    0.475    0.195  224.917  112.486
  326.890    7.221    0.466    0.194  224.498  111.645
  327.140    7.164    0.430    0.198  223.554  110.507
  327.390    7.301    0.406    0.213  223.127  108.799
  327.640    7.644    0.400    0.190  221.703  106.488
  327.890    8.149    0.379    0.183  219.784  100.684
  328.140    8.687    0.362    0.143  217.385   96.925
  328.390    9.260    0.359    0.122  216.456   92.865
  328.640    9.782    0.389    0.110  216.509   94.074
  328.890    9.972    0.395    0.168  217.574   97.032
  329.140    9.982    0.392    0.193  217.634  101.747
  329.390    9.902    0.393    0.224  217.694  104.709
  329.640    9.562    0.406    0.230  217.755  105.338
  329.890    9.152    0.425    0.228  217.815  104.493
  330.140    8.916    0.441    0.213  218.880  103.068
  330.390    8.767    0.448    0.187  219.938  100.190
  330.640    8.697    0.450    0.174  218.506   98.468
  330.890    8.706    0.452    0.172  217.592   97.919
  331.140    8.636    0.454    0.187  217.637   98.256
  331.390    8.645    0.455    0.210  218.207   98.287
  331.640    8.657    0.455    0.199  216.783   99.204
  331.890    8.664    0.456    0.188  216.349  101.285
  332.140    8.672    0.455    0.187  216.424  103.370
  332.390    8.605    0.455    0.203  216.964  105.753
  332.640    8.459    0.455    0.212  217.032  106.661
  332.890    7.011    0.455    0.195  217.100  106.404
  333.140    5.863    0.456    0.196  216.171  104.686
  333.390    5.663    0.458    0.181  213.757  102.973
  333.640    5.772    0.460    0.220  209.866  101.548
  333.890    6.042    0.463    0.217  209.934  100.410
  334.140    6.442    0.467    0.208  209.500  100.162
  334.390    6.992    0.471    0.217  211.539  101.079
  334.640    7.727    0.476    0.228  140.348  102.585
  334.890    7.803    0.482    0.235  139.898  103.196
  335.140    7.269    0.486    0.236  141.450  103.528
  335.390    6.303    0.489    0.230  143.490  102.687
  335.640    5.039    0.493    0.232  138.610  101.846
  335.890    3.887    0.491    0.224  129.771  100.421
  336.140    3.589    0.484    0.221  126.870   98.415
  336.390    3.758    0.471    0.228  126.923   96.693
  336.640    3.899    0.461    0.242  127.478   93.524
  336.890    4.046    0.451    0.240  128.033   91.217
  337.140    4.161    0.445    0.241  585.948   89.504
