~VERSION INFORMATION
 VERS.                 2.0:   CWLS LOG ASCII STANDARD -VERSION 2.0
 WRAP.                  NO:   ONE LINE PER DEPTH STEP
~WELL INFORMATION BLOCK
#MNEM.UNIT           DATA                    DESCRIPTION OF MNEMONIC
#---------    -------------------            -------------------------------
# Generated from Intellog Unique Number	CS_73_76/WELL/958
WELL.         DOME PETROLEUM LIMITED         : Well_name    - WELL
LOC .         00/05-12-075-05W4/0            : Location     - LOCATION
UWI .         00/05-12-075-05W4/0            : Uwi          - UNIQUE WELL ID
ENTR.         SP                             : Entered      - ENTERED BY
SRVC.         SCHLUMBERGER                   : Scn          - SERVICE COMPANY
STRT.M        200                            : top_depth    - START DEPTH
STOP.M        410                            : bot_depth    - STOP DEPTH
STEP.M        0.25                           : increment    - STEP LENGTH
 NULL. -999.2500:NULL Value
~CURVE INFORMATION BLOCK
#MNEM UNIT       ERCB CURVE CODE    CURVE DESCRIPTION
#-----------   ------------------   ----------------------------------
DEPT.M        00 001 00 00         : DEPTH        - DEPTH
GR  .API      00 310 00 00         : GR           - GAMMA RAY
NPHI.V/V      00 330 00 00         : PHIN         - NEUTRON POROSITY (LIMESTONE)
DPHI.V/V      00 890 00 00         : PHID         - DENSITY POROSITY (LIMESTONE)
ILD .OHMM     00 120 00 00         : RESD         - DEEP RESISTIVITY (DIL)
~PARAMETER INFORMATION
#MNEM.UNIT           DATA             DESCRIPTION OF MNEMONIC
#---------         -----------     ------------------------------
GL  .M        609.08               : gl           - GROUND LEVEL ELEVATION
EREF.M        612.85               : kb           - ELEVATION OF DEPTH REFERENCE
DATM.M        609.08               : datum        - DATUM ELEVATION
TDD .M        415                  : tdd          - TOTAL DEPTH DRILLER
RUN .         ONE                  : Run          - RUN NUMBER
ENG .         BILL                 : Engineer     - RECORDING ENGINEER
WIT .         JIM                  : Witness      - WITNESSED BY
MUD .         GEL                  : Mud_type     - MUD TYPE
MATR.         LIMESTONE            : Logunit      - NEUTRON MATRIX
TMAX.C        19                   : BHT          - MAXIMUM RECORDED TEMPERATURE
BHTD.M        415                  : BHTDEP       - MAXIMUM RECORDED TEMPERATURE
MATR.         1                    : LOGUNIT      - NEUTRON MATRIX
RMT .C        25                   : MDTP         - TEMPERATURE OF MUD
NEUT.         1                    : NEUTRON      - NEUTRON TYPE
RESI.         0                    : RESIST       - RESISTIVITY TYPE
RMC .OHMM     0.25                 : RMC          - RESISTIVITY OF MUD CAKE
RMF .OHMM     0.25                 : RMF          - RESISTIVITY OF MUD FILTRATE
SUFT.C        15                   : SUFT         - SURFACE TEMPERATURE
~A  DEPTH       GR     PHIN     PHID     RESD
# ...
  374.000   79.513    0.311    0.206   10.107
  374.250   82.559    0.322    0.204    9.916
  374.500   84.389    0.356    0.209    9.729
  374.750   80.755    0.358    0.204    9.366
  375.000   77.726    0.350    0.196    9.365
  375.250   78.343    0.358    0.195    9.188
  375.500   80.779    0.366    0.200    9.186
  375.750   80.181    0.367    0.206    9.012
  376.000   78.975    0.354    0.207    9.009
  376.250   80.805    0.350    0.196    9.179
  376.500   82.637    0.353    0.190    9.177
  376.750   77.786    0.354    0.196    9.348
  377.000   75.974    0.367    0.199    9.523
  377.250   77.198    0.375    0.208    9.521
  377.500   74.171    0.337    0.184    9.700
  377.750   72.964    0.328    0.171    9.698
  378.000   70.542    0.337    0.201    9.695
  378.250   71.158    0.338    0.224    9.693
  378.500   74.203    0.324    0.219    9.690
  378.750   76.641    0.318    0.210    9.688
  379.000   78.474    0.344    0.201    9.686
  379.250   78.483    0.375    0.210    9.684
  379.500   78.490    0.376    0.214    9.679
  379.750   76.069    0.351    0.214    9.677
  380.000   71.829    0.337    0.229    9.675
  380.250   71.835    0.339    0.239    9.856
  380.500   74.880    0.341    0.239    9.854
  380.750   76.103    0.344    0.233    9.852
  381.000   71.253    0.344    0.224   10.037
  381.250   71.263    0.341    0.229   10.035
  381.500   66.414    0.339    0.234   10.224
  381.750   62.778    0.344    0.234   10.415
  382.000   59.144    0.349    0.214   10.611
  382.250   61.580    0.314    0.201   10.809
  382.500   67.054    0.290    0.175   11.012
  382.750   73.746    0.307    0.196   11.009
  383.000   76.181    0.319    0.209   11.006
  383.250   72.546    0.324    0.223   11.004
  383.500   70.125    0.335    0.231   11.210
  383.750   71.351    0.357    0.242   11.208
  384.000   71.358    0.357    0.245   11.418
  384.250   69.545    0.358    0.246   11.414
  384.500   66.516    0.349    0.247   11.628
  384.750   65.918    0.339    0.256   11.626
  385.000   70.786    0.346    0.250   11.623
  385.250   74.438    0.356    0.241   11.404
  385.500   73.231    0.363    0.247   11.188
  385.750   69.597    0.361    0.253   11.186
  386.000   72.036    0.356    0.242   10.975
  386.250   75.688    0.355    0.231   10.766
  386.500   75.088    0.357    0.227   10.764
  386.750   78.741    0.361    0.238   10.561
  387.000   84.826    0.369    0.238   10.559
  387.250   90.300    0.379    0.238   10.359
  387.500   96.988    0.384    0.252   10.356
  387.750  104.281    0.387    0.257   10.354
  388.000  106.719    0.387    0.257   10.158
  388.250   97.012    0.361    0.253   10.155
  388.500   87.910    0.354    0.246    9.964
  388.750   85.490    0.350    0.240    9.776
  389.000   87.320    0.346    0.237    9.590
  389.250   89.758    0.341    0.233    9.410
  389.500   94.018    0.353    0.221    9.232
  389.750   98.279    0.357    0.215    8.889
  390.000   94.035    0.363    0.213    8.887
  390.250   96.475    0.365    0.213    8.718
  390.500   96.482    0.363    0.213    8.554
  390.750   92.240    0.363    0.213    8.552
  391.000   89.211    0.362    0.213    8.551
  391.250   92.257    0.360    0.214    8.388
  391.500   98.339    0.358    0.210    8.386
  391.750   97.741    0.352    0.206    8.385
  392.000   93.498    0.343    0.208    8.226
  392.250   92.291    0.336    0.209    8.224
  392.500   94.729    0.337    0.209    8.069
  392.750   97.168    0.343    0.211    8.067
  393.000   95.355    0.350    0.203    8.065
  393.250   94.148    0.354    0.204    7.912
  393.500   96.587    0.350    0.211    7.911
  393.750   97.809    0.364    0.216    7.909
  394.000   93.568    0.370    0.218    7.907
  394.250   91.753    0.366    0.222    7.904
  394.500   92.371    0.370    0.218    8.053
  394.750   92.986    0.380    0.212    8.051
  395.000   91.779    0.371    0.209    8.049
  395.250   89.966    0.369    0.210    8.200
  395.500   91.798    0.377    0.224    8.353
  395.750   94.842    0.367    0.232    8.351
  396.000   97.279    0.370    0.229    8.508
  396.250   95.466    0.371    0.227    8.506
  396.500   89.402    0.356    0.237    8.665
  396.750   86.984    0.342    0.239    8.663
  397.000   86.991    0.338    0.237    8.826
  397.250   88.213    0.350    0.230    8.990
  397.500   85.186    0.369    0.223    9.159
  397.750   80.944    0.386    0.245    9.157
  398.000   85.203    0.371    0.259    9.330
  398.250   88.856    0.359    0.248    9.503
  398.500   84.615    0.360    0.240    9.501
  398.750   81.586    0.355    0.238    9.680
  399.000   80.379    0.351    0.235    9.677
  399.250   85.854    0.362    0.230    9.675
  399.500   90.114    0.366    0.228    9.492
  399.750   86.479    0.376    0.229    9.490
  400.000   81.628    0.384    0.233    9.311
  400.250   86.497    0.354    0.240    9.309
  400.500   92.578    0.354    0.232    9.306
  400.750   94.407    0.363    0.221    9.305
  401.000   93.202    0.376    0.218    9.302
  401.250   90.782    0.381    0.216    9.126
  401.500   94.434    0.384    0.251    9.123
  401.750  103.554    0.400    0.280    8.952
  402.000  107.204    0.376    0.251    8.782
  402.250  108.428    0.356    0.222    8.617
  402.500  102.972    0.344    0.201    8.454
  402.750   94.477    0.347    0.217    8.294
  403.000   81.734    0.428    0.278    8.292
  403.250   72.633    0.468    0.345    8.939
  403.500   72.640    0.467    0.343   12.778
  403.750   73.864    0.438    0.307   15.713
  404.000   65.370    0.394    0.292   19.323
  404.250   53.842    0.415    0.306   23.320
  404.500   45.956    0.404    0.336   31.507
  404.750   45.964    0.394    0.351   42.569
  405.000   47.186    0.388    0.344   60.855
  405.250   41.122    0.379    0.333   85.371
  405.500   37.487    0.364    0.320   90.311
  405.750   35.066    0.352    0.306   68.078
  406.000   31.433    0.328    0.245   44.984
  406.250   29.011    0.294    0.109   32.051
  406.500   25.377    0.246    0.075   22.409
  406.750   21.743    0.221    0.076   25.557
  407.000   19.927    0.198    0.065   29.704
  407.250   17.509    0.170    0.049   38.649
  407.500   16.300    0.149    0.036   47.528
  407.750   16.919    0.144    0.036   53.199
  408.000   17.535    0.147    0.044   56.275
  408.250   17.541    0.149    0.039   55.211
  408.500   17.553    0.154    0.028   55.199
  408.750   17.561    0.161    0.044   56.232
  409.000   17.571    0.163    0.069   59.486
  409.250   17.579    0.165    0.070   64.120
  409.500   17.587    0.166    0.061   65.322
  409.750   17.596    0.165    0.071   64.090
  410.000   17.605    0.165    0.067   56.164
