~VERSION INFORMATION
 VERS.                 2.0:   CWLS LOG ASCII STANDARD -VERSION 2.0
 WRAP.                  NO:   ONE LINE PER DEPTH STEP
~WELL INFORMATION BLOCK
#MNEM.UNIT           DATA                    DESCRIPTION OF MNEMONIC
#---------    -------------------            -------------------------------
# Generated from Intellog Unique Number	CS_67_68/WELL/2174
WELL.         CHIEFCO et al TWEEDIE          : Well_name    - WELL
LOC .         00/07-02-067-12W4/0            : Location     - LOCATION
UWI .         00/07-02-067-12W4/0            : Uwi          - UNIQUE WELL ID
ENTR.         SP                             : Entered      - ENTERED BY
SRVC.         SCHLUMBERGER                   : Scn          - SERVICE COMPANY
STRT.M        330                            : top_depth    - START DEPTH
STOP.M        540                            : bot_depth    - STOP DEPTH
STEP.M        0.25                           : increment    - STEP LENGTH
 NULL. -999.2500:NULL Value
~CURVE INFORMATION BLOCK
#MNEM UNIT       ERCB CURVE CODE    CURVE DESCRIPTION
#-----------   ------------------   ----------------------------------
DEPT.M        00 001 00 00         : DEPTH        - DEPTH
ILD .OHMM     00 120 00 00         : RESD         - DEEP RESISTIVITY (DIL)
DPHI.V/V      00 890 00 00         : PHID         - DENSITY POROSITY (LIMESTONE)
NPHI.V/V      00 330 00 00         : PHIN         - NEUTRON POROSITY (LIMESTONE)
GR  .API      00 310 00 00         : GR           - GAMMA RAY
CALI.MM       00 280 01 00         : CAL          - CALIPER
~PARAMETER INFORMATION
#MNEM.UNIT           DATA             DESCRIPTION OF MNEMONIC
#---------         -----------     ------------------------------
GL  .M        607.4                : gl           - GROUND LEVEL ELEVATION
EREF.M        610.8                : kb           - ELEVATION OF DEPTH REFERENCE
DATM.M        610.8                : datum        - DATUM ELEVATION
TDD .M        545                  : tdd          - TOTAL DEPTH DRILLER
RUN .         ONE                  : Run          - RUN NUMBER
ENG .         BILL                 : Engineer     - RECORDING ENGINEER
WIT .         JIM                  : Witness      - WITNESSED BY
MUD .         GEL                  : Mud_type     - MUD TYPE
MATR.         LIMESTONE            : Logunit      - NEUTRON MATRIX
TMAX.C        28                   : BHT          - MAXIMUM RECORDED TEMPERATURE
BHTD.M        544.7                : BHTDEP       - MAXIMUM RECORDED TEMPERATURE
MATR.         1                    : LOGUNIT      - NEUTRON MATRIX
RMT .C        25                   : MDTP         - TEMPERATURE OF MUD
NEUT.         1                    : NEUTRON      - NEUTRON TYPE
RESI.         0                    : RESIST       - RESISTIVITY TYPE
RMC .OHMM     0.25                 : RMC          - RESISTIVITY OF MUD CAKE
RMF .OHMM     0.25                 : RMF          - RESISTIVITY OF MUD FILTRATE
SUFT.C        15                   : SUFT         - SURFACE TEMPERATURE
~A  DEPTH     RESD     PHID     PHIN       GR      CAL
# ...
  439.500    2.160    0.255    0.468   74.901  151.571
  439.750    2.475    0.178    0.386   70.865  150.864
  440.000    3.048    0.105    0.341   47.421  149.445
  440.250    4.011    0.060    0.204   52.018  148.739
  440.500    4.588    0.075    0.226   57.595  147.623
  440.750    4.866    0.118    0.319   62.129  146.305
  441.000    4.803    0.187    0.346   67.215  145.089
  441.250    4.531    0.236    0.366   71.873  143.974
  441.500    4.226    0.208    0.376   70.960  143.267
  441.750    3.963    0.168    0.338   69.924  141.949
  442.000    3.964    0.216    0.355   72.072  142.569
  442.250    3.958    0.266    0.399   73.056  142.170
  442.500    3.833    0.290    0.425   73.979  142.586
  442.750    3.475    0.289    0.447   72.637  143.004
  443.000    2.807    0.275    0.429   71.111  143.010
  443.250    2.545    0.264    0.438   71.422  143.323
  443.500    2.391    0.273    0.449   74.182  144.048
  443.750    2.303    0.275    0.415   77.922  144.366
  444.000    2.256    0.264    0.388   81.661  144.168
  444.250    2.291    0.256    0.404   84.972  144.379
  444.500    2.458    0.253    0.410   87.670  144.486
  444.750    2.871    0.259    0.377   75.369  145.107
  445.000    3.334    0.231    0.331   66.068  145.319
  445.250    3.700    0.191    0.307   65.950  145.633
  445.500    4.022    0.198    0.349   71.956  146.355
  445.750    4.242    0.229    0.399   78.511  147.179
  446.000    4.211    0.248    0.434   85.434  148.412
  446.250    3.905    0.236    0.444   94.500  149.442
  446.500    3.567    0.231    0.435  100.566  149.959
  446.750    3.209    0.237    0.442  100.877  150.174
  447.000    3.115    0.248    0.442   99.167  150.387
  447.250    3.157    0.257    0.421   98.254  150.396
  447.500    3.236    0.255    0.435   97.462  149.996
  447.750    3.349    0.245    0.449   94.407  149.290
  448.000    3.512    0.230    0.425   89.819  149.091
  448.250    3.825    0.246    0.303   79.293  148.892
  448.500    4.213    0.243    0.278   71.400  148.492
  448.750    4.536    0.264    0.343   71.650  147.991
  449.000    4.802    0.262    0.361   80.410  147.793
  449.250    4.886    0.244    0.378   83.721  147.904
  449.500    4.823    0.202    0.387   79.379  148.731
  449.750    4.592    0.173    0.374   82.689  149.555
  450.000    4.259    0.219    0.413   88.634  150.482
  450.250    3.934    0.245    0.434   93.413  151.206
  450.500    3.594    0.250    0.448   96.235  151.312
  450.750    3.173    0.225    0.442   98.259  151.625
  451.000    2.942    0.212    0.443   98.570  152.042
  451.250    3.151    0.211    0.445   96.678  152.049
  451.500    3.322    0.215    0.436   95.214  151.957
  451.750    3.531    0.196    0.429   95.156  151.760
  452.000    3.702    0.171    0.424   95.712  151.666
  452.250    3.839    0.197    0.424   96.023  151.470
  452.500    3.905    0.207    0.428   96.395  151.582
  452.750    3.840    0.216    0.437   97.257  151.691
  453.000    3.664    0.227    0.435   97.935  151.494
  453.250    3.489    0.223    0.424   98.247  151.706
  453.500    3.470    0.208    0.411   96.353  152.020
  453.750    3.491    0.171    0.411   92.501  152.435
  454.000    3.612    0.183    0.424   95.628  152.954
  454.250    3.710    0.200    0.438   99.797  153.065
  454.500    3.810    0.212    0.467  104.026  153.684
  454.750    3.840    0.221    0.491  108.194  154.611
  455.000    3.819    0.231    0.496  111.137  155.129
  455.250    3.706    0.249    0.509  110.775  157.892
  455.500    3.431    0.257    0.514  110.841  162.695
  455.750    3.075    0.244    0.512  113.050  165.561
  456.000    2.825    0.236    0.513  114.463  166.896
  456.250    2.620    0.234    0.512  114.957  167.415
  456.500    2.537    0.240    0.517  114.472  166.605
  456.750    2.416    0.255    0.561  113.865  164.574
  457.000    2.275    0.270    0.592  113.563  163.459
  457.250    2.118    0.262    0.570  113.139  162.445
  457.500    2.013    0.246    0.538  110.940  161.025
  457.750    1.987    0.230    0.499  108.803  160.217
  458.000    2.083    0.221    0.481  107.031  159.000
  458.250    2.265    0.218    0.474  107.465  157.784
  458.500    2.466    0.221    0.471  108.817  156.771
  458.750    2.631    0.217    0.479  109.862  155.558
  459.000    2.785    0.210    0.501  109.255  155.770
  459.250    2.780    0.201    0.508  109.750  156.184
  459.500    2.593    0.207    0.484  111.407  157.722
  459.750    2.474    0.223    0.422  109.208  159.158
  460.000    2.555    0.226    0.411  103.642  159.574
  460.250    2.804    0.140    0.417   99.667  158.766
  460.500    3.071    0.180    0.429  102.305  157.346
  460.750    3.434    0.193    0.417   98.942  155.315
  461.000    3.635    0.182    0.391   92.702  154.199
  461.250    3.841    0.163    0.359   86.461  153.799
  461.500    4.006    0.128    0.331   79.671  153.501
  461.750    4.169    0.109    0.319   78.757  153.101
  462.000    4.405    0.095    0.356   84.395  153.211
  462.250    4.707    0.217    0.400   90.032  153.320
  462.500    5.002    0.224    0.410   93.894  153.737
  462.750    5.070    0.213    0.408   96.654  153.848
  463.000    4.837    0.202    0.420   97.577  153.652
  463.250    4.352    0.201    0.420   96.725  153.660
  463.500    4.013    0.207    0.412   94.464  153.770
  463.750    3.850    0.197    0.415   92.264  153.880
  464.000    3.743    0.189    0.426   91.964  154.092
  464.250    3.688    0.187    0.430   92.703  154.099
  464.500    3.661    0.184    0.428   94.912  154.208
  464.750    3.662    0.180    0.432   95.713  154.321
  465.000    3.663    0.183    0.441   94.860  154.327
  465.250    3.650    0.198    0.418   94.437  154.334
  465.500    3.637    0.202    0.407   95.422  154.243
  465.750    3.617    0.196    0.397   96.528  154.046
  466.000    3.577    0.199    0.418   98.432  154.463
  466.250    3.632    0.207    0.433   99.353  154.776
  466.500    3.752    0.212    0.424   99.787  154.989
  466.750    3.861    0.213    0.420   99.363  155.101
  467.000    4.018    0.201    0.426  100.899  155.416
  467.250    4.214    0.208    0.419  102.740  155.730
  467.500    4.377    0.219    0.418  104.643  155.839
  467.750    4.453    0.222    0.425  106.117  156.457
  468.000    4.429    0.219    0.434  107.897  156.873
  468.250    4.372    0.220    0.444  104.963  157.798
  468.500    4.210    0.215    0.453  100.438  159.440
  468.750    3.987    0.194    0.449   95.790  160.571
  469.000    4.197    0.152    0.425   91.019  161.497
  469.250    4.401    0.114    0.396   82.085  162.015
  469.500    4.912    0.066    0.243   72.355  162.430
  469.750    5.493    0.087    0.324   82.830  162.336
  470.000    6.016    0.201    0.356   93.487  161.833
  470.250    6.333    0.207    0.359  102.247  161.433
  470.500    6.298    0.202    0.367  106.537  160.727
  470.750    5.592    0.200    0.383  105.991  159.512
  471.000    5.060    0.190    0.367   94.547  158.804
  471.250    5.042    0.167    0.333   83.838  158.201
  471.500    5.419    0.158    0.346   92.965  158.107
  471.750    5.759    0.193    0.371  106.194  158.319
  472.000    5.903    0.200    0.362  102.403  158.429
  472.250    5.750    0.184    0.348   96.837  159.152
  472.500    5.455    0.158    0.335   96.230  159.567
  472.750    5.155    0.174    0.424   99.418  160.392
  473.000    4.691    0.234    0.458  102.116  161.014
  473.250    3.988    0.251    0.482  100.346  161.736
  473.500    3.346    0.254    0.489   95.330  162.151
  473.750    2.749    0.243    0.458   91.233  162.566
  474.000    2.436    0.253    0.435   87.931  162.983
  474.250    2.364    0.254    0.424   92.956  163.808
  474.500    2.347    0.238    0.446   99.206  163.304
  474.750    2.325    0.214    0.464  105.945  166.577
  475.000    2.308    0.192    0.478  108.705  169.748
  475.250    2.244    0.232    0.492  105.404  172.104
  475.500    2.149    0.243    0.486  104.246  163.949
  475.750    2.150    0.224    0.473  106.271  159.672
