~VERSION INFORMATION
 VERS.                 2.0:   CWLS LOG ASCII STANDARD -VERSION 2.0
 WRAP.                  NO:   ONE LINE PER DEPTH STEP
~WELL INFORMATION BLOCK
#MNEM.UNIT           DATA                    DESCRIPTION OF MNEMONIC
#---------    -------------------            -------------------------------
# Generated from Intellog Unique Number	CS_73_76/WELL/608
WELL.         CAVALIER ENERGY INC.           : Well_name    - WELL
LOC .         00/06-06-073-14W4/0            : Location     - LOCATION
UWI .         00/06-06-073-14W4/0            : Uwi          - UNIQUE WELL ID
ENTR.         SP                             : Entered      - ENTERED BY
SRVC.         SCHLUMBERGER                   : Scn          - SERVICE COMPANY
STRT.M        283.464                        : top_depth    - START DEPTH
STOP.M        464.964                        : bot_depth    - STOP DEPTH
STEP.M        0.25                           : increment    - STEP LENGTH
 NULL. -999.2500:NULL Value
~CURVE INFORMATION BLOCK
#MNEM UNIT       ERCB CURVE CODE    CURVE DESCRIPTION
#-----------   ------------------   ----------------------------------
DEPT.M        00 001 00 00         : DEPTH        - DEPTH
GR  .API      00 310 00 00         : GR           - GAMMA RAY
DPHI.V/V      00 890 00 00         : PHID         - DENSITY POROSITY (SANDSTONE)
NPHI.V/V      00 330 00 00         : PHIN         - NEUTRON POROSITY (SANDSTONE)
ILD .OHMM     00 120 00 00         : RESD         - DEEP RESISTIVITY (DIL)
~PARAMETER INFORMATION
#MNEM.UNIT           DATA             DESCRIPTION OF MNEMONIC
#---------         -----------     ------------------------------
GL  .M        606.552              : gl           - GROUND LEVEL ELEVATION
EREF.M        609.6                : kb           - ELEVATION OF DEPTH REFERENCE
DATM.M        606.552              : datum        - DATUM ELEVATION
TDD .M        479.146              : tdd          - TOTAL DEPTH DRILLER
RUN .         ONE                  : Run          - RUN NUMBER
ENG .         BILL                 : Engineer     - RECORDING ENGINEER
WIT .         JIM                  : Witness      - WITNESSED BY
MUD .         GEL                  : Mud_type     - MUD TYPE
MATR.         SANDSTONE            : Logunit      - NEUTRON MATRIX
TMAX.C        18.8889              : BHT          - MAXIMUM RECORDED TEMPERATURE
BHTD.M        573.024              : BHTDEP       - MAXIMUM RECORDED TEMPERATURE
MATR.         1                    : LOGUNIT      - NEUTRON MATRIX
RMT .C        25                   : MDTP         - TEMPERATURE OF MUD
NEUT.         1                    : NEUTRON      - NEUTRON TYPE
RESI.         0                    : RESIST       - RESISTIVITY TYPE
RMC .OHMM     0.25                 : RMC          - RESISTIVITY OF MUD CAKE
RMF .OHMM     0.25                 : RMF          - RESISTIVITY OF MUD FILTRATE
SUFT.C        15                   : SUFT         - SURFACE TEMPERATURE
~A  DEPTH       GR     PHID     PHIN     RESD
# ...
  370.464   99.308    0.324    0.457    6.667
  370.714  102.072    0.326    0.450    6.833
  370.964  101.648    0.320    0.456    7.002
  371.214  100.015    0.313    0.439    7.139
  371.464   99.324    0.303    0.444    7.153
  371.714  100.135    0.311    0.459    7.065
  371.964  102.698    0.295    0.477    7.003
  372.214  105.119    0.303    0.476    6.817
  372.464  107.010    0.310    0.458    6.755
  372.714  108.039    0.313    0.459    6.536
  372.964  108.957    0.300    0.450    6.407
  373.214  109.528    0.292    0.444    6.356
  373.464  109.273    0.293    0.468    6.272
  373.714  108.120    0.308    0.484    6.186
  373.964  105.490    0.321    0.481    6.190
  374.214  103.755    0.326    0.469    6.156
  374.464  102.072    0.327    0.459    6.112
  374.714   97.515    0.326    0.459    6.108
  374.964   94.172    0.329    0.467    6.081
  375.214   93.504    0.342    0.476    6.030
  375.464   91.320    0.353    0.467    6.028
  375.714   91.005    0.341    0.472    6.028
  375.964   92.769    0.332    0.468    6.028
  376.214   93.493    0.322    0.470    6.064
  376.464   93.501    0.316    0.477    6.187
  376.714   97.152    0.310    0.481    6.254
  376.964  100.609    0.296    0.472    6.259
  377.214  103.325    0.301    0.461    6.256
  377.464  107.142    0.297    0.463    6.112
  377.714  107.936    0.290    0.454    6.070
  377.964  106.115    0.287    0.458    6.020
  378.214  103.127    0.298    0.460    5.937
  378.464  104.175    0.307    0.469    5.941
  378.714  105.699    0.329    0.479    5.941
  378.964  100.421    0.334    0.463    5.941
  379.214   97.140    0.309    0.445    5.944
  379.464  101.816    0.319    0.432    5.865
  379.714  104.038    0.300    0.445    5.858
  379.964  109.162    0.306    0.463    5.846
  380.214  110.587    0.300    0.470    5.780
  380.464  111.571    0.295    0.476    5.659
  380.714  110.046    0.295    0.467    5.531
  380.964  107.100    0.305    0.466    5.396
  381.214  102.482    0.325    0.476    5.405
  381.464  100.250    0.338    0.483    5.539
  381.714   98.328    0.339    0.473    5.606
  381.964   98.478    0.314    0.455    5.819
  382.214  102.030    0.278    0.430    6.162
  382.464  107.339    0.261    0.419    6.391
  382.714  107.542    0.245    0.420    6.603
  382.964  105.083    0.235    0.428    7.011
  383.214   99.579    0.235    0.426    7.390
  383.464   96.344    0.240    0.425    7.867
  383.714   91.054    0.230    0.377    8.449
  383.964   86.300    0.123    0.341    9.000
  384.214   79.738    0.135    0.313   10.215
  384.464   79.751    0.210    0.335   12.763
  384.714   85.823    0.272    0.381   14.023
  384.964   92.444    0.312    0.419   13.470
  385.214   94.529    0.343    0.447   12.883
  385.464   94.358    0.347    0.446   11.789
  385.714   90.098    0.339    0.451    8.885
  385.964   91.725    0.332    0.461    7.101
  386.214   94.057    0.338    0.467    6.109
  386.464   96.132    0.330    0.449    5.873
  386.714   97.988    0.340    0.436    5.667
  386.964   98.163    0.338    0.442    5.674
  387.214   96.695    0.337    0.460    5.600
  387.464   93.175    0.339    0.465    5.639
  387.714   93.367    0.343    0.458    5.600
  387.964   93.886    0.349    0.452    5.631
  388.214   95.492    0.354    0.454    5.602
  388.464   97.104    0.353    0.459    5.598
  388.714   98.241    0.352    0.467    5.597
  388.964   97.532    0.351    0.476    5.593
  389.214   98.881    0.348    0.467    5.668
  389.464   98.263    0.346    0.458    5.672
  389.714   95.207    0.344    0.449    5.674
  389.964   94.723    0.340    0.443    5.673
  390.214   95.660    0.333    0.437    5.672
  390.464   97.415    0.324    0.445    5.670
  390.714   99.966    0.333    0.462    5.474
  390.964  102.331    0.328    0.469    5.312
  391.214  106.136    0.322    0.486    4.956
  391.464  111.170    0.303    0.537    4.665
  391.714  114.938    0.315    0.588    4.048
  391.964  117.349    0.335    0.579    3.393
  392.214  119.170    0.347    0.553    2.780
  392.464  119.356    0.340    0.539    2.313
  392.714  119.408    0.324    0.537    2.177
  392.964  119.682    0.313    0.542    2.273
  393.214  119.949    0.327    0.523    2.679
  393.464  117.872    0.323    0.489    3.266
  393.714  116.015    0.304    0.455    3.631
  393.964  115.766    0.297    0.430    4.086
  394.214  116.780    0.299    0.425    4.426
  394.464  118.747    0.286    0.435    4.672
  394.714  120.166    0.287    0.459    4.631
  394.964  120.555    0.296    0.463    4.622
  395.214  118.426    0.294    0.455    4.712
  395.464  114.861    0.301    0.465    4.774
  395.714  110.974    0.300    0.466    4.899
  395.964  110.476    0.290    0.460    5.124
  396.214  111.668    0.291    0.460    5.176
  396.464  110.905    0.292    0.460    5.270
  396.714  110.974    0.291    0.456    5.264
  396.964  111.144    0.278    0.464    5.386
  397.214  108.248    0.254    0.460    5.591
  397.464  104.158    0.232    0.441    5.574
  397.714   99.458    0.282    0.430    5.527
  397.964   97.497    0.353    0.428    5.393
  398.214   91.553    0.360    0.445    5.256
  398.464   82.124    0.365    0.443    5.162
  398.714   78.164    0.359    0.430    5.085
  398.964   76.260    0.356    0.409    5.009
  399.214   75.565    0.347    0.408    5.166
  399.464   74.867    0.319    0.392    5.546
  399.714   71.425    0.218    0.218    7.202
  399.964   64.939    0.093    0.127    8.807
  400.214   62.001    0.050    0.114   10.895
  400.464   65.561    0.055    0.117   13.981
  400.714   64.957    0.041    0.120   16.439
  400.964   65.715    0.035    0.120   18.321
  401.214   65.105    0.032    0.118   19.019
  401.464   62.172    0.028    0.114   20.360
  401.714   59.527    0.020    0.106   20.321
  401.964   62.413    0.016    0.099   20.323
  402.214   67.128    0.028    0.099   20.324
  402.464   72.774    0.017    0.104   20.323
  402.714   79.033    0.011    0.111   20.323
  402.964   82.237    0.002    0.121   20.322
  403.214   84.739    0.010    0.133   20.321
  403.464   88.875    0.036    0.147   20.317
  403.714   95.430    0.074    0.234   20.318
  403.964  103.685    0.133    0.327   20.731
  404.214  110.840    0.203    0.411   14.576
  404.464  114.648    0.252    0.436   10.555
  404.714  118.167    0.297    0.444    8.995
  404.964  119.283    0.302    0.435    7.517
  405.214  117.724    0.287    0.424    6.500
  405.464  111.613    0.273    0.423    5.780
  405.714  112.855    0.262    0.430    5.267
  405.964  116.585    0.267    0.442    4.866
  406.214  117.040    0.276    0.455    4.604
  406.464  110.969    0.283    0.480    4.433
  406.714  103.377    0.295    0.495    4.499
  406.964   98.789    0.283    0.472    4.957
  407.214   99.346    0.276    0.440    5.148
  407.464  101.652    0.286    0.435    5.365
  407.714   98.418    0.320    0.430    5.491
  407.964   95.271    0.338    0.436    5.555
  408.214   94.109    0.351    0.444    5.300
  408.464   93.792    0.341    0.449    5.046
  408.714   93.266    0.327    0.446    4.994
  408.964   92.029    0.321    0.443    4.901
  409.214   91.481    0.333    0.450    4.909
  409.464   92.944    0.346    0.463    4.900
  409.714   96.059    0.342    0.456    4.997
  409.964  101.595    0.324    0.463    4.988
  410.214  106.043    0.290    0.474    5.061
  410.464  105.842    0.289    0.479    5.142
  410.714  100.416    0.300    0.472    5.295
  410.964  101.646    0.307    0.464    5.289
  411.214  106.800    0.289    0.463    5.391
  411.464  110.129    0.301    0.465    5.306
  411.714  114.393    0.302    0.468    5.260
  411.964  115.438    0.290    0.480    5.219
  412.214  113.260    0.283    0.483    5.276
  412.464  113.449    0.277    0.469    5.377
  412.714  115.589    0.284    0.459    5.462
  412.964  114.398    0.281    0.458    5.587
  413.214  111.930    0.269    0.451    5.692
  413.464  107.443    0.256    0.445    5.770
  413.714  105.363    0.264    0.442    5.774
