~VERSION INFORMATION
 VERS.                 2.0:   CWLS LOG ASCII STANDARD -VERSION 2.0
 WRAP.                  NO:   ONE LINE PER DEPTH STEP
~WELL INFORMATION BLOCK
#MNEM.UNIT           DATA                    DESCRIPTION OF MNEMONIC
#---------    -------------------            -------------------------------
# Generated from Intellog Unique Number	CX_WELLS/WELL/4078
WELL.         BANKENO                        : Well_name    - WELL
LOC .         00/05-33-081-12W4/0            : Location     - LOCATION
UWI .         00/05-33-081-12W400            : Uwi          - UNIQUE WELL ID
ENTR.         T                              : Entered      - ENTERED BY
SRVC.         SCHLUMBERGER                   : Scn          - SERVICE COMPANY
STRT.M        300                            : top_depth    - START DEPTH
STOP.M        535                            : bot_depth    - STOP DEPTH
STEP.M        0.25                           : increment    - STEP LENGTH
 NULL. -999.2500:NULL Value
~CURVE INFORMATION BLOCK
#MNEM UNIT       ERCB CURVE CODE    CURVE DESCRIPTION
#-----------   ------------------   ----------------------------------
DEPT.M        00 001 00 00         : DEPTH        - DEPTH
GR  .API      00 310 00 00         : GR           - GAMMA RAY
NPHI.V/V      00 330 00 00         : PHIN         - NEUTRON POROSITY (SANDSTONE)
DPHI.V/V      00 890 00 00         : PHID         - DENSITY POROSITY (SANDSTONE)
ILD .OHMM     00 120 00 00         : RESD         - DEEP RESISTIVITY (DIL)
~PARAMETER INFORMATION
#MNEM.UNIT           DATA             DESCRIPTION OF MNEMONIC
#---------         -----------     ------------------------------
GL  .M        744                  : gl           - GROUND LEVEL ELEVATION
EREF.M        748                  : kb           - ELEVATION OF DEPTH REFERENCE
DATM.M        748                  : datum        - DATUM ELEVATION
TDD .M        548                  : tdd          - TOTAL DEPTH DRILLER
RUN .         ONE                  : Run          - RUN NUMBER
ENG .         BILL                 : Engineer     - RECORDING ENGINEER
WIT .         JIM                  : Witness      - WITNESSED BY
MUD .         GEL                  : Mud_type     - MUD TYPE
MATR.         SANDSTONE            : Logunit      - NEUTRON MATRIX
TMAX.C        15                   : BHT          - MAXIMUM RECORDED TEMPERATURE
BHTD.M        548                  : BHTDEP       - MAXIMUM RECORDED TEMPERATURE
MATR.         1                    : LOGUNIT      - NEUTRON MATRIX
RMT .C        25                   : MDTP         - TEMPERATURE OF MUD
NEUT.         1                    : NEUTRON      - NEUTRON TYPE
RESI.         0                    : RESIST       - RESISTIVITY TYPE
RMC .OHMM     0.25                 : RMC          - RESISTIVITY OF MUD CAKE
RMF .OHMM     0.25                 : RMF          - RESISTIVITY OF MUD FILTRATE
SUFT.C        4                    : SUFT         - SURFACE TEMPERATURE
~A  DEPTH       GR     PHIN     PHID     RESD
# ...
  343.500  103.510    0.437    0.261    7.400
  343.750  102.936    0.426    0.259    7.813
  344.000  101.727    0.416    0.259    8.110
  344.250   99.919    0.418    0.265    8.260
  344.500   98.710    0.421    0.269    8.272
  344.750   95.045    0.423    0.277    8.284
  345.000   93.200    0.422    0.285    8.155
  345.250   90.134    0.421    0.293    8.164
  345.500   87.690    0.417    0.298    8.036
  345.750   83.377    0.415    0.283    7.905
  346.000   77.818    0.412    0.292    7.920
  346.250   73.517    0.410    0.298    7.928
  346.500   73.567    0.412    0.306    8.084
  346.750   72.993    0.415    0.305    8.093
  347.000   73.666    0.418    0.295    7.963
  347.250   74.974    0.419    0.284    7.839
  347.500   75.623    0.423    0.277    7.848
  347.750   77.542    0.433    0.274    7.725
  348.000   80.084    0.445    0.273    7.604
  348.250   82.627    0.448    0.272    7.613
  348.500   84.546    0.436    0.270    7.494
  348.750   88.347    0.428    0.267    7.505
  349.000   91.526    0.419    0.265    7.516
  349.250   93.445    0.412    0.264    7.393
  349.500   92.236    0.405    0.266    7.409
  349.750   90.416    0.412    0.271    7.415
  350.000   87.985    0.435    0.277    7.299
  350.250   86.177    0.440    0.285    7.312
  350.500   84.955    0.449    0.289    7.320
  350.750   84.382    0.452    0.286    7.331
  351.000   83.808    0.441    0.278    7.339
  351.250   83.870    0.435    0.268    7.480
  351.500   83.907    0.440    0.255    7.627
  351.750   84.605    0.453    0.267    7.635
  352.000   85.253    0.469    0.275    7.646
  352.250   85.302    0.469    0.282    7.661
  352.500   85.352    0.462    0.282    7.535
  352.750   86.037    0.456    0.278    7.549
  353.000   86.710    0.456    0.277    7.428
  353.250   86.760    0.452    0.277    7.310
  353.500   88.056    0.450    0.275    7.195
  353.750   88.716    0.457    0.275    7.209
  354.000   91.271    0.469    0.274    7.091
  354.250   93.190    0.462    0.274    7.099
  354.500   93.876    0.454    0.274    7.109
  354.750   93.925    0.442    0.273    7.122
  355.000   93.352    0.436    0.278    7.135
  355.250   92.766    0.435    0.283    7.019
  355.500   91.569    0.437    0.289    6.909
  355.750   90.995    0.438    0.297    6.917
  356.000   89.811    0.438    0.300    6.806
  356.250   89.225    0.436    0.303    6.813
  356.500   88.028    0.433    0.303    6.826
  356.750   84.338    0.429    0.304    6.836
  357.000   78.778    0.426    0.309    6.844
  357.250   65.105    0.422    0.320    7.757
  357.500   59.545    0.422    0.323    8.335
  357.750   53.362    0.423    0.324    8.959
  358.000   53.412    0.423    0.330    9.124
  358.250   52.875    0.423    0.346    9.640
  358.500   52.900    0.425    0.353    9.992
  358.750   52.339    0.425    0.353   10.369
  359.000   52.376    0.429    0.350   10.572
  359.250   52.413    0.427    0.349   10.768
  359.500   51.840    0.421    0.344   10.983
  359.750   51.266    0.414    0.339   10.995
  360.000   49.446    0.412    0.335   11.011
  360.250   47.638    0.411    0.333   11.032
  360.500   46.454    0.404    0.332   11.052
  360.750   45.868    0.400    0.335   11.060
  361.000   45.307    0.399    0.343   11.080
  361.250   45.344    0.402    0.347   11.097
  361.500   45.381    0.407    0.347   11.310
  361.750   46.079    0.408    0.344   11.528
  362.000   46.116    0.404    0.347   11.545
  362.250   47.399    0.395    0.348   11.557
  362.500   48.085    0.392    0.348   11.579
  362.750   48.758    0.389    0.343   11.591
  363.000   49.430    0.386    0.340   11.613
  363.250   49.480    0.387    0.337   11.626
  363.500   49.542    0.392    0.343   11.643
  363.750   49.579    0.400    0.347   11.461
  364.000   50.264    0.408    0.352   11.477
  364.250   50.937    0.414    0.351   11.101
  364.500   50.987    0.413    0.348   11.113
  364.750   51.049    0.413    0.348   10.936
  365.000   51.086    0.415    0.353   10.761
  365.250   51.123    0.412    0.356   10.777
  365.500   50.562    0.408    0.360   10.604
  365.750   49.988    0.414    0.362   10.624
  366.000   49.427    0.425    0.364   10.639
  366.250   49.464    0.417    0.365   10.655
  366.500   49.514    0.406    0.367   10.675
  366.750   48.940    0.409    0.364   10.683
  367.000   48.977    0.416    0.363   10.702
  367.250   49.039    0.425    0.364   10.714
  367.500   49.077    0.436    0.367   10.742
  367.750   49.151    0.432    0.371   10.753
  368.000   49.188    0.427    0.370   10.761
  368.250   49.225    0.414    0.368   10.972
  368.500   49.287    0.408    0.363   10.989
  368.750   49.337    0.405    0.337   11.005
  369.000   48.153    0.404    0.308   10.837
  369.250   48.190    0.402    0.287   10.845
  369.500   48.252    0.406    0.275   10.675
  369.750   48.912    0.417    0.270   10.687
  370.000   49.585    0.428    0.315   10.344
  370.250   50.258    0.438    0.343   10.348
  370.500   50.307    0.446    0.351   10.009
  370.750   50.993    0.452    0.353    9.849
  371.000   50.419    0.460    0.355    9.526
  371.250   50.469    0.455    0.356    9.367
  371.500   50.506    0.445    0.359    9.220
  371.750   49.932    0.449    0.358    8.918
  372.000   49.994    0.450    0.358    8.928
  372.250   50.031    0.447    0.361    8.782
  372.500   50.081    0.441    0.365    8.798
  372.750   50.130    0.440    0.367    8.808
  373.000   49.557    0.439    0.368    8.824
  373.250   49.619    0.441    0.369    8.840
  373.500   49.045    0.443    0.369    8.846
  373.750   49.107    0.450    0.370    8.863
  374.000   49.132    0.457    0.370    8.876
  374.250   49.182    0.462    0.370    8.892
  374.500   49.244    0.469    0.369    8.905
  374.750   49.318    0.469    0.369    8.915
  375.000   49.355    0.465    0.369    8.928
  375.250   49.392    0.462    0.369    8.944
  375.500   48.844    0.457    0.369    8.958
  375.750   48.245    0.451    0.369    8.971
  376.000   48.295    0.446    0.369    8.984
  376.250   48.357    0.448    0.369    9.001
  376.500   48.394    0.456    0.369    9.010
  376.750   48.456    0.471    0.367    9.020
  377.000   48.493    0.474    0.365    9.034
  377.250   48.543    0.466    0.364    9.050
  377.500   49.228    0.455    0.359    9.064
  377.750   50.524    0.449    0.357    9.080
  378.000   51.808    0.446    0.357    9.087
  378.250   53.104    0.452    0.357    9.100
  378.500   53.789    0.458    0.356    8.965
  378.750   53.839    0.456    0.350    8.971
  379.000   53.876    0.453    0.345    8.984
  379.250   53.925    0.446    0.340    8.998
  379.500   53.987    0.443    0.340    9.014
  379.750   54.037    0.440    0.344    8.870
  380.000   54.087    0.437    0.349    8.886
  380.250   54.149    0.442    0.351    8.893
  380.500   54.186    0.452    0.354    8.906
  380.750   54.248    0.448    0.355    9.087
  381.000   54.285    0.437    0.356    9.091
  381.250   54.335    0.435    0.357    9.107
  381.500   56.254    0.438    0.357    9.117
  381.750   57.550    0.440    0.356    9.137
  382.000   57.599    0.441    0.353    9.144
  382.250   56.415    0.439    0.348    9.158
  382.500   55.841    0.434    0.346    9.174
  382.750   55.268    0.433    0.344    9.191
  383.000   54.694    0.432    0.344    9.361
  383.250   54.108    0.431    0.343    9.548
  383.500   54.182    0.432    0.339    9.562
  383.750   54.220    0.437    0.337    9.576
  384.000   53.634    0.447    0.337    9.587
  384.250   53.696    0.455    0.340    9.605
  384.500   54.381    0.453    0.347    9.615
  384.750   54.406    0.447    0.346    9.633
  385.000   56.325    0.433    0.338    9.647
  385.250   58.269    0.436    0.329    9.658
  385.500   58.306    0.442    0.327    9.675
  385.750   57.134    0.440    0.329    9.524
  386.000   56.548    0.438    0.330    9.531
  386.250   55.962    0.441    0.330    9.379
  386.500   57.271    0.446    0.331    9.229
  386.750   58.554    0.443    0.332    9.081
