~VERSION INFORMATION
 VERS.                 2.0:   CWLS LOG ASCII STANDARD -VERSION 2.0
 WRAP.                  NO:   ONE LINE PER DEPTH STEP
~WELL INFORMATION BLOCK
#MNEM.UNIT           DATA                    DESCRIPTION OF MNEMONIC
#---------    -------------------            -------------------------------
# Generated from Intellog Unique Number	CX_WELLS/WELL/2922
WELL.         GULF SURMONT                   : Well_name    - WELL
LOC .         00/06-12-082-09W4/0            : Location     - LOCATION
UWI .         00/06-12-082-09W400            : Uwi          - UNIQUE WELL ID
ENTR.         T                              : Entered      - ENTERED BY
SRVC.         SCHLUMBERGER                   : Scn          - SERVICE COMPANY
STRT.F        950                            : top_depth    - START DEPTH
STOP.F        1689.83                        : bot_depth    - STOP DEPTH
STEP.F        0.82                           : increment    - STEP LENGTH
 NULL. -999.2500:NULL Value
~CURVE INFORMATION BLOCK
#MNEM UNIT       ERCB CURVE CODE    CURVE DESCRIPTION
#-----------   ------------------   ----------------------------------
DEPT.F        00 001 00 00         : DEPTH        - DEPTH
GR  .API      00 310 00 00         : GR           - GAMMA RAY
NPHI.V/V      00 330 00 00         : PHIN         - NEUTRON POROSITY (SANDSTONE)
DPHI.V/V      00 890 00 00         : PHID         - DENSITY POROSITY (SANDSTONE)
ILD .OHMM     00 120 00 00         : RESD         - DEEP RESISTIVITY (OTHER)
~PARAMETER INFORMATION
#MNEM.UNIT           DATA             DESCRIPTION OF MNEMONIC
#---------         -----------     ------------------------------
GL  .F        2413                 : gl           - GROUND LEVEL ELEVATION
EREF.F        2425                 : kb           - ELEVATION OF DEPTH REFERENCE
DATM.F        2425                 : datum        - DATUM ELEVATION
TDD .F        1705                 : tdd          - TOTAL DEPTH DRILLER
RUN .         ONE                  : Run          - RUN NUMBER
ENG .         BILL                 : Engineer     - RECORDING ENGINEER
WIT .         JIM                  : Witness      - WITNESSED BY
MUD .         GEL                  : Mud_type     - MUD TYPE
MATR.         SANDSTONE            : Logunit      - NEUTRON MATRIX
TMAX.F        71.6                 : BHT          - MAXIMUM RECORDED TEMPERATURE
BHTD.F        1710                 : BHTDEP       - MAXIMUM RECORDED TEMPERATURE
MATR.         1                    : LOGUNIT      - NEUTRON MATRIX
RMT .F        73                   : MDTP         - TEMPERATURE OF MUD
NEUT.         1                    : NEUTRON      - NEUTRON TYPE
RESI.         4.65                 : RESIST       - RESISTIVITY TYPE
RMC .OHMM     5.05                 : RMC          - RESISTIVITY OF MUD CAKE
RMF .OHMM     5.05                 : RMF          - RESISTIVITY OF MUD FILTRATE
SUFT.F        35                   : SUFT         - SURFACE TEMPERATURE
~A  DEPTH       GR     PHIN     PHID     RESD
# ...
 1378.150  113.091    0.433    0.240    9.326
 1378.970  113.112    0.429    0.237    9.338
 1379.790  113.718    0.424    0.231    9.172
 1380.610  114.334    0.424    0.227    8.514
 1381.430  114.940    0.428    0.224    8.206
 1382.250  115.561    0.449    0.220    7.762
 1383.070  115.577    0.456    0.222    7.346
 1383.890  116.193    0.463    0.225    7.079
 1384.710  116.804    0.472    0.226    6.952
 1385.530  116.235    0.482    0.223    6.829
 1386.350  115.081    0.477    0.225    7.099
 1387.170  114.501    0.463    0.232    7.662
 1387.990  112.752    0.452    0.238    8.272
 1388.810  111.007    0.452    0.242    9.274
 1389.630  108.668    0.451    0.245   10.011
 1390.450  105.738    0.441    0.250   10.405
 1391.270  103.393    0.420    0.256   10.033
 1392.090   99.873    0.381    0.260   10.038
 1392.910   99.309    0.387    0.262    9.676
 1393.730   99.920    0.390    0.267    9.327
 1394.550  100.531    0.398    0.268    8.991
 1395.370  102.323    0.411    0.273    8.667
 1396.190  102.934    0.422    0.273    8.356
 1397.010  102.954    0.432    0.265    7.759
 1397.830  102.975    0.442    0.257    7.618
 1398.650  103.581    0.448    0.252    7.071
 1399.480  104.203    0.450    0.253    6.691
 1400.300  104.803    0.455    0.252    6.697
 1401.120  106.009    0.459    0.248    6.832
 1401.940  107.211    0.465    0.244    6.968
 1402.760  106.636    0.467    0.246    7.106
 1403.580  106.067    0.469    0.248    7.386
 1404.400  105.498    0.466    0.247    7.534
 1405.220  105.519    0.464    0.244    7.834
 1406.040  106.130    0.463    0.249    7.843
 1406.860  107.336    0.459    0.255    7.847
 1407.680  106.177    0.456    0.258    7.710
 1408.500  105.012    0.457    0.265    7.572
 1409.320   93.820    0.458    0.275    7.300
 1410.140   92.071    0.457    0.282    7.308
 1410.960   91.502    0.453    0.282    7.313
 1411.780   91.523    0.452    0.274    7.185
 1412.600   93.319    0.453    0.269    7.056
 1413.420   93.925    0.455    0.261    6.676
 1414.240   95.721    0.460    0.258    6.434
 1415.060   96.332    0.465    0.256    5.973
 1415.880   97.528    0.475    0.255    5.341
 1416.700   98.139    0.482    0.255    4.956
 1417.520   99.941    0.493    0.261    4.349
 1418.340  101.142    0.515    0.263    4.272
 1419.160  102.343    0.531    0.263    4.788
 1419.980  103.544    0.543    0.263    5.267
 1420.800  102.385    0.519    0.263    5.792
 1421.620   99.455    0.443    0.264    6.617
 1422.440   96.526    0.435    0.265    6.878
 1423.260   94.186    0.446    0.266    7.015
 1424.080   93.617    0.456    0.271    7.156
 1424.900   91.873    0.466    0.276    7.029
 1425.720   87.752    0.468    0.281    6.651
 1426.540   84.232    0.458    0.266    6.531
 1427.360   82.483    0.445    0.233    6.417
 1428.180   82.504    0.417    0.204    6.544
 1429.000   83.705    0.439    0.235    6.934
 1429.820   83.731    0.442    0.257    7.771
 1430.640   80.801    0.440    0.229    8.876
 1431.460   79.046    0.392    0.169   10.136
 1432.280   76.117    0.366    0.130   10.148
 1433.100   76.733    0.328    0.117    9.780
 1433.920   79.704    0.388    0.165    9.083
 1434.740   83.261    0.399    0.190    8.590
 1435.560   88.598    0.411    0.218    7.825
 1436.380   91.564    0.427    0.242    7.128
 1437.200   95.721    0.438    0.240    6.745
 1438.020   99.283    0.452    0.233    6.624
 1438.850  101.664    0.462    0.231    6.505
 1439.670  102.865    0.472    0.232    6.514
 1440.490  102.291    0.480    0.234    6.519
 1441.310  101.732    0.487    0.224    6.524
 1442.130  101.743    0.481    0.214    6.658
 1442.950  103.544    0.463    0.204    6.663
 1443.770  104.745    0.444    0.199    6.668
 1444.590  106.537    0.444    0.206    6.674
 1445.410  108.328    0.443    0.213    6.558
 1446.230  110.709    0.439    0.214    6.440
 1447.050  113.681    0.435    0.214    6.208
 1447.870  114.286    0.434    0.215    5.764
 1448.690  115.488    0.437    0.217    5.153
 1449.510  115.508    0.440    0.216    4.694
 1450.330  112.584    0.445    0.221    4.196
 1451.150  110.244    0.448    0.226    3.821
 1451.970  109.080    0.456    0.229    3.416
 1452.790  106.150    0.490    0.233    3.055
 1453.610  102.635    0.508    0.239    3.115
 1454.430  101.471    0.533    0.246    3.427
 1455.250   99.732    0.554    0.250    3.629
 1456.070   99.152    0.580    0.255    3.993
 1456.890   97.993    0.575    0.250    4.476
 1457.710   96.833    0.547    0.245    4.924
 1458.530   95.679    0.499    0.239    5.313
 1459.350   94.525    0.471    0.229    5.628
 1460.170   94.536    0.449    0.229    5.964
 1460.990   94.556    0.438    0.230    6.198
 1461.810   95.168    0.431    0.229    6.565
 1462.630   95.778    0.428    0.224    6.328
 1463.450   96.985    0.423    0.221    6.098
 1464.270   98.186    0.419    0.222    5.662
 1465.090   99.387    0.417    0.225    5.258
 1465.910  101.768    0.417    0.226    5.066
 1466.730  102.374    0.424    0.227    4.528
 1467.550  103.575    0.434    0.228    3.899
 1468.370  105.377    0.463    0.231    3.688
 1469.190  105.983    0.486    0.232    3.298
 1470.010  107.774    0.497    0.232    3.239
 1470.830  109.571    0.492    0.233    3.181
 1471.650  110.176    0.485    0.234    3.185
 1472.470  110.208    0.498    0.235    3.248
 1473.290  110.223    0.509    0.237    3.252
 1474.110  110.244    0.518    0.237    3.255
 1474.930  109.675    0.523    0.239    3.258
 1475.750  109.101    0.506    0.244    3.323
 1476.570  108.531    0.502    0.249    3.389
 1477.400  109.147    0.508    0.247    3.457
 1478.220  110.939    0.513    0.244    3.593
 1479.040  112.135    0.516    0.241    3.736
 1479.860  113.926    0.519    0.240    3.882
 1480.680  114.537    0.513    0.239    4.114
 1481.500  115.153    0.508    0.239    4.195
 1482.320  114.579    0.503    0.237    4.443
 1483.140  112.834    0.490    0.235    4.618
 1483.960  111.675    0.486    0.231    4.800
 1484.780  111.691    0.484    0.230    4.992
 1485.600  112.302    0.484    0.227    5.092
 1486.420  112.328    0.484    0.226    5.194
 1487.240  109.993    0.480    0.225    5.297
 1488.060  109.414    0.457    0.217    5.403
 1488.880  108.254    0.460    0.200    5.616
 1489.700  107.685    0.458    0.172    5.731
 1490.520  104.761    0.450    0.149    5.845
 1491.340  104.782    0.457    0.201    5.849
 1492.160  107.163    0.465    0.217    6.081
 1492.980  108.374    0.469    0.232    6.441
 1493.800  106.024    0.442    0.239    7.085
 1494.620  104.270    0.429    0.248    8.090
 1495.440  100.750    0.431    0.256   10.544
 1496.260   95.460    0.435    0.283   15.983
 1497.080   87.224    0.438    0.293   17.579
 1497.900   81.929    0.441    0.301   16.319
 1498.720   78.414    0.434    0.307   14.316
 1499.540   80.795    0.433    0.315   12.097
 1500.360   83.762    0.434    0.313   10.609
 1501.180   96.180    0.434    0.273    8.965
 1502.000  102.693    0.434    0.259    8.480
 1502.820  104.484    0.427    0.264    8.817
 1503.640   98.603    0.401    0.275    9.162
 1504.460   88.592    0.373    0.291   10.078
 1505.280   72.675    0.191    0.328   11.085
 1506.100   63.844    0.198    0.377   11.961
 1506.920   57.963    0.220    0.392   11.315
 1507.740   53.859    0.312    0.376   10.307
 1508.560   56.240    0.365    0.293    9.568
 1509.380   60.387    0.379    0.277    8.882
 1510.200   81.657    0.392    0.258    8.406
 1511.020   91.120    0.409    0.250    8.412
 1511.840  101.763    0.421    0.233    8.421
 1512.660  118.307    0.428    0.222    8.589
 1513.480  131.906    0.426    0.227    8.926
 1514.300  128.976    0.425    0.229    9.818
 1515.120  127.817    0.419    0.228   11.213
 1515.940  126.067    0.411    0.227   12.572
 1516.770  121.958    0.410    0.218   13.313
 1517.590  114.307    0.405    0.211   14.922
 1518.410  109.602    0.402    0.213   16.110
 1519.230  101.951    0.395    0.220   17.068
 1520.050   93.710    0.371    0.228   17.410
