~VERSION INFORMATION
 VERS.                 2.0:   CWLS LOG ASCII STANDARD -VERSION 2.0
 WRAP.                  NO:   ONE LINE PER DEPTH STEP
~WELL INFORMATION BLOCK
#MNEM.UNIT           DATA                    DESCRIPTION OF MNEMONIC
#---------    -------------------            -------------------------------
# Generated from Intellog Unique Number	CW_73_75/WELL/702
WELL.         MIAMI AMOCO MARTEN HILLS 07-19 : Well_name    - WELL
LOC .         00/07-19-074-01W5/0            : Location     - LOCATION
UWI .         00/07-19-074-01W5/0            : Uwi          - UNIQUE WELL ID
ENTR.         JAYE                           : Entered      - ENTERED BY
SRVC.         SCHLUMBERGER                   : Scn          - SERVICE COMPANY
DATE.         2 FEB 74                       : Date         - LOG DATE
STRT.M        420.624                        : top_depth    - START DEPTH
STOP.M        633.874                        : bot_depth    - STOP DEPTH
STEP.M        0.25                           : increment    - STEP LENGTH
 NULL. -999.2500:NULL Value
~CURVE INFORMATION BLOCK
#MNEM UNIT       ERCB CURVE CODE    CURVE DESCRIPTION
#-----------   ------------------   ----------------------------------
DEPT.M        00 001 00 00         : DEPTH        - DEPTH
ILD .OHMM     00 120 00 00         : RESD         - DEEP RESISTIVITY (DIL)
NPHI.V/V      00 330 00 00         : PHIN         - NEUTRON POROSITY (SANDSTONE)
DPHI.V/V      00 890 00 00         : PHID         - DENSITY POROSITY (SANDSTONE)
GR  .API      00 310 00 00         : GR           - GAMMA RAY
CALI.MM       00 280 01 00         : CAL          - CALIPER
~PARAMETER INFORMATION
#MNEM.UNIT           DATA             DESCRIPTION OF MNEMONIC
#---------         -----------     ------------------------------
GL  .M        673.608              : gl           - GROUND LEVEL ELEVATION
EREF.M        677.57               : kb           - ELEVATION OF DEPTH REFERENCE
DATM.M        673.608              : datum        - DATUM ELEVATION
TDD .M        639.166              : tdd          - TOTAL DEPTH DRILLER
RUN .         ONE                  : Run          - RUN NUMBER
ENG .         WILLIGER             : Engineer     - RECORDING ENGINEER
WIT .         RUDD                 : Witness      - WITNESSED BY
BASE.         RD                   : Branch       - HOME BASE OF LOGGING UNIT
MUD .         GEL CHEM             : Mud_type     - MUD TYPE
MATR.         SANDSTONE            : Logunit      - NEUTRON MATRIX
TMAX.C        25                   : BHT          - MAXIMUM RECORDED TEMPERATURE
BHTD.M        637.946              : BHTDEP       - MAXIMUM RECORDED TEMPERATURE
RMT .C        20                   : MDTP         - TEMPERATURE OF MUD
MUDD.KG/M     1164                 : MWT          - MUD DENSITY
NEUT.         1                    : NEUTRON      - NEUTRON TYPE
RESI.         0                    : RESIST       - RESISTIVITY TYPE
RM  .OHMM     2.38                 : RM           - RESISTIVITY OF MUD
RMC .OHMM     0                    : RMC          - RESISTIVITY OF MUD CAKE
RMF .OHMM     1.89                 : RMF          - RESISTIVITY OF MUD FILTRATE
SUFT.C        -17.7778             : SUFT         - SURFACE TEMPERATURE
~A  DEPTH     RESD     PHIN     PHID       GR      CAL
  420.624    4.133    0.463    0.181   90.322  178.363
  420.874    4.142    0.447    0.155   97.658  171.472
  421.124    4.151    0.471    0.167  103.421  168.288
  421.374    3.921    0.526    0.180  104.089  170.746
  421.624    3.677    0.546    0.185  100.748  175.379
  421.874    3.365    0.554    0.208   96.255  176.595
  422.124    3.162    0.517    0.242   91.034  175.366
  422.374    3.234    0.472    0.202   91.638  172.061
  422.624    3.382    0.525    0.213   94.915  169.190
  422.874    3.453    0.556    0.218   96.730  169.081
  423.124    3.372    0.570    0.238   98.128  170.828
  423.374    3.215    0.528    0.257   97.937  173.180
  423.624    2.975    0.521    0.271  100.421  177.727
  423.874    2.659    0.535    0.281  100.850  181.102
  424.124    2.398    0.553    0.289  100.419  183.328
  424.374    2.179    0.568    0.277   99.441  180.046
  424.624    2.070    0.580    0.280   97.802  175.821
  424.874    2.213    0.561    0.265   92.825  172.950
  425.124    2.534    0.483    0.215   84.873  173.350
  425.374    2.891    0.500    0.172   78.993  172.950
  425.624    3.225    0.501    0.200   74.072  170.273
  425.874    3.599    0.501    0.241   68.367  166.253
  426.124    4.090    0.509    0.272   63.392  163.991
  426.374    4.422    0.493    0.297   61.324  163.467
  426.624    4.490    0.486    0.296   61.931  163.463
  426.874    4.336    0.492    0.289   61.327  163.971
  427.124    4.282    0.494    0.278   60.109  164.485
  427.374    4.437    0.501    0.270   59.497  165.408
  427.624    4.615    0.499    0.270   59.311  166.123
  427.874    4.835    0.482    0.275   58.582  166.515
  428.124    5.445    0.463    0.259   57.123  166.216
  428.374    6.165    0.413    0.256   57.857  165.481
  428.624    6.828    0.450    0.260   59.062  164.558
  428.874    7.141    0.472    0.265   60.206  164.352
  429.124    6.846    0.494    0.283   60.268  164.148
  429.374    6.028    0.514    0.288   59.353  164.147
  429.624    5.258    0.520    0.264   60.078  163.923
  429.874    4.795    0.508    0.262   62.196  163.814
  430.124    4.555    0.495    0.271   62.741  163.503
  430.374    4.515    0.478    0.281   62.016  163.396
  430.624    4.459    0.501    0.287   62.437  163.498
  430.874    4.298    0.521    0.279   64.859  164.007
  431.124    4.174    0.514    0.266   68.856  164.507
  431.374    4.017    0.481    0.253   73.465  164.922
  431.624    3.822    0.464    0.240   78.193  165.730
  431.874    3.551    0.493    0.236   88.380  167.273
  432.124    3.275    0.517    0.238  102.937  168.814
  432.374    3.105    0.540    0.226  110.579  170.037
  432.624    3.407    0.563    0.208  116.881  173.830
  432.874    3.711    0.529    0.184  113.118  176.080
  433.124    3.888    0.456    0.193  106.205  175.768
  433.374    4.150    0.461    0.199   96.612  177.302
  433.624    4.221    0.496    0.211   87.088  176.071
  433.874    4.199    0.505    0.231   73.376  171.546
  434.124    4.224    0.453    0.257   61.852  168.563
  434.374    4.304    0.455    0.277   57.114  167.325
  434.624    4.387    0.435    0.278   57.539  167.316
  434.874    4.429    0.412    0.279   59.959  167.210
  435.124    4.439    0.417    0.276   63.902  167.927
  435.374    4.408    0.429    0.240   66.328  169.062
  435.624    4.337    0.433    0.210   68.931  169.257
  435.874    4.235    0.442    0.234   71.839  168.948
  436.124    4.144    0.467    0.231   74.078  169.037
  436.374    4.100    0.488    0.229   75.714  168.627
  436.624    4.063    0.497    0.234   73.042  168.218
  436.874    4.042    0.478    0.262   65.882  167.613
  437.124    3.999    0.497    0.289   60.238  167.074
  437.374    3.942    0.504    0.297   56.111  166.046
  437.624    3.821    0.495    0.311   53.987  165.422
  437.874    3.697    0.484    0.323   53.377  164.998
  438.124    3.578    0.476    0.307   54.101  164.994
  438.374    3.443    0.450    0.301   55.314  165.914
  438.624    3.368    0.453    0.299   58.463  166.637
  438.874    3.339    0.467    0.296   58.830  166.420
  439.124    3.383    0.471    0.277   57.730  165.806
  439.374    3.512    0.468    0.263   61.914  165.103
  439.624    3.632    0.453    0.261   68.828  164.777
  439.874    3.757    0.438    0.264   71.673  164.673
  440.124    3.857    0.415    0.242   71.427  165.803
  440.374    3.982    0.423    0.245   72.275  166.496
  440.624    4.080    0.440    0.255   75.188  166.898
  440.874    4.157    0.457    0.254   78.034  167.203
  441.124    4.229    0.475    0.216   82.457  167.304
  441.374    4.184    0.494    0.190   92.099  167.809
  441.624    4.078    0.511    0.206  106.048  169.558
  441.874    3.867    0.534    0.201  112.353  170.984
  442.124    3.626    0.531    0.208  113.988  173.767
  442.374    3.574    0.393    0.164  112.652  175.601
  442.624    3.696    0.393    0.164  102.761  172.823
  442.874    4.004    0.421    0.193   92.445  174.355
  443.124    4.210    0.433    0.220   79.463  177.230
  443.374    4.371    0.426    0.240   66.357  171.471
  443.624    4.332    0.403    0.244   55.377  168.285
  443.874    4.084    0.397    0.254   52.829  167.249
  444.124    3.873    0.385    0.242   54.526  166.647
  444.374    3.740    0.387    0.223   58.103  166.736
  444.624    3.639    0.396    0.220   62.346  167.031
  444.874    3.561    0.407    0.221   66.772  167.147
  445.124    3.529    0.415    0.223   70.220  167.038
  445.374    3.524    0.420    0.211   75.924  166.607
  445.624    3.525    0.435    0.226   80.409  165.376
  445.874    3.546    0.455    0.237   82.041  164.453
  446.124    3.574    0.451    0.215   87.197  164.645
  446.374    3.635    0.465    0.200   96.109  165.365
  446.624    3.739    0.449    0.204  103.324  165.872
  446.874    3.838    0.429    0.198  103.684  166.497
  447.124    3.999    0.418    0.209  102.410  166.999
  447.374    4.129    0.431    0.218  106.228  167.296
  447.624    4.199    0.442    0.176  111.083  167.490
  447.874    4.279    0.444    0.184  113.993  167.792
  448.124    4.353    0.459    0.201  113.134  168.314
  448.374    4.428    0.479    0.221  106.522  168.709
  448.624    4.554    0.480    0.225  100.573  168.808
  448.874    4.710    0.465    0.221   98.996  168.494
  449.124    4.685    0.503    0.218  107.362  169.311
  449.374    4.313    0.524    0.207  119.004  171.053
  449.624    3.546    0.544    0.199  123.248  174.334
  449.874    3.048    0.562    0.223  121.063  179.158
  450.124    2.582    0.563    0.203  118.391  181.005
  450.374    2.248    0.508    0.221  119.236  180.793
  450.624    2.179    0.506    0.229  123.667  178.221
  450.874    2.317    0.508    0.254  123.662  173.600
  451.124    2.624    0.492    0.243  118.319  170.815
  451.374    2.933    0.472    0.232  111.343  170.198
  451.624    3.207    0.498    0.218  107.698  172.875
  451.874    3.512    0.487    0.224  103.207  174.815
  452.124    3.776    0.511    0.207   97.805  174.195
  452.374    3.877    0.535    0.277   91.798  170.696
  452.624    3.807    0.497    0.256   76.508  167.403
  452.874    3.725    0.505    0.266   70.684  166.986
  453.124    3.686    0.528    0.292   66.677  166.156
  453.374    3.659    0.487    0.299   64.186  165.339
  453.624    3.627    0.463    0.295   65.821  164.924
  453.874    3.602    0.478    0.288   68.366  164.913
  454.124    3.563    0.490    0.286   70.065  164.807
  454.374    3.538    0.481    0.288   70.667  164.696
  454.624    3.507    0.463    0.299   69.632  164.805
  454.874    3.457    0.454    0.315   68.599  165.009
  455.124    3.420    0.475    0.310   72.236  165.323
  455.374    3.390    0.494    0.289   77.633  165.402
  455.624    3.391    0.510    0.269   83.574  165.702
  455.874    3.456    0.525    0.246   86.665  166.004
  456.124    3.502    0.536    0.255   89.274  166.926
  456.374    3.576    0.549    0.242   92.178  170.413
  456.624    3.623    0.537    0.259   91.637  171.956
  456.874    3.699    0.516    0.278   84.227  170.618
