~VERSION INFORMATION
 VERS.                 2.0:   CWLS LOG ASCII STANDARD -VERSION 2.0
 WRAP.                  NO:   ONE LINE PER DEPTH STEP
~WELL INFORMATION BLOCK
#MNEM.UNIT           DATA                    DESCRIPTION OF MNEMONIC
#---------    -------------------            -------------------------------
# Generated from Intellog Unique Number	CW_70_72/WELL/875
NULL.         -999.25                        : NULL_VALUE
WELL.         PETROREP ET AL SMITH 07-06     : Well_name    - WELL              
LOC .         07-06-072-25W4                 : Location     - LOCATION          
UWI .         00/07-06-072-25W4/0            : Uwi          - UNIQUE WELL ID    
ENTR.         JAYE                           : Entered      - ENTERED BY        
SRVC.         SCHLUMBERGER                   : Scn          - SERVICE COMPANY   
DATE.         24 NOV 77                      : Date         - LOG DATE          
STRT.M        393.192                        : top_depth    - START DEPTH       
STOP.M        618.692                        : bot_depth    - STOP DEPTH        
STEP.M        0.25                           : increment    - STEP LENGTH       
~CURVE INFORMATION BLOCK
#MNEM UNIT       ERCB CURVE CODE    CURVE DESCRIPTION
#-----------   ------------------   ----------------------------------
DEPT.M        00 001 00 00         : DEPTH        - DEPTH                       
DPHI.V/V      00 890 00 00         : PHID         - DENSITY POROSITY (SANDSTONE)
NPHI.V/V      00 330 00 00         : PHIN         - NEUTRON POROSITY (SANDSTONE)
GR  .API      00 310 00 00         : GR           - GAMMA RAY                   
CALI.MM       00 280 01 00         : CAL          - CALIPER                     
ILD .OHMM     00 120 00 00         : RESD         - DEEP RESISTIVITY (DIL)      
~PARAMETER INFORMATION       
#MNEM.UNIT           DATA             DESCRIPTION OF MNEMONIC
#---------         -----------     ------------------------------
GL  .M        582.473              : gl           - GROUND LEVEL ELEVATION      
EREF.M        586.13               : kb           - ELEVATION OF DEPTH REFERENCE
DATM.M        582.473              : datum        - DATUM ELEVATION             
TDD .M        621.792              : tdd          - TOTAL DEPTH DRILLER         
RUN .         ONE                  : Run          - RUN NUMBER                  
ENG .         KUBICA/RIVOLLIER     : Engineer     - RECORDING ENGINEER          
WIT .         HERB                 : Witness      - WITNESSED BY                
BASE.         EDM                  : Branch       - HOME BASE OF LOGGING UNIT   
MUD .         GEL                  : Mud_type     - MUD TYPE                    
MATR.         SANDSTONE            : Logunit      - NEUTRON MATRIX              
TMAX.C        27.7778              : BHT          - MAXIMUM RECORDED TEMPERATURE
BHTD.M        621.487              : BHTDEP       - MAXIMUM RECORDED TEMPERATURE
RMT .C        13.3333              : MDTP         - TEMPERATURE OF MUD          
MUDD.KG/M     1164                 : MWT          - MUD DENSITY                 
NEUT.         1                    : NEUTRON      - NEUTRON TYPE                
RESI.         0                    : RESIST       - RESISTIVITY TYPE            
RM  .OHMM     3.86                 : RM           - RESISTIVITY OF MUD          
RMC .OHMM     0                    : RMC          - RESISTIVITY OF MUD CAKE     
RMF .OHMM     3.1                  : RMF          - RESISTIVITY OF MUD FILTRATE 
SUFT.C        0                    : SUFT         - SURFACE TEMPERATURE         
~A  DEPTH     PHID     PHIN       GR      CAL     RESD
# ...
  466.192    0.287    0.426   55.461  155.092    3.249
  466.442    0.284    0.444   55.179  155.141    3.276
  466.692    0.298    0.448   56.514  155.396    3.292
  466.942    0.297    0.442   58.471  155.029    3.315
  467.192    0.286    0.433   60.429  154.229    3.318
  467.442    0.282    0.425   63.323  152.704    3.322
  467.692    0.276    0.424   65.525  150.332    3.314
  467.942    0.288    0.424   68.789  148.272    3.342
  468.192    0.297    0.427   69.811  146.116    3.481
  468.442    0.285    0.432   69.409  144.579    3.598
  468.692    0.274    0.428   70.243  144.627    3.717
  468.942    0.267    0.423   71.579  145.839    3.871
  469.192    0.269    0.419   69.808  147.783    3.963
  469.442    0.259    0.420   68.154  148.570    3.932
  469.692    0.260    0.434   65.572  149.356    3.841
  469.942    0.267    0.437   61.185  150.147    3.705
  470.192    0.278    0.424   55.618  150.935    3.619
  470.442    0.288    0.412   54.278  151.299    3.503
  470.692    0.291    0.410   55.116  151.660    3.409
  470.942    0.287    0.425   58.386  151.823    3.294
  471.192    0.298    0.426   60.712  151.131    3.219
  471.442    0.302    0.426   63.228  149.919    3.180
  471.692    0.295    0.423   65.248  148.805    3.160
  471.942    0.279    0.420   65.960  148.648    3.128
  472.192    0.289    0.416   67.424  149.434    3.097
  472.442    0.293    0.418   69.196  150.007    3.077
  472.692    0.287    0.429   70.402  150.058    2.956
  472.942    0.277    0.442   72.111  151.055    2.798
  473.192    0.277    0.454   74.196  152.893    2.688
  473.442    0.279    0.470   76.088  158.001    2.602
  473.692    0.263    0.489   78.542  161.207    2.575
  473.942    0.250    0.502   78.013  159.156    2.603
  474.192    0.274    0.480   73.065  156.051    2.675
  474.442    0.309    0.462   67.995  154.620    2.713
  474.692    0.330    0.445   62.864  152.993    2.716
  474.942    0.338    0.424   56.797  152.089    2.694
  475.192    0.335    0.407   55.022  151.713    2.677
  475.442    0.339    0.420   55.672  152.078    2.660
  475.692    0.320    0.430   55.142  153.603    2.658
  475.942    0.329    0.421   52.001  154.498    2.578
  476.192    0.334    0.408   50.723  154.442    2.523
  476.442    0.325    0.404   53.180  153.864    2.512
  476.692    0.309    0.402   57.629  154.119    2.548
  476.942    0.299    0.400   61.260  155.220    2.624
  477.192    0.295    0.405   68.008  156.536    2.667
  477.442    0.300    0.404   74.566  157.952    2.740
  477.692    0.261    0.404   79.822  160.544    2.886
  477.942    0.215    0.411   81.903  162.265    3.068
  478.192    0.208    0.421   81.687  164.210    3.310
  478.442    0.216    0.434   81.838  164.995    3.578
  478.692    0.203    0.430   82.116  165.470    3.803
  478.942    0.212    0.430   80.714  165.624    4.028
  479.192    0.215    0.437   77.263  164.406    4.163
  479.442    0.217    0.444   73.867  161.402    4.114
  479.692    0.234    0.443   69.234  157.767    3.929
  479.942    0.260    0.429   63.539  154.765    3.637
  480.192    0.305    0.414   57.286  153.758    3.480
  480.442    0.303    0.418   54.455  153.807    3.306
  480.692    0.294    0.432   56.295  153.545    3.089
  480.942    0.300    0.431   57.001  145.796    2.912
  481.192    0.311    0.415   57.963  146.378    2.819
  481.442    0.320    0.415   60.237  148.951    2.733
  481.692    0.315    0.427   62.877  151.741    2.690
  481.942    0.315    0.437   65.953  152.947    2.750
  482.192    0.285    0.448   68.903  154.051    2.832
  482.442    0.287    0.457   70.923  154.941    2.959
  482.692    0.299    0.437   72.699  154.995    3.205
  482.942    0.264    0.427   73.282  152.621    3.538
  483.192    0.249    0.433   74.496  151.091    3.760
  483.442    0.254    0.434   76.763  151.558    4.028
  483.692    0.254    0.425   78.658  153.611    4.202
  483.942    0.241    0.412   76.262  155.560    4.350
  484.192    0.251    0.405   72.125  155.078    4.404
  484.442    0.266    0.396   65.995  153.025    3.970
  484.692    0.296    0.390   60.492  151.923    3.565
  484.942    0.320    0.405   59.217  152.177    3.108
  485.192    0.321    0.416   57.876  153.175    2.881
  485.442    0.337    0.394   54.606  154.591    2.737
  485.692    0.335    0.382   52.025  156.015    2.590
  485.942    0.344    0.385   52.552  156.383    2.502
  486.192    0.339    0.392   53.702  156.213    2.436
  486.442    0.339    0.402   55.349  156.371    2.393
  486.692    0.324    0.422   57.178  155.785    2.374
  486.942    0.327    0.419   59.198  154.992    2.363
  487.192    0.334    0.414   59.665  154.623    2.375
  487.442    0.334    0.409   59.567  154.570    2.373
  487.692    0.326    0.407   59.663  155.145    2.398
  487.942    0.318    0.405   60.002  155.515    2.441
  488.192    0.317    0.397   61.277  155.250    2.458
  488.442    0.322    0.392   64.287  155.083    2.484
  488.692    0.326    0.410   67.365  154.608    2.534
  488.942    0.321    0.418   66.150  153.286    2.619
  489.192    0.320    0.424   66.494  151.866    2.774
  489.442    0.307    0.425   69.692  151.809    2.954
  489.692    0.288    0.410   73.640  151.859    3.139
  489.942    0.266    0.388   76.905  152.639    3.381
  490.192    0.253    0.402   79.047  153.855    3.608
  490.442    0.262    0.411   81.253  154.425    3.633
  490.692    0.275    0.417   82.030  154.477    3.555
  490.942    0.288    0.427   79.946  154.319    3.480
  491.192    0.283    0.423   81.404  154.045    3.440
  491.442    0.273    0.403   86.222  153.795    3.386
  491.692    0.244    0.388   79.038  153.734    3.351
  491.942    0.246    0.370   67.496  153.671    3.306
  492.192    0.266    0.392   61.059  153.300    3.248
  492.442    0.288    0.416   60.469  153.457    3.173
  492.692    0.311    0.424   60.995  153.509    3.112
  492.942    0.282    0.429   62.578  153.657    3.057
  493.192    0.286    0.433   63.478  154.027    3.021
  493.442    0.279    0.439   63.511  154.073    3.008
  493.692    0.285    0.443   64.472  154.238    3.029
  493.942    0.301    0.450   66.363  154.384    3.048
  494.192    0.290    0.436   68.756  154.536    3.075
  494.442    0.289    0.428   73.079  154.068    3.101
  494.692    0.288    0.424   76.282  153.801    3.111
  494.942    0.296    0.416   77.428  153.739    3.115
  495.192    0.288    0.423   76.151  153.693    3.136
  495.442    0.283    0.436   72.199  154.057    3.151
  495.692    0.282    0.440   68.188  153.786    3.178
  495.942    0.279    0.433   65.106  153.831    3.212
  496.192    0.275    0.419   62.149  154.091    3.276
  496.442    0.266    0.405   61.681  154.044    3.380
  496.692    0.256    0.393   62.580  153.769    3.579
  496.942    0.244    0.386   62.736  153.820    3.797
  497.192    0.178    0.391   61.520  153.764    4.068
  497.442    0.157    0.391   61.673  154.024    4.243
  497.692    0.150    0.356   62.824  154.810    4.476
  497.942    0.169    0.326   62.913  157.388    4.795
  498.192    0.142    0.300   61.264  160.812    5.233
  498.442    0.127    0.273   60.236  163.497    5.510
  498.692    0.130    0.307   60.393  165.544    5.957
  498.942    0.164    0.335   60.856  167.593    6.285
  499.192    0.194    0.350   61.568  163.533    6.387
  499.442    0.215    0.370   62.282  152.208    6.000
  499.692    0.232    0.384   65.110  151.947    5.510
  499.942    0.241    0.395   65.577  152.413    5.137
  500.192    0.250    0.399   66.540  152.992    4.718
  500.442    0.260    0.390   67.250  153.672    4.285
  500.692    0.278    0.388   64.668  154.564    3.995
  500.942    0.283    0.400   63.390  155.150    3.739
  501.192    0.285    0.423   64.232  155.193    3.525
  501.442    0.294    0.435   65.191  155.254    3.412
  501.692    0.297    0.434   66.463  155.289    3.284
  501.942    0.306    0.441   67.494  155.341    3.138
  502.192    0.316    0.447   68.327  154.870    3.077
  502.442    0.313    0.450   70.534  154.387    3.063
