~VERSION INFORMATION
 VERS.                 2.0:   CWLS LOG ASCII STANDARD -VERSION 2.0
 WRAP.                  NO:   ONE LINE PER DEPTH STEP
~WELL INFORMATION BLOCK
#MNEM.UNIT           DATA                    DESCRIPTION OF MNEMONIC
#---------    -------------------            -------------------------------
# Generated from Intellog Unique Number	CW_79_81/WELL/3694
WELL.         AMCO                           : Well_name    - WELL
LOC .         00/07-09-078-23W4/0            : Location     - LOCATION
UWI .         00/07-09-078-23W4/0            : Uwi          - UNIQUE WELL ID
ENTR.         TIM                            : Entered      - ENTERED BY
SRVC.         SCHLUMBERGER                   : Scn          - SERVICE COMPANY
DATE.         05\15\92                       : Date         - LOG DATE
STRT.M        250                            : top_depth    - START DEPTH
STOP.M        525                            : bot_depth    - STOP DEPTH
STEP.M        0.25                           : increment    - STEP LENGTH
 NULL. -999.2500:NULL Value
~CURVE INFORMATION BLOCK
#MNEM UNIT       ERCB CURVE CODE    CURVE DESCRIPTION
#-----------   ------------------   ----------------------------------
DEPT.M        00 001 00 00         : DEPTH        - DEPTH
GR  .API      00 310 00 00         : GR           - GAMMA RAY
DPHI.V/V      00 890 00 00         : PHID         - DENSITY POROSITY (SANDSTONE)
ILD .OHMM     00 120 00 00         : RESD         - DEEP RESISTIVITY (DIL)
NPHI.V/V      00 330 00 00         : PHIN         - NEUTRON POROSITY (SANDSTONE)
~PARAMETER INFORMATION
#MNEM.UNIT           DATA             DESCRIPTION OF MNEMONIC
#---------         -----------     ------------------------------
GL  .M        605                  : gl           - GROUND LEVEL ELEVATION
EREF.M        609                  : kb           - ELEVATION OF DEPTH REFERENCE
DATM.M        609                  : datum        - DATUM ELEVATION
TDD .M        525                  : tdd          - TOTAL DEPTH DRILLER
RUN .         ONE                  : Run          - RUN NUMBER
ENG .         JO                   : Engineer     - RECORDING ENGINEER
WIT .         TIM                  : Witness      - WITNESSED BY
MUD .         GEL                  : Mud_type     - MUD TYPE
MATR.         SANDSTONE            : Logunit      - NEUTRON MATRIX
TMAX.C        27                   : BHT          - MAXIMUM RECORDED TEMPERATURE
BHTD.M        525                  : BHTDEP       - MAXIMUM RECORDED TEMPERATURE
RMT .C        20                   : MDTP         - TEMPERATURE OF MUD
MUDD.KG/M     1090                 : MWT          - MUD DENSITY
NEUT.         1                    : NEUTRON      - NEUTRON TYPE
RESI.         0                    : RESIST       - RESISTIVITY TYPE
RM  .OHMM     5.2                  : RM           - RESISTIVITY OF MUD
RMC .OHMM     4                    : RMC          - RESISTIVITY OF MUD CAKE
RMF .OHMM     6.3                  : RMF          - RESISTIVITY OF MUD FILTRATE
SUFT.C        4                    : SUFT         - SURFACE TEMPERATURE
~A  DEPTH       GR     PHID     RESD     PHIN
# ...
  380.500   75.204    0.254   10.953    0.443
  380.750   87.449    0.250    9.651    0.476
  381.000   90.507    0.250    8.816    0.510
  381.250   90.500    0.263    8.204    0.481
  381.500   88.654    0.253    7.778    0.433
  381.750   88.033    0.225    7.372    0.412
  382.000   89.249    0.207    7.118    0.460
  382.250   89.856    0.214    6.994    0.494
  382.500   89.851    0.221    6.753    0.501
  382.750   89.228    0.207    6.518    0.500
  383.000   89.222    0.199    6.408    0.510
  383.250   90.439    0.195    6.186    0.535
  383.500   91.044    0.193    6.083    0.539
  383.750   91.039    0.195    5.978    0.548
  384.000   90.417    0.197    5.877    0.554
  384.250   90.408    0.197    5.888    0.555
  384.500   91.630    0.195    5.893    0.543
  384.750   92.846    0.196    5.899    0.512
  385.000   92.841    0.202    5.803    0.490
  385.250   89.770    0.213    5.808    0.498
  385.500   88.536    0.208    5.815    0.503
  385.750   90.979    0.203    5.821    0.478
  386.000   90.358    0.210    5.722    0.466
  386.250   86.061    0.217    5.729    0.465
  386.500   83.605    0.214    5.844    0.492
  386.750   87.272    0.213    5.849    0.488
  387.000   89.103    0.215    5.859    0.489
  387.250   89.098    0.217    5.554    0.514
  387.500   92.154    0.207    5.261    0.526
  387.750   91.532    0.196    4.897    0.531
  388.000   89.076    0.185    4.813    0.495
  388.250   90.294    0.183    5.002    0.478
  388.500   95.189    0.192    5.005    0.480
  388.750   97.632    0.201    5.295    0.504
  389.000   86.597    0.215    5.706    0.510
  389.250   81.686    0.252    6.379    0.517
  389.500   78.003    0.270    6.621    0.522
  389.750   76.156    0.265    6.876    0.526
  390.000   73.084    0.226    7.139    0.497
  390.250   70.627    0.208    7.280    0.470
  390.500   67.559    0.223    7.293    0.437
  390.750   68.777    0.247    7.166    0.441
  391.000   75.507    0.262    7.044    0.449
  391.250   79.178    0.272    6.930    0.452
  391.500   83.456    0.265    6.810    0.450
  391.750   84.676    0.258    6.701    0.452
  392.000   83.443    0.250    6.703    0.478
  392.250   82.213    0.233    6.712    0.509
  392.500   79.753    0.259    6.720    0.536
  392.750   77.908    0.275    6.855    0.560
  393.000   74.222    0.264    6.861    0.564
  393.250   76.053    0.259    6.869    0.537
  393.500   78.499    0.246    6.755    0.513
  393.750   82.168    0.217    6.523    0.491
  394.000   81.546    0.200    6.294    0.486
  394.250   83.991    0.186    6.074    0.485
  394.500   88.885    0.193    5.757    0.487
  394.750   94.392    0.206    5.559    0.491
  395.000   94.383    0.219    5.365    0.503
  395.250   95.601    0.213    5.181    0.507
  395.500   96.821    0.206    5.090    0.504
  395.750   98.036    0.199    5.192    0.522
  396.000   97.418    0.200    5.392    0.529
  396.250   95.574    0.200    5.600    0.532
  396.500   90.662    0.196    5.817    0.538
  396.750   89.431    0.184    6.042    0.543
  397.000   88.199    0.152    6.049    0.475
  397.250   86.965    0.168    5.945    0.479
  397.500   86.346    0.218    5.742    0.474
  397.750   85.727    0.219    5.747    0.468
  398.000   88.170    0.202    5.652    0.480
  398.250   92.450    0.189    5.763    0.473
  398.500   93.057    0.185    5.767    0.459
  398.750   91.823    0.176    5.881    0.448
  399.000   90.590    0.155    5.997    0.446
  399.250   87.521    0.144    6.006    0.475
  399.500   85.674    0.172    6.013    0.498
  399.750   88.118    0.187    6.021    0.525
  400.000   91.785    0.199    6.028    0.529
  400.250   91.778    0.189    6.036    0.506
  400.500   93.609    0.181    6.043    0.489
  400.750   96.052    0.188    6.054    0.479
  401.000   96.659    0.200    6.058    0.506
  401.250   95.423    0.199    6.067    0.513
  401.500   93.580    0.190    6.073    0.510
  401.750   94.798    0.185    5.972    0.481
  402.000   96.018    0.184    5.979    0.465
  402.250   99.070    0.185    5.989    0.452
  402.500  100.290    0.188    5.994    0.436
  402.750  100.283    0.190    5.891    0.440
  403.000   97.825    0.194    5.898    0.439
  403.250  100.269    0.199    5.697    0.438
  403.500  103.936    0.189    5.601    0.446
  403.750  106.379    0.179    5.608    0.470
  404.000  105.761    0.172    5.513    0.481
  404.250   99.014    0.178    5.520    0.491
  404.500   97.169    0.182    5.526    0.483
  404.750   95.935    0.183    5.431    0.484
  405.000   94.702    0.186    5.438    0.492
  405.250   93.470    0.189    5.445    0.514
  405.500   91.624    0.189    5.451    0.512
  405.750   89.778    0.192    5.458    0.475
  406.000   89.161    0.195    5.465    0.479
  406.250   92.216    0.199    5.473    0.481
  406.500   94.046    0.184    5.480    0.469
  406.750   95.261    0.169    5.586    0.456
  407.000   94.643    0.181    6.022    0.458
  407.250   93.412    0.209    6.367    0.484
  407.500   91.567    0.219    7.114    0.491
  407.750   89.107    0.227    8.096    0.488
  408.000   88.489    0.233    9.556    0.473
  408.250   85.415    0.228   10.678    0.460
  408.500   84.186    0.083   11.502    0.404
  408.750   68.249    0.034   12.395    0.348
  409.000   63.953   -0.000   12.872    0.256
  409.250   59.041   -0.005   12.204    0.237
  409.500   60.259    0.026   10.946    0.202
  409.750   67.606    0.071    9.645    0.304
  410.000   75.563    0.098    8.813    0.357
  410.250   81.681    0.136    8.353    0.443
  410.500   84.126    0.177    8.063    0.462
  410.750   85.345    0.155    7.783    0.445
  411.000   88.401    0.154    7.515    0.433
  411.250   92.070    0.155    7.522    0.458
  411.500   95.737    0.164    7.392    0.457
  411.750   95.730    0.183    7.402    0.452
  412.000   95.721    0.190    7.413    0.444
  412.250   95.717    0.186    7.290    0.444
  412.500   95.708    0.175    7.294    0.451
  412.750   98.151    0.171    7.303    0.455
  413.000   99.984    0.175    7.180    0.461
  413.250  102.426    0.181    7.189    0.471
  413.500  105.480    0.191    7.072    0.435
  413.750  103.024    0.202    6.948    0.426
  414.000   98.726    0.203    6.956    0.479
  414.250   93.207    0.198    6.841    0.506
  414.500   92.585    0.196    6.976    0.528
  414.750   93.803    0.190    7.113    0.493
  415.000   94.411    0.190    7.122    0.468
  415.250   95.627    0.188    7.265    0.468
  415.500   95.007    0.188    7.140    0.513
  415.750   95.611    0.190    6.896    0.540
  416.000   96.220    0.192    6.902    0.543
  416.250   97.438    0.195    6.786    0.511
  416.500   98.654    0.192    6.792    0.502
  416.750   98.647    0.174    6.802    0.532
  417.000   96.802    0.170    6.811    0.538
  417.250   96.791    0.173    6.819    0.510
  417.500   98.011    0.178    6.704    0.482
  417.750   99.840    0.179    6.588    0.460
  418.000   99.222    0.174    6.362    0.455
  418.250   99.216    0.176    6.252    0.453
  418.500  100.433    0.185    5.929    0.459
  418.750  103.487    0.203    5.935    0.475
  419.000  106.543    0.217    5.946    0.481
  419.250  108.376    0.215    6.061    0.462
  419.500  103.467    0.206    6.293    0.460
  419.750   99.786    0.201    6.656    0.458
  420.000   94.263    0.207    7.304    0.566
  420.250   89.967    0.212    8.162    0.544
  420.500   86.894    0.207    9.117    0.409
  420.750   85.662    0.185   11.795    0.315
  421.000   84.431    0.135   13.423    0.276
  421.250   80.133    0.108   13.196    0.275
  421.500   77.677    0.108   11.839    0.348
  421.750   75.830    0.141   10.240    0.399
  422.000   77.661    0.169    8.860    0.454
  422.250   81.945    0.178    8.395    0.486
  422.500   86.839    0.180    7.675    0.487
  422.750   95.409    0.181    7.541    0.461
  423.000   96.625    0.180    7.152    0.447
  423.250   96.005    0.183    7.029    0.430
  423.500   95.996    0.185    6.908    0.420
  423.750   94.764    0.178    6.916    0.436
