~VERSION INFORMATION
 VERS.                 2.0:   CWLS LOG ASCII STANDARD -VERSION 2.0
 WRAP.                  NO:   ONE LINE PER DEPTH STEP
~WELL INFORMATION BLOCK
#MNEM.UNIT           DATA                    DESCRIPTION OF MNEMONIC
#---------    -------------------            -------------------------------
# Generated from Intellog Unique Number	CS_67_68/WELL/784
WELL.         BOW VALLEY EXPLORATION         : Well_name    - WELL
LOC .         00/07-34-068-14W4/0            : Location     - LOCATION
UWI .         00/07-34-068-14W4/0            : Uwi          - UNIQUE WELL ID
ENTR.         SP                             : Entered      - ENTERED BY
SRVC.         SCHLUMBERGER                   : Scn          - SERVICE COMPANY
STRT.M        268.224                        : top_depth    - START DEPTH
STOP.M        472.224                        : bot_depth    - STOP DEPTH
STEP.M        0.25                           : increment    - STEP LENGTH
 NULL. -999.2500:NULL Value
~CURVE INFORMATION BLOCK
#MNEM UNIT       ERCB CURVE CODE    CURVE DESCRIPTION
#-----------   ------------------   ----------------------------------
DEPT.M        00 001 00 00         : DEPTH        - DEPTH
GR  .API      00 310 00 00         : GR           - GAMMA RAY
DPHI.V/V      00 890 00 00         : PHID         - DENSITY POROSITY (SANDSTONE)
NPHI.V/V      00 330 00 00         : PHIN         - NEUTRON POROSITY (SANDSTONE)
ILD .OHMM     00 120 00 00         : RESD         - DEEP RESISTIVITY (DIL)
~PARAMETER INFORMATION
#MNEM.UNIT           DATA             DESCRIPTION OF MNEMONIC
#---------         -----------     ------------------------------
GL  .M        561.289              : gl           - GROUND LEVEL ELEVATION
EREF.M        564.49               : kb           - ELEVATION OF DEPTH REFERENCE
DATM.M        561.289              : datum        - DATUM ELEVATION
TDD .M        472.44               : tdd          - TOTAL DEPTH DRILLER
RUN .         ONE                  : Run          - RUN NUMBER
ENG .         BILL                 : Engineer     - RECORDING ENGINEER
WIT .         JIM                  : Witness      - WITNESSED BY
MUD .         GEL                  : Mud_type     - MUD TYPE
MATR.         SANDSTONE            : Logunit      - NEUTRON MATRIX
TMAX.C        23.3333              : BHT          - MAXIMUM RECORDED TEMPERATURE
BHTD.M        472.44               : BHTDEP       - MAXIMUM RECORDED TEMPERATURE
MATR.         1                    : LOGUNIT      - NEUTRON MATRIX
RMT .C        25                   : MDTP         - TEMPERATURE OF MUD
NEUT.         1                    : NEUTRON      - NEUTRON TYPE
RESI.         0                    : RESIST       - RESISTIVITY TYPE
RMC .OHMM     0.25                 : RMC          - RESISTIVITY OF MUD CAKE
RMF .OHMM     0.25                 : RMF          - RESISTIVITY OF MUD FILTRATE
SUFT.C        15                   : SUFT         - SURFACE TEMPERATURE
~A  DEPTH       GR     PHID     PHIN     RESD
# ...
  398.724   59.756    0.281    0.459    3.276
  398.974   59.302    0.278    0.469    3.308
  399.224   58.933    0.274    0.479    3.429
  399.474   59.053    0.284    0.473    3.568
  399.724   60.047    0.277    0.467    3.764
  399.974   61.142    0.273    0.469    4.028
  400.224   62.941    0.274    0.474    4.127
  400.474   64.899    0.268    0.483    4.202
  400.724   66.596    0.260    0.474    4.216
  400.974   68.471    0.245    0.465    4.172
  401.224   69.952    0.234    0.455    3.975
  401.474   70.794    0.239    0.466    3.800
  401.724   71.166    0.244    0.480    3.638
  401.974   71.434    0.247    0.492    3.340
  402.224   71.698    0.246    0.500    3.063
  402.474   72.183    0.239    0.516    2.856
  402.724   72.625    0.251    0.526    2.757
  402.974   73.221    0.257    0.531    2.696
  403.224   73.755    0.273    0.549    2.655
  403.474   73.808    0.270    0.556    2.636
  403.724   73.635    0.287    0.532    2.614
  403.974   73.127    0.266    0.533    2.582
  404.224   73.086    0.268    0.544    2.609
  404.474   72.617    0.271    0.581    2.650
  404.724   72.902    0.286    0.594    2.696
  404.974   73.349    0.295    0.573    2.743
  405.224   73.950    0.284    0.525    2.825
  405.474   74.463    0.262    0.502    2.973
  405.724   74.812    0.254    0.522    3.130
  405.974   75.324    0.248    0.539    3.388
  406.224   76.040    0.248    0.556    3.631
  406.474   76.615    0.273    0.549    3.920
  406.724   75.702    0.267    0.473    4.260
  406.974   72.467    0.225    0.457    4.704
  407.224   69.577    0.216    0.463    5.049
  407.474   65.669    0.220    0.441    5.318
  407.724   62.032    0.224    0.386    5.468
  407.974   60.791    0.207    0.359    5.181
  408.224   62.365    0.189    0.337    5.053
  408.474   64.306    0.154    0.374    4.882
  408.724   65.287    0.189    0.413    4.422
  408.974   66.358    0.214    0.430    4.216
  409.224   67.014    0.219    0.431    4.095
  409.474   66.735    0.207    0.430    4.204
  409.724   65.300    0.193    0.435    4.295
  409.974   64.156    0.185    0.437    4.369
  410.224   62.930    0.176    0.427    4.437
  410.474   61.557    0.178    0.426    4.439
  410.724   60.810    0.197    0.426    4.427
  410.974   61.080    0.203    0.430    4.450
  411.224   63.261    0.208    0.441    4.527
  411.474   65.712    0.219    0.440    4.662
  411.724   66.768    0.221    0.433    5.470
  411.974   65.294    0.209    0.433    6.815
  412.224   62.166    0.203    0.433    8.825
  412.474   59.107    0.189    0.425   12.080
  412.724   55.763    0.169    0.342   15.392
  412.974   50.669    0.147    0.299   16.872
  413.224   45.406    0.115    0.251   18.071
  413.474   39.913    0.090    0.208   18.802
  413.724   36.258    0.069    0.183   16.813
  413.974   45.360    0.032    0.166   11.083
  414.224   50.134   -0.011    0.169    8.254
  414.474   54.763   -0.004    0.191    6.876
  414.724   60.545    0.045    0.245    5.994
  414.974   68.075    0.127    0.315    5.960
  415.224   72.306    0.157    0.372    5.346
  415.474   73.265    0.173    0.398    4.959
  415.724   73.466    0.183    0.418    4.690
  415.974   72.374    0.188    0.415    4.643
  416.224   71.074    0.188    0.422    4.757
  416.474   69.988    0.196    0.411    4.877
  416.724   69.613    0.210    0.423    4.975
  416.974   70.347    0.209    0.442    5.072
  417.224   71.055    0.203    0.459    5.092
  417.474   71.001    0.201    0.443    5.106
  417.724   70.043    0.208    0.431    5.098
  417.974   69.131    0.202    0.420    5.080
  418.224   70.110    0.193    0.415    4.990
  418.474   71.170    0.196    0.426    4.861
  418.724   70.687    0.204    0.438    4.809
  418.974   70.581    0.207    0.434    4.852
  419.224   71.637    0.211    0.420    4.973
  419.474   73.297    0.210    0.411    5.132
  419.724   75.330    0.202    0.411    5.203
  419.974   75.502    0.198    0.410    5.261
  420.224   72.897    0.197    0.410    5.245
  420.474   69.789    0.187    0.420    4.567
  420.724   68.021    0.180    0.436    3.827
  420.974   67.360    0.174    0.430    3.133
  421.224   67.733    0.180    0.440    2.672
  421.474   67.942    0.206    0.450    2.420
  421.724   68.153    0.229    0.460    2.264
  421.974   68.332    0.252    0.504    2.186
  422.224   69.171    0.268    0.511    2.265
  422.474   71.413    0.276    0.502    2.403
  422.724   73.198    0.262    0.502    2.627
  422.974   74.208    0.271    0.512    3.097
  423.224   74.756    0.267    0.505    3.817
  423.474   71.585    0.262    0.504    4.443
  423.724   66.936    0.249    0.502    5.106
  423.974   61.542    0.236    0.456    5.753
  424.224   56.611    0.206    0.361    6.024
  424.474   57.697    0.120    0.347    6.162
  424.724   62.987    0.084    0.338    6.107
  424.974   65.850    0.124    0.342    5.887
  425.224   68.162    0.167    0.380    5.566
  425.474   66.607    0.198    0.408    5.320
  425.724   63.282    0.192    0.408    5.144
  425.974   61.955    0.204    0.402    5.136
  426.224   64.049    0.177    0.390    4.986
  426.474   66.191    0.153    0.410    4.476
  426.724   67.935    0.168    0.418    4.048
  426.974   69.754    0.177    0.426    3.828
  427.224   71.417    0.166    0.438    3.758
  427.474   72.339    0.198    0.433    3.768
  427.724   72.484    0.206    0.429    3.795
  427.974   72.007    0.211    0.443    3.856
  428.224   72.180    0.219    0.452    3.894
  428.474   71.787    0.235    0.435    3.977
  428.724   71.342    0.236    0.427    4.209
  428.974   70.644    0.231    0.420    4.582
  429.224   70.031    0.207    0.427    4.882
  429.474   68.438    0.183    0.442    5.141
  429.724   66.698    0.158    0.462    5.139
  429.974   65.341    0.148    0.450    4.632
  430.224   64.137    0.138    0.431    3.922
  430.474   66.242    0.120    0.414    3.222
  430.724   70.014    0.102    0.475    3.020
  430.974   73.124    0.154    0.500    2.897
  431.224   75.290    0.197    0.508    2.845
  431.474   76.921    0.227    0.490    2.822
  431.724   79.085    0.216    0.476    2.799
  431.974   80.852    0.212    0.516    2.805
  432.224   81.802    0.219    0.525    2.838
  432.474   82.369    0.223    0.512    2.995
  432.724   81.611    0.235    0.516    3.246
  432.974   80.294    0.247    0.503    3.793
  433.224   79.266    0.229    0.492    4.045
  433.474   79.005    0.205    0.476    3.951
  433.724   78.991    0.159    0.433    3.605
  433.974   74.655    0.097    0.391    3.318
  434.224   80.271    0.093    0.443    3.033
  434.474   84.327    0.147    0.481    2.867
  434.724   85.854    0.228    0.508    2.768
  434.974   84.659    0.229    0.531    2.819
  435.224   80.321    0.219    0.538    3.182
  435.474   74.444    0.211    0.547    3.814
  435.724   68.723    0.201    0.487    4.661
  435.974   59.947    0.192    0.409    5.259
  436.224   53.947    0.174    0.362    5.938
  436.474   52.639    0.144    0.341    6.543
  436.724   55.794    0.124    0.348    6.915
  436.974   56.792    0.163    0.365    7.379
  437.224   52.823    0.206    0.376    8.190
  437.474   49.107    0.222    0.385    9.803
  437.724   46.024    0.225    0.371   12.142
  437.974   43.932    0.247    0.362   15.277
  438.224   41.621    0.269    0.364   17.409
  438.474   37.845    0.257    0.369   19.662
  438.724   35.653    0.147    0.334   20.487
  438.974   34.525    0.073    0.280   19.736
  439.224   34.600    0.016    0.234   18.539
  439.474   36.289    0.006    0.288   16.529
  439.724   37.666    0.015    0.314   14.542
  439.974   39.471    0.066    0.282   12.464
  440.224   42.032    0.093    0.294   10.998
  440.474   44.709    0.100    0.363    9.299
  440.724   47.806    0.140    0.395    7.793
  440.974   50.627    0.199    0.407    6.605
  441.224   54.040    0.237    0.397    5.554
  441.474   58.303    0.223    0.396    5.115
  441.724   63.242    0.204    0.400    4.655
  441.974   66.367    0.199    0.412    4.477
