~VERSION INFORMATION
 VERS.                 2.0:   CWLS LOG ASCII STANDARD -VERSION 2.0
 WRAP.                  NO:   ONE LINE PER DEPTH STEP
~WELL INFORMATION BLOCK
#MNEM.UNIT           DATA                    DESCRIPTION OF MNEMONIC
#---------    -------------------            -------------------------------
# Generated from Intellog Unique Number	CS_69_70/WELL/833
NULL.         -999.25                        : NULL_VALUE
WELL.         GULF CANADA LIMITED            : Well_name    - WELL              
LOC .         00/07-17-070-15W4/0            : Location     - LOCATION          
UWI .         00/07-17-070-15W4/0            : Uwi          - UNIQUE WELL ID    
ENTR.         SP                             : Entered      - ENTERED BY        
SRVC.         SCHLUMBERGER                   : Scn          - SERVICE COMPANY   
STRT.M        245                            : top_depth    - START DEPTH       
STOP.M        509                            : bot_depth    - STOP DEPTH        
STEP.M        0.25                           : increment    - STEP LENGTH       
~CURVE INFORMATION BLOCK
#MNEM UNIT       ERCB CURVE CODE    CURVE DESCRIPTION
#-----------   ------------------   ----------------------------------
DEPT.M        00 001 00 00         : DEPTH        - DEPTH                       
GR  .API      00 310 00 00         : GR           - GAMMA RAY                   
NPHI.V/V      00 330 00 00         : PHIN         - NEUTRON POROSITY (LIMESTONE)
DPHI.V/V      00 890 00 00         : PHID         - DENSITY POROSITY (LIMESTONE)
ILD .OHMM     00 120 00 00         : RESD         - DEEP RESISTIVITY (DIL)      
~PARAMETER INFORMATION       
#MNEM.UNIT           DATA             DESCRIPTION OF MNEMONIC
#---------         -----------     ------------------------------
GL  .M        567.89               : gl           - GROUND LEVEL ELEVATION      
EREF.M        572.24               : kb           - ELEVATION OF DEPTH REFERENCE
DATM.M        567.89               : datum        - DATUM ELEVATION             
TDD .M        519                  : tdd          - TOTAL DEPTH DRILLER         
RUN .         ONE                  : Run          - RUN NUMBER                  
ENG .         BILL                 : Engineer     - RECORDING ENGINEER          
WIT .         JIM                  : Witness      - WITNESSED BY                
MUD .         GEL                  : Mud_type     - MUD TYPE                    
MATR.         LIMESTONE            : Logunit      - NEUTRON MATRIX              
TMAX.C        25.5                 : BHT          - MAXIMUM RECORDED TEMPERATURE
BHTD.M        519                  : BHTDEP       - MAXIMUM RECORDED TEMPERATURE
MATR.         1                    : LOGUNIT      - NEUTRON MATRIX              
RMT .C        25                   : MDTP         - TEMPERATURE OF MUD          
NEUT.         1                    : NEUTRON      - NEUTRON TYPE                
RESI.         0                    : RESIST       - RESISTIVITY TYPE            
RMC .OHMM     0.25                 : RMC          - RESISTIVITY OF MUD CAKE     
RMF .OHMM     0.25                 : RMF          - RESISTIVITY OF MUD FILTRATE 
SUFT.C        15                   : SUFT         - SURFACE TEMPERATURE         
~A  DEPTH       GR     PHIN     PHID     RESD
# ...
  462.500   71.785    0.308    0.188    7.963
  462.750   72.860    0.325    0.211    7.816
  463.000   70.049    0.324    0.205    7.644
  463.250   73.455    0.323    0.193    7.448
  463.500   75.127    0.333    0.204    7.462
  463.750   75.604    0.320    0.197    7.532
  464.000   73.271    0.321    0.210    7.462
  464.250   73.210    0.318    0.221    7.298
  464.500   75.360    0.312    0.228    7.005
  464.750   76.495    0.317    0.215    6.613
  465.000   76.314    0.306    0.206    6.337
  465.250   72.008    0.310    0.200    6.027
  465.500   66.686    0.314    0.199    5.916
  465.750   61.602    0.309    0.199    5.829
  466.000   57.894    0.292    0.172    5.883
  466.250   56.996    0.269    0.126    6.027
  466.500   67.098    0.274    0.079    6.232
  466.750   74.749    0.326    0.162    5.994
  467.000   80.905    0.342    0.182    5.637
  467.250   75.463    0.347    0.204    5.312
  467.500   79.647    0.356    0.197    4.968
  467.750   96.086    0.372    0.129    4.690
  468.000  105.231    0.407    0.084    4.502
  468.250  110.132    0.452    0.070    4.428
  468.500  112.522    0.417    0.118    4.553
  468.750  104.988    0.379    0.151    4.805
  469.000   97.154    0.345    0.165    5.128
  469.250   91.414    0.314    0.175    5.352
  469.500   91.293    0.300    0.179    5.628
  469.750   95.177    0.315    0.176    5.895
  470.000  100.676    0.319    0.164    6.351
  470.250  103.365    0.322    0.156    6.542
  470.500  102.705    0.314    0.146    6.702
  470.750  102.883    0.310    0.135    6.841
  471.000  102.403    0.311    0.143    6.892
  471.250   97.798    0.316    0.157    6.665
  471.500   93.373    0.321    0.171    6.165
  471.750   91.339    0.320    0.171    5.831
  472.000   95.821    0.323    0.161    5.724
  472.250  100.782    0.327    0.151    5.745
  472.500  106.041    0.331    0.145    5.788
  472.750  108.013    0.339    0.139    5.777
  473.000  102.631    0.350    0.150    5.864
  473.250   94.319    0.336    0.170    5.952
  473.500   89.236    0.321    0.189    6.281
  473.750   85.169    0.301    0.174    6.629
  474.000   89.651    0.288    0.146    6.754
  474.250   84.209    0.285    0.124    7.194
  474.500   79.784    0.288    0.107    7.495
  474.750   79.961    0.290    0.099    7.650
  475.000   82.352    0.292    0.102    7.565
  475.250   81.334    0.285    0.121    7.426
  475.500   70.810    0.275    0.134    7.208
  475.750   61.602    0.269    0.143    6.618
  476.000   56.937    0.272    0.170    5.757
  476.250   60.523    0.294    0.198    5.198
  476.500   64.467    0.324    0.212    4.907
  476.750   69.008    0.314    0.214    4.880
  477.000   71.698    0.306    0.188    4.907
  477.250   75.104    0.303    0.178    4.925
  477.500   79.766    0.306    0.173    5.112
  477.750   85.922    0.311    0.149    5.355
  478.000   91.002    0.315    0.131    5.456
  478.250   95.843    0.321    0.120    5.812
  478.500   98.472    0.330    0.109    5.987
  478.750  100.503    0.334    0.102    6.156
  479.000  100.920    0.329    0.091    6.202
  479.250   99.843    0.326    0.082    6.168
  479.500   98.885    0.327    0.083    5.976
  479.750   94.100    0.332    0.105    5.610
  480.000   88.359    0.339    0.139    5.209
  480.250   86.026    0.344    0.149    4.809
  480.500   83.215    0.350    0.150    4.374
  480.750   77.952    0.347    0.170    3.993
  481.000   73.646    0.338    0.191    3.869
  481.250   69.879    0.332    0.198    3.876
  481.500   74.659    0.327    0.191    3.942
  481.750   77.707    0.324    0.176    4.145
  482.000   74.597    0.321    0.162    4.415
  482.250   72.323    0.325    0.186    4.642
  482.500   72.621    0.327    0.195    4.836
  482.750   77.342    0.337    0.185    5.029
  483.000   83.319    0.340    0.157    5.317
  483.250   87.981    0.319    0.139    5.560
  483.500   90.431    0.311    0.128    5.781
  483.750   81.880    0.301    0.154    5.824
  484.000   73.389    0.296    0.166    5.868
  484.250   70.100    0.299    0.176    5.792
  484.500   70.576    0.291    0.175    5.814
  484.750   72.667    0.284    0.160    5.825
  485.000   75.476    0.283    0.146    5.760
  485.250   75.713    0.287    0.150    5.489
  485.500   71.228    0.294    0.159    5.133
  485.750   66.264    0.302    0.166    4.713
  486.000   62.855    0.320    0.173    4.359
  486.250   63.033    0.305    0.182    4.185
  486.500   67.575    0.297    0.148    4.123
  486.750   72.775    0.298    0.160    4.185
  487.000   74.686    0.304    0.169    4.449
  487.250   76.000    0.300    0.163    4.965
  487.500   77.493    0.297    0.160    5.125
  487.750   78.568    0.296    0.165    5.289
  488.000   75.816    0.300    0.168    5.329
  488.250   72.526    0.301    0.168    5.289
  488.500   75.694    0.298    0.172    5.182
  488.750   72.464    0.301    0.178    5.144
  489.000   68.158    0.301    0.173    5.021
  489.250   71.086    0.294    0.155    4.966
  489.500   75.209    0.289    0.153    5.040
  489.750   76.523    0.290    0.163    5.164
  490.000   75.445    0.301    0.164    5.212
  490.250   73.710    0.306    0.134    5.173
  490.500   76.578    0.303    0.137    5.022
  490.750   79.865    0.305    0.159    4.920
  491.000   82.972    0.307    0.177    4.884
  491.250   84.166    0.299    0.187    4.930
  491.500   80.996    0.293    0.179    4.966
  491.750   79.022    0.289    0.176    5.041
  492.000   82.249    0.285    0.192    5.098
  492.250   83.562    0.292    0.196    5.126
  492.500   82.784    0.303    0.184    5.213
  492.750   80.989    0.310    0.165    5.242
  493.000   79.911    0.308    0.151    4.866
  493.250   79.670    0.299    0.155    4.894
  493.500   80.446    0.291    0.167    4.958
  493.750   81.879    0.286    0.170    5.089
  494.000   84.748    0.286    0.158    5.262
  494.250   87.556    0.277    0.163    5.361
  494.500   88.930    0.275    0.160    5.431
  494.750   86.477    0.285    0.147    5.512
  495.000   86.714    0.299    0.146    5.533
  495.250   93.229    0.293    0.162    5.543
  495.500  104.408    0.276    0.171    5.472
  495.750  113.075    0.281    0.169    5.341
  496.000  114.389    0.286    0.161    5.223
  496.250  105.300    0.286    0.155    5.080
  496.500   96.869    0.282    0.158    5.024
  496.750   89.693    0.278    0.161    4.913
  497.000   83.833    0.277    0.168    4.707
  497.250   80.065    0.282    0.174    4.411
  497.500   77.672    0.291    0.186    3.809
  497.750   71.991    0.296    0.206    3.175
  498.000   64.038    0.297    0.224    2.696
  498.250   57.938    0.305    0.246    2.402
  498.500   51.301    0.317    0.274    2.247
  498.750   46.337    0.329    0.302    2.202
  499.000   48.189    0.335    0.286    2.198
  499.250   50.220    0.323    0.273    2.247
  499.500   54.582    0.319    0.264    2.306
  499.750   56.375    0.321    0.263    2.328
  500.000   59.542    0.320    0.263    2.345
  500.250   60.079    0.317    0.269    2.354
  500.500   56.131    0.319    0.278    2.341
  500.750   55.233    0.326    0.268    2.298
  501.000   55.530    0.324    0.257    2.198
  501.250   55.469    0.317    0.257    2.122
  501.500   55.049    0.328    0.274    2.090
  501.750   54.450    0.318    0.288    2.059
  502.000   52.535    0.309    0.282    2.083
  502.250   49.903    0.306    0.266    2.102
  502.500   46.972    0.322    0.277    2.098
  502.750   45.117    0.334    0.292    2.025
  503.000   43.741    0.342    0.287    1.992
  503.250   42.843    0.343    0.276    1.999
  503.500   47.624    0.329    0.271    2.079
  503.750   54.258    0.315    0.263    2.158
  504.000   56.947    0.305    0.255    2.219
  504.250   53.957    0.312    0.253    2.244
  504.500   47.139    0.323    0.273    2.494
  504.750   41.638    0.334    0.288    3.032
  505.000   39.006    0.343    0.284    3.577
  505.250   32.847    0.240    0.258    5.045
  505.500   25.791    0.199    0.220    7.779
  505.750   21.963    0.137    0.053    9.814
