~VERSION INFORMATION
 VERS.                 2.0:   CWLS LOG ASCII STANDARD -VERSION 2.0
 WRAP.                  NO:   ONE LINE PER DEPTH STEP
~WELL INFORMATION BLOCK
#MNEM.UNIT           DATA                    DESCRIPTION OF MNEMONIC
#---------    -------------------            -------------------------------
# Generated from Intellog Unique Number	CS_77_79/WELL/873
WELL.         CDN-SUP PORTAGE                : Well_name    - WELL
LOC .         00/06-12-078-15W4/0            : Location     - LOCATION
UWI .         00/06-12-078-15W4/0            : Uwi          - UNIQUE WELL ID
ENTR.         JHS                            : Entered      - ENTERED BY
SRVC.         SCHLUMBERGER                   : Scn          - SERVICE COMPANY
STRT.M        220                            : top_depth    - START DEPTH
STOP.M        459                            : bot_depth    - STOP DEPTH
STEP.M        0.25                           : increment    - STEP LENGTH
 NULL. -999.2500:NULL Value
~CURVE INFORMATION BLOCK
#MNEM UNIT       ERCB CURVE CODE    CURVE DESCRIPTION
#-----------   ------------------   ----------------------------------
DEPT.M        00 001 00 00         : DEPTH        - DEPTH
DPHI.V/V      00 890 00 00         : PHID         - DENSITY POROSITY (LIMESTONE)
NPHI.V/V      00 330 00 00         : PHIN         - NEUTRON POROSITY (LIMESTONE)
GR  .API      00 310 00 00         : GR           - GAMMA RAY
ILD .OHMM     00 120 00 00         : RESD         - DEEP RESISTIVITY (DIL)
~PARAMETER INFORMATION
#MNEM.UNIT           DATA             DESCRIPTION OF MNEMONIC
#---------         -----------     ------------------------------
GL  .M        620.5                : gl           - GROUND LEVEL ELEVATION
EREF.M        624.85               : kb           - ELEVATION OF DEPTH REFERENCE
DATM.M        624.85               : datum        - DATUM ELEVATION
TDD .M        506                  : tdd          - TOTAL DEPTH DRILLER
RUN .         ONE                  : Run          - RUN NUMBER
ENG .         BILL                 : Engineer     - RECORDING ENGINEER
WIT .         JIM                  : Witness      - WITNESSED BY
MUD .         GEL                  : Mud_type     - MUD TYPE
MATR.         LIMESTONE            : Logunit      - NEUTRON MATRIX
TMAX.C        23                   : BHT          - MAXIMUM RECORDED TEMPERATURE
BHTD.M        506                  : BHTDEP       - MAXIMUM RECORDED TEMPERATURE
MATR.         1                    : LOGUNIT      - NEUTRON MATRIX
RMT .C        25                   : MDTP         - TEMPERATURE OF MUD
NEUT.         1                    : NEUTRON      - NEUTRON TYPE
RESI.         0                    : RESIST       - RESISTIVITY TYPE
RMC .OHMM     0.25                 : RMC          - RESISTIVITY OF MUD CAKE
RMF .OHMM     0.25                 : RMF          - RESISTIVITY OF MUD FILTRATE
SUFT.C        15                   : SUFT         - SURFACE TEMPERATURE
~A  DEPTH     PHID     PHIN       GR     RESD
# ...
  350.500    0.207    0.477   83.874    5.766
  350.750    0.205    0.486   82.648    5.878
  351.000    0.214    0.483   83.871    5.993
  351.250    0.236    0.458   82.646    6.111
  351.500    0.248    0.444   81.420    6.230
  351.750    0.253    0.456   80.806    6.473
  352.000    0.239    0.483   80.804    6.600
  352.250    0.226    0.490   81.415    6.729
  352.500    0.217    0.456   80.189    6.862
  352.750    0.212    0.447   82.025    6.997
  353.000    0.218    0.437   85.697    7.269
  353.250    0.222    0.444   83.859    7.993
  353.500    0.209    0.469   77.123    8.303
  353.750    0.080    0.384   63.652    9.127
  354.000    0.049    0.259   53.243   10.419
  354.250    0.085    0.252   57.527   10.825
  354.500    0.225    0.364   62.423   10.237
  354.750    0.270    0.406   62.422    9.323
  355.000    0.301    0.415   55.686    8.333
  355.250    0.310    0.416   55.072    7.447
  355.500    0.310    0.432   56.908    6.911
  355.750    0.310    0.436   58.130    6.787
  356.000    0.310    0.447   57.517    6.792
  356.250    0.315    0.471   57.515    6.795
  356.500    0.317    0.465   58.739    6.799
  356.750    0.307    0.454   58.737    6.932
  357.000    0.306    0.447   57.511    6.937
  357.250    0.308    0.431   56.285    6.941
  357.500    0.306    0.457   56.284    6.945
  357.750    0.302    0.450   55.058    6.950
  358.000    0.303    0.430   59.343    6.954
  358.250    0.307    0.441   61.178    6.958
  358.500    0.303    0.438   58.727    6.833
  358.750    0.297    0.432   58.114    6.836
  359.000    0.295    0.454   59.337    6.840
  359.250    0.302    0.479   58.111    6.844
  359.500    0.309    0.472   55.048    6.848
  359.750    0.303    0.446   56.884    6.852
  360.000    0.301    0.439   58.107    6.858
  360.250    0.306    0.439   58.105    6.861
  360.500    0.302    0.443   59.941    6.865
  360.750    0.303    0.458   63.001    6.869
  361.000    0.309    0.501   62.387    6.873
  361.250    0.314    0.504   57.487    6.878
  361.500    0.312    0.459   58.098    6.882
  361.750    0.284    0.453   58.097    6.886
  362.000    0.263    0.453   55.647    6.890
  362.250    0.255    0.447   53.809    6.765
  362.500    0.307    0.411   56.256    6.770
  362.750    0.302    0.415   58.091    6.774
  363.000    0.300    0.441   58.702    6.778
  363.250    0.302    0.460   58.089    6.783
  363.500    0.306    0.475   58.087    6.785
  363.750    0.307    0.465   58.698    6.663
  364.000    0.300    0.458   57.472    6.669
  364.250    0.298    0.460   58.083    6.672
  364.500    0.302    0.462   58.082    6.552
  364.750    0.308    0.462   56.244    6.556
  365.000    0.312    0.471   57.467    6.559
  365.250    0.309    0.484   59.302    6.563
  365.500    0.301    0.480   58.688    6.566
  365.750    0.296    0.462   55.626    6.696
  366.000    0.223    0.446   55.012    7.089
  366.250    0.109    0.372   54.398    7.793
  366.500    0.053    0.298   51.336    9.065
  366.750    0.028    0.222   48.273   12.490
  367.000    0.000    0.179   47.047   16.890
  367.250    0.000    0.161   45.822   19.645
  367.500    0.000    0.161   45.208   22.430
  367.750    0.006    0.167   44.594   22.865
  368.000    0.016    0.173   44.593   22.453
  368.250    0.036    0.185   45.204   20.449
  368.500    0.059    0.204   48.263   17.936
  368.750    0.091    0.232   50.711   16.029
  369.000    0.140    0.262   53.158   14.060
  369.250    0.252    0.298   54.994   12.805
  369.500    0.278    0.319   55.605   11.231
  369.750    0.290    0.362   57.440    9.668
  370.000    0.292    0.426   57.439    8.804
  370.250    0.290    0.442   57.437    8.170
  370.500    0.286    0.436   57.436    7.726
  370.750    0.284    0.427   58.047    7.446
  371.000    0.284    0.427   58.045    7.311
  371.250    0.291    0.422   58.044    7.317
  371.500    0.302    0.413   59.879    7.321
  371.750    0.311    0.420   59.266    7.324
  372.000    0.316    0.463   54.978    7.330
  372.250    0.313    0.498   53.141    7.197
  372.500    0.312    0.464   55.588    7.066
  372.750    0.314    0.446   58.648    6.939
  373.000    0.316    0.452   57.422    6.562
  373.250    0.314    0.478   56.808    6.323
  373.500    0.311    0.490   59.256    6.093
  373.750    0.311    0.473   59.867    5.983
  374.000    0.314    0.443   59.253    5.988
  374.250    0.321    0.430   57.415    5.879
  374.500    0.325    0.446   56.801    5.882
  374.750    0.329    0.507   54.963    5.887
  375.000    0.327    0.512   55.574    5.890
  375.250    0.316    0.485   58.022    5.893
  375.500    0.323    0.476   57.408    5.898
  375.750    0.322    0.486   54.958    5.901
  376.000    0.314    0.492   53.732    5.905
  376.250    0.305    0.481   55.567    6.021
  376.500    0.305    0.473   58.014    6.024
  376.750    0.303    0.464   60.462    6.027
  377.000    0.302    0.469   62.297    6.031
  377.250    0.308    0.456   60.459    6.035
  377.500    0.310    0.457   58.009    6.039
  377.750    0.308    0.474   56.171    6.042
  378.000    0.303    0.447   54.945    6.045
  378.250    0.298    0.441   58.005    6.049
  378.500    0.295    0.431   56.779    6.169
  378.750    0.294    0.420   59.839    6.172
  379.000    0.290    0.449   60.450    6.175
  379.250    0.291    0.467   56.162    6.179
  379.500    0.297    0.464   54.936    6.183
  379.750    0.302    0.451   59.833    6.187
  380.000    0.302    0.452   63.505    6.074
  380.250    0.295    0.463   63.504    5.965
  380.500    0.279    0.464   59.217    6.315
  380.750    0.162    0.437   56.154    6.944
  381.000    0.067    0.242   52.479    7.078
  381.250    0.084    0.283   48.192    7.355
  381.500    0.159    0.361   58.599    7.359
  381.750    0.279    0.438   65.944    7.092
  382.000    0.286    0.441   69.004    6.706
  382.250    0.274    0.429   68.391    6.462
  382.500    0.273    0.451   65.328    6.112
  382.750    0.286    0.497   65.326    5.889
  383.000    0.291    0.481   65.937    5.893
  383.250    0.268    0.449   67.773    6.008
  383.500    0.256    0.446   70.220    6.012
  383.750    0.247    0.483   71.443    6.130
  384.000    0.252    0.468   72.054    6.133
  384.250    0.256    0.459   75.114    6.138
  384.500    0.258    0.437   77.561    6.026
  384.750    0.248    0.425   75.111    5.699
  385.000    0.227    0.453   73.885    5.389
  385.250    0.210    0.484   76.945    5.194
  385.500    0.204    0.486   83.066    5.197
  385.750    0.187    0.474   86.738    5.298
  386.000    0.180    0.457   86.124    5.506
  386.250    0.182    0.448   88.572    5.719
  386.500    0.203    0.446   91.019    5.943
  386.750    0.215    0.474   88.569    6.293
  387.000    0.215    0.481   81.833    6.416
  387.250    0.223    0.483   80.607    6.541
  387.500    0.226    0.467   80.606    6.669
  387.750    0.142    0.452   76.319    7.061
  388.000    0.103    0.399   72.032    7.336
  388.250    0.099    0.366   76.316    7.480
  388.500    0.175    0.384   83.662    7.485
  388.750    0.187    0.419   88.558    7.489
  389.000    0.196    0.436   90.394    7.781
  389.250    0.200    0.419   79.984    8.084
  389.500    0.186    0.414   73.248    8.559
  389.750    0.177    0.423   72.634    8.728
  390.000    0.170    0.421   77.531    8.734
  390.250    0.171    0.410   79.366    8.575
  390.500    0.185    0.416   78.140    8.110
  390.750    0.180    0.441   79.363    7.669
  391.000    0.172    0.458   83.035    7.529
  391.250    0.169    0.463   89.156    7.535
  391.500    0.171    0.415   90.991    7.538
  391.750    0.172    0.394   89.766    7.688
  392.000    0.165    0.399   86.091    7.987
  392.250    0.155    0.420   81.804    8.143
  392.500    0.151    0.434   82.415    8.461
  392.750    0.156    0.420   86.087    8.790
  393.000    0.161    0.414   89.147    9.133
  393.250    0.156    0.404   86.084    9.312
  393.500    0.150    0.387   83.633    9.144
  393.750    0.147    0.367   86.693    8.648
