~VERSION INFORMATION
 VERS.                 2.0:   CWLS LOG ASCII STANDARD -VERSION 2.0
 WRAP.                  NO:   ONE LINE PER DEPTH STEP
~WELL INFORMATION BLOCK
#MNEM.UNIT           DATA                    DESCRIPTION OF MNEMONIC
#---------    -------------------            -------------------------------
# Generated from Intellog Unique Number	CW_73_75/WELL/288
WELL.         CALGAS ET AL MITSUE 02-06      : Well_name    - WELL
LOC .         00/02-06-074-04W5/0            : Location     - LOCATION
UWI .         00/02-06-074-04W5/0            : Uwi          - UNIQUE WELL ID
ENTR.         JAYE                           : Entered      - ENTERED BY
SRVC.         SCHLUMBERGER                   : Scn          - SERVICE COMPANY
DATE.         6 SEP 88                       : Date         - LOG DATE
STRT.M        365                            : top_depth    - START DEPTH
STOP.M        620                            : bot_depth    - STOP DEPTH
STEP.M        0.25                           : increment    - STEP LENGTH
 NULL. -999.2500:NULL Value
~CURVE INFORMATION BLOCK
#MNEM UNIT       ERCB CURVE CODE    CURVE DESCRIPTION
#-----------   ------------------   ----------------------------------
DEPT.M        00 001 00 00         : DEPTH        - DEPTH
ILD .OHMM     00 120 00 00         : RESD         - DEEP RESISTIVITY (DIL)
DPHI.V/V      00 890 00 00         : PHID         - DENSITY POROSITY (SANDSTONE)
NPHI.V/V      00 330 00 00         : PHIN         - NEUTRON POROSITY (SANDSTONE)
GR  .API      00 310 00 00         : GR           - GAMMA RAY
CALI.MM       00 280 01 00         : CAL          - CALIPER
~PARAMETER INFORMATION
#MNEM.UNIT           DATA             DESCRIPTION OF MNEMONIC
#---------         -----------     ------------------------------
GL  .M        596.5                : gl           - GROUND LEVEL ELEVATION
EREF.M        596.5                : kb           - ELEVATION OF DEPTH REFERENCE
DATM.M        596.5                : datum        - DATUM ELEVATION
TDD .M        1650                 : tdd          - TOTAL DEPTH DRILLER
RUN .         ONE                  : Run          - RUN NUMBER
ENG .         ASHTOM               : Engineer     - RECORDING ENGINEER
WIT .         WORK                 : Witness      - WITNESSED BY
BASE.         SLAVE LAKE           : Branch       - HOME BASE OF LOGGING UNIT
MUD .         GEL CHEM             : Mud_type     - MUD TYPE
MATR.         SANDSTONE            : Logunit      - NEUTRON MATRIX
TMAX.C        47                   : BHT          - MAXIMUM RECORDED TEMPERATURE
BHTD.M        1652.8               : BHTDEP       - MAXIMUM RECORDED TEMPERATURE
RMT .C        29                   : MDTP         - TEMPERATURE OF MUD
MUDD.KG/M     1150                 : MWT          - MUD DENSITY
NEUT.         1                    : NEUTRON      - NEUTRON TYPE
RESI.         0                    : RESIST       - RESISTIVITY TYPE
RM  .OHMM     0.73                 : RM           - RESISTIVITY OF MUD
RMC .OHMM     0                    : RMC          - RESISTIVITY OF MUD CAKE
RMF .OHMM     0.74                 : RMF          - RESISTIVITY OF MUD FILTRATE
SUFT.C        0                    : SUFT         - SURFACE TEMPERATURE
~A  DEPTH     RESD     PHID     PHIN       GR      CAL
# ...
  401.500    6.509    0.305    1.003   42.299  221.826
  401.750    6.603    0.310    0.984   43.288  222.249
  402.000    6.638    0.317    0.984   42.869  222.572
  402.250    6.710    0.328    0.986   42.390  222.487
  402.500    6.807    0.326    0.981   42.584  221.892
  402.750    6.894    0.318    1.014   43.818  221.398
  403.000    6.968    0.315    1.029   45.665  221.109
  403.250    7.070    0.319    1.017   43.715  221.227
  403.500    7.133    0.321    1.014   43.727  221.244
  403.750    7.250    0.313    1.020   44.165  220.957
  404.000    7.342    0.315    1.018   43.562  220.869
  404.250    7.476    0.320    1.009   40.266  221.296
  404.500    7.642    0.316    1.017   40.888  221.619
  404.750    7.796    0.313    1.004   43.593  222.245
  405.000    7.938    0.313    0.986   44.093  223.182
  405.250    7.980    0.319    0.998   44.285  223.503
  405.500    7.919    0.322    0.999   43.193  223.520
  405.750    7.742    0.328    0.987   44.490  223.640
  406.000    7.486    0.329    0.980   47.315  223.656
  406.250    7.226    0.327    0.969   48.673  223.263
  406.500    6.961    0.321    0.955   49.968  222.872
  406.750    6.681    0.313    1.015   54.325  222.583
  407.000    6.667    0.300    1.043   63.580  222.293
  407.250    7.019    0.288    1.053   66.651  222.005
  407.500    7.526    0.298    1.041   66.417  221.205
  407.750    7.894    0.304    1.024   69.916  220.609
  408.000    8.189    0.300    1.007   74.641  220.626
  408.250    8.354    0.302    1.042   71.038  221.152
  408.500    8.491    0.306    1.050   64.558  221.885
  408.750    8.567    0.310    1.030   63.773  221.595
  409.000    8.676    0.312    1.023   66.722  220.694
  409.250    8.753    0.316    1.039   72.486  220.505
  409.500    8.750    0.322    1.067   67.598  219.808
  409.750    8.699    0.331    1.060   57.078  219.824
  410.000    8.136    0.313    1.031   54.639  219.637
  410.250    7.638    0.288    1.023   54.221  219.860
  410.500    6.898    0.300    1.019   52.087  219.774
  410.750    6.183    0.315    1.021   50.813  219.587
  411.000    5.858    0.311    1.023   47.883  219.706
  411.250    5.911    0.310    1.025   39.445  219.620
  411.500    6.292    0.327    1.018   35.658  220.146
  411.750    6.848    0.333    1.011   39.035  220.672
  412.000    7.425    0.333    1.016   41.250  221.097
  412.250    7.774    0.328    1.040   36.668  221.421
  412.500    7.829    0.329    1.022   35.760  221.338
  412.750    7.683    0.334    1.011   37.485  220.942
  413.000    7.512    0.329    1.024   39.209  221.470
  413.250    7.318    0.319    1.027   40.443  222.202
  413.500    7.076    0.315    0.995   41.371  223.034
  413.750    6.704    0.314    0.984   38.933  223.359
  414.000    6.495    0.315    0.978   40.351  223.781
  414.250    6.457    0.320    0.986   42.504  223.900
  414.500    6.636    0.323    1.008   45.513  223.814
  414.750    6.922    0.325    0.995   47.727  224.138
  415.000    7.300    0.325    0.985   48.533  224.360
  415.250    7.757    0.325    0.998   47.441  224.477
  415.500    7.584    0.326    1.003   44.206  224.187
  415.750    5.853    0.337    1.041   41.400  227.469
  416.000    4.722    0.645    1.226   41.533  246.057
  416.250    3.816    0.631    1.189   53.053  266.176
  416.500    3.697    0.566    1.144   62.062  270.683
  416.750    3.906    0.479    1.063   59.686  270.393
  417.000    4.494    0.326    1.038   50.083  250.206
  417.250    5.475    0.316    1.009   42.746  231.140
  417.500    7.439    0.334    0.996   38.286  226.567
  417.750    7.889    0.326    0.985   36.950  226.583
  418.000    7.572    0.324    0.983   37.327  228.437
  418.250    7.082    0.335    0.984   39.113  230.902
  418.500    6.649    0.340    0.969   39.183  232.960
  418.750    6.358    0.334    0.961   38.215  234.608
  419.000    6.159    0.328    0.971   40.183  237.074
  419.250    6.022    0.316    0.979   49.499  239.336
  419.500    5.834    0.312    0.960   51.101  240.271
  419.750    5.652    0.326    0.966   46.887  240.287
  420.000    5.526    0.323    0.995   47.632  241.326
  420.250    5.493    0.314    1.030   50.826  244.912
  420.500    5.471    0.317    1.049   52.060  242.990
  420.750    5.409    0.320    1.035   43.192  236.886
  421.000    5.367    0.310    1.003   40.998  237.006
  421.250    5.306    0.298    1.032   46.641  238.348
  421.500    5.275    0.283    1.091   53.079  239.894
  421.750    5.283    0.280    1.094   60.130  240.828
  422.000    5.380    0.285    1.064   57.508  240.644
  422.250    5.622    0.293    1.026   52.497  240.047
  422.500    5.962    0.309    1.012   47.242  237.308
  422.750    6.347    0.320    1.015   43.334  235.591
  423.000    6.535    0.321    1.022   41.813  233.872
  423.250    6.557    0.324    1.018   45.190  233.379
  423.500    6.543    0.337    1.006   46.915  233.805
  423.750    6.541    0.342    0.997   42.455  233.412
  424.000    6.514    0.336    0.995   43.505  233.224
  424.250    6.512    0.327    1.001   47.496  231.506
  424.500    6.498    0.327    1.005   47.812  230.707
  424.750    6.508    0.333    1.001   45.435  230.724
  425.000    6.494    0.337    0.998   44.893  230.844
  425.250    6.527    0.338    1.013   46.617  230.759
  425.500    6.537    0.337    1.001   47.913  230.977
  425.750    6.596    0.340    0.985   47.005  230.587
  426.000    6.605    0.347    1.004   47.198  230.705
  426.250    6.470    0.354    1.054   46.841  231.538
  426.500    6.385    0.366    1.094   46.729  232.371
  426.750    6.255    0.379    1.118   45.330  234.326
  427.000    5.545    0.662    1.160   46.870  246.383
  427.250    4.737    0.710    1.142   51.167  271.297
  427.500    4.145    0.610    1.109   57.789  328.661
  427.750    3.993    0.442    1.075   62.759  306.127
  428.000    3.985    0.324    1.050   66.441  269.613
  428.250    4.035    0.263    1.039   69.085  253.609
  428.500    4.186    0.258    1.030   69.890  254.341
  428.750    4.390    0.241    1.030   71.064  260.480
  429.000    4.605    0.264    1.042   72.359  262.027
  429.250    4.706    0.306    1.062   70.594  261.636
  429.500    4.748    0.251    1.044   69.992  265.224
  429.750    4.773    0.209    1.025   70.798  271.363
  430.000    4.736    0.192    1.007   72.644  268.421
  430.250    4.691    0.220    0.986   75.839  267.826
  430.500    4.621    0.253    1.007   78.297  270.698
  430.750    4.518    0.273    1.067   80.327  283.164
  431.000    4.467    0.271    1.065   79.174  279.405
  431.250    4.449    0.257    1.031   70.857  264.524
  431.500    4.439    0.235    1.004   73.011  265.663
  431.750    4.421    0.193    1.008   74.368  266.904
  432.000    4.411    0.196    1.022   71.561  267.635
  432.250    4.377    0.194    1.032   72.795  268.366
  432.500    4.288    0.182    1.021   77.153  268.791
  432.750    4.177    0.189    1.000   78.632  269.420
  433.000    4.099    0.213    0.981   77.478  270.866
  433.250    4.120    0.245    1.044   77.305  271.800
  433.500    4.196    0.251    1.041   74.008  267.736
  433.750    4.249    0.240    1.027   65.202  261.121
  434.000    4.303    0.283    1.065   66.988  263.382
  434.250    4.333    0.331    1.138   68.283  269.214
  434.500    4.364    0.516    1.113   66.764  289.434
  434.750    4.339    0.320    1.071   65.304  292.615
  435.000    4.329    0.283    1.034   63.661  264.877
  435.250    4.384    0.267    1.011   61.467  248.872
  435.500    4.667    0.271    1.008   58.783  244.911
  435.750    5.193    0.281    1.011   58.180  245.438
  436.000    5.683    0.289    1.016   60.333  245.453
  436.250    5.798    0.295    1.015   62.976  244.450
  436.500    5.796    0.303    1.014   61.272  244.365
  436.750    5.741    0.305    0.999   55.037  245.708
  437.000    5.613    0.288    1.002   54.679  246.438
  437.250    5.508    0.260    1.035   56.710  249.314
  437.500    5.507    0.243    1.047   60.332  250.656
  437.750    5.691    0.246    1.040   55.261  250.366
