~VERSION INFORMATION
 VERS.                 2.0:   CWLS LOG ASCII STANDARD -VERSION 2.0
 WRAP.                  NO:   ONE LINE PER DEPTH STEP
~WELL INFORMATION BLOCK
#MNEM.UNIT           DATA                    DESCRIPTION OF MNEMONIC
#---------    -------------------            -------------------------------
# Generated from Intellog Unique Number	CW_70_72/WELL/637
NULL.         -999.25                        : NULL_VALUE
WELL.         SUN ET AL TOMATO 06-12         : Well_name    - WELL              
LOC .         06-12-072-23W4                 : Location     - LOCATION          
UWI .         00/06-12-072-23W4/0            : Uwi          - UNIQUE WELL ID    
ENTR.         JAYE                           : Entered      - ENTERED BY        
SRVC.         COMPUTALOG                     : Scn          - SERVICE COMPANY   
DATE.         17 FEB 79                      : Date         - LOG DATE          
STRT.M        380                            : top_depth    - START DEPTH       
STOP.M        600                            : bot_depth    - STOP DEPTH        
STEP.M        0.25                           : increment    - STEP LENGTH       
~CURVE INFORMATION BLOCK
#MNEM UNIT       ERCB CURVE CODE    CURVE DESCRIPTION
#-----------   ------------------   ----------------------------------
DEPT.M        00 001 00 00         : DEPTH        - DEPTH                       
DPHI.V/V      00 890 00 00         : PHID         - DENSITY POROSITY (SANDSTONE)
NPHI.V/V      00 330 00 00         : PHIN         - NEUTRON POROSITY (SANDSTONE)
GR  .API      00 310 00 00         : GR           - GAMMA RAY                   
CALI.MM       00 280 01 00         : CAL          - CALIPER                     
ILD .OHMM     00 120 00 00         : RESD         - DEEP RESISTIVITY (DIL)      
~PARAMETER INFORMATION       
#MNEM.UNIT           DATA             DESCRIPTION OF MNEMONIC
#---------         -----------     ------------------------------
GL  .M        619.96               : gl           - GROUND LEVEL ELEVATION      
EREF.M        623.3                : kb           - ELEVATION OF DEPTH REFERENCE
DATM.M        619.96               : datum        - DATUM ELEVATION             
TDD .M        612                  : tdd          - TOTAL DEPTH DRILLER         
RUN .         ONE                  : Run          - RUN NUMBER                  
ENG .         ADAMS                : Engineer     - RECORDING ENGINEER          
WIT .         BOYAN                : Witness      - WITNESSED BY                
BASE.         EDM                  : Branch       - HOME BASE OF LOGGING UNIT   
MUD .         GEL CHEM             : Mud_type     - MUD TYPE                    
MATR.         SANDSTONE            : Logunit      - NEUTRON MATRIX              
TMAX.C        21                   : BHT          - MAXIMUM RECORDED TEMPERATURE
BHTD.M        614                  : BHTDEP       - MAXIMUM RECORDED TEMPERATURE
RMT .C        13                   : MDTP         - TEMPERATURE OF MUD          
MUDD.KG/M     1100                 : MWT          - MUD DENSITY                 
NEUT.         1                    : NEUTRON      - NEUTRON TYPE                
RESI.         0                    : RESIST       - RESISTIVITY TYPE            
RM  .OHMM     3.7                  : RM           - RESISTIVITY OF MUD          
RMC .OHMM     0                    : RMC          - RESISTIVITY OF MUD CAKE     
RMF .OHMM     0                    : RMF          - RESISTIVITY OF MUD FILTRATE 
SUFT.C        0                    : SUFT         - SURFACE TEMPERATURE         
~A  DEPTH     PHID     PHIN       GR      CAL     RESD
# ...
  416.500    0.228    0.420   92.936  171.632    4.952
  416.750    0.226    0.434   98.707  163.668    4.901
  417.000    0.213    0.405  106.216  162.323    4.833
  417.250    0.198    0.401  114.470  162.633    4.782
  417.500    0.193    0.432  119.993  165.839    4.742
  417.750    0.211    0.456   92.500  172.251    4.755
  418.000    0.235    0.471   76.861  176.492    4.769
  418.250    0.235    0.487   73.323  174.526    4.837
  418.500    0.209    0.401   80.646  170.699    4.869
  418.750    0.189    0.365   90.079  166.975    4.865
  419.000    0.209    0.354   90.513  163.871    4.787
  419.250    0.232    0.408   81.824  161.389    4.693
  419.500    0.266    0.454   68.171  158.906    4.567
  419.750    0.262    0.450   60.351  156.113    4.477
  420.000    0.238    0.451   66.805  153.733    4.398
  420.250    0.243    0.442   79.031  151.147    4.352
  420.500    0.251    0.429   76.548  149.285    4.406
  420.750    0.252    0.446   75.865  147.423    4.589
  421.000    0.254    0.468   74.686  146.492    4.778
  421.250    0.246    0.494   74.500  146.491    5.187
  421.500    0.235    0.512   73.072  146.801    5.825
  421.750    0.210    0.213   65.997  147.421    6.679
  422.000    0.156    0.158   56.439  148.559    7.968
  422.250    0.028    0.112   47.937  150.007    9.761
  422.500    0.083    0.126   50.543  151.558   10.595
  422.750    0.110    0.239   57.556  152.592   10.003
  423.000    0.092    0.242   62.148  153.419    8.610
  423.250    0.067    0.224   66.492  154.143    7.382
  423.500    0.107    0.213   62.458  155.383    6.549
  423.750    0.199    0.294   61.217  157.245    5.722
  424.000    0.268    0.342   65.561  158.589    4.991
  424.250    0.273    0.370   71.208  157.761    4.520
  424.500    0.258    0.389   69.594  156.313    4.251
  424.750    0.260    0.420   66.987  154.347    4.090
  425.000    0.262    0.457   70.338  152.382    3.995
  425.250    0.255    0.472   75.241  151.554    3.976
  425.500    0.244    0.439   79.026  150.933    3.987
  425.750    0.247    0.392   81.881  150.933    4.037
  426.000    0.257    0.386   70.089  150.932    4.220
  426.250    0.247    0.365   81.198  150.725    4.469
  426.500    0.233    0.355   70.337  150.725    4.655
  426.750    0.231    0.385   66.737  150.621    4.694
  427.000    0.249    0.379   67.854  150.724    4.771
  427.250    0.255    0.354   71.888  150.827    4.838
  427.500    0.250    0.325   82.128  150.827    4.973
  427.750    0.237    0.290   82.066  150.930    5.111
  428.000    0.224    0.316   76.356  151.136    5.223
  428.250    0.212    0.306   80.824  151.446    5.318
  428.500    0.197    0.297   87.588  151.860    5.343
  428.750    0.184    0.318   94.539  152.273    5.378
  429.000    0.188    0.312   94.414  152.376    5.372
  429.250    0.191    0.320   86.719  152.583    5.298
  429.500    0.184    0.346   80.575  153.203    5.223
  429.750    0.156    0.371   85.787  154.133    5.082
  430.000    0.141    0.401   89.076  156.719    4.983
  430.250    0.151    0.453   85.601  159.304    4.950
  430.500    0.165    0.401   91.807  161.890    4.954
  430.750    0.179    0.424  101.302  164.165    5.140
  431.000    0.194    0.450   93.978  166.751    5.425
  431.250    0.223    0.430   77.842  166.854    5.756
  431.500    0.261    0.431   62.824  165.612    6.225
  431.750    0.646    0.470   51.777  161.888    6.314
  432.000    0.681    0.521   40.606  156.716    6.063
  432.250    0.695    0.725   37.564  152.371    5.522
  432.500    0.288    0.747   42.032  150.613    4.917
  432.750    0.296    0.726   43.522  149.888    4.446
  433.000    0.293    0.394   42.591  149.474    4.149
  433.250    0.283    0.417   43.645  149.060    3.903
  433.500    0.271    0.430   48.362  148.956    3.755
  433.750    0.277    0.418   53.761  148.956    3.660
  434.000    0.291    0.428   47.431  149.059    3.595
  434.250    0.294    0.393   35.949  149.162    3.525
  434.500    0.299    0.418   31.729  149.058    3.462
  434.750    0.304    0.434   34.335  148.748    3.382
  435.000    0.309    0.451   39.982  148.541    3.310
  435.250    0.307    0.404   37.500  148.644    3.281
  435.500    0.303    0.409   37.375  148.953    3.266
  435.750    0.300    0.418   45.505  148.953    3.275
  436.000    0.298    0.435   48.111  149.056    3.296
  436.250    0.297    0.415   45.691  149.056    3.332
  436.500    0.293    0.397   48.608  149.056    3.341
  436.750    0.291    0.411   44.573  148.745    3.344
  437.000    0.292    0.410   41.284  148.538    3.347
  437.250    0.298    0.379   41.284  148.331    3.356
  437.500    0.307    0.394   43.518  147.710    3.353
  437.750    0.307    0.388   45.255  147.709    3.357
  438.000    0.307    0.356   42.276  147.605    3.359
  438.250    0.306    0.348   41.283  147.812    3.394
  438.500    0.304    0.364   40.910  148.225    3.502
  438.750    0.301    0.376   43.517  148.432    3.532
  439.000    0.300    0.374   41.034  148.742    3.543
  439.250    0.298    0.378   39.917  148.948    3.539
  439.500    0.292    0.357   44.695  149.465    3.542
  439.750    0.282    0.361   40.847  150.809    3.519
  440.000    0.287    0.329   41.778  152.567    3.470
  440.250    0.296    0.386   49.101  153.808    3.421
  440.500    0.299    0.472   46.742  151.119    3.392
  440.750    0.293    0.406   41.839  148.532    3.376
  441.000    0.299    0.417   38.736  147.498    3.379
  441.250    0.308    0.414   38.364  147.704    3.363
  441.500    0.315    0.399   41.280  148.531    3.322
  441.750    0.322    0.403   44.321  149.979    3.288
  442.000    0.315    0.412   51.830  153.909    3.260
  442.250    0.317    0.370   46.989  154.633    3.239
  442.500    0.315    0.385   36.128  152.564    3.223
  442.750    0.310    0.403   44.630  149.150    3.214
  443.000    0.325    0.385   51.271  145.116    3.181
  443.250    0.333    0.369   46.988  142.219    3.154
  443.500    0.332    0.397   42.147  141.392    3.146
  443.750    0.319    0.382   38.982  143.667    3.166
  444.000    0.313    0.360   40.347  146.769    3.316
  444.250    0.310    0.355   43.946  149.045    3.441
  444.500    0.317    0.353   46.615  151.113    3.563
  444.750    0.274    0.344   47.980  151.733    3.745
  445.000    0.245    0.350   53.627  148.009    3.967
  445.250    0.270    0.381   52.510  150.905    4.147
  445.500    0.324    0.402   51.455  154.215    3.968
  445.750    0.342    0.359   52.944  152.766    3.767
  446.000    0.330    0.351   58.343  148.732    3.603
  446.250    0.324    0.344   58.529  145.318    3.376
  446.500    0.324    0.353   53.378  146.042    3.146
  446.750    0.320    0.369   49.219  147.076    3.021
  447.000    0.317    0.348   47.854  149.765    2.950
  447.250    0.312    0.359   47.543  150.489    2.926
  447.500    0.317    0.350   47.916  149.350    2.906
  447.750    0.326    0.382   48.039  148.419    2.887
  448.000    0.324    0.375   46.053  147.591    2.863
  448.250    0.322    0.376   36.620  146.143    2.849
  448.500    0.322    0.388   39.909  145.212    2.825
  448.750    0.319    0.427   45.246  147.797    2.806
  449.000    0.317    0.440   45.618  150.279    2.783
  449.250    0.318    0.396   44.439  148.727    2.750
  449.500    0.317    0.363   43.011  146.658    2.752
  449.750    0.313    0.361   38.108  145.003    2.754
  450.000    0.306    0.381   38.666  143.761    2.762
  450.250    0.303    0.407   38.666  142.623    2.770
  450.500    0.301    0.435   36.928  142.623    2.783
  450.750    0.299    0.461   38.355  143.036    2.786
  451.000    0.307    0.429   40.900  143.450    2.788
  451.250    0.312    0.439   40.713  143.553    2.791
  451.500    0.306    0.452   39.782  143.759    2.809
  451.750    0.296    0.381   36.369  143.655    2.822
  452.000    0.289    0.404   35.189  143.552    2.858
  452.250    0.301    0.422   39.782  143.034    2.882
  452.500    0.304    0.413   43.629  141.896    2.902
  452.750    0.298    0.393   44.622  141.172    2.899
