~VERSION INFORMATION
 VERS.                 2.0:   CWLS LOG ASCII STANDARD -VERSION 2.0
 WRAP.                  NO:   ONE LINE PER DEPTH STEP
~WELL INFORMATION BLOCK
#MNEM.UNIT           DATA                    DESCRIPTION OF MNEMONIC
#---------    -------------------            -------------------------------
# Generated from Intellog Unique Number	CW_79_81/WELL/2458
WELL.         AMOCO BRINTNELL                : Well_name    - WELL
LOC .         00/07-15-081-23W4/0            : Location     - LOCATION
UWI .         00/07-15-081-23W4/0            : Uwi          - UNIQUE WELL ID
ENTR.         MAX                            : Entered      - ENTERED BY
SRVC.         COMPUTALOG                     : Scn          - SERVICE COMPANY
STRT.M        230                            : top_depth    - START DEPTH
STOP.M        455                            : bot_depth    - STOP DEPTH
STEP.M        0.25                           : increment    - STEP LENGTH
 NULL. -999.2500:NULL Value
~CURVE INFORMATION BLOCK
#MNEM UNIT       ERCB CURVE CODE    CURVE DESCRIPTION
#-----------   ------------------   ----------------------------------
DEPT.M        00 001 00 00         : DEPTH        - DEPTH
ILD .OHMM     00 120 00 00         : RESD         - DEEP RESISTIVITY (DIL)
NPHI.V/V      00 330 00 00         : PHIN         - NEUTRON POROSITY (SANDSTONE)
DPHI.V/V      00 890 00 00         : PHID         - DENSITY POROSITY (SANDSTONE)
GR  .API      00 310 00 00         : GR           - GAMMA RAY
CALI.MM       00 280 01 00         : CAL          - CALIPER
~PARAMETER INFORMATION
#MNEM.UNIT           DATA             DESCRIPTION OF MNEMONIC
#---------         -----------     ------------------------------
GL  .M        605                  : gl           - GROUND LEVEL ELEVATION
EREF.M        608.6                : kb           - ELEVATION OF DEPTH REFERENCE
DATM.M        605                  : datum        - DATUM ELEVATION
TDD .M        453.3                : tdd          - TOTAL DEPTH DRILLER
RUN .         ONE                  : Run          - RUN NUMBER
ENG .         BILL                 : Engineer     - RECORDING ENGINEER
WIT .         JIM                  : Witness      - WITNESSED BY
MUD .         GEL                  : Mud_type     - MUD TYPE
MATR.         SANDSTONE            : Logunit      - NEUTRON MATRIX
TMAX.C        32                   : BHT          - MAXIMUM RECORDED TEMPERATURE
BHTD.M        453.3                : BHTDEP       - MAXIMUM RECORDED TEMPERATURE
MATR.         1                    : LOGUNIT      - NEUTRON MATRIX
RMT .C        26.7                 : MDTP         - TEMPERATURE OF MUD
NEUT.         1                    : NEUTRON      - NEUTRON TYPE
RESI.         0                    : RESIST       - RESISTIVITY TYPE
RMC .OHMM     4                    : RMC          - RESISTIVITY OF MUD CAKE
RMF .OHMM     7.5                  : RMF          - RESISTIVITY OF MUD FILTRATE
SUFT.C        5                    : SUFT         - SURFACE TEMPERATURE
~A  DEPTH     RESD     PHIN     PHID       GR      CAL
# ...
  339.500    8.497    0.439    0.257   71.691  221.806
  339.750    8.433    0.430    0.250   73.685  224.722
  340.000    8.559    0.441    0.243   75.311  225.469
  340.250    8.787    0.451    0.238   76.070  224.877
  340.500    9.106    0.451    0.236   75.713  223.771
  340.750    9.705    0.443    0.238   73.527  222.722
  341.000   10.256    0.437    0.246   69.938  221.460
  341.250   11.051    0.432    0.257   67.232  219.429
  341.500   11.912    0.423    0.256   64.341  218.323
  341.750   12.615    0.393    0.234   60.770  218.145
  342.000   13.076    0.343    0.179   56.211  218.790
  342.250   13.413    0.286    0.083   50.128  220.143
  342.500   13.100    0.275    0.105   48.086  220.601
  342.750   12.139    0.318    0.195   52.058  220.632
  343.000   11.252    0.372    0.258   56.402  220.658
  343.250   10.641    0.406    0.286   60.253  220.476
  343.500   10.268    0.413    0.286   63.423  220.192
  343.750    9.916    0.412    0.277   66.205  220.309
  344.000    9.684    0.411    0.273   65.191  220.767
  344.250    9.539    0.416    0.268   64.715  221.209
  344.500    9.395    0.422    0.256   64.235  221.341
  344.750    9.112    0.425    0.245   63.756  221.367
  345.000    8.744    0.424    0.239   63.525  221.392
  345.250    8.430    0.419    0.237   64.500  221.508
  345.500    8.170    0.418    0.226   66.836  221.966
  345.750    7.925    0.421    0.227   69.821  222.821
  346.000    7.645    0.434    0.236   73.178  223.669
  346.250    7.390    0.444    0.245   73.813  224.313
  346.500    7.128    0.446    0.250   71.108  224.651
  346.750    6.676    0.441    0.249   67.386  224.603
  347.000    6.272    0.437    0.256   69.720  224.200
  347.250    6.038    0.457    0.263   74.437  223.834
  347.500    5.948    0.470    0.271   76.370  223.438
  347.750    5.970    0.482    0.277   76.511  223.247
  348.000    6.072    0.489    0.281   75.664  223.375
  348.250    6.249    0.483    0.278   73.620  223.907
  348.500    6.449    0.478    0.272   69.514  224.368
  348.750    6.645    0.472    0.249   69.780  224.390
  349.000    6.810    0.465    0.238   69.113  225.037
  349.250    6.888    0.458    0.235   68.387  226.095
  349.500    6.795    0.448    0.237   68.281  227.049
  349.750    6.347    0.431    0.245   69.290  225.884
  350.000    5.888    0.432    0.256   69.324  219.907
  350.250    5.798    0.449    0.256   72.045  219.492
  350.500    5.774    0.462    0.255   73.281  219.386
  350.750    5.772    0.469    0.254   72.290  219.383
  351.000    5.748    0.468    0.254   69.874  218.968
  351.250    5.659    0.457    0.250   68.696  217.314
  351.500    5.657    0.458    0.249   70.242  217.311
  351.750    5.783    0.465    0.254   71.478  217.721
  352.000    6.011    0.465    0.252   71.786  217.202
  352.250    6.263    0.464    0.247   71.536  216.374
  352.500    6.465    0.465    0.244   71.163  216.062
  352.750    6.570    0.468    0.246   71.316  217.468
  353.000    6.619    0.469    0.244   72.088  218.325
  353.250    6.716    0.468    0.242   71.839  218.323
  353.500    6.777    0.463    0.245   71.219  218.011
  353.750    6.825    0.451    0.247   71.217  218.008
  354.000    6.874    0.440    0.248   71.277  218.108
  354.250    6.912    0.446    0.242   69.243  217.107
  354.500    6.854    0.466    0.237   68.983  216.245
  354.750    6.852    0.479    0.237   70.962  216.243
  355.000    6.850    0.474    0.235   72.570  216.859
  355.250    6.847    0.468    0.236   72.321  219.538
  355.500    6.831    0.467    0.238   70.153  223.249
  355.750    6.766    0.461    0.237   67.427  224.483
  356.000    6.710    0.446    0.231   67.425  224.481
  356.250    6.608    0.446    0.230   69.157  224.478
  356.500    6.543    0.453    0.232   71.817  224.476
  356.750    6.516    0.461    0.233   74.167  224.473
  357.000    6.526    0.465    0.236   75.218  224.573
  357.250    6.583    0.458    0.246   73.813  224.982
  357.500    6.632    0.441    0.256   71.748  224.980
  357.750    6.779    0.445    0.263   71.746  224.977
  358.000    7.008    0.434    0.252   71.930  222.808
  358.250    7.379    0.422    0.236   71.929  220.330
  358.500    7.989    0.422    0.230   71.185  218.676
  358.750    9.155    0.450    0.253   68.645  218.260
  359.000    9.902    0.465    0.267   67.095  218.257
  359.250   10.506    0.464    0.260   65.609  218.667
  359.500   11.271    0.449    0.261   63.007  218.768
  359.750   12.058    0.417    0.255   61.149  218.352
  360.000   12.914    0.367    0.236   59.414  217.730
  360.250   14.585    0.285    0.178   52.594  217.813
  360.500   16.547    0.249    0.073   42.018  218.240
  360.750   19.302    0.214    0.024   37.807  218.237
  361.000   22.088    0.203    0.026   38.053  217.615
  361.250   22.712    0.234    0.054   42.384  217.613
  361.500   20.676    0.293    0.121   49.500  218.435
  361.750   17.338    0.353    0.277   57.380  219.257
  362.000   14.749    0.412    0.296   58.410  219.255
  362.250   13.153    0.454    0.299   58.903  219.252
  362.500   12.159    0.463    0.297   58.839  216.154
  362.750   11.627    0.456    0.295   58.590  213.057
  363.000   11.407    0.443    0.295   58.032  212.538
  363.250   11.335    0.428    0.293   56.596  216.747
  363.500   11.419    0.422    0.290   56.852  217.174
  363.750   11.415    0.428    0.277   60.316  217.172
  364.000   11.218    0.428    0.278   62.667  217.169
  364.250   10.838    0.423    0.279   64.646  216.960
  364.500   10.358    0.418    0.275   66.625  216.441
  364.750    9.821    0.418    0.266   68.913  215.527
  365.000    9.442    0.425    0.254   70.459  215.094
  365.250    9.228    0.440    0.249   69.715  214.266
  365.500    9.121    0.457    0.240   69.527  213.438
  365.750    9.117    0.467    0.236   69.897  212.816
  366.000    9.165    0.463    0.243   70.391  212.504
  366.250    9.088    0.438    0.265   70.502  212.587
  366.500    8.737    0.438    0.265   72.305  213.014
  366.750    8.539    0.446    0.246   72.304  213.011
  367.000    8.440    0.435    0.233   71.374  214.556
  367.250    8.310    0.434    0.230   71.496  216.410
  367.500    8.138    0.445    0.232   72.732  217.851
  367.750    7.988    0.453    0.231   73.019  218.416
  368.000    7.861    0.453    0.224   71.986  217.123
  368.250    7.741    0.456    0.225   71.489  216.295
  368.500    7.579    0.455    0.224   71.735  217.015
  368.750    7.548    0.451    0.220   71.362  218.250
  369.000    7.645    0.445    0.216   70.617  219.279
  369.250    7.687    0.428    0.217   71.564  219.774
  369.500    7.624    0.405    0.225   72.595  220.201
  369.750    7.119    0.402    0.231   73.335  221.024
  370.000    6.727    0.427    0.230   74.077  222.465
  370.250    6.553    0.446    0.227   74.818  224.113
  370.500    6.671    0.446    0.226   74.878  225.554
  370.750    7.403    0.442    0.231   72.638  226.032
  371.000    8.673    0.441    0.241   71.346  224.310
  371.250    9.615    0.440    0.252   70.355  221.006
  371.500   10.386    0.439    0.261   69.363  219.559
  371.750   11.108    0.437    0.265   68.371  218.938
  372.000   11.841    0.434    0.264   67.441  218.522
  372.250   12.611    0.429    0.260   66.747  218.020
  372.500   13.319    0.425    0.251   67.003  217.588
  372.750   14.131    0.412    0.208   63.536  217.998
  373.000   15.242    0.341    0.143   58.768  217.788
  373.250   16.664    0.281    0.085   54.062  217.373
  373.500   18.019    0.255    0.046   51.275  217.164
  373.750   18.080    0.243    0.030   53.584  217.659
  374.000   17.115    0.259    0.044   57.709  218.086
  374.250   14.232    0.300    0.125   60.431  218.496
  374.500   12.968    0.336    0.164   62.595  218.906
  374.750   12.307    0.359    0.177   63.708  219.110
  375.000   11.963    0.369    0.177   63.892  219.313
  375.250   11.940    0.372    0.178   64.199  220.307
  375.500   11.841    0.375    0.190   65.745  221.164
  375.750   11.226    0.379    0.209   68.219  221.574
