~VERSION INFORMATION
 VERS.                 2.0:   CWLS LOG ASCII STANDARD -VERSION 2.0
 WRAP.                  NO:   ONE LINE PER DEPTH STEP
~WELL INFORMATION BLOCK
#MNEM.UNIT           DATA                    DESCRIPTION OF MNEMONIC
#---------    -------------------            -------------------------------
# Generated from Intellog Unique Number	CW_73_75/WELL/199
WELL.         GLEN ISLE ET AL MITSUE 02-01   : Well_name    - WELL
LOC .         00/02-01-074-05W5/0            : Location     - LOCATION
UWI .         00/02-01-074-05W5/0            : Uwi          - UNIQUE WELL ID
ENTR.         JAYE                           : Entered      - ENTERED BY
SRVC.         WESTERN ATLAS                  : Scn          - SERVICE COMPANY
DATE.         8 DEC 88                       : Date         - LOG DATE
STRT.M        370                            : top_depth    - START DEPTH
STOP.M        630                            : bot_depth    - STOP DEPTH
STEP.M        0.25                           : increment    - STEP LENGTH
 NULL. -999.2500:NULL Value
~CURVE INFORMATION BLOCK
#MNEM UNIT       ERCB CURVE CODE    CURVE DESCRIPTION
#-----------   ------------------   ----------------------------------
DEPT.M        00 001 00 00         : DEPTH        - DEPTH
GR  .API      00 310 00 00         : GR           - GAMMA RAY
NPHI.V/V      00 330 00 00         : PHIN         - NEUTRON POROSITY (SANDSTONE)
DPHI.V/V      00 890 00 00         : PHID         - DENSITY POROSITY (SANDSTONE)
ILD .OHMM     00 120 00 00         : RESD         - DEEP RESISTIVITY (DIL)
CALI.MM       00 280 01 00         : CAL          - CALIPER
~PARAMETER INFORMATION
#MNEM.UNIT           DATA             DESCRIPTION OF MNEMONIC
#---------         -----------     ------------------------------
GL  .M        589.5                : gl           - GROUND LEVEL ELEVATION
EREF.M        593.84               : kb           - ELEVATION OF DEPTH REFERENCE
DATM.M        589.5                : datum        - DATUM ELEVATION
TDD .M        1650                 : tdd          - TOTAL DEPTH DRILLER
RUN .         ONE                  : Run          - RUN NUMBER
ENG .         YEAGER               : Engineer     - RECORDING ENGINEER
WIT .         PUTZ                 : Witness      - WITNESSED BY
BASE.         LEDUC                : Branch       - HOME BASE OF LOGGING UNIT
MATR.         SANDSTONE            : Logunit      - NEUTRON MATRIX
TMAX.C        51                   : BHT          - MAXIMUM RECORDED TEMPERATURE
BHTD.M        1650.3               : BHTDEP       - MAXIMUM RECORDED TEMPERATURE
RMT .C        51                   : MDTP         - TEMPERATURE OF MUD
MUDD.KG/M     1125                 : MWT          - MUD DENSITY
NEUT.         1                    : NEUTRON      - NEUTRON TYPE
RESI.         0                    : RESIST       - RESISTIVITY TYPE
RM  .OHMM     6.27                 : RM           - RESISTIVITY OF MUD
RMC .OHMM     4.87                 : RMC          - RESISTIVITY OF MUD CAKE
RMF .OHMM     8.75                 : RMF          - RESISTIVITY OF MUD FILTRATE
SUFT.C        0                    : SUFT         - SURFACE TEMPERATURE
~A  DEPTH       GR     PHIN     PHID     RESD      CAL
  370.000   66.901    0.426    0.340    4.298  212.175
  370.250   65.424    0.422    0.341    3.981  227.867
  370.500   63.773    0.439    0.365    3.568  229.698
  370.750   56.686    0.551    0.529    3.221  253.852
  371.000   47.996    0.604    0.595    2.834  316.333
  371.250   44.571    0.735    0.690    2.447  333.963
  371.500   36.986    0.585    0.722    2.145  342.415
  371.750   39.918    0.541    0.800    1.980  338.842
  372.000   37.655    0.590    0.836    1.939  338.229
  372.250   30.617    0.682    0.874    1.952  338.634
  372.500   29.455    0.649    0.888    1.998  338.506
  372.750   27.983    0.588    0.891    2.068  337.801
  373.000   31.525    0.544    0.891    2.193  337.605
  373.250   34.949    0.535    0.887    2.266  337.389
  373.500   42.164    0.617    0.876    2.376  332.607
  373.750   58.981    0.604    0.866    2.580  309.249
  374.000   66.749    0.521    0.853    2.951  255.947
  374.250   74.085    0.472    0.356    3.438  218.734
  374.500   72.858    0.436    0.306    3.874  216.691
  374.750   61.481    0.396    0.264    4.693  217.201
  375.000   57.933    0.357    0.247    5.279  222.900
  375.250   60.134    0.370    0.249    5.275  230.853
  375.500   71.812    0.379    0.253    5.185  233.191
  375.750   73.826    0.367    0.253    5.317  229.929
  376.000   72.053    0.358    0.225    5.504  227.383
  376.250   60.371    0.371    0.209    5.804  222.167
  376.500   61.527    0.399    0.214    6.361  218.600
  376.750   65.627    0.401    0.228    6.832  214.925
  377.000   66.602    0.387    0.234    6.653  212.282
  377.250   67.945    0.386    0.170    6.188  211.049
  377.500   68.426    0.393    0.155    5.524  211.548
  377.750   62.927    0.385    0.159    5.184  213.071
  378.000   64.879    0.378    0.202    5.153  214.406
  378.250   69.650    0.377    0.253    5.334  218.280
  378.500   67.684    0.379    0.251    5.521  225.300
  378.750   63.959    0.387    0.253    5.610  226.831
  379.000   57.840    0.414    0.261    5.102  224.781
  379.250   64.194    0.406    0.286    4.192  226.824
  379.500   60.405    0.442    0.534    3.216  235.895
  379.750   50.125    0.539    0.555    2.732  331.298
  380.000   55.325    0.492    0.641    2.646  333.531
  380.250   64.618    0.486    0.523    2.960  317.628
  380.500   67.794    0.480    0.456    3.789  299.891
  380.750   83.085    0.426    0.412    4.744  261.870
  381.000   64.674    0.401    0.372    6.029  231.385
  381.250   44.855    0.361    0.354    7.521  226.381
  381.500   35.865    0.345    0.315    8.522  220.272
  381.750   37.816    0.336    0.305    8.756  216.796
  382.000   37.993    0.331    0.314    8.511  216.290
  382.250   38.791    0.326    0.320    8.212  216.483
  382.500   42.703    0.329    0.314    8.222  216.470
  382.750   39.092    0.333    0.313    8.325  216.060
  383.000   37.687    0.336    0.313    8.274  215.452
  383.250   42.203    0.338    0.307    8.101  215.353
  383.500   44.469    0.329    0.311    7.905  215.656
  383.750   36.457    0.328    0.319    7.502  216.262
  384.000   37.062    0.330    0.319    7.373  216.774
  384.250   40.173    0.334    0.291    7.382  216.759
  384.500   43.910    0.344    0.262    7.487  216.563
  384.750   48.986    0.345    0.264    7.721  216.140
  385.000   41.033    0.348    0.277    8.022  216.446
  385.250   44.083    0.353    0.291    8.152  216.535
  385.500   44.025    0.347    0.299    8.027  216.222
  385.750   39.556    0.355    0.307    7.774  215.731
  386.000   43.165    0.349    0.317    7.501  214.906
  386.250   42.361    0.339    0.324    7.144  212.970
  386.500   47.193    0.362    0.315    6.945  213.472
  386.750   56.307    0.364    0.256    6.763  214.985
  387.000   68.538    0.353    0.237    6.648  216.121
  387.250   63.093    0.337    0.238    6.656  217.221
  387.500   56.300    0.327    0.252    6.701  217.824
  387.750   58.196    0.333    0.257    6.648  218.148
  388.000   62.288    0.337    0.268    6.332  218.754
  388.250   69.255    0.361    0.270    5.998  219.765
  388.500   73.231    0.373    0.256    5.425  220.990
  388.750   73.903    0.389    0.248    4.625  222.811
  389.000   69.621    0.698    0.351    3.529  227.100
  389.250   55.857    0.721    0.586    2.899  245.242
  389.500   53.229    0.626    0.584    2.555  258.892
  389.750   71.205    0.443    0.591    2.655  259.704
  390.000   75.968    0.466    0.573    2.942  248.593
  390.250   78.538    0.518    0.483    3.403  231.460
  390.500   79.088    0.400    0.421    4.144  224.426
  390.750   65.569    0.347    0.375    5.660  220.961
  391.000   43.003    0.326    0.290    8.066  217.897
  391.250   39.757    0.318    0.298    9.397  215.855
  391.500   44.283    0.316    0.303    9.286  214.518
  391.750   40.118    0.317    0.298    9.010  214.312
  392.000   41.953    0.319    0.298    8.889  214.604
  392.250   42.626    0.330    0.299    8.721  215.205
  392.500   34.610    0.339    0.299    8.604  215.629
  392.750   29.594    0.336    0.311    8.347  216.232
  393.000   26.287    0.331    0.326    7.966  217.042
  393.250   55.762    0.335    0.315    7.658  218.377
  393.500   59.795    0.342    0.299    7.308  219.291
  393.750   60.034    0.346    0.292    7.064  220.597
  394.000   67.561    0.339    0.285    6.905  221.211
  394.250   66.573    0.338    0.273    6.614  221.209
  394.500   58.628    0.328    0.257    6.172  221.502
  394.750   63.331    0.338    0.257    5.301  222.332
  395.000   62.477    0.363    0.395    4.388  224.563
  395.250   61.739    0.384    0.452    3.423  227.423
  395.500   54.706    0.419    0.449    2.844  233.736
  395.750   59.720    0.465    0.448    2.976  246.171
  396.000   61.552    0.455    0.474    3.625  250.549
  396.250   62.097    0.397    0.467    4.407  234.134
  396.500   53.658    0.387    0.454    5.662  225.366
  396.750   42.402    0.393    0.418    7.452  219.743
  397.000   41.056    0.345    0.377    8.993  218.730
  397.250   40.194    0.342    0.330    9.290  218.936
  397.500   45.883    0.348    0.312    8.816  219.947
  397.750   46.798    0.364    0.316    8.476  220.242
  398.000   41.906    0.371    0.332    8.239  220.044
  398.250   42.208    0.355    0.339    8.174  220.018
  398.500   45.076    0.334    0.334    8.108  220.018
  398.750   46.731    0.332    0.324    8.102  219.831
  399.000   47.706    0.346    0.309    8.098  219.491
  399.250   48.250    0.342    0.303    8.108  219.188
  399.500   51.370    0.342    0.304    8.103  218.901
  399.750   48.064    0.345    0.316    7.978  218.081
  400.000   49.288    0.341    0.319    7.742  217.160
  400.250   47.268    0.361    0.281    7.319  216.844
  400.500   53.688    0.376    0.271    6.933  216.849
  400.750   50.626    0.366    0.276    6.555  216.844
  401.000   45.182    0.376    0.297    6.279  216.933
  401.250   54.966    0.381    0.298    6.014  217.335
  401.500   59.000    0.374    0.286    5.707  218.258
  401.750   60.832    0.397    0.261    5.446  219.577
  402.000   65.906    0.390    0.253    5.139  220.496
  402.250   59.420    0.416    0.341    4.744  224.568
  402.500   56.607    0.403    0.366    4.387  230.375
  402.750   52.202    0.412    0.389    3.938  236.288
  403.000   44.003    0.587    0.425    3.516  243.823
  403.250   36.113    0.573    0.732    3.270  300.498
  403.500   38.248    0.454    0.690    3.167  284.694
  403.750   45.767    0.387    0.657    3.254  271.747
  404.000   58.857    0.384    0.421    3.633  257.468
  404.250   58.791    0.402    0.444    4.474  237.796
  404.500   62.094    0.414    0.579    5.550  243.294
  404.750   47.660    0.431    0.716    5.171  229.940
  405.000   35.242    0.436    0.791    4.319  221.679
  405.250   21.236    0.460    0.744    3.407  226.049
  405.500   36.211    0.485    0.710    2.708  234.713
  405.750   44.224    0.442    0.746    2.603  266.010
  406.000   45.677    0.400    0.678    3.124  266.502
  406.250   46.849    0.422    0.578    4.784  254.174
