~VERSION INFORMATION
 VERS.                 2.0:   CWLS LOG ASCII STANDARD -VERSION 2.0
 WRAP.                  NO:   ONE LINE PER DEPTH STEP
~WELL INFORMATION BLOCK
#MNEM.UNIT           DATA                    DESCRIPTION OF MNEMONIC
#---------    -------------------            -------------------------------
# Generated from Intellog Unique Number	CN_94_101/WELL/2586
WELL.         PARAMOUNT RESOURCES LTD.       : Well_name    - WELL
LOC .         00/09-01-094-19W4/0            : Location     - LOCATION
UWI .         00/09-01-094-19W4/0            : Uwi          - UNIQUE WELL ID
ENTR.         JOETTE                         : Entered      - ENTERED BY
SRVC.         COMPUTALOG                     : Scn          - SERVICE COMPANY
DATE.         06/12/92                       : Date         - LOG DATE
STRT.M        110                            : top_depth    - START DEPTH
STOP.M        245                            : bot_depth    - STOP DEPTH
STEP.M        0.25                           : increment    - STEP LENGTH
 NULL. -999.2500:NULL Value
~CURVE INFORMATION BLOCK
#MNEM UNIT       ERCB CURVE CODE    CURVE DESCRIPTION
#-----------   ------------------   ----------------------------------
DEPT.M        00 001 00 00         : DEPTH        - DEPTH
CALI.MM       00 280 01 00         : CAL          - CALIPER
GR  .API      00 310 00 00         : GR           - GAMMA RAY
NPHI.V/V      00 330 00 00         : PHIN         - NEUTRON POROSITY (SANDSTONE)
DPHI.V/V      00 890 00 00         : PHID         - DENSITY POROSITY (SANDSTONE)
ILD .OHMM     00 120 00 00         : RESD         - DEEP RESISTIVITY (DIL)
~PARAMETER INFORMATION
#MNEM.UNIT           DATA             DESCRIPTION OF MNEMONIC
#---------         -----------     ------------------------------
GL  .M        527.3                : gl           - GROUND LEVEL ELEVATION
EREF.M        530.7                : kb           - ELEVATION OF DEPTH REFERENCE
DATM.M        530.7                : datum        - DATUM ELEVATION
TDD .M        246.5                : tdd          - TOTAL DEPTH DRILLER
RUN .         ONE                  : Run          - RUN NUMBER
ENG .         BILL                 : Engineer     - RECORDING ENGINEER
WIT .         JIM                  : Witness      - WITNESSED BY
MUD .         GEL                  : Mud_type     - MUD TYPE
MATR.         SANDSTONE            : Logunit      - NEUTRON MATRIX
TMAX.C        0                    : BHT          - MAXIMUM RECORDED TEMPERATURE
BHTD.M        246.5                : BHTDEP       - MAXIMUM RECORDED TEMPERATURE
RMT .C        22.2                 : MDTP         - TEMPERATURE OF MUD
MUDD.KG/M     1060                 : MWT          - MUD DENSITY
NEUT.         1                    : NEUTRON      - NEUTRON TYPE
RESI.         0                    : RESIST       - RESISTIVITY TYPE
RM  .OHMM     1.9                  : RM           - RESISTIVITY OF MUD
RMC .OHMM     1.9                  : RMC          - RESISTIVITY OF MUD CAKE
RMF .OHMM     1.9                  : RMF          - RESISTIVITY OF MUD FILTRATE
SUFT.C        -15                  : SUFT         - SURFACE TEMPERATURE
~A  DEPTH      CAL       GR     PHIN     PHID     RESD
# ...
  146.500  181.450   98.569    0.508    0.143    6.023
  146.750  176.433  102.995    0.508    0.151    5.592
  147.000  172.418  113.635    0.498    0.165    5.490
  147.250  171.479  121.169    0.489    0.181    5.194
  147.500  171.639  121.265    0.479    0.181    5.101
  147.750  171.799  118.235    0.482    0.163    4.917
  148.000  171.864  115.827    0.487    0.167    4.739
  148.250  173.059  118.389    0.487    0.170    4.482
  148.500  173.220  121.573    0.486    0.180    4.320
  148.750  173.316  125.397    0.499    0.203    3.935
  149.000  173.476  128.581    0.509    0.239    3.584
  149.250  173.540  128.677    0.504    0.255    3.325
  149.500  175.804  126.851    0.490    0.251    3.027
  149.750  180.074  121.957    0.503    0.252    2.706
  150.000  185.381  117.063    0.534    0.272    2.657
  150.250  190.655  112.791    0.553    0.290    2.610
  150.500  192.918  107.897    0.561    0.309    2.614
  150.750  189.876  104.886    0.571    0.325    2.718
  151.000  191.072  105.584    0.552    0.328    2.991
  151.250  194.307  107.525    0.519    0.322    3.169
  151.500  192.396  104.496    0.507    0.309    3.422
  151.750  187.378  103.932    0.507    0.291    3.840
  152.000  184.335  107.135    0.508    0.271    4.145
  152.250  180.289  108.454    0.471    0.273    5.412
  152.500  178.410  107.891    0.450    0.285    5.628
  152.750  181.677   99.909    0.434    0.278    6.079
  153.000  181.741   96.860    0.423    0.265    6.691
  153.250  179.798   94.452    0.411    0.275    7.364
  153.500  177.855   92.082    0.413    0.301    7.950
  153.750  175.912   92.120    0.419    0.318    8.588
  154.000  173.969   92.818    0.413    0.308    9.103
  154.250  172.026   92.895    0.408    0.290    9.111
  154.500  171.119   88.001    0.418    0.184    9.121
  154.750  171.279   86.835    0.415    0.245    8.789
  155.000  174.514   86.912    0.416    0.254    8.004
  155.250  176.682   90.737    0.430    0.249    7.290
  155.500  177.845   95.163    0.444    0.238    7.440
  155.750  177.974   99.590    0.422    0.245    7.444
  156.000  184.380   97.181    0.401    0.268    7.175
  156.250  188.650   91.666    0.410    0.272    6.293
  156.500  187.775   91.141    0.435    0.262    5.838
  156.750  183.729   94.305    0.453    0.247    5.848
  157.000  178.647   99.353    0.459    0.244    5.851
  157.250  173.661  107.546    0.446    0.271    6.084
  157.500  173.725  108.847    0.434    0.283    6.449
  157.750  173.853   98.360    0.432    0.289    6.966
  158.000  174.046   92.204    0.424    0.281    7.241
  158.250  174.142   84.204    0.424    0.270    7.974
  158.500  173.235   77.445    0.415    0.298    8.289
  158.750  172.295   74.454    0.405    0.304    8.781
  159.000  171.388   73.250    0.418    0.313    9.308
  159.250  169.477   73.327    0.412    0.314    9.866
  159.500  169.605   76.530    0.402    0.309   10.060
  159.750  169.765   78.471    0.395    0.296   10.460
  160.000  169.926   77.324    0.394    0.277   10.278
  160.250  171.025   76.139    0.398    0.211    9.536
  160.500  173.289   75.614    0.406    0.211    7.605
  160.750  174.421   76.274    0.419    0.254    5.951
  161.000  176.620   81.962    0.433    0.266    4.746
  161.250  177.752   88.253    0.459    0.265    4.576
  161.500  180.987   96.427    0.474    0.255    4.668
  161.750  183.250   99.610    0.480    0.234    4.762
  162.000  184.414  102.173    0.485    0.200    4.952
  162.250  186.614  102.250    0.472    0.231    4.957
  162.500  186.774  101.705    0.450    0.234    5.155
  162.750  186.838  105.510    0.456    0.223    5.360
  163.000  184.959  105.626    0.469    0.215    5.573
  163.250  185.023  103.819    0.469    0.213    5.686
  163.500  182.109  105.158    0.457    0.212    5.911
  163.750  181.201  107.701    0.460    0.230    6.031
  164.000  179.226  112.147    0.475    0.251    5.287
  164.250  178.287  110.981    0.477    0.254    4.549
  164.500  177.411  107.311    0.466    0.263    5.009
  164.750  177.540  103.058    0.459    0.255    5.511
  165.000  177.668   99.387    0.448    0.237    6.421
  165.250  179.867   91.386    0.436    0.219    7.340
  165.500  182.099   88.959    0.426    0.205    7.780
  165.750  186.337   92.802    0.427    0.218    8.089
  166.000  190.608   95.967    0.438    0.219    8.253
  166.250  191.772   98.529    0.440    0.218    8.107
  166.500  189.861  100.470    0.434    0.228    7.814
  166.750  186.850   98.683    0.436    0.232    7.825
  167.000  183.936  100.022    0.437    0.225    8.132
  167.250  180.925  101.341    0.423    0.194    8.953
  167.500  178.950   98.933    0.398    0.119    9.851
  167.750  172.929   75.981    0.372    0.192   10.438
  168.000  169.950   72.951    0.394    0.248   10.653
  168.250  171.050   76.775    0.410    0.295   10.470
  168.500  174.285   81.823    0.411    0.294   10.280
  168.750  178.588   91.880    0.400    0.290    9.366
  169.000  180.787   88.191    0.395    0.284    9.025
  169.250  181.951   85.180    0.406    0.266    8.221
  169.500  186.222   87.121    0.413    0.247    7.919
  169.750  184.279   92.169    0.412    0.258    7.080
  170.000  181.332   95.974    0.410    0.252    6.822
  170.250  183.563   94.808    0.413    0.244    6.574
  170.500  182.624   96.128    0.406    0.250    5.988
  170.750  182.720   99.369    0.403    0.248    5.770
  171.000  180.809   96.942    0.425    0.242    5.256
  171.250  180.937   95.135    0.434    0.239    5.063
  171.500  181.066   97.076    0.443    0.245    4.525
  171.750  181.226  100.881    0.446    0.251    4.121
  172.000  181.354  107.793    0.451    0.250    3.972
  172.250  182.486  112.860    0.457    0.247    4.289
  172.500  186.821  110.452    0.470    0.247    5.926
  172.750  188.956  104.936    0.490    0.275    6.776
  173.000  189.116   96.295    0.483    0.292    9.014
  173.250  185.102   90.177    0.464    0.304    9.370
  173.500  181.056   85.264    0.439    0.302   10.711
  173.750  178.109   77.885    0.421    0.289   12.251
  174.000  176.166   74.855    0.420    0.284   11.809
  174.250  176.262   73.087    0.421    0.287   10.956
  174.500  179.530   73.126    0.409    0.284    9.425
  174.750  182.765   77.571    0.395    0.282    7.516
  175.000  184.964   83.240    0.385    0.280    6.464
  175.250  184.057   87.667    0.385    0.257    5.561
  175.500  180.042   95.219    0.408    0.244    5.066
  175.750  177.064   99.646    0.433    0.256    5.168
  176.000  175.153  101.606    0.441    0.255    5.475
  176.250  175.281  102.324    0.445    0.237    5.802
  176.500  175.409  100.537    0.431    0.232    6.509
  176.750  175.505   99.332    0.417    0.252    7.441
  177.000  175.666   95.079    0.402    0.263    8.837
  177.250  175.794   92.651    0.391    0.267    9.543
  177.500  178.997   92.728    0.375    0.198   10.113
  177.750  176.050   93.426    0.345    0.167   10.124
  178.000  174.075   89.775    0.315    0.034   10.133
  178.250  171.097   74.939    0.298    0.018    9.769
  178.500  172.293   73.774    0.281    0.024    9.064
  178.750  177.663   80.686    0.279    0.183    8.099
  179.000  179.798   89.481    0.357    0.222    7.102
  179.250  182.030   97.635    0.380    0.230    6.981
  179.500  182.126  102.062    0.402    0.218    6.984
  179.750  182.254  101.537    0.425    0.226    6.994
  180.000  180.343   97.905    0.436    0.255    6.998
  180.250  179.404   96.700    0.441    0.268    7.142
  180.500  179.596   93.690    0.441    0.265    7.150
  180.750  180.728   94.407    0.427    0.248    7.023
  181.000  182.927   96.950    0.421    0.227    6.644
  181.250  187.230  102.620    0.418    0.208    6.401
  181.500  188.362  104.561    0.412    0.177    5.832
  181.750  188.522   99.045    0.409    0.161    5.620
  182.000  188.650   99.744    0.415    0.181    5.317
  182.250  188.746  107.296    0.426    0.218    5.319
  182.500  187.871  112.344    0.436    0.231    5.531
  182.750  184.893  116.790    0.456    0.217    5.975
