~VERSION INFORMATION
 VERS.                 2.0:   CWLS LOG ASCII STANDARD -VERSION 2.0
 WRAP.                  NO:   ONE LINE PER DEPTH STEP
~WELL INFORMATION BLOCK
#MNEM.UNIT           DATA                    DESCRIPTION OF MNEMONIC
#---------    -------------------            -------------------------------
# Generated from Intellog Unique Number	CS_67_68/WELL/2171
WELL.         06-17-067-06W4                 : Well_name    - WELL
LOC .         00/06-17-067-06W4/0            : Location     - LOCATION
UWI .         00/06-17-067-06W4/0            : Uwi          - UNIQUE WELL ID
ENTR.         SP                             : Entered      - ENTERED BY
SRVC.         SCHLUMBERGER                   : Scn          - SERVICE COMPANY
STRT.M        330                            : top_depth    - START DEPTH
STOP.M        535                            : bot_depth    - STOP DEPTH
STEP.M        0.25                           : increment    - STEP LENGTH
 NULL. -999.2500:NULL Value
~CURVE INFORMATION BLOCK
#MNEM UNIT       ERCB CURVE CODE    CURVE DESCRIPTION
#-----------   ------------------   ----------------------------------
DEPT.M        00 001 00 00         : DEPTH        - DEPTH
ILD .OHMM     00 120 00 00         : RESD         - DEEP RESISTIVITY (DIL)
DPHI.V/V      00 890 00 00         : PHID         - DENSITY POROSITY (LIMESTONE)
NPHI.V/V      00 330 00 00         : PHIN         - NEUTRON POROSITY (LIMESTONE)
GR  .API      00 310 00 00         : GR           - GAMMA RAY
CALI.MM       00 280 01 00         : CAL          - CALIPER
~PARAMETER INFORMATION
#MNEM.UNIT           DATA             DESCRIPTION OF MNEMONIC
#---------         -----------     ------------------------------
GL  .M        653.87               : gl           - GROUND LEVEL ELEVATION
EREF.M        656.96               : kb           - ELEVATION OF DEPTH REFERENCE
DATM.M        656.96               : datum        - DATUM ELEVATION
TDD .M        545                  : tdd          - TOTAL DEPTH DRILLER
RUN .         ONE                  : Run          - RUN NUMBER
ENG .         BILL                 : Engineer     - RECORDING ENGINEER
WIT .         JIM                  : Witness      - WITNESSED BY
MUD .         GEL                  : Mud_type     - MUD TYPE
MATR.         LIMESTONE            : Logunit      - NEUTRON MATRIX
TMAX.C        21                   : BHT          - MAXIMUM RECORDED TEMPERATURE
BHTD.M        545.5                : BHTDEP       - MAXIMUM RECORDED TEMPERATURE
MATR.         1                    : LOGUNIT      - NEUTRON MATRIX
RMT .C        25                   : MDTP         - TEMPERATURE OF MUD
NEUT.         1                    : NEUTRON      - NEUTRON TYPE
RESI.         0                    : RESIST       - RESISTIVITY TYPE
RMC .OHMM     0.25                 : RMC          - RESISTIVITY OF MUD CAKE
RMF .OHMM     0.25                 : RMF          - RESISTIVITY OF MUD FILTRATE
SUFT.C        15                   : SUFT         - SURFACE TEMPERATURE
~A  DEPTH     RESD     PHID     PHIN       GR      CAL
  330.000    2.740    0.212    0.525   98.700  183.925
  330.250    2.883    0.204    0.500   99.620  184.462
  330.500    2.972    0.217    0.501   99.393  187.335
  330.750    3.006    0.219    0.501  101.361  189.804
  331.000    3.012    0.213    0.508  105.040  192.171
  331.250    3.035    0.217    0.516  105.909  193.114
  331.500    3.140    0.204    0.518  104.707  192.839
  331.750    3.248    0.192    0.503  101.372  191.854
  332.000    3.405    0.185    0.496   97.855  188.023
  332.250    3.536    0.192    0.485   94.580  184.901
  332.500    3.658    0.201    0.485   95.939  182.392
  332.750    3.735    0.212    0.493  102.297  182.221
  333.000    3.693    0.219    0.484  104.570  183.568
  333.250    3.673    0.210    0.470  100.930  185.324
  333.500    3.639    0.201    0.462   97.655  188.199
  333.750    3.498    0.216    0.453  101.759  187.316
  334.000    3.369    0.220    0.477  105.741  185.717
  334.250    3.264    0.221    0.492  107.523  183.921
  334.500    3.108    0.225    0.518  106.383  183.040
  334.750    2.927    0.220    0.543  103.839  183.372
  335.000    3.022    0.221    0.533   99.529  183.807
  335.250    3.174    0.223    0.525   97.353  185.663
  335.500    3.229    0.218    0.514   96.519  186.402
  335.750    3.272    0.215    0.510  101.229  186.438
  336.000    3.347    0.215    0.527  104.478  186.767
  336.250    3.411    0.219    0.507  106.811  185.373
  336.500    3.392    0.224    0.496  109.205  182.865
  336.750    3.380    0.231    0.496  110.748  180.458
  337.000    3.477    0.236    0.480  106.925  179.672
  337.250    3.523    0.230    0.469  105.542  180.416
  337.500    3.504    0.223    0.463  102.998  179.934
  337.750    3.250    0.223    0.481   98.018  178.238
  338.000    3.009    0.228    0.500  104.131  176.132
  338.250    2.818    0.231    0.508  107.684  173.623
  338.500    2.760    0.225    0.497  101.789  172.738
  338.750    3.143    0.208    0.506   98.576  171.956
  339.000    3.526    0.192    0.474   97.620  167.620
  339.250    4.007    0.181    0.445   93.491  163.480
  339.500    4.411    0.210    0.418   87.352  159.040
  339.750    4.676    0.261    0.400   86.273  156.021
  340.000    4.995    0.274    0.395   88.303  155.339
  340.250    5.256    0.263    0.399   90.514  156.386
  340.500    5.376    0.248    0.390   92.544  156.820
  340.750    5.198    0.239    0.385   94.146  157.562
  341.000    5.026    0.248    0.400   91.850  159.017
  341.250    4.786    0.253    0.408   90.891  160.669
  341.500    4.558    0.257    0.410   84.447  161.003
  341.750    4.399    0.264    0.417   66.910  161.134
  342.000    4.261    0.273    0.379   54.066  160.556
  342.250    4.245    0.270    0.346   50.670  160.182
  342.500    4.182    0.262    0.339   52.578  160.005
  342.750    4.175    0.277    0.356   51.011  159.936
  343.000    4.167    0.287    0.347   44.871  160.064
  343.250    4.152    0.289    0.330   45.015  159.789
  343.500    4.121    0.283    0.321   48.138  159.719
  343.750    4.083    0.276    0.326   54.255  159.440
  344.000    4.099    0.271    0.342   57.194  159.165
  344.250    4.084    0.282    0.358   50.324  158.789
  344.500    4.046    0.278    0.368   45.343  158.514
  344.750    4.077    0.270    0.352   43.167  158.442
  345.000    4.070    0.265    0.352   43.245  158.165
  345.250    4.086    0.261    0.355   44.726  158.504
  345.500    4.227    0.259    0.350   47.365  159.247
  345.750    4.365    0.263    0.353   57.379  160.089
  346.000    4.524    0.254    0.358   79.828  160.824
  346.250    4.689    0.219    0.378   93.318  161.771
  346.500    4.906    0.187    0.397   98.760  162.717
  346.750    4.972    0.188    0.415   99.875  163.249
  347.000    4.944    0.198    0.427   95.138  163.890
  347.250    4.880    0.184    0.404   90.342  164.223
  347.500    4.754    0.241    0.391   87.006  163.847
  347.750    4.683    0.265    0.386   89.828  163.471
  348.000    4.588    0.274    0.403   96.367  162.890
  348.250    4.511    0.279    0.422   89.497  162.518
  348.500    4.478    0.286    0.430   85.674  162.138
  348.750    4.521    0.292    0.427   89.777  161.461
  349.000    4.573    0.284    0.412   96.865  161.587
  349.250    4.686    0.270    0.404   93.958  161.412
  349.500    4.696    0.258    0.409   84.831  161.551
  349.750    4.758    0.250    0.406   80.583  162.185
  350.000    5.016    0.237    0.399   82.368  163.431
  350.250    5.219    0.211    0.395   92.384  164.882
  350.500    5.409    0.196    0.400   98.130  165.623
  350.750    5.523    0.198    0.396   99.734  165.555
  351.000    5.565    0.212    0.398   96.703  165.277
  351.250    5.493    0.229    0.398   93.795  164.392
  351.500    5.463    0.204    0.390   96.007  163.607
  351.750    5.598    0.180    0.386  101.570  163.129
  352.000    5.526    0.203    0.394   96.226  162.551
  352.250    5.393    0.241    0.388   91.551  162.580
  352.500    5.107    0.258    0.394   97.967  162.306
  352.750    4.791    0.268    0.416  106.763  162.639
  353.000    4.470    0.244    0.432  112.998  163.690
  353.250    4.123    0.209    0.439  117.099  165.037
  353.500    3.832    0.196    0.449  119.920  167.199
  353.750    3.548    0.194    0.467  117.378  168.851
  354.000    3.297    0.204    0.494  117.578  170.201
  354.250    3.456    0.220    0.517  122.412  170.949
  354.500    3.741    0.245    0.517  115.055  169.450
  354.750    3.877    0.260    0.501  105.867  165.719
  355.000    3.929    0.253    0.484   97.900  161.482
  355.250    4.095    0.245    0.465   84.812  159.175
  355.500    4.408    0.265    0.446   70.383  159.407
  355.750    4.638    0.308    0.427   58.881  160.352
  356.000    4.673    0.366    0.380   51.584  160.584
  356.250    4.639    0.509    0.503   47.213  160.919
  356.500    4.502    0.537    0.621   48.998  161.252
  356.750    4.200    0.348    0.591   54.747  161.896
  357.000    4.037    0.326    0.554   59.337  161.719
  357.250    3.903    0.319    0.515   61.306  161.240
  357.500    3.802    0.320    0.425   64.065  161.072
  357.750    3.739    0.325    0.406   69.263  161.096
  358.000    3.704    0.325    0.405   71.292  161.024
  358.250    3.677    0.323    0.416   70.640  160.951
  358.500    3.705    0.320    0.421   78.216  161.083
  358.750    3.797    0.318    0.424   80.245  161.215
  359.000    3.841    0.313    0.429   77.704  161.548
  359.250    3.877    0.309    0.429   75.221  161.578
  359.500    3.944    0.307    0.417   75.300  161.911
  359.750    4.088    0.308    0.425   72.882  162.451
  360.000    4.269    0.305    0.426   73.202  163.189
  360.250    4.483    0.295    0.408   78.281  163.728
  360.500    4.612    0.285    0.393   81.651  164.164
  360.750    4.535    0.267    0.420   83.739  164.601
  361.000    4.303    0.244    0.424   65.593  164.837
  361.250    4.176    0.203    0.409   54.883  165.065
  361.500    4.030    0.262    0.410   48.928  164.586
  361.750    3.992    0.296    0.401   49.859  164.619
  362.000    4.046    0.305    0.392   57.804  164.545
  362.250    4.061    0.292    0.395   61.843  164.880
  362.500    4.047    0.280    0.390   66.735  164.809
  362.750    4.017    0.282    0.397   67.729  164.938
  363.000    3.972    0.305    0.408   64.577  165.274
  363.250    4.102    0.314    0.411   64.960  165.714
  363.500    4.316    0.312    0.399   71.258  166.046
  363.750    4.550    0.301    0.396   77.186  166.375
  364.000    4.787    0.292    0.396   82.874  166.613
  364.250    4.971    0.276    0.396   87.157  166.542
  364.500    5.123    0.258    0.393   88.029  166.569
  364.750    5.047    0.256    0.390   84.208  166.495
  365.000    4.789    0.252    0.377   84.102  166.627
  365.250    4.417    0.230    0.381   88.630  166.759
  365.500    4.443    0.210    0.411   89.928  169.021
  365.750    4.719    0.196    0.430   88.422  171.285
  366.000    5.022    0.207    0.447   89.051  168.681
  366.250    5.466    0.221    0.459   92.603  167.179
