~VERSION INFORMATION
 VERS.                 2.0:   CWLS LOG ASCII STANDARD -VERSION 2.0
 WRAP.                  NO:   ONE LINE PER DEPTH STEP
~WELL INFORMATION BLOCK
#MNEM.UNIT           DATA                    DESCRIPTION OF MNEMONIC
#---------    -------------------            -------------------------------
# Generated from Intellog Unique Number	CW_76_78/WELL/637
WELL.         GULF POC DROWNED 07-23         : Well_name    - WELL
LOC .         00/07-23-076-22W4/0            : Location     - LOCATION
UWI .         00/07-23-076-22W4/0            : Uwi          - UNIQUE WELL ID
ENTR.         JAYE                           : Entered      - ENTERED BY
SRVC.         WESTERN ATLAS                  : Scn          - SERVICE COMPANY
DATE.         5 JAN 77                       : Date         - LOG DATE
STRT.M        435.864                        : top_depth    - START DEPTH
STOP.M        649.114                        : bot_depth    - STOP DEPTH
STEP.M        0.25                           : increment    - STEP LENGTH
 NULL. -999.2500:NULL Value
~CURVE INFORMATION BLOCK
#MNEM UNIT       ERCB CURVE CODE    CURVE DESCRIPTION
#-----------   ------------------   ----------------------------------
DEPT.M        00 001 00 00         : DEPTH        - DEPTH
ILD .OHMM     00 120 00 00         : RESD         - DEEP RESISTIVITY (DIL)
NPHI.V/V      00 330 00 00         : PHIN         - NEUTRON POROSITY (SANDSTONE)
DPHI.V/V      00 890 00 00         : PHID         - DENSITY POROSITY (SANDSTONE)
GR  .API      00 310 00 00         : GR           - GAMMA RAY
CALI.MM       00 280 01 00         : CAL          - CALIPER
~PARAMETER INFORMATION
#MNEM.UNIT           DATA             DESCRIPTION OF MNEMONIC
#---------         -----------     ------------------------------
GL  .M        749.198              : gl           - GROUND LEVEL ELEVATION
EREF.M        752.551              : kb           - ELEVATION OF DEPTH REFERENCE
DATM.M        749.198              : datum        - DATUM ELEVATION
TDD .M        647.7                : tdd          - TOTAL DEPTH DRILLER
RUN .         ONE                  : Run          - RUN NUMBER
ENG .         CROCKFORD            : Engineer     - RECORDING ENGINEER
WIT .         HUGHES               : Witness      - WITNESSED BY
BASE.         EDM                  : Branch       - HOME BASE OF LOGGING UNIT
MATR.         SANDSTONE            : Logunit      - NEUTRON MATRIX
TMAX.C        30.5556              : BHT          - MAXIMUM RECORDED TEMPERATURE
BHTD.M        648.31               : BHTDEP       - MAXIMUM RECORDED TEMPERATURE
RMT .C        14.4444              : MDTP         - TEMPERATURE OF MUD
MUDD.KG/M     1080                 : MWT          - MUD DENSITY
NEUT.         1                    : NEUTRON      - NEUTRON TYPE
RESI.         0                    : RESIST       - RESISTIVITY TYPE
RM  .OHMM     3.89                 : RM           - RESISTIVITY OF MUD
RMC .OHMM     0                    : RMC          - RESISTIVITY OF MUD CAKE
RMF .OHMM     5.84                 : RMF          - RESISTIVITY OF MUD FILTRATE
SUFT.C        -17.7778             : SUFT         - SURFACE TEMPERATURE
~A  DEPTH     RESD     PHIN     PHID       GR      CAL
# ...
  581.864    6.475    0.393    0.186  112.949  167.521
  582.114    6.587    0.391    0.179  109.981  169.298
  582.364    6.523    0.396    0.178  111.092  168.292
  582.614    6.177    0.409    0.204  112.504  166.563
  582.864    5.849    0.417    0.182  113.491  164.626
  583.114    5.741    0.413    0.179  114.540  163.208
  583.364    5.840    0.395    0.189  114.675  162.924
  583.614    6.268    0.374    0.185  113.229  163.668
  583.864    6.729    0.308    0.150  103.384  165.959
  584.114    7.900    0.234    0.101   94.758  167.735
  584.364    9.441    0.204    0.025   87.470  168.683
  584.614   10.505    0.225    0.023   91.867  169.327
  584.864   10.310    0.327    0.064   99.120  168.422
  585.114    9.170    0.389    0.140  111.059  167.212
  585.364    8.010    0.389    0.158  116.916  166.410
  585.614    6.998    0.397    0.177  120.458  165.812
  585.864    6.003    0.415    0.185  121.810  165.525
  586.114    5.634    0.423    0.183  119.268  165.864
  586.364    5.431    0.413    0.164  119.464  166.089
  586.614    5.330    0.417    0.169  119.356  166.321
  586.864    5.374    0.410    0.158  121.196  166.550
  587.114    5.516    0.396    0.176  122.913  166.982
  587.364    5.611    0.411    0.171  120.554  167.831
  587.614    5.708    0.398    0.162  118.742  168.475
  587.864    5.755    0.387    0.170  119.669  168.906
  588.114    5.802    0.399    0.161  122.726  169.239
  588.364    5.850    0.409    0.169  123.773  169.779
  588.614    5.845    0.402    0.166  123.483  170.318
  588.864    5.845    0.393    0.164  122.888  170.751
  589.114    5.834    0.386    0.171  125.215  171.702
  589.364    5.831    0.386    0.195  127.297  171.829
  589.614    5.831    0.393    0.187  128.405  172.366
  589.864    5.769    0.405    0.187  128.845  173.009
  590.114    5.713    0.417    0.193  126.973  173.135
  590.364    5.708    0.423    0.175  121.023  172.951
  590.614    5.704    0.429    0.166  118.543  173.182
  590.864    5.699    0.421    0.180  119.895  173.513
  591.114    5.644    0.413    0.170  120.335  173.646
  591.364    5.589    0.423    0.155  119.679  173.253
  591.614    5.585    0.427    0.157  123.344  172.863
  591.864    5.530    0.437    0.181  126.461  172.681
  592.114    5.427    0.430    0.174  124.284  172.604
  592.364    5.375    0.402    0.179  121.073  172.626
  592.614    5.275    0.414    0.190  121.269  172.650
  592.864    5.224    0.416    0.187  124.508  172.983
  593.114    5.126    0.407    0.187  127.868  173.108
  593.364    5.077    0.395    0.185  124.901  173.233
  593.614    5.072    0.393    0.166  120.717  173.460
  593.864    5.069    0.397    0.184  117.504  173.484
  594.114    5.110    0.404    0.181  116.119  173.507
  594.364    5.292    0.404    0.165  114.247  172.502
  594.614    5.481    0.387    0.166  112.192  170.465
  594.864    5.727    0.370    0.175  112.388  169.146
  595.114    5.931    0.364    0.179  113.983  166.904
  595.364    6.088    0.364    0.187  116.735  163.322
  595.614    6.249    0.374    0.198  113.768  161.080
  595.864    6.470    0.364    0.201  110.556  160.998
  596.114    6.642    0.355    0.194  106.919  161.742
  596.364    6.816    0.350    0.185  107.055  164.547
  596.614    6.874    0.370    0.190  112.910  167.559
  596.864    6.685    0.387    0.192  119.679  170.467
  597.114    6.388    0.390    0.184  124.316  173.480
  597.364    5.835    0.398    0.176  127.616  175.150
  597.614    5.476    0.417    0.169  130.976  175.999
  597.864    5.327    0.413    0.165  132.878  176.845
  598.114    5.419    0.330    0.158  128.570  178.620
  598.364    5.663    0.304    0.140  119.091  175.037
  598.614    6.188    0.287    0.086  111.013  167.231
  598.864    6.642    0.318    0.070  106.403  168.902
  599.114    7.130    0.350    0.110  115.299  166.660
  599.364    7.793    0.364    0.148  124.197  163.592
  599.614    8.439    0.377    0.168  127.498  165.056
  599.864    8.283    0.370    0.173  127.571  168.068
  600.114    7.567    0.358    0.177  126.672  170.979
  600.364    7.100    0.367    0.180  125.104  172.237
  600.614    6.724    0.383    0.180  123.353  170.613
  600.864    6.541    0.371    0.181  125.558  169.295
  601.114    6.477    0.352    0.175  124.658  167.570
  601.364    6.529    0.350    0.166  121.204  165.222
  601.614    6.702    0.344    0.158  117.750  164.730
  601.864    7.066    0.357    0.143  113.747  166.813
  602.114    7.450    0.377    0.141  105.121  171.575
  602.364    8.070    0.359    0.138   98.381  169.538
  602.614    8.663    0.313    0.166   97.117  160.700
  602.864    9.132    0.310    0.132  103.763  164.640
  603.114    9.045    0.343    0.122  111.383  167.962
  603.364    8.798    0.354    0.139  113.405  168.396
  603.614    8.481    0.352    0.146  113.479  168.523
  603.864    8.103    0.350    0.138  112.094  168.855
  604.114    7.672    0.364    0.136  111.438  169.495
  604.364    7.265    0.382    0.103  113.216  170.345
  604.614    7.004    0.391    0.161  117.611  166.966
  604.864    6.751    0.403    0.177  124.562  165.134
  605.114    6.567    0.411    0.159  125.610  167.528
  605.364    6.275    0.422    0.137  117.957  172.291
  605.614    5.995    0.412    0.137  116.693  174.685
  605.864    5.780    0.410    0.159  119.809  174.708
  606.114    5.521    0.404    0.161  117.937  170.612
  606.364    5.468    0.387    0.146  117.891  166.926
  606.614    5.414    0.388    0.135  118.755  164.578
  606.864    5.411    0.394    0.150  119.500  163.364
  607.114    5.454    0.391    0.153  120.366  169.880
  607.364    5.548    0.383    0.149  121.474  171.654
  607.614    5.644    0.388    0.152  122.279  171.678
  607.864    5.690    0.404    0.155  122.779  170.980
  608.114    5.737    0.416    0.161  124.071  170.384
  608.364    5.784    0.415    0.176  126.701  169.995
  608.614    5.780    0.396    0.167  126.046  169.608
  608.864    5.878    0.369    0.182  122.652  169.323
  609.114    5.874    0.367    0.158  125.404  169.446
  609.364    5.765    0.375    0.176  128.034  170.502
  609.614    5.508    0.376    0.188  127.622  176.296
  609.864    5.168    0.376    0.187  123.499  181.469
  610.114    4.939    0.381    0.204  120.713  176.753
  610.364    4.553    0.385    0.213  123.708  174.612
  610.614    3.977    0.399    0.210  126.582  174.637
  610.864    3.092    0.505    0.210  124.100  173.834
  611.114    2.902    0.565    0.255  121.316  173.034
  611.364    2.535    0.544    0.288  120.784  171.826
  611.614    2.254    0.531    0.304  120.795  171.123
  611.864    1.917    0.530    0.287  120.080  170.015
  612.114    1.675    0.528    0.280  119.058  168.903
  612.364    1.558    0.512    0.270  113.657  167.795
  612.614    1.585    0.426    0.240  106.917  166.581
  612.864    1.894    0.385    0.213  105.227  166.812
  613.114    2.566    0.365    0.194   99.643  167.864
  613.364    3.013    0.343    0.175   97.528  169.434
  613.614    3.505    0.324    0.152   98.758  173.886
  613.864    4.153    0.316    0.136   98.710  173.084
  614.114    5.429    0.346    0.110  106.208  170.327
  614.364    6.316    0.345    0.129  107.440  169.116
  614.614    5.928    0.333    0.181  108.000  169.245
  614.864    5.319    0.355    0.186  109.718  169.575
  615.114    4.647    0.380    0.188  114.417  169.598
  615.364    4.207    0.396    0.196  116.925  169.309
  615.614    3.948    0.404    0.194  107.448  168.921
  615.864    4.163    0.389    0.212   98.395  168.123
  616.114    4.800    0.340    0.199   89.342  166.705
  616.364    5.947    0.319    0.227   80.169  165.281
  616.614    7.302    0.310    0.256   66.734  162.010
  616.864    9.045    0.310    0.274   68.635  159.972
  617.114   11.106    0.305    0.257   80.514  158.653
  617.364   14.389    0.316    0.228   90.750  157.236
  617.614   13.995    0.329    0.185  102.142  157.670
  617.864   10.786    0.357    0.130  115.664  163.772
  618.114    8.849    0.408    0.077  127.360  170.701
