~VERSION INFORMATION
 VERS.                 2.0:   CWLS LOG ASCII STANDARD -VERSION 2.0
 WRAP.                  NO:   ONE LINE PER DEPTH STEP
~WELL INFORMATION BLOCK
#MNEM.UNIT           DATA                    DESCRIPTION OF MNEMONIC
#---------    -------------------            -------------------------------
# Generated from Intellog Unique Number	CS_77_79/WELL/867
WELL.         ICGR GRAHAM                    : Well_name    - WELL
LOC .         00/06-05-079-05W4/0            : Location     - LOCATION
UWI .         00/06-05-079-05W4/0            : Uwi          - UNIQUE WELL ID
ENTR.         JHS                            : Entered      - ENTERED BY
SRVC.         SCHLUMBERGER                   : Scn          - SERVICE COMPANY
STRT.M        105                            : top_depth    - START DEPTH
STOP.M        365                            : bot_depth    - STOP DEPTH
STEP.M        0.25                           : increment    - STEP LENGTH
 NULL. -999.2500:NULL Value
~CURVE INFORMATION BLOCK
#MNEM UNIT       ERCB CURVE CODE    CURVE DESCRIPTION
#-----------   ------------------   ----------------------------------
DEPT.M        00 001 00 00         : DEPTH        - DEPTH
DPHI.V/V      00 890 00 00         : PHID         - DENSITY POROSITY (LIMESTONE)
NPHI.V/V      00 330 00 00         : PHIN         - NEUTRON POROSITY (LIMESTONE)
GR  .API      00 310 00 00         : GR           - GAMMA RAY
ILD .OHMM     00 120 00 00         : RESD         - DEEP RESISTIVITY (DIL)
RHOB.KG/M3    00 350 00 00         : DENS         - BULK DENSITY
~PARAMETER INFORMATION
#MNEM.UNIT           DATA             DESCRIPTION OF MNEMONIC
#---------         -----------     ------------------------------
GL  .M        529.39               : gl           - GROUND LEVEL ELEVATION
EREF.M        533.04               : kb           - ELEVATION OF DEPTH REFERENCE
DATM.M        533.04               : datum        - DATUM ELEVATION
TDD .M        374                  : tdd          - TOTAL DEPTH DRILLER
RUN .         ONE                  : Run          - RUN NUMBER
ENG .         BILL                 : Engineer     - RECORDING ENGINEER
WIT .         JIM                  : Witness      - WITNESSED BY
MUD .         GEL                  : Mud_type     - MUD TYPE
MATR.         LIMESTONE            : Logunit      - NEUTRON MATRIX
TMAX.C        20.4                 : BHT          - MAXIMUM RECORDED TEMPERATURE
BHTD.M        374                  : BHTDEP       - MAXIMUM RECORDED TEMPERATURE
MATR.         1                    : LOGUNIT      - NEUTRON MATRIX
RMT .C        25                   : MDTP         - TEMPERATURE OF MUD
NEUT.         1                    : NEUTRON      - NEUTRON TYPE
RESI.         0                    : RESIST       - RESISTIVITY TYPE
RMC .OHMM     0.25                 : RMC          - RESISTIVITY OF MUD CAKE
RMF .OHMM     0.25                 : RMF          - RESISTIVITY OF MUD FILTRATE
SUFT.C        15                   : SUFT         - SURFACE TEMPERATURE
~A  DEPTH     PHID     PHIN       GR     RESD     DENS
# ...
  287.500    0.310    0.394   83.021    5.401 2179.940
  287.750    0.267    0.493   98.720    5.111 2254.170
  288.000    0.263    0.412   80.529    5.214 2260.550
  288.250    0.305    0.379   53.551    5.318 2188.500
  288.500    0.329    0.376   46.030    5.321 2148.260
  288.750    0.337    0.367   39.762    5.226 2133.450
  289.000    0.342    0.347   36.007    5.134 2124.990
  289.250    0.346    0.332   39.781    5.041 2118.670
  289.500    0.337    0.353   45.440    4.859 2133.540
  289.750    0.317    0.387   45.448    4.684 2167.470
  290.000    0.305    0.393   39.812    4.516 2188.700
  290.250    0.315    0.377   35.426    4.520 2171.770
  290.500    0.322    0.373   32.927    4.523 2159.070
  290.750    0.330    0.377   36.703    4.528 2146.390
  291.000    0.327    0.358   39.223    4.531 2150.650
  291.250    0.322    0.357   40.485    4.535 2159.160
  291.500    0.313    0.370   39.867    4.625 2174.030
  291.750    0.312    0.374   34.230    4.717 2176.180
  292.000    0.322    0.356   32.983    4.997 2159.240
  292.250    0.301    0.332   54.959    5.192 2195.310
  292.500    0.246    0.329   73.169    5.819 2288.610
  292.750    0.213    0.368   93.892    6.161 2345.870
  293.000    0.218    0.408   97.039    6.284 2337.420
  293.250    0.241    0.442   90.774    6.172 2297.170
  293.500    0.264    0.430   88.902    6.178 2259.040
  293.750    0.270    0.426   88.280    6.303 2248.470
  294.000    0.253    0.468   82.013    6.427 2278.170
  294.250    0.112    0.331   70.726    6.935 2517.740
  294.500    0.054    0.313   66.342    7.626 2617.400
  294.750    0.037    0.349   73.255    7.927 2647.110
  295.000    0.205    0.424   85.817    7.363 2358.840
  295.250    0.244    0.447   94.613    6.962 2293.150
  295.500    0.254    0.430   99.017    6.708 2276.230
  295.750    0.266    0.420   90.867    6.115 2255.050
  296.000    0.280    0.412   77.069    5.892 2231.760
  296.250    0.293    0.400   73.312    5.574 2208.470
  296.500    0.304    0.387   73.321    5.473 2189.420
  296.750    0.286    0.399   80.863    5.479 2221.240
  297.000    0.267    0.413   82.127    5.588 2253.070
  297.250    0.257    0.392   85.275    5.807 2270.060
  297.500    0.237    0.378   99.721    6.036 2304.000
  297.750    0.218    0.366  101.613    6.639 2337.940
  298.000    0.203    0.350   97.231    7.030 2363.410
  298.250    0.196    0.324   93.475    7.588 2374.040
  298.500    0.203    0.323   91.602    7.591 2363.470
  298.750    0.218    0.346   97.884    7.317 2338.050
  299.000    0.262    0.365  101.660    6.794 2261.760
  299.250    0.296    0.370   91.000    6.307 2204.560
  299.500    0.307    0.367   68.414    5.854 2185.510
  299.750    0.302    0.358   67.797    5.333 2194.020
  300.000    0.278    0.358   84.753    5.217 2234.320
  300.250    0.271    0.366   86.645    5.023 2247.070
  300.500    0.273    0.376   74.103    5.023 2242.850
  300.750    0.284    0.380   63.444    4.837 2223.800
  301.000    0.305    0.377   64.078    4.836 2187.790
  301.250    0.313    0.367   72.251    4.836 2175.100
  301.500    0.303    0.355   71.002    4.745 2192.090
  301.750    0.315    0.343   59.087    4.744 2170.920
  302.000    0.320    0.349   55.331    4.569 2162.470
  302.250    0.315    0.370   54.713    4.568 2170.980
  302.500    0.319    0.376   55.348    4.483 2164.640
  302.750    0.320    0.355   59.126    4.482 2162.550
  303.000    0.303    0.368   64.782    4.316 2192.250
  303.250    0.300    0.386   73.579    4.235 2196.520
  303.500    0.309    0.388   70.450    4.235 2181.710
  303.750    0.316    0.365   58.538    4.234 2169.020
  304.000    0.320    0.365   75.491    4.155 2162.690
  304.250    0.331    0.372   93.075    4.154 2143.630
  304.500    0.327    0.373   93.710    4.153 2150.020
  304.750    0.324    0.366   78.030    4.153 2156.410
  305.000    0.322    0.357   70.510    4.152 2158.560
  305.250    0.329    0.353   69.890    4.151 2148.000
  305.500    0.335    0.362   73.038    4.074 2137.420
  305.750    0.340    0.377   68.655    4.073 2128.960
  306.000    0.345    0.387   64.269    4.073 2120.510
  306.250    0.334    0.387   60.514    4.072 2139.620
  306.500    0.326    0.384   60.525    4.072 2152.360
  306.750    0.331    0.373   59.276    4.071 2143.910
  307.000    0.321    0.372   56.148    4.070 2160.900
  307.250    0.324    0.373   57.414    4.070 2156.690
  307.500    0.336    0.371   54.285    3.993 2135.520
  307.750    0.337    0.388   51.783    4.069 2133.420
  308.000    0.336    0.392   49.910    4.068 2135.570
  308.250    0.341    0.390   46.782    4.067 2127.130
  308.500    0.342    0.404   53.068    4.067 2125.030
  308.750    0.333    0.379   56.215    4.066 2139.890
  309.000    0.337    0.367   51.831    4.066 2133.560
  309.250    0.342    0.371   43.053    4.065 2125.110
  309.500    0.343    0.388   36.788    4.065 2123.020
  309.750    0.342    0.392   34.285    4.064 2125.170
  310.000    0.341    0.390   38.690    3.988 2127.310
  310.250    0.337    0.393   38.073    3.987 2133.700
  310.500    0.337    0.394   33.690    3.987 2133.730
  310.750    0.339    0.372   31.190    3.986 2129.510
  311.000    0.332    0.357   31.827    3.912 2142.260
  311.250    0.323    0.368   33.716    3.911 2157.130
  311.500    0.331    0.393   34.354    3.910 2144.430
  311.750    0.344    0.380   33.736    3.910 2121.140
  312.000    0.333    0.359   33.745    3.837 2140.250
  312.250    0.328    0.354   32.499    3.836 2148.760
  312.500    0.333    0.377   33.765    3.835 2140.310
  312.750    0.344    0.396   36.911    3.908 2121.260
  313.000    0.346    0.407   36.922    3.907 2119.170
  313.250    0.353    0.403   35.675    3.981 2106.470
  313.500    0.362    0.370   38.196    4.055 2091.660
  313.750    0.329    0.358   49.502    4.210 2146.800
  314.000    0.276    0.383   70.851    4.453 2237.990
  314.250    0.249    0.371   79.646    4.983 2284.650
  314.500    0.198    0.364   85.932    5.271 2371.590
  314.750    0.184    0.385   96.612    5.681 2394.940
  315.000    0.188    0.406  105.410    6.009 2388.610
  315.250    0.200    0.416  101.656    6.239 2367.440
  315.500    0.207    0.417   96.014    6.356 2356.870
  315.750    0.214    0.411   87.864    6.355 2344.170
  316.000    0.236    0.397   82.854    6.354 2306.040
  316.250    0.250    0.385   79.723    6.353 2282.750
  316.500    0.249    0.373   76.594    6.352 2284.900
  316.750    0.240    0.369   79.115    6.351 2299.770
  317.000    0.230    0.361   88.539    6.350 2316.750
  317.250    0.229    0.369   94.824    6.231 2318.900
  317.500    0.224    0.382  101.740    6.349 2327.400
  317.750    0.211    0.401  103.003    6.230 2348.630
  318.000    0.215    0.411  101.131    6.347 2342.300
  318.250    0.213    0.415   99.885    6.346 2346.570
  318.500    0.200    0.422  101.776    6.227 2367.790
  318.750    0.193    0.396  102.413    6.226 2380.540
  319.000    0.190    0.417  100.543    6.225 2384.810
  319.250    0.194    0.417   99.295    6.224 2378.480
  319.500    0.203    0.392   99.931    6.108 2363.670
  319.750    0.210    0.388   95.547    5.882 2350.970
  320.000    0.250    0.441   83.632    5.254 2283.160
  320.250    0.326    0.412   53.515    4.694 2151.760
  320.500    0.320    0.387   47.248    4.116 2162.390
  320.750    0.318    0.382   46.631    3.963 2166.660
  321.000    0.325    0.376   46.013    3.963 2153.970
  321.250    0.334    0.366   43.511    3.962 2139.150
  321.500    0.344    0.365   50.425    3.962 2122.220
  321.750    0.342    0.377   54.829    4.036 2124.360
  322.000    0.315    0.391   51.698    4.112 2171.030
  322.250    0.304    0.395   44.806    4.189 2190.130
  322.500    0.326    0.401   43.559    4.189 2152.000
  322.750    0.349    0.391   42.943    4.188 2113.880
  323.000    0.340    0.380   41.697    4.110 2128.760
  323.250    0.336    0.381   40.449    4.109 2135.130
  323.500    0.337    0.386   41.087    3.957 2133.040
  323.750    0.337    0.399   44.235    3.883 2133.070
