~VERSION INFORMATION
 VERS.                 2.0:   CWLS LOG ASCII STANDARD -VERSION 2.0
 WRAP.                  NO:   ONE LINE PER DEPTH STEP
~WELL INFORMATION BLOCK
#MNEM.UNIT           DATA                    DESCRIPTION OF MNEMONIC
#---------    -------------------            -------------------------------
# Generated from Intellog Unique Number	CS_69_70/WELL/641
NULL.         -999.25                        : NULL_VALUE
WELL.         CHIEFCO TWEEDIE                : Well_name    - WELL              
LOC .         00/05-22-070-13W4/0            : Location     - LOCATION          
UWI .         00/05-22-070-13W4/0            : Uwi          - UNIQUE WELL ID    
ENTR.         SP                             : Entered      - ENTERED BY        
SRVC.         SCHLUMBERGER                   : Scn          - SERVICE COMPANY   
STRT.M        260                            : top_depth    - START DEPTH       
STOP.M        492                            : bot_depth    - STOP DEPTH        
STEP.M        0.25                           : increment    - STEP LENGTH       
~CURVE INFORMATION BLOCK
#MNEM UNIT       ERCB CURVE CODE    CURVE DESCRIPTION
#-----------   ------------------   ----------------------------------
DEPT.M        00 001 00 00         : DEPTH        - DEPTH                       
ILD .OHMM     00 120 00 00         : RESD         - DEEP RESISTIVITY (DIL)      
DPHI.V/V      00 890 00 00         : PHID         - DENSITY POROSITY (LIMESTONE)
NPHI.V/V      00 330 00 00         : PHIN         - NEUTRON POROSITY (LIMESTONE)
GR  .API      00 310 00 00         : GR           - GAMMA RAY                   
~PARAMETER INFORMATION       
#MNEM.UNIT           DATA             DESCRIPTION OF MNEMONIC
#---------         -----------     ------------------------------
GL  .M        581.6                : gl           - GROUND LEVEL ELEVATION      
EREF.M        584.7                : kb           - ELEVATION OF DEPTH REFERENCE
DATM.M        581.6                : datum        - DATUM ELEVATION             
TDD .M        493                  : tdd          - TOTAL DEPTH DRILLER         
RUN .         ONE                  : Run          - RUN NUMBER                  
ENG .         BILL                 : Engineer     - RECORDING ENGINEER          
WIT .         JIM                  : Witness      - WITNESSED BY                
MUD .         GEL                  : Mud_type     - MUD TYPE                    
MATR.         LIMESTONE            : Logunit      - NEUTRON MATRIX              
TMAX.C        33                   : BHT          - MAXIMUM RECORDED TEMPERATURE
BHTD.M        493                  : BHTDEP       - MAXIMUM RECORDED TEMPERATURE
MATR.         1                    : LOGUNIT      - NEUTRON MATRIX              
RMT .C        25                   : MDTP         - TEMPERATURE OF MUD          
NEUT.         1                    : NEUTRON      - NEUTRON TYPE                
RESI.         0                    : RESIST       - RESISTIVITY TYPE            
RMC .OHMM     0.25                 : RMC          - RESISTIVITY OF MUD CAKE     
RMF .OHMM     0.25                 : RMF          - RESISTIVITY OF MUD FILTRATE 
SUFT.C        15                   : SUFT         - SURFACE TEMPERATURE         
~A  DEPTH     RESD     PHID     PHIN       GR
# ...
  390.500    5.784    0.200    0.378   75.982
  390.750    4.905    0.231    0.400   79.704
  391.000    4.762    0.243    0.419   80.738
  391.250    4.547    0.248    0.432   77.559
  391.500    4.466    0.244    0.441   79.754
  391.750    4.281    0.240    0.437   80.728
  392.000    4.244    0.249    0.440   80.541
  392.250    4.391    0.263    0.453   78.216
  392.500    4.543    0.261    0.438   81.511
  392.750    4.702    0.256    0.424   83.828
  393.000    4.704    0.252    0.421   85.534
  393.250    4.620    0.258    0.447   83.759
  393.500    4.487    0.257    0.462   82.046
  393.750    4.407    0.254    0.456   81.553
  394.000    4.344    0.267    0.446   81.794
  394.250    4.379    0.282    0.438   78.737
  394.500    4.431    0.260    0.432   83.252
  394.750    4.534    0.237    0.433   86.425
  395.000    4.674    0.219    0.439   84.406
  395.250    4.819    0.206    0.443   82.876
  395.500    4.821    0.214    0.438   84.398
  395.750    4.780    0.231    0.434   86.167
  396.000    4.686    0.259    0.432   89.339
  396.250    4.627    0.251    0.427   92.876
  396.500    4.587    0.235    0.436   94.217
  396.750    4.633    0.223    0.446   90.061
  397.000    4.584    0.219    0.448   85.904
  397.250    4.386    0.221    0.447   86.756
  397.500    4.127    0.229    0.471   89.316
  397.750    3.832    0.239    0.496   90.230
  398.000    3.487    0.246    0.506   90.776
  398.250    3.311    0.247    0.493   92.604
  398.500    3.270    0.246    0.480   95.105
  398.750    3.390    0.245    0.474   96.871
  399.000    3.482    0.244    0.473   97.724
  399.250    3.549    0.248    0.510   98.575
  399.500    3.586    0.250    0.520   99.365
  399.750    3.535    0.253    0.513  100.156
  400.000    3.407    0.254    0.505  100.213
  400.250    3.224    0.260    0.501   95.690
  400.500    3.130    0.268    0.501   96.542
  400.750    2.950    0.267    0.509   99.836
  401.000    2.756    0.268    0.512  102.153
  401.250    2.602    0.261    0.503  103.737
  401.500    2.444    0.255    0.496  105.689
  401.750    2.347    0.250    0.515  102.143
  402.000    2.305    0.247    0.528   96.215
  402.250    2.359    0.245    0.496   93.768
  402.500    2.491    0.247    0.479   93.947
  402.750    2.636    0.253    0.478   93.822
  403.000    2.810    0.262    0.497   90.520
  403.250    2.962    0.282    0.477   87.341
  403.500    3.100    0.295    0.465   84.711
  403.750    3.355    0.293    0.471   85.990
  404.000    3.657    0.280    0.501   87.147
  404.250    4.146    0.252    0.522   82.073
  404.500    4.579    0.193    0.326   75.901
  404.750    4.928    0.096    0.301   71.256
  405.000    5.156    0.114    0.287   70.764
  405.250    4.842    0.189    0.365   76.074
  405.500    4.365    0.237    0.428   79.979
  405.750    3.934    0.269    0.452   83.212
  406.000    3.607    0.284    0.434   87.788
  406.250    3.374    0.284    0.422   90.166
  406.500    3.364    0.269    0.418   91.385
  406.750    3.493    0.253    0.428   92.054
  407.000    3.724    0.239    0.435   88.752
  407.250    4.000    0.223    0.430   84.656
  407.500    4.386    0.209    0.444   82.943
  407.750    5.019    0.197    0.468   76.648
  408.000    5.461    0.106    0.406   67.605
  408.250    6.226    0.051    0.226   61.861
  408.500    6.576    0.045    0.205   67.293
  408.750    6.234    0.114    0.262   75.718
  409.000    5.789    0.182    0.352   82.432
  409.250    4.907    0.206    0.419   87.315
  409.500    4.506    0.207    0.441   88.288
  409.750    4.240    0.204    0.432   88.529
  410.000    4.125    0.204    0.429   89.441
  410.250    4.059    0.200    0.437   90.964
  410.500    4.001    0.198    0.443   88.885
  410.750    4.026    0.206    0.440   85.888
  411.000    4.166    0.202    0.444   86.495
  411.250    4.383    0.195    0.440   87.896
  411.500    4.578    0.189    0.409   89.541
  411.750    4.693    0.184    0.399   91.065
  412.000    4.713    0.201    0.412   93.321
  412.250    4.656    0.213    0.417   94.722
  412.500    4.506    0.220    0.401   93.375
  412.750    4.432    0.219    0.395   90.257
  413.000    4.337    0.216    0.398   89.581
  413.250    4.251    0.215    0.407   93.303
  413.500    4.238    0.219    0.414   96.597
  413.750    4.224    0.224    0.417  100.136
  414.000    4.227    0.228    0.418  102.515
  414.250    4.293    0.228    0.428  103.305
  414.500    4.417    0.217    0.440  100.064
  414.750    4.579    0.196    0.448   92.976
  415.000    4.729    0.168    0.427   89.064
  415.250    4.848    0.162    0.408   86.923
  415.500    4.933    0.183    0.414   90.705
  415.750    5.011    0.202    0.420   91.740
  416.000    5.023    0.211    0.425   93.263
  416.250    5.101    0.213    0.429   95.641
  416.500    5.211    0.207    0.407   98.385
  416.750    5.233    0.204    0.392  101.739
  417.000    5.168    0.203    0.383  102.654
  417.250    4.972    0.198    0.388  103.811
  417.500    4.618    0.191    0.401  103.808
  417.750    4.241    0.191    0.414   96.047
  418.000    3.960    0.203    0.427   92.257
  418.250    3.510    0.213    0.428   92.009
  418.500    3.082    0.224    0.412   91.761
  418.750    2.564    0.237    0.415   91.941
  419.000    2.231    0.244    0.451   92.670
  419.250    2.000    0.251    0.488   93.766
  419.500    1.796    0.247    0.506   95.961
  419.750    1.790    0.244    0.515   99.316
  420.000    1.988    0.244    0.499  101.390
  420.250    2.310    0.258    0.485  102.669
  420.500    2.816    0.263    0.474   93.198
  420.750    3.339    0.260    0.469   85.560
  421.000    3.750    0.233    0.461   78.167
  421.250    4.197    0.218    0.447   82.316
  421.500    4.441    0.221    0.428   85.671
  421.750    4.494    0.227    0.418   87.133
  422.000    4.340    0.219    0.413   87.680
  422.250    4.129    0.238    0.431   87.797
  422.500    3.885    0.271    0.443   87.061
  422.750    3.815    0.257    0.443   84.860
  423.000    3.853    0.248    0.448   87.787
  423.250    4.201    0.225    0.443   90.532
  423.500    4.880    0.208    0.433   90.895
  423.750    5.615    0.185    0.424   84.418
  424.000    6.295    0.159    0.399   77.268
  424.250    6.941    0.151    0.358   78.486
  424.500    7.290    0.156    0.330   84.406
  424.750    6.821    0.160    0.356   89.228
  425.000    5.663    0.171    0.391   93.194
  425.250    4.738    0.185    0.419   96.488
  425.500    4.061    0.197    0.435   98.256
  425.750    3.757    0.211    0.446   94.221
  426.000    3.690    0.209    0.441   89.209
  426.250    3.713    0.197    0.430   89.390
  426.500    3.835    0.190    0.420   90.974
  426.750    3.837    0.189    0.421   92.436
  427.000    3.734    0.195    0.416   92.371
  427.250    3.533    0.191    0.411   94.811
  427.500    3.330    0.197    0.421   97.433
  427.750    3.092    0.207    0.427   98.346
  428.000    2.856    0.211    0.433   98.770
  428.250    2.768    0.211    0.444  100.843
  428.500    2.833    0.196    0.472  102.427
  428.750    2.904    0.182    0.491   98.697
  429.000    2.944    0.172    0.487   94.419
  429.250    2.913    0.194    0.488   94.721
  429.500    2.834    0.216    0.482   97.831
  429.750    2.752    0.212    0.490  100.027
  430.000    2.663    0.218    0.507  104.235
  430.250    2.567    0.228    0.512  105.088
  430.500    2.480    0.227    0.493  107.649
  430.750    2.439    0.223    0.484  108.807
  431.000    2.374    0.216    0.477  109.720
  431.250    2.310    0.174    0.481  102.204
  431.500    2.277    0.133    0.456  102.689
  431.750    2.240    0.155    0.461  109.159
  432.000    2.225    0.201    0.488  113.126
  432.250    2.226    0.217    0.504  114.893
  432.500    2.223    0.222    0.520  110.614
  432.750    2.258    0.230    0.530  109.939
  433.000    2.306    0.238    0.538  110.484
  433.250    2.496    0.231    0.510  110.237
  433.500    2.641    0.224    0.475  107.668
  433.750    2.884    0.219    0.467  103.389
