~VERSION INFORMATION
 VERS.                 2.0:   CWLS LOG ASCII STANDARD -VERSION 2.0
 WRAP.                  NO:   ONE LINE PER DEPTH STEP
~WELL INFORMATION BLOCK
#MNEM.UNIT           DATA                    DESCRIPTION OF MNEMONIC
#---------    -------------------            -------------------------------
# Generated from Intellog Unique Number	CS_71_72/WELL/799
WELL.         PEX PHILLIPS AEC GRIST         : Well_name    - WELL
LOC .         00/06-36-071-09W4/0            : Location     - LOCATION
UWI .         00/06-36-071-09W4/0            : Uwi          - UNIQUE WELL ID
ENTR.         SP                             : Entered      - ENTERED BY
SRVC.         SCHLUMBERGER                   : Scn          - SERVICE COMPANY
STRT.M        315                            : top_depth    - START DEPTH
STOP.M        540                            : bot_depth    - STOP DEPTH
STEP.M        0.25                           : increment    - STEP LENGTH
 NULL. -999.2500:NULL Value
~CURVE INFORMATION BLOCK
#MNEM UNIT       ERCB CURVE CODE    CURVE DESCRIPTION
#-----------   ------------------   ----------------------------------
DEPT.M        00 001 00 00         : DEPTH        - DEPTH
ILD .OHMM     00 120 00 00         : RESD         - DEEP RESISTIVITY (DIL)
DPHI.V/V      00 890 00 00         : PHID         - DENSITY POROSITY (LIMESTONE)
NPHI.V/V      00 330 00 00         : PHIN         - NEUTRON POROSITY (LIMESTONE)
GR  .API      00 310 00 00         : GR           - GAMMA RAY
~PARAMETER INFORMATION
#MNEM.UNIT           DATA             DESCRIPTION OF MNEMONIC
#---------         -----------     ------------------------------
GL  .M        679.91               : gl           - GROUND LEVEL ELEVATION
EREF.M        683.7                : kb           - ELEVATION OF DEPTH REFERENCE
DATM.M        679.91               : datum        - DATUM ELEVATION
TDD .M        544                  : tdd          - TOTAL DEPTH DRILLER
RUN .         ONE                  : Run          - RUN NUMBER
ENG .         BILL                 : Engineer     - RECORDING ENGINEER
WIT .         JIM                  : Witness      - WITNESSED BY
MUD .         GEL                  : Mud_type     - MUD TYPE
MATR.         LIMESTONE            : Logunit      - NEUTRON MATRIX
TMAX.C        24                   : BHT          - MAXIMUM RECORDED TEMPERATURE
BHTD.M        544                  : BHTDEP       - MAXIMUM RECORDED TEMPERATURE
MATR.         1                    : LOGUNIT      - NEUTRON MATRIX
RMT .C        25                   : MDTP         - TEMPERATURE OF MUD
NEUT.         1                    : NEUTRON      - NEUTRON TYPE
RESI.         0                    : RESIST       - RESISTIVITY TYPE
RMC .OHMM     0.25                 : RMC          - RESISTIVITY OF MUD CAKE
RMF .OHMM     0.25                 : RMF          - RESISTIVITY OF MUD FILTRATE
SUFT.C        15                   : SUFT         - SURFACE TEMPERATURE
~A  DEPTH     RESD     PHID     PHIN       GR
  315.000    2.533    0.265    0.541   95.250
  315.250    2.538    0.278    0.551   93.738
  315.500    2.558    0.287    0.562   90.454
  315.750    2.606    0.276    0.574   88.513
  316.000    2.671    0.270    0.585   86.512
  316.250    2.763    0.266    0.547   85.793
  316.500    2.826    0.251    0.536   89.713
  316.750    2.907    0.242    0.544   93.573
  317.000    2.984    0.247    0.491   95.908
  317.250    3.047    0.270    0.494   95.921
  317.500    3.064    0.284    0.510   93.616
  317.750    3.003    0.281    0.525   91.003
  318.000    2.909    0.251    0.541   89.245
  318.250    2.819    0.226    0.555   92.128
  318.500    2.763    0.217    0.544   95.011
  318.750    2.815    0.232    0.518   97.406
  319.000    2.890    0.242    0.524   98.826
  319.250    3.029    0.235    0.535   98.288
  319.500    3.168    0.218    0.545   92.807
  319.750    3.339    0.205    0.525   88.667
  320.000    3.460    0.223    0.528   90.758
  320.250    3.480    0.252    0.513   92.786
  320.500    3.372    0.273    0.525   92.616
  320.750    3.286    0.293    0.540   89.820
  321.000    3.541    0.316    0.560   88.246
  321.250    3.753    0.277    0.491   87.771
  321.500    3.846    0.254    0.504   92.123
  321.750    3.854    0.270    0.509   93.356
  322.000    3.812    0.287    0.512   89.033
  322.250    3.693    0.277    0.522   85.811
  322.500    3.592    0.241    0.531   83.628
  322.750    3.527    0.232    0.540   84.005
  323.000    3.514    0.237    0.550   88.537
  323.250    3.554    0.252    0.544   85.743
  323.500    3.589    0.272    0.521   85.634
  323.750    3.484    0.285    0.499   88.761
  324.000    3.550    0.292    0.492   88.775
  324.250    3.571    0.296    0.510   84.758
  324.500    3.512    0.305    0.533   86.970
  324.750    3.254    0.316    0.491   86.251
  325.000    3.147    0.315    0.483   82.786
  325.250    3.072    0.333    0.497   82.004
  325.500    3.084    0.337    0.526   85.010
  325.750    3.670    0.308    0.547   89.848
  326.000    3.882    0.293    0.565   93.158
  326.250    4.576    0.279    0.521   90.483
  326.500    5.225    0.442    0.510   77.002
  326.750    6.011    0.498    0.568   67.675
  327.000    6.514    0.534    0.611   74.282
  327.250    7.342    0.288    0.635   79.974
  327.500    8.370    0.226    0.444   84.200
  327.750    8.576    0.238    0.393   76.032
  328.000    8.954    0.268    0.371   62.613
  328.250    9.331    0.281    0.366   53.957
  328.500    9.671    0.289    0.372   52.993
  328.750    9.854    0.292    0.382   52.641
  329.000    9.837    0.293    0.390   50.823
  329.250    9.876    0.299    0.382   46.502
  329.500   10.008    0.309    0.381   41.691
  329.750   10.275    0.307    0.385   36.574
  330.000   10.490    0.313    0.393   32.314
  330.250   10.611    0.320    0.405   38.433
  330.500   10.614    0.311    0.413   40.095
  330.750   10.615    0.314    0.392   36.445
  331.000   10.657    0.319    0.380   33.345
  331.250   10.699    0.306    0.376   31.955
  331.500   10.721    0.297    0.372   31.299
  331.750   10.624    0.302    0.365   31.372
  332.000   10.430    0.301    0.372   32.361
  332.250    9.790    0.286    0.386   44.525
  332.500    9.629    0.268    0.387   56.627
  332.750    9.453    0.245    0.385   69.096
  333.000    9.160    0.231    0.392   79.674
  333.250    8.729    0.219    0.397   87.869
  333.500    8.648    0.208    0.416   92.705
  333.750    8.506    0.209    0.435   97.909
  334.000    8.620    0.232    0.450   94.383
  334.250    8.966    0.255    0.454   89.938
  334.500    9.326    0.265    0.441   86.716
  334.750    9.593    0.264    0.434   84.043
  335.000    9.812    0.245    0.414   82.593
  335.250    9.925    0.216    0.394   81.933
  335.500    9.945    0.211    0.420   83.716
  335.750    9.929    0.244    0.436   88.308
  336.000    9.729    0.273    0.438   85.818
  336.250    9.236    0.289    0.436   83.024
  336.500    8.509    0.265    0.414   87.738
  336.750    8.018    0.232    0.403   92.881
  337.000    7.583    0.207    0.418   96.374
  337.250    8.127    0.188    0.432   92.358
  337.500    8.990    0.160    0.437   81.137
  337.750    9.798    0.129    0.400   71.137
  338.000   10.462    0.226    0.385   60.587
  338.250   10.581    0.251    0.375   57.059
  338.500   11.006    0.238    0.359   65.745
  338.750   11.112    0.211    0.353   71.007
  339.000   11.011    0.261    0.378   70.289
  339.250   11.054    0.284    0.394   57.480
  339.500   11.181    0.295    0.409   47.114
  339.750   11.458    0.287    0.365   40.961
  340.000   11.742    0.281    0.343   36.273
  340.250   11.462    0.288    0.331   33.294
  340.500   10.193    0.250    0.333   38.130
  340.750    8.930    0.206    0.354   57.745
  341.000    8.001    0.183    0.393   70.213
  341.250    7.088    0.192    0.444   84.820
  341.500    6.187    0.164    0.482   94.908
  341.750    5.595    0.149    0.479  100.354
  342.000    5.213    0.179    0.476  101.223
  342.250    4.741    0.201    0.493  107.342
  342.500    4.401    0.221    0.505  110.652
  342.750    4.032    0.227    0.516  112.498
  343.000    3.715    0.216    0.523  112.206
  343.250    3.436    0.241    0.556  112.283
  343.500    3.166    0.262    0.575  113.027
  343.750    2.949    0.273    0.572  114.445
  344.000    2.989    0.293    0.563  114.885
  344.250    3.896    0.314    0.598  108.243
  344.500    4.893    0.299    0.621   91.710
  344.750    6.238    0.214    0.498   75.666
  345.000    8.133    0.205    0.472   72.382
  345.250    9.586    0.229    0.458   79.662
  345.500   10.467    0.241    0.455   84.683
  345.750   10.766    0.244    0.449   88.970
  346.000   10.688    0.239    0.447   92.953
  346.250   10.203    0.223    0.453   97.244
  346.500    8.922    0.200    0.458   99.573
  346.750    8.054    0.201    0.445  102.517
  347.000    7.365    0.201    0.436  105.583
  347.250    6.786    0.191    0.445  104.866
  347.500    6.148    0.217    0.445  103.291
  347.750    5.612    0.249    0.457  103.120
  348.000    5.171    0.228    0.480  103.927
  348.250    4.755    0.208    0.494  105.529
  348.500    4.497    0.198    0.492  107.557
  348.750    4.301    0.227    0.487  110.806
  349.000    4.278    0.254    0.493  113.994
  349.250    4.525    0.278    0.517  112.542
  349.500    5.445    0.301    0.533  102.970
  349.750    6.813    0.323    0.504   81.980
  350.000    8.166    0.337    0.421   65.690
  350.250    9.360    0.344    0.399   59.720
  350.500   10.451    0.336    0.396   74.998
  350.750   11.055    0.335    0.399   84.232
  351.000   11.435    0.343    0.396   72.766
  351.250   11.653    0.337    0.394   66.857
  351.500   11.830    0.334    0.397   69.069
  351.750   11.877    0.329    0.402   73.357
  352.000   11.725    0.312    0.409   78.621
  352.250   11.383    0.281    0.420   83.886
  352.500   10.665    0.261    0.430   87.439
  352.750   10.012    0.247    0.446   87.453
  353.000    9.738    0.266    0.470   86.367
  353.250    9.667    0.275    0.451   88.151
  353.500    9.760    0.281    0.411   79.007
  353.750   10.171    0.284    0.384   72.121
  354.000   10.738    0.270    0.376   68.287
  354.250   11.317    0.258    0.377   70.805
  354.500   11.750    0.249    0.379   70.269
  354.750   12.040    0.273    0.380   69.121
  355.000   12.201    0.287    0.395   71.639
  355.250   12.272    0.292    0.409   71.835
  355.500   12.297    0.292    0.419   69.163
  355.750   12.277    0.302    0.426   65.819
  356.000   12.211    0.295    0.422   63.938
  356.250   12.078    0.274    0.374   68.044
  356.500   11.616    0.256    0.361   80.878
  356.750   10.723    0.277    0.439   92.431
  357.000    9.715    0.233    0.422   97.879
  357.250    8.951    0.209    0.406   98.199
  357.500    8.418    0.237    0.420   96.868
  357.750    8.264    0.260    0.443   95.293
  358.000    8.220    0.285    0.443   88.957
  358.250    8.237    0.284    0.400   88.544
