~VERSION INFORMATION
 VERS.                 2.0:   CWLS LOG ASCII STANDARD -VERSION 2.0
 WRAP.                  NO:   ONE LINE PER DEPTH STEP
~WELL INFORMATION BLOCK
#MNEM.UNIT           DATA                    DESCRIPTION OF MNEMONIC
#---------    -------------------            -------------------------------
# Generated from Intellog Unique Number	CS_77_79/WELL/855
WELL.         CWWE HARDY                     : Well_name    - WELL
LOC .         00/05-15-078-04W4/0            : Location     - LOCATION
UWI .         00/05-15-078-04W4/0            : Uwi          - UNIQUE WELL ID
ENTR.         JHS                            : Entered      - ENTERED BY
SRVC.         SCHLUMBERGER                   : Scn          - SERVICE COMPANY
STRT.M        140                            : top_depth    - START DEPTH
STOP.M        405                            : bot_depth    - STOP DEPTH
STEP.M        0.25                           : increment    - STEP LENGTH
 NULL. -999.2500:NULL Value
~CURVE INFORMATION BLOCK
#MNEM UNIT       ERCB CURVE CODE    CURVE DESCRIPTION
#-----------   ------------------   ----------------------------------
DEPT.M        00 001 00 00         : DEPTH        - DEPTH
DPHI.V/V      00 890 00 00         : PHID         - DENSITY POROSITY (LIMESTONE)
NPHI.V/V      00 330 00 00         : PHIN         - NEUTRON POROSITY (LIMESTONE)
GR  .API      00 310 00 00         : GR           - GAMMA RAY
ILD .OHMM     00 120 00 00         : RESD         - DEEP RESISTIVITY (DIL)
RHOB.KG/M3    00 350 00 00         : DENS         - BULK DENSITY
~PARAMETER INFORMATION
#MNEM.UNIT           DATA             DESCRIPTION OF MNEMONIC
#---------         -----------     ------------------------------
GL  .M        562.55               : gl           - GROUND LEVEL ELEVATION
EREF.M        566.5                : kb           - ELEVATION OF DEPTH REFERENCE
DATM.M        566.5                : datum        - DATUM ELEVATION
TDD .M        420                  : tdd          - TOTAL DEPTH DRILLER
RUN .         ONE                  : Run          - RUN NUMBER
ENG .         BILL                 : Engineer     - RECORDING ENGINEER
WIT .         JIM                  : Witness      - WITNESSED BY
MUD .         GEL                  : Mud_type     - MUD TYPE
MATR.         LIMESTONE            : Logunit      - NEUTRON MATRIX
TMAX.C        23                   : BHT          - MAXIMUM RECORDED TEMPERATURE
BHTD.M        420                  : BHTDEP       - MAXIMUM RECORDED TEMPERATURE
MATR.         1                    : LOGUNIT      - NEUTRON MATRIX
RMT .C        25                   : MDTP         - TEMPERATURE OF MUD
NEUT.         1                    : NEUTRON      - NEUTRON TYPE
RESI.         0                    : RESIST       - RESISTIVITY TYPE
RMC .OHMM     0.25                 : RMC          - RESISTIVITY OF MUD CAKE
RMF .OHMM     0.25                 : RMF          - RESISTIVITY OF MUD FILTRATE
SUFT.C        15                   : SUFT         - SURFACE TEMPERATURE
~A  DEPTH     PHID     PHIN       GR     RESD     DENS
# ...
  286.000    0.234    0.491  101.649    5.248    0.000
  286.250    0.231    0.509  104.810    4.963    0.000
  286.500    0.227    0.521  107.973    4.523    0.000
  286.750    0.241    0.526  108.629    4.358    0.000
  287.000    0.254    0.531  106.176    3.970    0.000
  287.250    0.262    0.526  108.706    3.755    0.000
  287.500    0.251    0.511  111.864    3.294    0.000
  287.750    0.246    0.497  114.407    3.175    0.000
  288.000    0.265    0.469  111.941    3.119    0.000
  288.250    0.301    0.443  103.228    3.305    0.000
  288.500    0.306    0.423   93.265    3.501    0.000
  288.750    0.293    0.427   92.056    4.233    0.000
  289.000    0.297    0.437   97.722    4.836 2202.040
  289.250    0.299    0.432   97.753    5.524 2197.910
  289.500    0.248    0.386   86.543    6.311 2286.690
  289.750    0.170    0.351   74.081    7.488 2419.780
  290.000    0.130    0.324   69.116    8.393 2487.460
  290.250    0.118    0.310   71.029    9.771 2508.700
  290.500    0.145    0.348   81.700   11.380 2462.380
  290.750    0.283    0.414   85.475   11.607 2226.090
  291.000    0.298    0.462   86.136   11.189 2200.900
  291.250    0.290    0.474   83.683   10.384 2213.700
  291.500    0.264    0.484   90.596    8.773 2258.150
  291.750    0.243    0.462   94.998    7.696 2294.140
  292.000    0.217    0.437  100.665    7.279 2338.610
  292.250    0.208    0.443  100.697    6.887 2353.510
  292.500    0.205    0.447   95.738    6.766 2359.970
  292.750    0.206    0.438   92.030    6.773 2357.990
  293.000    0.212    0.423   91.431    6.779 2347.570
  293.250    0.227    0.427   94.600    7.048 2322.370
  293.500    0.228    0.457   94.018    7.189 2320.350
  293.750    0.222    0.466   92.793    7.333 2331.050
  294.000    0.217    0.451   91.586    7.481 2339.620
  294.250    0.215    0.433   91.621    7.350 2341.900
  294.500    0.218    0.420   92.296    7.221 2337.760
  294.750    0.221    0.411   92.942    7.096 2331.520
  295.000    0.232    0.400   94.230    7.101 2312.650
  295.250    0.259    0.385   96.147    7.106 2266.350
  295.500    0.249    0.385   97.427    7.249 2283.370
  295.750    0.228    0.394   98.715    7.397 2319.380
  296.000    0.218    0.404   95.018    7.406 2336.380
  296.250    0.222    0.413   91.923    7.273 2330.200
  296.500    0.258    0.422   88.826    7.144 2269.080
  296.750    0.266    0.411   90.116    6.759 2254.430
  297.000    0.240    0.400   95.785    6.394 2298.880
  297.250    0.233    0.400   97.070    5.825 2311.700
  297.500    0.227    0.420   98.355    5.206 2322.370
  297.750    0.218    0.444   99.012    4.397 2337.270
  298.000    0.227    0.465   90.929    3.317 2322.630
  298.250    0.278    0.478   87.217    2.964 2234.070
  298.500    0.297    0.508   89.751    2.504 2202.550
  298.750    0.279    0.526   92.913    2.282 2232.230
  299.000    0.273    0.497   91.074    2.199 2242.890
  299.250    0.287    0.508   85.501    2.121 2219.830
  299.500    0.300    0.524   84.896    2.122 2196.730
  299.750    0.305    0.531   84.943    2.125 2188.400
  300.000    0.289    0.521   90.248    2.251 2215.980
  300.250    0.279    0.512   94.013    2.298 2232.950
  300.500    0.272    0.500   94.661    2.345 2245.710
  300.750    0.278    0.481   95.313    2.437 2235.270
  301.000    0.284    0.473   94.096    2.786 2224.790
  301.250    0.280    0.473   91.635    3.006 2231.230
  301.500    0.247    0.454   91.040    3.371 2288.330
  301.750    0.229    0.445   92.938    3.851 2317.960
  302.000    0.224    0.443   91.723    4.319 2326.520
  302.250    0.233    0.409   89.256    4.843 2311.820
  302.500    0.240    0.383   87.420    5.229 2299.260
  302.750    0.203    0.369   84.961    5.646 2362.690
  303.000    0.189    0.372   84.984    5.981 2385.990
  303.250    0.203    0.391   91.241    6.218 2362.880
  303.500    0.235    0.412   95.008    6.109 2308.080
  303.750    0.245    0.407   97.515    5.779 2291.280
  304.000    0.223    0.405  102.525    5.072 2329.380
  304.250    0.220    0.411  101.931    4.708 2333.700
  304.500    0.229    0.422   96.358    4.210 2319.020
  304.750    0.232    0.430   94.518    3.908 2312.770
  305.000    0.238    0.435   98.905    3.769 2302.310
  305.250    0.231    0.451  103.911    3.633 2315.080
  305.500    0.225    0.446  107.053    3.438 2325.720
  305.750    0.226    0.439  107.081    3.314 2323.710
  306.000    0.227    0.442  105.861    3.256 2321.690
  306.250    0.217    0.504  106.511    3.139 2338.680
  306.500    0.224    0.516  107.784    3.086 2326.120
  306.750    0.231    0.487  105.328    3.089 2315.650
  307.000    0.237    0.455  102.248    3.150 2305.200
  307.250    0.239    0.442  101.023    3.276 2301.090
  307.500    0.243    0.425   96.697    3.537 2294.840
  307.750    0.249    0.406   91.741    4.042 2284.390
  308.000    0.246    0.397   89.912    4.531 2288.690
  308.250    0.233    0.403   91.176    5.180 2312.020
  308.500    0.231    0.413   96.814    5.282 2314.220
  308.750    0.238    0.418   99.946    5.388 2303.750
  309.000    0.239    0.419  101.220    5.396 2301.730
  309.250    0.228    0.408   96.266    5.614 2320.850
  309.500    0.213    0.381   88.826    5.944 2346.250
  309.750    0.187    0.356   83.252    6.541 2390.690
  310.000    0.194    0.343   88.882    7.062 2378.110
  310.250    0.216    0.336   83.931    7.771 2340.210
  310.500    0.163    0.329   68.401    8.549 2431.070
  310.750    0.121    0.320   60.340    9.056 2502.950
  311.000    0.093    0.296   62.234    9.966 2551.590
  311.250    0.198    0.284   74.707   10.758 2372.250
  311.500    0.253    0.275   79.104   12.295 2277.350
  311.750    0.332    0.273   78.507   13.276 2142.350
  312.000    0.347    0.269   78.539   13.541 2117.120
  312.250    0.313    0.276   79.182   11.228 2174.210
  312.500    0.276    0.298   80.457    9.484 2237.630
  312.750    0.263    0.319   80.481    7.155 2260.950
  313.000    0.275    0.335   76.151    5.399 2239.940
  313.250    0.285    0.365   76.180    4.561 2223.170
  313.500    0.276    0.386   97.991    4.156 2238.020
  313.750    0.260    0.388   99.266    4.243 2265.560
  314.000    0.276    0.366   82.485    4.409 2238.210
  314.250    0.307    0.340   74.424    4.851 2185.520
  314.500    0.331    0.310   75.079    5.437 2143.400
  314.750    0.325    0.279   86.928    6.451 2154.040
  315.000    0.265    0.286   96.913    7.800 2257.600
  315.250    0.242    0.315  100.677    8.112 2295.680
  315.500    0.218    0.334  100.086    7.969 2337.990
  315.750    0.200    0.337   95.760    7.830 2367.650
  316.000    0.193    0.333   96.413    8.145 2380.390
  316.250    0.191    0.324   96.440    8.628 2382.640
  316.500    0.201    0.309   92.105    9.314 2365.830
  316.750    0.221    0.291   82.175   10.443 2332.130
  317.000    0.244    0.274   74.731   12.158 2292.120
  317.250    0.255    0.252   69.784   15.857 2273.220
  317.500    0.279    0.218   59.855   18.810 2233.210
  317.750    0.323    0.189   56.145   23.175 2157.300
  318.000    0.340    0.152   59.289   30.224 2127.890
  318.250    0.339    0.140   66.169   37.956 2130.050
  318.500    0.332    0.135   67.436   43.362 2142.820
  318.750    0.338    0.132   68.088   47.719 2132.370
  319.000    0.354    0.125   64.379   49.605 2105.020
  319.250    0.366    0.125   58.186   51.585 2083.990
  319.500    0.357    0.135   58.218   52.632 2098.860
  319.750    0.343    0.141   58.235   52.714 2124.300
  320.000    0.352    0.135   55.155   52.742 2107.500
  320.250    0.361    0.128   50.829   54.844 2092.840
  320.500    0.356    0.124   48.362   55.962 2101.370
  320.750    0.355    0.124   46.526   58.195 2103.570
  321.000    0.364    0.122   45.311   58.252 2086.790
  321.250    0.371    0.116   42.227   57.226 2076.330
  321.500    0.374    0.104   48.483   54.141 2070.090
  321.750    0.369    0.098   52.237   51.224 2078.620
  322.000    0.354    0.101   53.510   47.577 2104.050
  322.250    0.344    0.132   51.675   45.851 2121.020
