~VERSION INFORMATION
 VERS.                 2.0:   CWLS LOG ASCII STANDARD -VERSION 2.0
 WRAP.                  NO:   ONE LINE PER DEPTH STEP
~WELL INFORMATION BLOCK
#MNEM.UNIT           DATA                    DESCRIPTION OF MNEMONIC
#---------    -------------------            -------------------------------
# Generated from Intellog Unique Number	CS_69_70/WELL/852
WELL.         HUSKEY OIL OPERATIONS          : Well_name    - WELL
LOC .         00/07-04-069-05W4/0            : Location     - LOCATION
UWI .         00/07-04-069-05W4/0            : Uwi          - UNIQUE WELL ID
ENTR.         SP                             : Entered      - ENTERED BY
SRVC.         SCHLUMBERGER                   : Scn          - SERVICE COMPANY
STRT.M        315                            : top_depth    - START DEPTH
STOP.M        555                            : bot_depth    - STOP DEPTH
STEP.M        0.25                           : increment    - STEP LENGTH
 NULL. -999.2500:NULL Value
~CURVE INFORMATION BLOCK
#MNEM UNIT       ERCB CURVE CODE    CURVE DESCRIPTION
#-----------   ------------------   ----------------------------------
DEPT.M        00 001 00 00         : DEPTH        - DEPTH
ILD .OHMM     00 120 00 00         : RESD         - DEEP RESISTIVITY (DIL)
DPHI.V/V      00 890 00 00         : PHID         - DENSITY POROSITY (LIMESTONE)
NPHI.V/V      00 330 00 00         : PHIN         - NEUTRON POROSITY (LIMESTONE)
GR  .API      00 310 00 00         : GR           - GAMMA RAY
~PARAMETER INFORMATION
#MNEM.UNIT           DATA             DESCRIPTION OF MNEMONIC
#---------         -----------     ------------------------------
GL  .M        680.2                : gl           - GROUND LEVEL ELEVATION
EREF.M        683.8                : kb           - ELEVATION OF DEPTH REFERENCE
DATM.M        680.2                : datum        - DATUM ELEVATION
TDD .M        564                  : tdd          - TOTAL DEPTH DRILLER
RUN .         ONE                  : Run          - RUN NUMBER
ENG .         BILL                 : Engineer     - RECORDING ENGINEER
WIT .         JIM                  : Witness      - WITNESSED BY
MUD .         GEL                  : Mud_type     - MUD TYPE
MATR.         LIMESTONE            : Logunit      - NEUTRON MATRIX
TMAX.C        32                   : BHT          - MAXIMUM RECORDED TEMPERATURE
BHTD.M        564                  : BHTDEP       - MAXIMUM RECORDED TEMPERATURE
MATR.         1                    : LOGUNIT      - NEUTRON MATRIX
RMT .C        25                   : MDTP         - TEMPERATURE OF MUD
NEUT.         1                    : NEUTRON      - NEUTRON TYPE
RESI.         0                    : RESIST       - RESISTIVITY TYPE
RMC .OHMM     0.25                 : RMC          - RESISTIVITY OF MUD CAKE
RMF .OHMM     0.25                 : RMF          - RESISTIVITY OF MUD FILTRATE
SUFT.C        15                   : SUFT         - SURFACE TEMPERATURE
~A  DEPTH     RESD     PHID     PHIN       GR
# ...
  358.500    7.030    0.231    0.397   82.833
  358.750    6.812    0.220    0.412   89.989
  359.000    6.613    0.210    0.422   91.785
  359.250    6.361    0.200    0.430   94.667
  359.500    6.221    0.209    0.450  101.278
  359.750    6.074    0.219    0.463  105.965
  360.000    5.908    0.226    0.470  109.147
  360.250    5.833    0.232    0.490  111.004
  360.500    5.716    0.232    0.507  109.310
  360.750    5.622    0.234    0.497  108.339
  361.000    5.561    0.240    0.480  107.969
  361.250    5.553    0.231    0.482  107.599
  361.500    5.618    0.224    0.488  106.566
  361.750    5.737    0.226    0.486  104.151
  362.000    6.152    0.233    0.479   96.920
  362.250    6.658    0.238    0.463   91.132
  362.500    7.709    0.233    0.439   84.623
  362.750    8.727    0.207    0.345   76.909
  363.000    9.788    0.104    0.308   69.980
  363.250    9.610    0.148    0.375   85.681
  363.500    8.737    0.188    0.420  108.726
  363.750    7.944    0.230    0.460  107.092
  364.000    7.512    0.238    0.491  100.523
  364.250    7.184    0.243    0.487   96.602
  364.500    6.870    0.250    0.464   94.245
  364.750    6.657    0.249    0.453   94.657
  365.000    6.487    0.249    0.463   95.431
  365.250    6.381    0.249    0.455   96.687
  365.500    6.408    0.248    0.447   97.581
  365.750    6.482    0.243    0.455   98.055
  366.000    6.632    0.251    0.451   97.926
  366.250    6.914    0.264    0.437   93.281
  366.500    7.141    0.267    0.419   88.218
  366.750    7.388    0.262    0.405   83.574
  367.000    7.588    0.262    0.395   80.917
  367.250    7.807    0.273    0.396   81.270
  367.500    7.854    0.272    0.413   83.549
  367.750    7.872    0.268    0.426   86.668
  368.000    7.860    0.272    0.412   88.528
  368.250    7.848    0.279    0.406   90.866
  368.500    7.866    0.277    0.401   92.181
  368.750    7.884    0.279    0.414   92.052
  369.000    7.886    0.280    0.425   91.623
  369.250    7.845    0.271    0.432   90.049
  369.500    7.731    0.275    0.437   85.948
  369.750    7.477    0.285    0.422   82.146
  370.000    7.044    0.281    0.432   84.606
  370.250    6.724    0.262    0.456   90.737
  370.500    6.467    0.255    0.472   94.040
  370.750    6.397    0.261    0.466   87.288
  371.000    6.484    0.270    0.478   90.772
  371.250    6.647    0.277    0.487   94.014
  371.500    6.916    0.264    0.494   93.343
  371.750    7.197    0.256    0.500   87.315
  372.000    7.363    0.264    0.479   82.010
  372.250    7.519    0.295    0.453   75.560
  372.500    7.564    0.314    0.417   70.075
  372.750    7.553    0.310    0.393   65.552
  373.000    7.485    0.309    0.391   63.617
  373.250    7.418    0.320    0.416   59.996
  373.500    7.393    0.304    0.420   55.895
  373.750    7.397    0.292    0.403   54.081
  374.000    7.427    0.311    0.398   56.179
  374.250    7.444    0.326    0.415   60.324
  374.500    7.488    0.332    0.422   65.069
  374.750    7.490    0.332    0.431   68.733
  375.000    7.479    0.329    0.426   68.544
  375.250    7.440    0.325    0.438   65.285
  375.500    7.169    0.318    0.446   66.600
  375.750    6.946    0.302    0.444   71.347
  376.000    6.782    0.288    0.437   76.093
  376.250    6.746    0.280    0.433   77.710
  376.500    6.787    0.273    0.436   77.341
  376.750    6.802    0.261    0.442   75.105
  377.000    6.792    0.266    0.448   73.229
  377.250    6.794    0.290    0.445   72.921
  377.500    6.785    0.305    0.432   76.043
  377.750    6.787    0.307    0.422   81.751
  378.000    6.828    0.306    0.422   84.753
  378.250    6.856    0.301    0.429   79.386
  378.500    6.949    0.293    0.455   73.298
  378.750    7.056    0.301    0.477   70.221
  379.000    7.125    0.313    0.447   75.207
  379.250    7.168    0.304    0.421   76.945
  379.500    7.198    0.305    0.434   77.597
  379.750    7.242    0.300    0.429   77.468
  380.000    7.326    0.290    0.428   78.244
  380.250    7.440    0.283    0.429   80.341
  380.500    7.527    0.301    0.415   82.379
  380.750    7.600    0.315    0.428   83.756
  381.000    7.674    0.328    0.465   82.181
  381.250    7.706    0.308    0.454   72.302
  381.500    7.781    0.319    0.443   63.685
  381.750    7.828    0.327    0.434   60.909
  382.000    7.876    0.333    0.426   60.960
  382.250    7.894    0.334    0.421   59.264
  382.500    7.926    0.340    0.438   58.654
  382.750    7.899    0.343    0.447   59.008
  383.000    7.887    0.336    0.442   61.769
  383.250    7.787    0.332    0.437   63.987
  383.500    7.688    0.333    0.457   63.617
  383.750    7.534    0.335    0.469   63.848
  384.000    7.342    0.335    0.471   64.742
  384.250    7.114    0.331    0.470   65.397
  384.500    6.932    0.319    0.472   65.028
  384.750    6.845    0.307    0.458   61.285
  385.000    6.873    0.306    0.427   58.629
  385.250    6.953    0.312    0.387   56.635
  385.500    7.061    0.321    0.382   57.830
  385.750    7.170    0.329    0.386   60.169
  386.000    7.322    0.333    0.391   59.558
  386.250    7.464    0.341    0.397   55.337
  386.500    7.579    0.346    0.403   50.453
  386.750    7.682    0.337    0.402   46.231
  387.000    7.816    0.328    0.405   48.327
  387.250    7.937    0.323    0.409   50.186
  387.500    8.014    0.329    0.410   51.140
  387.750    8.109    0.337    0.418   50.891
  388.000    8.157    0.344    0.431   49.679
  388.250    8.207    0.348    0.424   48.828
  388.500    8.271    0.344    0.418   47.976
  388.750    8.305    0.342    0.414   47.607
  389.000    8.355    0.340    0.412   47.597
  389.250    8.405    0.338    0.420   47.588
  389.500    8.408    0.342    0.418   47.579
  389.750    8.411    0.339    0.403   47.512
  390.000    8.383    0.340    0.394   47.563
  390.250    8.386    0.340    0.401   47.675
  390.500    8.405    0.337    0.391   47.968
  390.750    8.392    0.333    0.394   48.381
  391.000    8.395    0.334    0.409   48.551
  391.250    8.414    0.335    0.410   48.002
  391.500    8.434    0.328    0.396   50.221
  391.750    8.468    0.321    0.400   55.027
  392.000    8.471    0.330    0.406   57.607
  392.250    8.490    0.344    0.415   56.515
  392.500    8.493    0.346    0.421   52.833
  392.750    8.465    0.343    0.412   52.284
  393.000    8.453    0.344    0.402   53.359
  393.250    8.424    0.344    0.395   54.434
  393.500    8.396    0.342    0.391   54.666
  393.750    8.383    0.338    0.398   53.935
  394.000    8.339    0.336    0.405   52.180
  394.250    8.341    0.345    0.411   51.150
  394.500    8.298    0.352    0.413   50.238
  394.750    8.316    0.349    0.404   50.109
  395.000    8.351    0.342    0.406   51.184
  395.250    8.354    0.341    0.418   52.198
  395.500    8.388    0.342    0.431   53.213
  395.750    8.391    0.337    0.425   54.048
  396.000    8.410    0.333    0.411   55.002
  396.250    8.413    0.333    0.395   55.233
  396.500    8.416    0.344    0.388   54.985
  396.750    8.404    0.344    0.402   54.435
  397.000    8.391    0.336    0.406   54.665
  397.250    8.379    0.331    0.412   55.621
  397.500    8.335    0.338    0.415   57.177
  397.750    8.338    0.344    0.416   58.674
  398.000    8.325    0.349    0.426   56.679
  398.250    8.282    0.352    0.438   49.868
  398.500    8.238    0.353    0.427   44.382
  398.750    8.210    0.347    0.418   47.503
  399.000    8.198    0.345    0.411   51.107
  399.250    8.201    0.343    0.410   52.482
  399.500    8.189    0.341    0.410   51.511
  399.750    8.146    0.340    0.408   49.214
  400.000    8.134    0.343    0.407   49.266
  400.250    8.091    0.349    0.405   50.040
  400.500    8.094    0.351    0.412   50.874
  400.750    8.052    0.352    0.419   51.046
  401.000    8.009    0.351    0.413   49.773
  401.250    7.937    0.350    0.415   47.959
  401.500    7.911    0.352    0.417   45.603
  401.750    7.840    0.353    0.416   43.187
