~VERSION INFORMATION
 VERS.                 2.0:   CWLS LOG ASCII STANDARD -VERSION 2.0
 WRAP.                  NO:   ONE LINE PER DEPTH STEP
~WELL INFORMATION BLOCK
#MNEM.UNIT           DATA                    DESCRIPTION OF MNEMONIC
#---------    -------------------            -------------------------------
# Generated from Intellog Unique Number	CS_69_70/WELL/769
WELL.         INTER-CITY CITY GAS            : Well_name    - WELL
LOC .         00/06-08-070-16W4/0            : Location     - LOCATION
UWI .         00/06-08-070-16W4/0            : Uwi          - UNIQUE WELL ID
ENTR.         SP                             : Entered      - ENTERED BY
SRVC.         SCHLUMBERGER                   : Scn          - SERVICE COMPANY
STRT.M        285                            : top_depth    - START DEPTH
STOP.M        485                            : bot_depth    - STOP DEPTH
STEP.M        0.25                           : increment    - STEP LENGTH
 NULL. -999.2500:NULL Value
~CURVE INFORMATION BLOCK
#MNEM UNIT       ERCB CURVE CODE    CURVE DESCRIPTION
#-----------   ------------------   ----------------------------------
DEPT.M        00 001 00 00         : DEPTH        - DEPTH
ILD .OHMM     00 120 00 00         : RESD         - DEEP RESISTIVITY (DIL)
DPHI.V/V      00 890 00 00         : PHID         - DENSITY POROSITY (LIMESTONE)
NPHI.V/V      00 330 00 00         : PHIN         - NEUTRON POROSITY (LIMESTONE)
GR  .API      00 310 00 00         : GR           - GAMMA RAY
~PARAMETER INFORMATION
#MNEM.UNIT           DATA             DESCRIPTION OF MNEMONIC
#---------         -----------     ------------------------------
GL  .M        569.4                : gl           - GROUND LEVEL ELEVATION
EREF.M        573                  : kb           - ELEVATION OF DEPTH REFERENCE
DATM.M        569.4                : datum        - DATUM ELEVATION
TDD .M        493.5                : tdd          - TOTAL DEPTH DRILLER
RUN .         ONE                  : Run          - RUN NUMBER
ENG .         BILL                 : Engineer     - RECORDING ENGINEER
WIT .         JIM                  : Witness      - WITNESSED BY
MUD .         GEL                  : Mud_type     - MUD TYPE
MATR.         LIMESTONE            : Logunit      - NEUTRON MATRIX
TMAX.C        22.5                 : BHT          - MAXIMUM RECORDED TEMPERATURE
BHTD.M        493.5                : BHTDEP       - MAXIMUM RECORDED TEMPERATURE
MATR.         1                    : LOGUNIT      - NEUTRON MATRIX
RMT .C        25                   : MDTP         - TEMPERATURE OF MUD
NEUT.         1                    : NEUTRON      - NEUTRON TYPE
RESI.         0                    : RESIST       - RESISTIVITY TYPE
RMC .OHMM     0.25                 : RMC          - RESISTIVITY OF MUD CAKE
RMF .OHMM     0.25                 : RMF          - RESISTIVITY OF MUD FILTRATE
SUFT.C        15                   : SUFT         - SURFACE TEMPERATURE
~A  DEPTH     RESD     PHID     PHIN       GR
# ...
  459.000    8.274    0.166    0.363   80.419
  459.250    8.864    0.172    0.376   82.241
  459.500   11.373    0.169    0.387   83.398
  459.750   16.816    0.175    0.399   82.014
  460.000   30.984    0.193    0.406   67.881
  460.250   42.129    0.222    0.373   54.774
  460.500   51.666    0.263    0.347   31.936
  460.750   49.566    0.287    0.349   26.869
  461.000   46.971    0.295    0.353   30.202
  461.250   44.209    0.284    0.342   34.139
  461.500   41.217    0.268    0.350   39.529
  461.750   38.387    0.271    0.367   42.739
  462.000   36.183    0.283    0.379   47.341
  462.250   33.589    0.288    0.387   51.460
  462.500   30.687    0.291    0.402   55.097
  462.750   28.649    0.287    0.408   58.310
  463.000   13.948    0.278    0.401   61.401
  463.250    9.725    0.265    0.399   67.028
  463.500    8.340    0.223    0.398   78.822
  463.750    7.616    0.191    0.398   84.693
  464.000    7.198    0.172    0.352   88.631
  464.250    6.845    0.172    0.354   85.559
  464.500    6.564    0.185    0.350   83.209
  464.750    6.292    0.194    0.365   90.954
  465.000    6.075    0.180    0.375   98.457
  465.250    5.996    0.167    0.377  104.329
  465.500    6.022    0.157    0.383  108.689
  465.750    6.080    0.143    0.390  110.692
  466.000    6.146    0.150    0.397  108.344
  466.250    6.220    0.160    0.381  100.012
  466.500    6.326    0.174    0.360   89.263
  466.750    6.384    0.181    0.342   85.283
  467.000    6.506    0.166    0.324   88.316
  467.250    6.628    0.158    0.327   89.230
  467.500    6.855    0.154    0.336   88.875
  467.750    7.502    0.153    0.340   84.049
  468.000    8.446    0.151    0.337   80.070
  468.250    9.593    0.146    0.336   77.963
  468.500   10.755    0.139    0.337   75.917
  468.750   11.990    0.131    0.343   71.454
  469.000   11.556    0.131    0.352   65.841
  469.250    8.921    0.141    0.356   60.470
  469.500    7.560    0.138    0.351   65.012
  469.750    6.715    0.132    0.363   83.817
  470.000    6.104    0.126    0.392  101.293
  470.250    5.621    0.121    0.413  105.955
  470.500    5.809    0.135    0.425  105.603
  470.750    6.100    0.150    0.424  102.347
  471.000    6.569    0.138    0.379   95.767
  471.250    6.933    0.129    0.328   89.673
  471.500    7.225    0.122    0.317   93.791
  471.750    7.436    0.128    0.328   95.311
  472.000    7.445    0.138    0.330   85.589
  472.250    7.245    0.124    0.323   77.680
  472.500    7.005    0.127    0.320   70.981
  472.750    6.668    0.132    0.342   65.791
  473.000    6.355    0.137    0.381   59.454
  473.250    6.122    0.184    0.401   46.590
  473.500    6.043    0.228    0.409   39.830
  473.750    6.343    0.268    0.390   45.278
  474.000    6.997    0.272    0.378   51.753
  474.250    7.861    0.279    0.376   57.928
  474.500    9.394    0.288    0.381   61.623
  474.750   10.831    0.272    0.383   64.533
  475.000   11.808    0.268    0.375   65.327
  475.250   11.680    0.268    0.368   67.210
  475.500   10.577    0.263    0.362   69.515
  475.750    9.853    0.263    0.361   73.695
  476.000    9.000    0.264    0.365   81.862
  476.250    8.356    0.256    0.366  114.628
  476.500    7.656    0.196    0.344  120.983
  476.750    7.190    0.169    0.327  123.289
  477.000    6.780    0.148    0.319  123.418
  477.250    6.790    0.139    0.321  119.439
  477.500    6.622    0.137    0.332  114.794
  477.750    6.317    0.139    0.340  110.693
  478.000    6.125    0.143    0.336  106.289
  478.250    5.925    0.148    0.329   96.749
  478.500    5.676    0.140    0.321   92.105
  478.750    5.460    0.131    0.324   90.541
  479.000    5.325    0.165    0.334   92.545
  479.250    5.294    0.155    0.343   93.823
  479.500    5.384    0.150    0.339   94.073
  479.750    5.506    0.146    0.331  101.455
  480.000    5.903    0.135    0.331  109.201
  480.250    6.081    0.128    0.357  113.923
  480.500    6.454    0.149    0.372  109.883
  480.750    6.673    0.137    0.366  104.271
  481.000    6.965    0.131    0.353   98.238
  481.250    7.111    0.128    0.344   94.800
  481.500    7.096    0.135    0.345   92.451
  481.750    6.823    0.135    0.328   90.042
  482.000    6.583    0.119    0.313   93.255
  482.250    6.488    0.146    0.316   98.340
  482.500    6.408    0.169    0.321  101.734
  482.750    6.370    0.166    0.327  103.253
  483.000    6.347    0.159    0.343   93.532
  483.250    6.324    0.160    0.335   56.975
  483.500    6.253    0.166    0.320   19.633
  483.750    6.126    0.152    0.311   14.141
  484.000    6.014    0.177    0.321   11.974
  484.250    5.951    0.181    0.336   11.380
  484.500    5.936    0.176    0.349   11.269
  484.750    6.058    0.149    0.346   11.034
  485.000    6.221    0.140    0.337   11.164
