~VERSION INFORMATION
 VERS.                 2.0:   CWLS LOG ASCII STANDARD -VERSION 2.0
 WRAP.                  NO:   ONE LINE PER DEPTH STEP
~WELL INFORMATION BLOCK
#MNEM.UNIT           DATA                    DESCRIPTION OF MNEMONIC
#---------    -------------------            -------------------------------
# Generated from Intellog Unique Number	CW_79_81/WELL/502
WELL.         06-16-079-21W4                 : Well_name    - WELL
LOC .         00/06-16-079-21W4/0            : Location     - LOCATION
UWI .         00/06-16-079-21W4/0            : Uwi          - UNIQUE WELL ID
ENTR.         MAX                            : Entered      - ENTERED BY
SRVC.         SCHLUMBERGER                   : Scn          - SERVICE COMPANY
STRT.M        195                            : top_depth    - START DEPTH
STOP.M        425                            : bot_depth    - STOP DEPTH
STEP.M        0.25                           : increment    - STEP LENGTH
 NULL. -999.2500:NULL Value
~CURVE INFORMATION BLOCK
#MNEM UNIT       ERCB CURVE CODE    CURVE DESCRIPTION
#-----------   ------------------   ----------------------------------
DEPT.M        00 001 00 00         : DEPTH        - DEPTH
ILD .OHMM     00 120 00 00         : RESD         - DEEP RESISTIVITY (DIL)
NPHI.V/V      00 330 00 00         : PHIN         - NEUTRON POROSITY (SANDSTONE)
DPHI.V/V      00 890 00 00         : PHID         - DENSITY POROSITY (SANDSTONE)
CALI.MM       00 280 01 00         : CAL          - CALIPER
GR  .API      00 310 00 00         : GR           - GAMMA RAY
~PARAMETER INFORMATION
#MNEM.UNIT           DATA             DESCRIPTION OF MNEMONIC
#---------         -----------     ------------------------------
GL  .M        563.5                : gl           - GROUND LEVEL ELEVATION
EREF.M        566.8                : kb           - ELEVATION OF DEPTH REFERENCE
DATM.M        563.5                : datum        - DATUM ELEVATION
TDD .M        435                  : tdd          - TOTAL DEPTH DRILLER
RUN .         ONE                  : Run          - RUN NUMBER
ENG .         BILL                 : Engineer     - RECORDING ENGINEER
WIT .         JIM                  : Witness      - WITNESSED BY
MUD .         GEL                  : Mud_type     - MUD TYPE
MATR.         SANDSTONE            : Logunit      - NEUTRON MATRIX
TMAX.C        27.2                 : BHT          - MAXIMUM RECORDED TEMPERATURE
BHTD.M        435                  : BHTDEP       - MAXIMUM RECORDED TEMPERATURE
RMT .C        15.6                 : MDTP         - TEMPERATURE OF MUD
MUDD.KG/M     1130                 : MWT          - MUD DENSITY
NEUT.         1                    : NEUTRON      - NEUTRON TYPE
RESI.         0                    : RESIST       - RESISTIVITY TYPE
RM  .OHMM     5.35                 : RM           - RESISTIVITY OF MUD
RMC .OHMM     0.25                 : RMC          - RESISTIVITY OF MUD CAKE
RMF .OHMM     6                    : RMF          - RESISTIVITY OF MUD FILTRATE
SUFT.C        -5                   : SUFT         - SURFACE TEMPERATURE
~A  DEPTH     RESD     PHIN     PHID      CAL       GR
# ...
  304.500    9.762    0.470    0.271  163.789   73.655
  304.750    9.865    0.440    0.284  163.880   73.390
  305.000    9.524    0.451    0.291  163.952   73.731
  305.250    9.277    0.463    0.293  164.024   77.063
  305.500    9.033    0.448    0.267  164.088   80.379
  305.750    8.720    0.433    0.255  164.088   83.110
  306.000    8.416    0.425    0.239  164.242   83.462
  306.250    8.196    0.411    0.223  164.324   84.686
  306.500    7.841    0.408    0.229  164.387   87.715
  306.750    7.566    0.427    0.250  164.459   85.380
  307.000    7.169    0.440    0.262  164.532   85.115
  307.250    6.793    0.443    0.263  165.119   85.462
  307.500    6.556    0.463    0.262  165.670   84.617
  307.750    6.812    0.445    0.245  165.743   86.448
  308.000    7.206    0.444    0.245  165.815   91.253
  308.250    7.417    0.440    0.251  166.393   92.196
  308.500    7.290    0.434    0.248  165.464   90.154
  308.750    7.038    0.433    0.243  165.545   89.304
  309.000    6.730    0.452    0.238  168.101   89.650
  309.250    6.555    0.469    0.243  170.656   90.284
  309.500    6.504    0.463    0.242  173.708   87.348
  309.750    6.572    0.456    0.246  173.781   84.716
  310.000    6.346    0.451    0.252  174.386   84.759
  310.250    6.067    0.440    0.236  177.917   85.995
  310.500    6.019    0.452    0.228  178.973   88.427
  310.750    5.916    0.463    0.237  181.529   88.774
  311.000    6.033    0.479    0.235  183.597   85.832
  311.250    6.267    0.487    0.245  176.211   81.103
  311.500    6.691    0.479    0.222  166.361   77.577
  311.750    7.211    0.437    0.192  164.952   76.418
  312.000    7.558    0.396    0.177  165.025   76.168
  312.250    8.371    0.357    0.116  164.095   78.005
  312.500    9.620    0.333    0.142  163.174   84.002
  312.750    9.994    0.352    0.211  163.744   88.223
  313.000    9.211    0.441    0.253  165.315   90.059
  313.250    7.820    0.459    0.257  165.893   92.784
  313.500    7.477    0.456    0.249  166.453   94.621
  313.750    7.283    0.436    0.218  167.528   91.978
  314.000    7.293    0.453    0.234  168.097   90.829
  314.250    7.170    0.442    0.231  168.160   94.454
  314.500    7.177    0.457    0.226  168.233   94.790
  314.750    7.177    0.463    0.236  168.314   96.328
  315.000    7.134    0.456    0.239  168.378   96.079
  315.250    7.073    0.452    0.243  168.459   94.330
  315.500    7.018    0.453    0.248  168.541   95.267
  315.750    6.970    0.461    0.248  169.110   97.104
  316.000    6.910    0.462    0.238  169.183   96.551
  316.250    6.917    0.467    0.233  169.246   94.504
  316.500    6.926    0.462    0.220  168.831   92.760
  316.750    6.998    0.474    0.236  168.398   94.889
  317.000    7.072    0.488    0.232  168.488   97.029
  317.250    7.146    0.480    0.241  166.575   94.689
  317.500    7.221    0.473    0.240  165.663   90.853
  317.750    7.363    0.458    0.231  165.221   84.932
  318.000    7.720    0.439    0.180  164.806   81.698
  318.250    8.318    0.423    0.154  164.878   76.080
  318.500    9.384    0.363    0.087  164.942   66.887
  318.750   15.285    0.230    0.017  165.023   58.880
  319.000   19.970    0.232    0.035  164.599   67.868
  319.250   22.122    0.307    0.120  165.168   77.154
  319.500   18.603    0.331    0.168  164.753   84.348
  319.750   11.883    0.393    0.210  164.817   84.993
  320.000   11.154    0.441    0.227  165.386   85.936
  320.250   10.475    0.447    0.218  165.955   88.656
  320.500   10.299    0.450    0.221  165.540   91.684
  320.750   10.217    0.434    0.219  165.603   91.728
  321.000   10.137    0.437    0.213  165.197   93.266
  321.250   10.137    0.447    0.205  164.782   92.118
  321.500   10.069    0.444    0.210  164.340   92.459
  321.750    9.628    0.438    0.229  164.412   93.998
  322.000    9.552    0.437    0.240  165.000   94.930
  322.250    9.476    0.432    0.233  165.063   94.383
  322.500    9.665    0.427    0.223  165.623   91.144
  322.750    9.677    0.420    0.205  166.210   89.096
  323.000    9.512    0.427    0.196  166.779   91.231
  323.250    9.523    0.453    0.191  166.843   90.689
  323.500    9.537    0.471    0.205  166.924   92.813
  323.750    9.552    0.455    0.220  166.988   95.830
  324.000    9.559    0.444    0.227  167.060   99.460
  324.250    9.485    0.432    0.197  167.133   98.008
  324.500    9.413    0.431    0.194  167.214   97.158
  324.750    9.423    0.424    0.185  167.296   97.202
  325.000    9.360    0.431    0.200  164.925   95.477
  325.250    9.293    0.437    0.211  165.029   96.418
  325.500    9.230    0.445    0.204  164.641   96.185
  325.750    9.169    0.453    0.205  164.746   97.141
  326.000    9.186    0.451    0.213  164.358  100.158
  326.250    9.121    0.445    0.203  163.970   98.744
  326.500    8.971    0.444    0.221  165.072   94.671
  326.750    8.669    0.439    0.222  166.174   92.084
  327.000    8.529    0.443    0.203  165.774   92.737
  327.250    8.239    0.454    0.200  166.357   93.989
  327.500    7.884    0.457    0.205  168.923   99.663
  327.750    7.145    0.461    0.205  171.023  102.081
  328.000    6.592    0.461    0.220  168.666  105.401
  328.250    5.918    0.450    0.228  164.819  103.404
  328.500    5.715    0.454    0.234  161.970   98.445
  328.750    5.727    0.454    0.220  162.088   91.699
  329.000    6.349    0.446    0.233  162.192   85.855
  329.250    7.502    0.430    0.220  162.284   81.480
  329.500    9.543    0.424    0.192  161.404   77.112
  329.750   10.671    0.414    0.108  160.537   71.858
  330.000   14.338    0.252    0.073  160.641   68.393
  330.250   17.579    0.298    0.143  160.759   69.629
  330.500   18.786    0.344    0.165  160.863   73.531
  330.750   17.813    0.343    0.184  160.968   79.206
  331.000   15.417    0.370    0.204  161.059   81.336
  331.250   12.630    0.398    0.200  161.656   82.883
  331.500   11.232    0.401    0.203  161.760   87.088
  331.750   10.460    0.429    0.214  161.878   87.742
  332.000   10.018    0.449    0.229  162.488   87.214
  332.250   10.036    0.442    0.239  162.113   84.921
  332.500   10.242    0.428    0.236  161.699   83.499
  332.750   10.643    0.422    0.224  161.324   86.228
  333.000   10.868    0.414    0.216  161.416   89.252
  333.250   10.690    0.427    0.230  161.028   91.973
  333.500   10.235    0.430    0.240  160.161   96.171
  333.750    9.976    0.438    0.236  159.294   98.596
  334.000    9.817    0.449    0.252  160.876   96.895
  334.250    9.837    0.446    0.266  159.024   91.330
  334.500   10.320    0.437    0.263  158.118   86.675
  334.750   11.025    0.444    0.246  157.730   86.442
  335.000   11.997    0.432    0.232  157.835   85.028
  335.250   13.178    0.416    0.229  158.950   83.622
  335.500   13.951    0.375    0.173  159.054   84.555
  335.750   13.976    0.344    0.159  159.159   89.351
  336.000   13.382    0.368    0.220  158.279   89.709
  336.250   12.573    0.406    0.229  156.401   88.303
  336.500   11.709    0.438    0.210  158.501   88.358
  336.750   11.311    0.447    0.191  160.069   89.322
  337.000   11.337    0.421    0.205  158.217   87.908
  337.250   11.254    0.429    0.225  157.843   88.274
  337.500   11.180    0.448    0.217  157.934   88.321
  337.750   10.994    0.446    0.224  158.039   88.982
  338.000   10.718    0.442    0.236  159.141   90.514
  338.250   10.548    0.425    0.237  159.711   91.478
  338.500   10.378    0.428    0.236  159.842   93.609
  338.750   10.302    0.438    0.234  159.933   96.920
  339.000   10.136    0.439    0.219  159.559   96.400
  339.250   10.066    0.447    0.226  159.663   95.577
  339.500    9.998    0.444    0.218  159.275   97.116
  339.750   10.016    0.443    0.218  159.367   97.171
  340.000   10.016    0.442    0.227  160.469   95.772
  340.250   10.060    0.448    0.220  161.092   94.933
  340.500   10.080    0.448    0.215  160.225   93.240
  340.750   10.101    0.437    0.220  159.306   93.007
