~VERSION INFORMATION
 VERS.                 2.0:   CWLS LOG ASCII STANDARD -VERSION 2.0
 WRAP.                  NO:   ONE LINE PER DEPTH STEP
~WELL INFORMATION BLOCK
#MNEM.UNIT           DATA                    DESCRIPTION OF MNEMONIC
#---------    -------------------            -------------------------------
# Generated from Intellog Unique Number	CS_67_68/WELL/699
WELL.         ESSO RESOURCES CANADA          : Well_name    - WELL
LOC .         00/06-26-068-07W4/0            : Location     - LOCATION
UWI .         00/06-26-068-07W4/0            : Uwi          - UNIQUE WELL ID
ENTR.         SP                             : Entered      - ENTERED BY
SRVC.         SCHLUMBERGER                   : Scn          - SERVICE COMPANY
STRT.M        290                            : top_depth    - START DEPTH
STOP.M        515                            : bot_depth    - STOP DEPTH
STEP.M        0.25                           : increment    - STEP LENGTH
 NULL. -999.2500:NULL Value
~CURVE INFORMATION BLOCK
#MNEM UNIT       ERCB CURVE CODE    CURVE DESCRIPTION
#-----------   ------------------   ----------------------------------
DEPT.M        00 001 00 00         : DEPTH        - DEPTH
ILD .OHMM     00 120 00 00         : RESD         - DEEP RESISTIVITY (DIL)
DPHI.V/V      00 890 00 00         : PHID         - DENSITY POROSITY (LIMESTONE)
NPHI.V/V      00 330 00 00         : PHIN         - NEUTRON POROSITY (LIMESTONE)
GR  .API      00 310 00 00         : GR           - GAMMA RAY
~PARAMETER INFORMATION
#MNEM.UNIT           DATA             DESCRIPTION OF MNEMONIC
#---------         -----------     ------------------------------
GL  .M        632.88               : gl           - GROUND LEVEL ELEVATION
EREF.M        636.48               : kb           - ELEVATION OF DEPTH REFERENCE
DATM.M        632.88               : datum        - DATUM ELEVATION
TDD .M        526                  : tdd          - TOTAL DEPTH DRILLER
RUN .         ONE                  : Run          - RUN NUMBER
ENG .         BILL                 : Engineer     - RECORDING ENGINEER
WIT .         JIM                  : Witness      - WITNESSED BY
MUD .         GEL                  : Mud_type     - MUD TYPE
MATR.         LIMESTONE            : Logunit      - NEUTRON MATRIX
TMAX.C        26                   : BHT          - MAXIMUM RECORDED TEMPERATURE
BHTD.M        526                  : BHTDEP       - MAXIMUM RECORDED TEMPERATURE
MATR.         1                    : LOGUNIT      - NEUTRON MATRIX
RMT .C        25                   : MDTP         - TEMPERATURE OF MUD
NEUT.         1                    : NEUTRON      - NEUTRON TYPE
RESI.         0                    : RESIST       - RESISTIVITY TYPE
RMC .OHMM     0.25                 : RMC          - RESISTIVITY OF MUD CAKE
RMF .OHMM     0.25                 : RMF          - RESISTIVITY OF MUD FILTRATE
SUFT.C        15                   : SUFT         - SURFACE TEMPERATURE
~A  DEPTH     RESD     PHID     PHIN       GR
# ...
  333.500    7.566    0.269    0.422   89.070
  333.750    7.404    0.270    0.420   89.062
  334.000    7.073    0.272    0.447   92.053
  334.250    6.842    0.275    0.452   95.411
  334.500    6.646    0.280    0.412   96.749
  334.750    6.654    0.285    0.367   94.905
  335.000    6.646    0.287    0.362   91.959
  335.250    6.616    0.277    0.355   91.891
  335.500    6.572    0.265    0.333   94.941
  335.750    6.507    0.255    0.328   97.322
  336.000    6.501    0.270    0.347  100.862
  336.250    6.493    0.285    0.367  103.426
  336.500    6.526    0.286    0.359  103.601
  336.750    6.592    0.273    0.352   99.432
  337.000    6.838    0.266    0.380  101.933
  337.250    7.068    0.273    0.391   96.784
  337.500    7.181    0.289    0.343   86.495
  337.750    7.242    0.299    0.326   87.405
  338.000    7.238    0.296    0.328   93.270
  338.250    7.230    0.291    0.370   97.242
  338.500    7.196    0.285    0.404   99.070
  338.750    7.162    0.284    0.390   97.104
  339.000    7.142    0.288    0.403   92.138
  339.250    7.109    0.291    0.414   89.681
  339.500    7.062    0.308    0.402   88.939
  339.750    7.045    0.319    0.388   89.483
  340.000    7.024    0.322    0.373   90.944
  340.250    7.030    0.304    0.363   91.547
  340.500    7.010    0.290    0.380   88.601
  340.750    6.964    0.286    0.396   86.819
  341.000    6.841    0.285    0.391   87.424
  341.250    6.733    0.275    0.388   89.923
  341.500    6.590    0.268    0.392   91.018
  341.750    6.497    0.263    0.394   92.417
  342.000    6.504    0.269    0.393   93.389
  342.250    6.584    0.280    0.402   94.053
  342.500    6.591    0.283    0.441   92.333
  342.750    6.572    0.281    0.424   85.900
  343.000    6.603    0.279    0.406   81.544
  343.250    6.662    0.272    0.431   79.518
  343.500    6.655    0.268    0.459   76.879
  343.750    6.624    0.278    0.441   77.911
  344.000    6.594    0.289    0.416   80.412
  344.250    6.598    0.292    0.397   77.651
  344.500    6.605    0.305    0.403   71.890
  344.750    6.624    0.321    0.416   68.147
  345.000    6.654    0.325    0.405   66.427
  345.250    6.636    0.336    0.397   64.951
  345.500    6.595    0.342    0.385   66.779
  345.750    6.601    0.344    0.378   67.995
  346.000    6.608    0.341    0.406   66.090
  346.250    6.611    0.328    0.422   62.349
  346.500    6.618    0.320    0.392   59.892
  346.750    6.663    0.323    0.367   60.803
  347.000    6.668    0.329    0.358   62.263
  347.250    6.637    0.334    0.382   62.501
  347.500    6.582    0.339    0.412   63.105
  347.750    6.751    0.342    0.432   63.892
  348.000    7.029    0.340    0.386   61.192
  348.250    7.076    0.329    0.386   54.941
  348.500    7.044    0.299    0.363   51.444
  348.750    6.958    0.148    0.325   50.763
  349.000    6.758    0.169    0.373   61.405
  349.250    6.565    0.227    0.428   80.796
  349.500    6.413    0.314    0.469   91.009
  349.750    6.395    0.329    0.457   82.861
  350.000    6.415    0.340    0.417   74.776
  350.250    6.457    0.345    0.415   67.546
  350.500    6.463    0.344    0.426   63.805
  350.750    6.504    0.343    0.435   62.695
  351.000    6.535    0.342    0.422   60.239
  351.250    6.566    0.340    0.417   64.573
  351.500    6.538    0.337    0.401   65.915
  351.750    6.555    0.332    0.404   68.231
  352.000    6.623    0.326    0.422   69.570
  352.250    6.896    0.322    0.425   68.338
  352.500    7.499    0.319    0.407   64.415
  352.750    7.970    0.322    0.412   62.448
  353.000    8.781    0.324    0.377   69.783
  353.250    9.746    0.254    0.313   73.754
  353.500   11.087    0.118    0.267   68.422
  353.750   12.006    0.023    0.203   59.724
  354.000   13.453   -0.001    0.129   51.820
  354.250   14.654   -0.011    0.110   45.019
  354.500   15.431   -0.016    0.108   45.195
  354.750   11.459   -0.018    0.109   46.105
  355.000    9.575   -0.018    0.113   44.200
  355.250    8.371   -0.014    0.153   44.743
  355.500    7.514   -0.004    0.247   51.282
  355.750    7.096    0.177    0.323   55.805
  356.000    7.036    0.248    0.366   62.222
  356.250    6.977    0.310    0.393   66.865
  356.500    7.817    0.328    0.402   68.632
  356.750    9.077    0.327    0.378   69.541
  357.000   11.343    0.311    0.307   69.350
  357.250   13.780    0.276    0.241   67.261
  357.500   15.670    0.226    0.191   64.684
  357.750   19.181    0.144    0.161   61.309
  358.000   22.865    0.072    0.140   58.425
  358.250   27.986    0.032    0.127   56.948
  358.500   31.181    0.013    0.116   55.900
  358.750   33.457   -0.004    0.109   53.995
  359.000   35.302   -0.013    0.104   49.643
  359.250   37.807   -0.019    0.102   45.962
  359.500   41.027   -0.021    0.102   44.851
  359.750   33.650   -0.020    0.109   45.028
  360.000   23.793   -0.014    0.151   46.183
  360.250   16.447    0.015    0.321   49.234
  360.500   11.348    0.086    0.384   54.306
  360.750    9.465    0.152    0.405   58.338
  361.000    8.015    0.335    0.414   60.839
  361.250    7.332    0.347    0.404   62.117
  361.500    7.108    0.341    0.396   62.415
  361.750    7.345    0.343    0.391   65.282
  362.000    7.678    0.348    0.401   67.845
  362.250    7.846    0.348    0.408   67.776
  362.500    8.016    0.343    0.405   63.118
  362.750    8.318    0.338    0.419   61.151
  363.000    8.450    0.335    0.412   62.672
  363.250    8.652    0.332    0.405   63.154
  363.500    8.726    0.327    0.375   63.207
  363.750    8.717    0.294    0.275   61.669
  364.000    8.279    0.187    0.258   59.029
  364.250    7.701    0.084    0.303   56.391
  364.500    7.111    0.222    0.365   61.401
  364.750    6.727    0.318    0.420   67.942
  365.000    6.473    0.337    0.435   72.156
  365.250    6.336    0.351    0.447   70.986
  365.500    6.307    0.359    0.460   71.896
  365.750    6.324    0.360    0.471   75.437
  366.000    6.341    0.363    0.472   76.899
  366.250    6.312    0.365    0.458   71.198
  366.500    6.258    0.365    0.447   67.825
  366.750    6.148    0.364    0.440   68.123
  367.000    6.063    0.365    0.436   67.564
  367.250    6.056    0.368    0.437   66.822
  367.500    6.109    0.365    0.435   70.363
  367.750    6.160    0.360    0.464   74.701
  368.000    6.236    0.351    0.476   75.305
  368.250    6.338    0.347    0.425   72.788
  368.500    6.429    0.353    0.391   70.699
  368.750    6.509    0.355    0.401   69.161
  369.000    6.577    0.349    0.413   68.725
  369.250    6.583    0.337    0.412   71.654
  369.500    6.590    0.330    0.432   70.851
  369.750    6.570    0.333    0.470   67.231
  370.000    6.514    0.346    0.485   64.347
  370.250    6.470    0.350    0.440   62.565
  370.500    6.356    0.347    0.413   67.636
  370.750    6.246    0.339    0.402   72.647
  371.000    6.215    0.326    0.411   73.435
  371.250    6.291    0.316    0.398   66.939
  371.500    6.527    0.311    0.380   62.954
  371.750    6.633    0.304    0.356   68.148
  372.000    6.614    0.299    0.382   72.974
  372.250    6.473    0.295    0.411   71.865
  372.500    6.287    0.325    0.441   65.553
  372.750    6.106    0.337    0.433   60.282
  373.000    5.977    0.348    0.442   54.765
  373.250    5.926    0.357    0.437   52.188
  373.500    5.933    0.359    0.423   50.038
  373.750    5.929    0.353    0.425   52.172
  374.000    5.834    0.349    0.442   58.529
  374.250    5.773    0.337    0.434   65.435
  374.500    5.703    0.323    0.424   66.530
  374.750    5.687    0.331    0.439   62.054
  375.000    5.703    0.352    0.447   59.782
  375.250    5.741    0.363    0.448   59.038
  375.500    5.844    0.368    0.437   58.665
  375.750    5.927    0.364    0.424   57.861
  376.000    6.001    0.361    0.416   56.811
  376.250    6.155    0.356    0.401   55.152
  376.500    6.219    0.348    0.387   52.819
  376.750    6.249    0.340    0.373   50.301
