~VERSION INFORMATION
 VERS.                 2.0:   CWLS LOG ASCII STANDARD -VERSION 2.0
 WRAP.                  NO:   ONE LINE PER DEPTH STEP
~WELL INFORMATION BLOCK
#MNEM.UNIT           DATA                    DESCRIPTION OF MNEMONIC
#---------    -------------------            -------------------------------
# Generated from Intellog Unique Number	CS_67_68/WELL/2186
WELL.         GLOBEL ATMORE                  : Well_name    - WELL
LOC .         00/08-26-067-18W4/0            : Location     - LOCATION
UWI .         00/08-26-067-18W4/0            : Uwi          - UNIQUE WELL ID
ENTR.         JHS                            : Entered      - ENTERED BY
SRVC.         SCHLUMBERGER                   : Scn          - SERVICE COMPANY
STRT.M        350                            : top_depth    - START DEPTH
STOP.M        560                            : bot_depth    - STOP DEPTH
STEP.M        0.25                           : increment    - STEP LENGTH
 NULL. -999.2500:NULL Value
~CURVE INFORMATION BLOCK
#MNEM UNIT       ERCB CURVE CODE    CURVE DESCRIPTION
#-----------   ------------------   ----------------------------------
DEPT.M        00 001 00 00         : DEPTH        - DEPTH
DPHI.V/V      00 890 00 00         : PHID         - DENSITY POROSITY (LIMESTONE)
NPHI.V/V      00 330 00 00         : PHIN         - NEUTRON POROSITY (LIMESTONE)
CALI.MM       00 280 01 00         : CAL          - CALIPER
GR  .API      00 310 00 00         : GR           - GAMMA RAY
ILD .OHMM     00 120 00 00         : RESD         - DEEP RESISTIVITY (DIL)
~PARAMETER INFORMATION
#MNEM.UNIT           DATA             DESCRIPTION OF MNEMONIC
#---------         -----------     ------------------------------
GL  .M        583.7                : gl           - GROUND LEVEL ELEVATION
EREF.M        586.6                : kb           - ELEVATION OF DEPTH REFERENCE
DATM.M        586.6                : datum        - DATUM ELEVATION
TDD .M        575                  : tdd          - TOTAL DEPTH DRILLER
RUN .         ONE                  : Run          - RUN NUMBER
ENG .         BILL                 : Engineer     - RECORDING ENGINEER
WIT .         JIM                  : Witness      - WITNESSED BY
MUD .         GEL                  : Mud_type     - MUD TYPE
MATR.         LIMESTONE            : Logunit      - NEUTRON MATRIX
TMAX.C        19.4                 : BHT          - MAXIMUM RECORDED TEMPERATURE
BHTD.M        574                  : BHTDEP       - MAXIMUM RECORDED TEMPERATURE
MATR.         1                    : LOGUNIT      - NEUTRON MATRIX
RMT .C        25                   : MDTP         - TEMPERATURE OF MUD
NEUT.         1                    : NEUTRON      - NEUTRON TYPE
RESI.         0                    : RESIST       - RESISTIVITY TYPE
RMC .OHMM     0.25                 : RMC          - RESISTIVITY OF MUD CAKE
RMF .OHMM     0.25                 : RMF          - RESISTIVITY OF MUD FILTRATE
SUFT.C        15                   : SUFT         - SURFACE TEMPERATURE
~A  DEPTH     PHID     PHIN      CAL       GR     RESD
# ...
  532.500    0.214    0.401  150.648   23.450    2.397
  532.750    0.204    0.426  150.961   18.264    2.212
  533.000    0.197    0.451  151.378   14.971    2.064
  533.250    0.204    0.473  152.608   13.756    1.948
  533.500    0.203    0.458  154.043   13.517    1.873
  533.750    0.199    0.432  155.273   14.011    1.788
  534.000    0.197    0.438  156.912   15.543    1.716
  534.250    0.199    0.462  157.327   16.220    1.653
  534.500    0.219    0.486  155.607   17.203    1.614
  534.750    0.236    0.501  155.107   17.881    1.584
  535.000    0.224    0.485  154.506   17.398    1.579
  535.250    0.216    0.480  154.414   15.571    1.576
  535.500    0.225    0.495  154.422   14.538    1.562
  535.750    0.253    0.490  154.431   14.544    1.557
  536.000    0.281    0.504  154.338   14.977    1.560
  536.250    0.286    0.502  153.736   15.532    1.596
  536.500    0.244    0.469  154.051   15.903    1.627
  536.750    0.187    0.459  154.467   16.153    1.655
  537.000    0.214    0.458  155.189   17.442    1.668
  537.250    0.243    0.477  155.810   18.974    1.678
  537.500    0.257    0.484  156.025   20.751    1.684
  537.750    0.251    0.481  156.031   22.955    1.701
  538.000    0.232    0.493  155.938   24.609    1.740
  538.250    0.219    0.503  155.439   25.775    1.810
  538.500    0.205    0.500  154.939   23.643    1.923
  538.750    0.188    0.449  154.948   22.427    2.054
  539.000    0.172    0.417  154.957   24.021    2.177
  539.250    0.150    0.390  154.967   25.737    2.219
  539.500    0.186    0.443  153.754   24.460    2.212
  539.750    0.199    0.441  151.320   19.945    2.204
  540.000    0.198    0.410  149.193   17.202    2.196
  540.250    0.184    0.386  148.896   15.559    2.205
  540.500    0.144    0.382  149.108   15.014    2.226
  540.750    0.149    0.403  150.033   16.242    2.252
  541.000    0.168    0.428  151.468   16.064    2.270
  541.250    0.186    0.451  151.782   14.542    2.249
  541.500    0.200    0.463  149.756   12.533    2.216
  541.750    0.210    0.457  149.053   12.783    2.263
  542.000    0.225    0.454  149.062   13.582    2.482
  542.250    0.200    0.466  149.885   14.504    2.706
  542.500    0.155    0.426  150.607   15.669    3.030
  542.750    0.133    0.390  149.801   18.301    3.242
  543.000    0.118    0.357  149.200   22.460    3.528
  543.250    0.110    0.338  149.108   25.825    3.833
  543.500    0.105    0.332  148.811   27.663    4.064
  543.750    0.101    0.329  149.635   28.645    4.157
  544.000    0.095    0.329  150.357   28.345    4.151
  544.250    0.085    0.334  151.078   24.870    4.067
  544.500    0.080    0.339  151.088   20.722    3.993
  544.750    0.127    0.349  150.282   22.438    3.927
  545.000    0.220    0.405  149.070   23.970    3.841
  545.250    0.217    0.473  148.266   24.953    3.735
  545.500    0.188    0.456  148.783   24.226    3.612
  545.750    0.173    0.371  149.709   23.742    3.506
  546.000    0.154    0.371  150.430   24.053    3.403
  546.250    0.148    0.375  150.440   25.647    3.398
  546.500    0.161    0.378  149.229   27.974    3.496
  546.750    0.174    0.381  149.033   31.032    3.624
  547.000    0.189    0.374  148.839   36.657    3.742
  547.250    0.215    0.350  148.848   44.052    3.821
  547.500    0.248    0.337  149.977   54.074    3.880
  547.750    0.240    0.379  151.004   60.737    3.859
  548.000    0.199    0.405  152.744   68.072    3.670
  548.250    0.159    0.412  154.178   74.857    3.425
  548.500    0.161    0.420  155.003   75.534    3.148
  548.750    0.181    0.440  154.603   65.523    2.819
  549.000    0.210    0.465  151.968   52.947    2.742
  549.250    0.228    0.492  150.551   41.043    2.928
  549.500    0.167    0.501  150.356   28.894    3.322
  549.750    0.155    0.427  151.179   22.793    3.760
  550.000    0.172    0.398  151.901   22.126    4.178
  550.250    0.185    0.377  152.928   21.704    4.522
  550.500    0.143    0.356  153.040   21.587    4.794
  550.750    0.072    0.338  150.707   24.525    5.083
  551.000    0.081    0.318  149.190   28.500    5.229
  551.250    0.080    0.287  148.995   34.369    5.349
  551.500    0.052    0.292  148.800   38.955    5.371
  551.750    0.034    0.318  149.625   36.578    5.194
  552.000    0.060    0.343  151.058   27.729    4.884
  552.250    0.078    0.335  149.642   23.947    4.515
  552.500    0.099    0.338  146.395   24.990    4.158
  552.750    0.136    0.365  144.163   29.211    4.082
  553.000    0.184    0.373  142.239   32.392    4.279
  553.250    0.204    0.384  141.129   35.145    4.666
  553.500    0.236    0.401  141.036   32.648    5.107
  553.750    0.219    0.380  142.368   30.637    5.706
  554.000    0.157    0.334  145.025   31.192    6.521
  554.250    0.127    0.304  146.764   30.404    7.314
  554.500    0.135    0.289  146.163   26.440    8.051
  554.750    0.114    0.281  144.747   24.185    8.696
  555.000    0.082    0.275  145.367   23.885    9.220
  555.250    0.057    0.273  145.990   24.502    9.575
  555.500    0.061    0.270  146.710   26.157    9.814
  555.750    0.070    0.262  148.143   27.078   10.059
  556.000    0.057    0.252  149.475   29.038   10.252
  556.250    0.040    0.262  150.502   30.326   10.508
  556.500    0.027    0.280  150.613   27.277   10.751
  556.750    0.043    0.274  150.114   24.657   11.081
  557.000    0.041    0.258  150.021   26.006   11.508
  557.250    0.027    0.241  150.030   31.875   12.714
  557.500    0.018    0.237  149.937   36.094   14.367
  557.750    0.020    0.256  150.048   34.512   15.754
  558.000    0.013    0.250  150.159   28.410   16.892
  558.250    0.002    0.243  149.762   26.950   16.213
  558.500    0.016    0.237  150.178   39.292   13.621
  558.750    0.029    0.253  150.899   50.780   11.126
  559.000    0.040    0.302  152.333   81.629    9.225
  559.250    0.039    0.318  154.378  113.455    8.077
  559.500    0.031    0.317  156.424  114.926    7.944
  559.750    0.050    0.322  156.840  107.420    8.679
  560.000    0.058    0.331  155.831  101.745    9.570
