~VERSION INFORMATION
 VERS.                 2.0:   CWLS LOG ASCII STANDARD -VERSION 2.0
 WRAP.                  NO:   ONE LINE PER DEPTH STEP
~WELL INFORMATION BLOCK
#MNEM.UNIT           DATA                    DESCRIPTION OF MNEMONIC
#---------    -------------------            -------------------------------
# Generated from Intellog Unique Number	CS_73_76/WELL/2016
WELL.         09-29-073-07W4                 : Well_name    - WELL
LOC .         AA/09-29-073-07W4/0            : Location     - LOCATION
UWI .         AA/09-29-073-07W4/0            : Uwi          - UNIQUE WELL ID
ENTR.         TIM                            : Entered      - ENTERED BY
SRVC.         SCHLUMBERGER                   : Scn          - SERVICE COMPANY
STRT.M        360                            : top_depth    - START DEPTH
STOP.M        595                            : bot_depth    - STOP DEPTH
STEP.M        0.25                           : increment    - STEP LENGTH
 NULL. -999.2500:NULL Value
~CURVE INFORMATION BLOCK
#MNEM UNIT       ERCB CURVE CODE    CURVE DESCRIPTION
#-----------   ------------------   ----------------------------------
DEPT.M        00 001 00 00         : DEPTH        - DEPTH
NPHI.V/V      00 330 00 00         : PHIN         - NEUTRON POROSITY (SANDSTONE)
DPHI.V/V      00 890 00 00         : PHID         - DENSITY POROSITY (SANDSTONE)
GR  .API      00 310 00 00         : GR           - GAMMA RAY
ILD .OHMM     00 120 00 00         : RESD         - DEEP RESISTIVITY (DIL)
CALI.MM       00 280 01 00         : CAL          - CALIPER
~PARAMETER INFORMATION
#MNEM.UNIT           DATA             DESCRIPTION OF MNEMONIC
#---------         -----------     ------------------------------
GL  .M        727.6                : gl           - GROUND LEVEL ELEVATION
EREF.M        731.5                : kb           - ELEVATION OF DEPTH REFERENCE
DATM.M        731.5                : datum        - DATUM ELEVATION
TDD .M        602                  : tdd          - TOTAL DEPTH DRILLER
RUN .         ONE                  : Run          - RUN NUMBER
ENG .         BILL                 : Engineer     - RECORDING ENGINEER
WIT .         JIM                  : Witness      - WITNESSED BY
MUD .         GEL                  : Mud_type     - MUD TYPE
MATR.         SANDSTONE            : Logunit      - NEUTRON MATRIX
TMAX.C        23                   : BHT          - MAXIMUM RECORDED TEMPERATURE
BHTD.M        602                  : BHTDEP       - MAXIMUM RECORDED TEMPERATURE
RMT .C        22                   : MDTP         - TEMPERATURE OF MUD
MUDD.KG/M     1090                 : MWT          - MUD DENSITY
NEUT.         1                    : NEUTRON      - NEUTRON TYPE
RESI.         0                    : RESIST       - RESISTIVITY TYPE
RM  .OHMM     6.09                 : RM           - RESISTIVITY OF MUD
RMC .OHMM     7.05                 : RMC          - RESISTIVITY OF MUD CAKE
RMF .OHMM     7.05                 : RMF          - RESISTIVITY OF MUD FILTRATE
SUFT.C        4                    : SUFT         - SURFACE TEMPERATURE
~A  DEPTH     PHIN     PHID       GR     RESD      CAL
# ...
  542.500    0.374    0.238   62.825   11.161  290.667
  542.750    0.368    0.232   63.427   10.755  290.658
  543.000    0.358    0.224   60.984   10.369  290.648
  543.250    0.345    0.216   58.540    9.812  290.636
  543.500    0.335    0.207   59.144    9.815  290.629
  543.750    0.325    0.213   60.966    9.640  290.617
  544.000    0.318    0.213   63.400    9.294  290.610
  544.250    0.313    0.199   67.050    9.126  291.614
  544.500    0.312    0.188   68.264    9.133  291.607
  544.750    0.316    0.190   67.648    9.138  291.595
  545.000    0.320    0.199   66.423    9.145  292.601
  545.250    0.329    0.206   65.806    9.323  292.591
  545.500    0.353    0.210   66.412    9.504  292.582
  545.750    0.355    0.212   67.625    9.688  292.572
  546.000    0.346    0.216   68.229    9.876  291.549
  546.250    0.338    0.224   65.174   10.453  291.539
  546.500    0.340    0.227   61.511   10.657  290.511
  546.750    0.347    0.226   59.676   10.864  290.497
  547.000    0.350    0.226   59.669   11.077  289.474
  547.250    0.353    0.227   59.666   11.291  289.462
  547.500    0.344    0.237   60.270   11.513  288.441
  547.750    0.335    0.248   60.874   11.517  288.429
  548.000    0.341    0.251   61.476   11.525  287.406
  548.250    0.352    0.244   62.081   11.531  286.378
  548.500    0.345    0.229   63.293   11.538  285.350
  548.750    0.340    0.228   63.899   11.122  284.329
  549.000    0.344    0.228   65.111   10.721  283.304
  549.250    0.350    0.228   65.716   10.144  283.289
  549.500    0.360    0.226   66.929    9.422  284.300
  549.750    0.366    0.216   68.751    8.916  283.272
  550.000    0.368    0.202   70.575    8.755  281.233
  550.250    0.373    0.188   71.789    8.760  277.157
  550.500    0.379    0.177   71.173    8.767  274.100
  550.750    0.379    0.176   70.558    8.774  271.042
  551.000    0.372    0.182   71.772    8.777  269.003
  551.250    0.365    0.186   72.985    8.782  266.961
  551.500    0.373    0.194   70.541    8.788  264.917
  551.750    0.383    0.215   66.877    8.633  261.860
  552.000    0.377    0.226   63.824    8.637  260.834
  552.250    0.363    0.218   63.208    8.642  260.825
  552.500    0.354    0.204   68.689    8.649  260.813
  552.750    0.349    0.191   70.512    8.815  259.792
  553.000    0.357    0.175   71.725    8.988  259.780
  553.250    0.373    0.208   68.061    9.511  259.773
  553.500    0.389    0.214   65.007   10.065  259.763
  553.750    0.381    0.214   62.564   10.850  259.754
  554.000    0.370    0.221   61.338   11.698  259.742
  554.250    0.364    0.240   60.721   12.382  258.718
  554.500    0.354    0.240   59.499   12.623  258.704
  554.750    0.338    0.235   49.129   11.945  258.699
  555.000    0.306    0.229   50.952   11.298  258.690
  555.250    0.305    0.216   60.700   10.492  258.678
  555.500    0.332    0.209   69.227    9.930  258.668
  555.750    0.344    0.199   74.099    9.749  258.658
  556.000    0.354    0.192   77.751    9.758  257.633
  556.250    0.366    0.202   81.403    9.763  257.621
  556.500    0.375    0.220   78.349    9.951  256.598
  556.750    0.367    0.232   71.027   10.533  256.586
  557.000    0.373    0.241   64.926   11.354  255.560
  557.250    0.387    0.247   60.654   11.795  255.550
  557.500    0.381    0.243   58.209   11.803  254.527
  557.750    0.365    0.234   58.813   10.758  253.499
  558.000    0.371    0.219   63.684    9.272  252.476
  558.250    0.382    0.207   73.432    8.610  252.467
  558.500    0.374    0.196   74.644    8.301  251.439
  558.750    0.363    0.183   74.638    8.002  251.431
  559.000    0.359    0.188   75.242    7.860  250.401
  559.250    0.367    0.201   75.846    7.717  250.396
  559.500    0.380    0.205   76.448    7.580  249.368
  559.750    0.381    0.194   76.445    7.585  248.340
  560.000    0.374    0.188   76.438    7.448  247.317
  560.250    0.374    0.192   75.823    7.453  247.310
  560.500    0.374    0.196   74.598    7.459  246.284
  560.750    0.372    0.197   73.374    7.603  246.275
  561.000    0.369    0.194   72.759    7.610  245.249
  561.250    0.366    0.189   72.752    7.613  244.223
  561.500    0.369    0.178   72.745    7.617  242.179
  561.750    0.375    0.167   72.132    7.623  242.172
  562.000    0.388    0.169   70.907    7.771  241.142
  562.250    0.393    0.174   69.682    7.776  240.121
  562.500    0.383    0.180   69.067    7.780  240.112
  562.750    0.373    0.193   70.279    7.786  239.086
  563.000    0.365    0.200   72.712    7.792  237.040
  563.250    0.373    0.208   75.144    7.795  236.014
  563.500    0.368    0.207   76.969    7.800  236.009
  563.750    0.365    0.195   78.792    7.805  234.984
  564.000    0.382    0.166   80.615    7.810  233.958
  564.250    0.391    0.162   83.657    7.814  232.928
  564.500    0.386    0.168   82.432    7.821  231.904
  564.750    0.380    0.184   79.986    7.825  230.876
  565.000    0.374    0.178   73.885    7.829  230.869
  565.250    0.362    0.173   70.220    7.833  229.839
  565.500    0.361    0.184   68.385    7.839  229.832
  565.750    0.358    0.203   67.770    7.843  228.809
  566.000    0.353    0.186   67.764    7.849  228.797
  566.250    0.348    0.169   68.367    7.853  228.787
  566.500    0.341    0.169   68.973    8.007  228.780
  566.750    0.348    0.187   71.405    8.012  227.752
  567.000    0.364    0.207   73.228    8.018  227.740
  567.250    0.367    0.215   75.051    8.023  227.735
  567.500    0.369    0.212   75.045    7.879  227.721
  567.750    0.374    0.204   70.773    7.884  227.716
  568.000    0.379    0.192   67.110    7.743  227.704
  568.250    0.368    0.181   65.275    7.605  227.694
  568.500    0.353    0.181   65.879    7.610  227.687
  568.750    0.343    0.183   69.531    7.474  227.677
  569.000    0.334    0.184   73.791    7.339  227.665
  569.250    0.358    0.184   76.222    7.209  227.656
  569.500    0.369    0.180   76.218    7.213  227.646
  569.750    0.374    0.168   75.604    7.083  227.634
  570.000    0.378    0.166   73.159    6.957  227.627
  570.250    0.383    0.176   74.372    6.961  227.617
  570.500    0.388    0.175   76.805    6.839  227.610
  570.750    0.391    0.165   79.237    6.715  227.598
  571.000    0.394    0.168   79.841    6.718  227.591
  571.250    0.393    0.177   77.397    6.600  228.597
  571.500    0.386    0.185   76.173    6.603  228.583
  571.750    0.378    0.182   74.947    6.606  228.576
  572.000    0.374    0.179   75.551    6.491  228.566
  572.250    0.373    0.185   74.936    6.491  229.573
  572.500    0.371    0.183   74.322    7.134  229.561
  572.750    0.371    0.176   73.095    7.136  229.554
  573.000    0.371    0.174   72.480    7.276  229.546
  573.250    0.371    0.181   73.085    7.281  229.532
  573.500    0.366    0.187   74.297    7.286  230.541
  573.750    0.361    0.191   74.900    7.289  230.526
  574.000    0.354    0.191   74.284    7.294  230.522
  574.250    0.349    0.190   71.840    7.298  230.505
  574.500    0.351    0.185   69.396    7.298  230.500
  574.750    0.360    0.179   71.220    7.311  230.490
  575.000    0.362    0.173   74.872    7.451  230.481
  575.250    0.364    0.169   77.913    7.457  230.474
  575.500    0.366    0.174   76.078    7.461  230.462
  575.750    0.370    0.187   73.026    7.464  230.452
  576.000    0.379    0.215   70.582    7.469  230.445
  576.250    0.390    0.209   76.063    7.473  230.435
  576.500    0.398    0.190   75.446    7.478  230.426
  576.750    0.400    0.187   71.784    7.483  230.416
  577.000    0.392    0.198   66.901    7.490  230.404
  577.250    0.377    0.217   65.677    7.493  229.376
  577.500    0.361    0.220   71.157    7.498  229.371
  577.750    0.369    0.206   76.636    7.501  228.343
  578.000    0.384    0.190   77.242    7.507  228.336
  578.250    0.388    0.179   76.017    7.511  227.303
  578.500    0.393    0.174   78.448    7.377  227.296
  578.750    0.403    0.170   80.272    7.382  227.289
