~VERSION INFORMATION
 VERS.                 2.0:   CWLS LOG ASCII STANDARD -VERSION 2.0
 WRAP.                  NO:   ONE LINE PER DEPTH STEP
~WELL INFORMATION BLOCK
#MNEM.UNIT           DATA                    DESCRIPTION OF MNEMONIC
#---------    -------------------            -------------------------------
# Generated from Intellog Unique Number	CC_80_83/WELL/1167
NULL.         -999.25                        : NULL_VALUE
WELL.         CHEVRON CAN OXY ALGAR          : Well_name    - WELL
LOC .         06-34-082-16W4                 : Location     - LOCATION          
UWI .         00/06-34-082-16W400            : Uwi          - UNIQUE WELL ID    
ENTR.         DW                             : Entered      - ENTERED BY        
SRVC.         SCHLUMBERGER                   : Scn          - SERVICE COMPANY   
DATE.         21 MAR 73                      : Date         - LOG DATE
STRT.M        91.44                          : top_depth    - START DEPTH       
STOP.M        265.174                        : bot_depth    - STOP DEPTH        
STEP.M        0.3048                         : increment    - STEP LENGTH       
~CURVE INFORMATION BLOCK
#MNEM UNIT       ERCB CURVE CODE    CURVE DESCRIPTION
#-----------   ------------------   ----------------------------------
DEPT.M        00 001 00 00         : DEPTH        - DEPTH                       
DPHI.V/V      00 890 00 00         : PHID         - DENSITY POROSITY (LIMESTONE)
NPHI.V/V      00 330 00 00         : PHIN         - NEUTRON POROSITY (LIMESTONE)
GR  .API      00 310 00 00         : GR           - GAMMA RAY                   
ILD .OHMM     00 120 00 00         : RESD         - DEEP RESISTIVITY (DIL)      
~PARAMETER INFORMATION       
#MNEM.UNIT           DATA             DESCRIPTION OF MNEMONIC
#---------         -----------     ------------------------------
GL  .M        526.694              : gl           - GROUND LEVEL ELEVATION      
EREF.M        530.352              : kb           - ELEVATION OF DEPTH REFERENCE
DATM.M        530.352              : datum        - DATUM ELEVATION             
TDD .M        266.7                : tdd          - TOTAL DEPTH DRILLER         
RUN .         ONE                  : Run          - RUN NUMBER                  
ENG .         BILL                 : Engineer     - RECORDING ENGINEER          
WIT .         JIM                  : Witness      - WITNESSED BY                
MUD .         GEL                  : Mud_type     - MUD TYPE                    
MATR.         LIMESTONE            : Logunit      - NEUTRON MATRIX              
TMAX.C        27.7778              : BHT          - MAXIMUM RECORDED TEMPERATURE
BHTD.M        265.176              : BHTDEP       - MAXIMUM RECORDED TEMPERATURE
MATR.         1                    : LOGUNIT      - NEUTRON MATRIX              
RMT .C        25                   : MDTP         - TEMPERATURE OF MUD          
NEUT.         1                    : NEUTRON      - NEUTRON TYPE                
RESI.         0                    : RESIST       - RESISTIVITY TYPE            
RMC .OHMM     0.25                 : RMC          - RESISTIVITY OF MUD CAKE     
RMF .OHMM     0.25                 : RMF          - RESISTIVITY OF MUD FILTRATE 
SUFT.C        15                   : SUFT         - SURFACE TEMPERATURE         
~A  DEPTH     PHID     PHIN       GR     RESD
# ...
  197.509    0.298    0.575   78.054   10.860
  197.814    0.293    0.571   81.640   11.690
  198.119    0.302    0.534   84.629   11.907
  198.424    0.300    0.521   80.447   11.691
  198.729    0.276    0.527   74.472   11.480
  199.033    0.255    0.514   78.656   11.067
  199.338    0.234    0.522   85.829   10.866
  199.643    0.287    0.534   95.989    9.914
  199.948    0.264    0.506   95.393    8.880
  200.252    0.215    0.508   87.625    8.251
  200.557    0.249    0.535   85.235    7.810
  200.862    0.269    0.570   85.236    7.257
  201.167    0.273    0.540   90.616    7.125
  201.472    0.271    0.563   95.398    7.259
  201.776    0.258    0.575   90.020    7.259
  202.081    0.259    0.549   88.826    7.394
  202.386    0.251    0.578   93.011    7.395
  202.691    0.256    0.580   95.402    7.815
  202.996    0.244    0.596   95.403    7.960
  203.300    0.252    0.612   91.221    8.260
  203.605    0.269    0.565   85.246    8.260
  203.910    0.263    0.507   92.418    7.963
  204.215    0.249    0.500   90.626    7.676
  204.520    0.245    0.557   88.835    7.266
  204.824    0.252    0.573   89.433    7.134
  205.129    0.253    0.588   96.606    6.877
  205.434    0.245    0.601  100.790    6.752
  205.739    0.255    0.578   98.998    6.510
  206.044    0.253    0.516   90.632    6.392
  206.348    0.301    0.491   86.450    6.276
  206.653    0.313    0.439   81.073    6.393
  206.958    0.292    0.455   78.086    6.756
  207.263    0.250    0.510   77.489    7.271
  207.568    0.198    0.467   78.088    9.580
  207.872    0.201    0.392   75.101   10.896
  208.177    0.298    0.514   80.480   10.699
  208.482    0.284    0.524   79.286   10.699
  208.787    0.275    0.541   75.104   10.127
  209.092    0.306    0.508   73.312    9.762
  209.396    0.310    0.537   73.910    9.240
  209.701    0.305    0.490   75.107    9.072
  210.006    0.286    0.516   75.705    9.241
  210.311    0.293    0.531   78.695    9.242
  210.615    0.311    0.498   81.684    9.589
  210.920    0.316    0.525   83.478   10.133
  211.225    0.305    0.466   82.284   11.109
  211.530    0.262    0.461   81.089   11.958
  211.835    0.298    0.531   78.102   12.407
  212.139    0.333    0.561   75.713   12.408
  212.444    0.324    0.538   71.530   11.961
  212.749    0.299    0.526   70.336   10.913
  213.054    0.282    0.540   75.716   10.520
  213.359    0.274    0.534   78.108   10.141
  213.663    0.277    0.506   76.316    9.252
  213.968    0.293    0.520   72.731    9.084
  214.273    0.307    0.504   77.513    9.086
  214.578    0.295    0.507   78.709    9.255
  214.883    0.263    0.466   79.308    9.602
  215.187    0.265    0.489   82.894    9.962
  215.492    0.268    0.483   91.263   10.148
  215.797    0.253    0.540   93.056    9.430
  216.102    0.256    0.555   96.643    8.446
  216.407    0.239    0.569   99.035    7.292
  216.711    0.243    0.590   99.036    6.182
  217.016    0.240    0.540   97.841    5.537
  217.321    0.239    0.520   92.464    5.851
  217.626    0.241    0.526   87.087    6.778
  217.931    0.245    0.503   86.490    8.146
  218.235    0.263    0.479   84.698    9.972
  218.540    0.296    0.489   82.906   11.766
  218.845    0.269    0.549   85.297   12.664
  219.150    0.206    0.563   91.872   12.209
  219.455    0.197    0.552   99.643   10.541
  219.759    0.213    0.568  105.022    7.037
  220.064    0.227    0.587  106.219    6.303
  220.369    0.225    0.532  104.427    5.857
  220.674    0.234    0.494  102.635    5.857
  220.979    0.241    0.533  105.624    6.305
  221.283    0.232    0.557  106.821    7.171
  221.588    0.222    0.524  105.626    7.862
  221.893    0.208    0.506  104.432    8.008
  222.198    0.201    0.535  104.433    7.720
  222.502    0.209    0.538  108.020    7.174
  222.807    0.200    0.531  112.204    6.915
  223.112    0.204    0.551  112.205    6.545
  223.417    0.224    0.550  109.218    6.427
  223.722    0.214    0.498  105.633    6.546
  224.026    0.226    0.443  103.244    7.446
  224.331    0.206    0.441   94.281    9.114
  224.636    0.203    0.485   96.075   10.366
  224.941    0.206    0.449   98.466   12.458
  225.246    0.213    0.464   98.467   13.409
  225.550    0.212    0.480   98.469   12.927
  225.855    0.201    0.500   98.470   11.793
  226.160    0.198    0.543   99.068   10.182
  226.465    0.201    0.557  101.459    8.168
  226.770    0.207    0.497  106.241    7.590
  227.074    0.218    0.458   97.278    8.476
  227.379    0.243    0.441   91.303    9.819
  227.684    0.267    0.427   91.902   10.376
  227.989    0.244    0.448   93.098   11.586
  228.294    0.238    0.495   91.904   11.587
  228.598    0.300    0.451   87.721   11.377
  228.903    0.298    0.422   79.953   10.769
  229.208    0.269    0.427   78.161   10.770
  229.513    0.277    0.446   80.553   11.174
  229.818    0.262    0.440   78.761   11.382
  230.122    0.237    0.451   75.774   11.594
  230.427    0.258    0.440   77.568   11.810
  230.732    0.271    0.430   82.350   11.596
  231.037    0.276    0.472   81.156   11.179
  231.342    0.258    0.492   81.754   10.388
  231.646    0.235    0.467   86.536   10.200
  231.951    0.202    0.430   87.733   10.390
  232.256    0.060    0.330   84.148   10.979
  232.561    0.010    0.184   69.806   12.955
  232.865    0.062    0.182   68.014   20.136
  233.170    0.135    0.373   75.187   23.759
  233.475    0.250    0.416   82.359   22.078
  233.780    0.263    0.443   84.153   13.445
  234.085    0.250    0.467   87.740   10.786
  234.389    0.229    0.477   91.327    9.486
  234.694    0.219    0.403   91.925    8.814
  234.999    0.208    0.508   88.938    8.497
  235.304    0.209    0.463   85.951    8.343
  235.609    0.207    0.406   81.171    8.656
  235.913    0.201    0.379   74.599    9.317
  236.218    0.271    0.424   76.990   10.597
  236.523    0.257    0.513   85.956   10.405
  236.828    0.246    0.527   89.542   10.216
  237.133    0.239    0.488   86.555    9.494
  237.437    0.247    0.473   82.971    8.985
  237.742    0.241    0.471   81.777    8.662
  238.047    0.240    0.478   81.180    8.049
  238.352    0.240    0.503   82.974    7.903
  238.657    0.226    0.504   88.951    8.200
  238.961    0.235    0.482   87.757    8.352
  239.266    0.220    0.465   88.953    8.353
  239.571    0.206    0.495   96.126    8.053
  239.876    0.225    0.532   94.334    7.763
  240.181    0.204    0.578   91.944    6.827
  240.485    0.201    0.563   95.531    5.681
  240.790    0.233    0.567  105.094    4.905
  241.095    0.238    0.610  109.876    4.394
  241.400    0.222    0.612  109.280    4.009
  241.705    0.214    0.583  103.902    3.936
  242.009    0.207    0.549  101.512    3.936
  242.314    0.201    0.527  104.501    4.818
  242.619    0.188    0.470   97.929    6.348
  242.924    0.176    0.427   87.173    7.770
  243.228    0.155    0.344   83.588   11.017
  243.533    0.133    0.411   93.151   14.515
  243.838    0.195    0.447   99.726   15.060
  244.143    0.226    0.437   98.532   14.254
  244.448    0.238    0.435   94.349   13.004
  244.752    0.228    0.442   88.972   12.536
  245.057    0.216    0.477   89.570   11.864
  245.362    0.213    0.477   92.559   11.230
  245.667    0.201    0.454   93.158   11.231
  245.972    0.192    0.410   99.733   11.232
  246.276    0.182    0.427  100.332   11.441
  246.581    0.173    0.428   91.966   12.543
  246.886    0.185    0.421  102.724   12.777
  247.191    0.195    0.423  104.518   13.015
  247.496    0.203    0.478  108.703   11.658
  247.800    0.212    0.495  109.899    8.850
  248.105    0.233    0.514   90.178    6.130
  248.410    0.267    0.500   74.043    6.018
  248.715    0.288    0.465   62.690    6.972
  249.020    0.280    0.436   62.691    9.185
  249.324    0.296    0.423   64.485   16.843
  249.629    0.287    0.445   66.876   19.157
  249.934    0.269    0.449   72.256   18.132
  250.239    0.257    0.485   75.843   16.848
