~VERSION INFORMATION
 VERS.                 2.0:   CWLS LOG ASCII STANDARD -VERSION 2.0
 WRAP.                  NO:   ONE LINE PER DEPTH STEP
~WELL INFORMATION BLOCK
#MNEM.UNIT           DATA                    DESCRIPTION OF MNEMONIC
#---------    -------------------            -------------------------------
# Generated from Intellog Unique Number	CW_76_78/WELL/702
NULL.         -999.25                        : NULL_VALUE
WELL.         ERSKINE-MARTEN HILLS 08-09     : Well_name    - WELL              
LOC .         00/08-09-077-02W5/0            : Location     - LOCATION          
UWI .         00/08-09-077-02W5/0            : Uwi          - UNIQUE WELL ID    
ENTR.         JAYE                           : Entered      - ENTERED BY        
SRVC.         WESTERN ATLAS                  : Scn          - SERVICE COMPANY   
DATE.         24 NOV 77                      : Date         - LOG DATE          
STRT.M        450                            : top_depth    - START DEPTH       
STOP.M        650                            : bot_depth    - STOP DEPTH        
STEP.M        0.25                           : increment    - STEP LENGTH       
~CURVE INFORMATION BLOCK
#MNEM UNIT       ERCB CURVE CODE    CURVE DESCRIPTION
#-----------   ------------------   ----------------------------------
DEPT.M        00 001 00 00         : DEPTH        - DEPTH                       
DPHI.V/V      00 890 00 00         : PHID         - DENSITY POROSITY (SANDSTONE)
NPHI.V/V      00 330 00 00         : PHIN         - NEUTRON POROSITY (SANDSTONE)
GR  .API      00 310 00 00         : GR           - GAMMA RAY                   
CALI.IN       00 280 01 00         : CAL          - CALIPER                     
ILD .OHMM     00 120 00 00         : RESD         - DEEP RESISTIVITY (DIL)      
~PARAMETER INFORMATION       
#MNEM.UNIT           DATA             DESCRIPTION OF MNEMONIC
#---------         -----------     ------------------------------
GL  .M        742.1                : gl           - GROUND LEVEL ELEVATION      
EREF.M        745.1                : kb           - ELEVATION OF DEPTH REFERENCE
DATM.M        742.1                : datum        - DATUM ELEVATION             
TDD .M        656                  : tdd          - TOTAL DEPTH DRILLER         
RUN .         ONE                  : Run          - RUN NUMBER                  
ENG .         WHERLEY              : Engineer     - RECORDING ENGINEER          
WIT .         FITZSIMMONS          : Witness      - WITNESSED BY                
BASE.         LEDUC                : Branch       - HOME BASE OF LOGGING UNIT   
MUD .         GEL CHEM             : Mud_type     - MUD TYPE                    
MATR.         SANDSTONE            : Logunit      - NEUTRON MATRIX              
TMAX.C        28                   : BHT          - MAXIMUM RECORDED TEMPERATURE
BHTD.M        656.1                : BHTDEP       - MAXIMUM RECORDED TEMPERATURE
RMT .C        18                   : MDTP         - TEMPERATURE OF MUD          
MUDD.KG/M     1150                 : MWT          - MUD DENSITY                 
NEUT.         1                    : NEUTRON      - NEUTRON TYPE                
RESI.         0                    : RESIST       - RESISTIVITY TYPE            
RM  .OHMM     4.1                  : RM           - RESISTIVITY OF MUD          
RMC .OHMM     3.2                  : RMC          - RESISTIVITY OF MUD CAKE     
RMF .OHMM     4.9                  : RMF          - RESISTIVITY OF MUD FILTRATE 
SUFT.C        4.5                  : SUFT         - SURFACE TEMPERATURE         
~A  DEPTH     PHID     PHIN       GR      CAL     RESD
# ...
  523.000    0.238    0.399   78.882    7.191    4.664
  523.250    0.232    0.393   72.351    7.177    4.658
  523.500    0.222    0.372   77.500    7.208    4.609
  523.750    0.217    0.372   78.204    7.247    4.501
  524.000    0.237    0.394   80.187    7.278    4.445
  524.250    0.241    0.404   83.148    7.293    4.457
  524.500    0.221    0.412   89.141    7.246    4.568
  524.750    0.215    0.423   86.931    7.216    4.866
  525.000    0.221    0.412   93.717    7.227    5.251
  525.250    0.195    0.375   81.778    7.230    5.762
  525.500    0.172    0.323   61.997    7.212    6.093
  525.750    0.109    0.250   50.605    7.203    6.199
  526.000    0.093    0.200   48.395    7.213    5.933
  526.250    0.193    0.263   56.763    7.240    5.892
  526.500    0.215    0.391   71.817    7.259    6.016
  526.750    0.214    0.384   82.191    7.241    6.199
  527.000    0.239    0.375   80.407    7.175    6.365
  527.250    0.294    0.379   65.002    7.056    6.596
  527.500    0.315    0.380   49.294    6.973    6.696
  527.750    0.318    0.370   47.023    6.943    6.750
  528.000    0.320    0.376   49.557    6.926    6.766
  528.250    0.335    0.386   52.510    6.924    6.781
  528.500    0.334    0.398   57.717    6.911    6.809
  528.750    0.322    0.402   58.727    6.921    6.763
  529.000    0.314    0.384   55.178    6.932    6.830
  529.250    0.325    0.388   53.090    6.938    7.025
  529.500    0.320    0.385   41.819    6.949    7.226
  529.750    0.309    0.374   47.756    6.952    7.419
  530.000    0.301    0.375   56.122    6.970    7.451
  530.250    0.314    0.391   50.447    6.981    7.495
  530.500    0.318    0.381   50.546    6.992    7.527
  530.750    0.317    0.383   46.997    7.003    7.461
  531.000    0.315    0.412   47.584    7.013    7.329
  531.250    0.316    0.399   53.882    7.028    7.144
  531.500    0.318    0.380   55.623    7.043    6.980
  531.750    0.308    0.385   54.390    7.061    6.881
  532.000    0.296    0.397   55.464    7.047    6.770
  532.250    0.307    0.391   56.531    7.050    6.662
  532.500    0.315    0.382   56.392    7.053    6.555
  532.750    0.316    0.383   57.762    7.055    6.475
  533.000    0.301    0.392   59.137    7.058    6.348
  533.250    0.309    0.388   50.299    7.040    6.223
  533.500    0.325    0.379   50.825    7.035    6.159
  533.750    0.330    0.370   58.158    7.021    6.049
  534.000    0.326    0.367   50.596    6.999    5.985
  534.250    0.323    0.370   56.228    6.994    5.933
  534.500    0.332    0.401   63.743    7.000    5.925
  534.750    0.344    0.394   50.895    7.015    5.929
  535.000    0.342    0.404   57.072    7.055    5.886
  535.250    0.332    0.387   60.090    7.061    5.836
  535.500    0.332    0.406   65.784    7.080    5.754
  535.750    0.329    0.401   60.348    7.086    5.672
  536.000    0.319    0.390   58.441    7.105    5.602
  536.250    0.319    0.386   66.081    7.112    5.522
  536.500    0.337    0.378   59.188    7.110    5.434
  536.750    0.340    0.386   64.031    7.109    5.387
  537.000    0.343    0.386   62.608    7.103    5.310
  537.250    0.342    0.378   77.422    7.117    5.294
  537.500    0.328    0.389   61.469    7.133    5.266
  537.750    0.323    0.383   53.304    7.135    5.261
  538.000    0.324    0.391   56.561    7.138    5.273
  538.250    0.319    0.402   62.620    7.140    5.315
  538.500    0.312    0.400   69.952    7.139    5.631
  538.750    0.309    0.388   81.000    7.145    6.088
  539.000    0.293    0.370   76.473    7.160    6.705
  539.250    0.257    0.346   76.390    7.183    7.606
  539.500    0.144    0.315   78.496    7.201    8.178
  539.750    0.095    0.273   58.474    7.208    7.243
  540.000    0.085    0.268   70.611    7.207    6.438
  540.250    0.206    0.346   75.450    7.205    5.961
  540.500    0.228    0.389   81.083    7.208    5.479
  540.750    0.238    0.386   79.114    7.210    5.283
  541.000    0.249    0.379   80.550    7.200    5.295
  541.250    0.238    0.370   82.657    7.171    5.396
  541.500    0.230    0.368   73.634    7.117    5.439
  541.750    0.231    0.390   80.665    7.063    5.452
  542.000    0.246    0.389   80.705    7.049    5.475
  542.250    0.259    0.374   82.871    7.080    5.378
  542.500    0.231    0.377   82.117    7.135    5.234
  542.750    0.213    0.395   81.914    7.194    5.046
  543.000    0.200    0.391   85.600    7.249    4.902
  543.250    0.193    0.378   85.333    7.293    4.788
  543.500    0.211    0.382   79.778    7.328    4.712
  543.750    0.213    0.390   75.136    7.358    4.628
  544.000    0.203    0.380   87.090    7.389    4.554
  544.250    0.208    0.370   86.460    7.420    4.506
  544.500    0.206    0.376   87.289    7.451    4.500
  544.750    0.200    0.398   88.299    7.478    4.511
  545.000    0.195    0.394   87.669    7.497    4.513
  545.250    0.186    0.392   95.067    7.495    4.507
  545.500    0.200    0.409   93.278    7.482    4.526
  545.750    0.212    0.424   94.412    7.440    4.544
  546.000    0.211    0.419  100.407    7.357    4.547
  546.250    0.205    0.407   90.840    7.295    4.541
  546.500    0.204    0.386   88.752    7.196    4.558
  546.750    0.206    0.376   85.814    7.158    4.562
  547.000    0.226    0.381   84.576    7.124    4.564
  547.250    0.229    0.386   88.014    7.078    4.559
  547.500    0.231    0.379   83.007    7.065    4.544
  547.750    0.241    0.373   81.224    7.055    4.555
  548.000    0.236    0.383   90.563    7.069    4.565
  548.250    0.222    0.376   99.052    7.096    4.610
  548.500    0.209    0.372  105.050    7.107    4.638
  548.750    0.211    0.373   96.877    7.118    4.692
  549.000    0.238    0.398   77.159    7.120    4.809
  549.250    0.232    0.387   82.485    7.139    5.048
  549.500    0.212    0.370   76.809    7.126    5.769
  549.750    0.163    0.336   66.452    7.140    6.411
  550.000    0.113    0.335   60.168    7.163    6.546
  550.250    0.198    0.410   61.786    7.186    6.478
  550.500    0.227    0.416   69.729    7.213    5.899
  550.750    0.232    0.398   76.334    7.219    5.625
  551.000    0.224    0.387   80.871    7.214    5.474
  551.250    0.217    0.379   85.044    7.176    5.327
  551.500    0.214    0.401   86.056    7.150    5.242
  551.750    0.215    0.395   83.054    7.124    5.139
  552.000    0.214    0.394   75.794    7.086    5.113
  552.250    0.211    0.425   74.437    7.044    5.126
  552.500    0.202    0.405   82.680    7.023    5.147
  552.750    0.199    0.391   85.699    7.009    5.483
  553.000    0.247    0.393   92.424    6.995    5.972
  553.250    0.267    0.433   84.559    6.982    6.566
  553.500    0.279    0.391   77.727    6.993    7.151
  553.750    0.278    0.385   71.626    7.003    8.038
  554.000    0.272    0.387   62.362    7.022    8.390
  554.250    0.276    0.387   64.346    7.041    8.409
  554.500    0.294    0.382   75.148    7.051    8.352
  554.750    0.299    0.384   69.409    7.066    8.308
  555.000    0.290    0.395   71.391    7.076    8.269
  555.250    0.283    0.407   75.321    7.079    8.365
  555.500    0.291    0.390   72.808    7.086    8.525
  555.750    0.293    0.387   71.691    7.076    8.689
  556.000    0.289    0.385   82.611    7.062    8.757
  556.250    0.278    0.384   88.242    7.065    8.745
  556.500    0.274    0.381   73.994    7.060    8.526
  556.750    0.284    0.418   66.009    7.054    8.358
  557.000    0.293    0.405   62.092    7.044    8.105
  557.250    0.297    0.387   72.163    7.047    7.859
  557.500    0.288    0.385   72.687    7.050    7.591
  557.750    0.265    0.394   71.023    7.060    7.334
  558.000    0.253    0.378   78.602    7.067    6.929
  558.250    0.246    0.358   73.653    7.065    6.439
  558.500    0.247    0.363   66.274    7.064    6.028
  558.750    0.258    0.376   70.873    7.054    5.728
  559.000    0.257    0.395   67.814    7.049    5.523
  559.250    0.250    0.410   70.282    7.051    5.365
