~VERSION INFORMATION
 VERS.                 2.0:   CWLS LOG ASCII STANDARD -VERSION 2.0
 WRAP.                  NO:   ONE LINE PER DEPTH STEP
~WELL INFORMATION BLOCK
#MNEM.UNIT           DATA                    DESCRIPTION OF MNEMONIC
#---------    -------------------            -------------------------------
# Generated from Intellog Unique Number	CC_80_83/WELL/1164
NULL.         -999.25                        : NULL_VALUE
LOC .         06-34-080-17W4            : Location     - LOCATION          
UWI .         00/06-34-080-17W4/0            : Uwi          - UNIQUE WELL ID    
ENTR.         DW                             : Entered      - ENTERED BY        
SRVC.         SCHLUMBERGER                   : Scn          - SERVICE COMPANY   
STRT.M        150                            : top_depth    - START DEPTH       
STOP.M        320.098                        : bot_depth    - STOP DEPTH        
STEP.M        0.3                            : increment    - STEP LENGTH       
~CURVE INFORMATION BLOCK
#MNEM UNIT       ERCB CURVE CODE    CURVE DESCRIPTION
#-----------   ------------------   ----------------------------------
DEPT.M        00 001 00 00         : DEPTH        - DEPTH                       
DPHI.V/V      00 890 00 00         : PHID         - DENSITY POROSITY (LIMESTONE)
NPHI.V/V      00 330 00 00         : PHIN         - NEUTRON POROSITY (LIMESTONE)
GR  .API      00 310 00 00         : GR           - GAMMA RAY                   
ILD .OHMM     00 120 00 00         : RESD         - DEEP RESISTIVITY (DIL)      
~PARAMETER INFORMATION       
#MNEM.UNIT           DATA             DESCRIPTION OF MNEMONIC
#---------         -----------     ------------------------------
GL  .M        547                  : gl           - GROUND LEVEL ELEVATION      
EREF.M        550                  : kb           - ELEVATION OF DEPTH REFERENCE
DATM.M        550                  : datum        - DATUM ELEVATION             
TDD .M        321                  : tdd          - TOTAL DEPTH DRILLER         
RUN .         ONE                  : Run          - RUN NUMBER                  
ENG .         BILL                 : Engineer     - RECORDING ENGINEER          
WIT .         JIM                  : Witness      - WITNESSED BY                
MUD .         GEL                  : Mud_type     - MUD TYPE                    
MATR.         LIMESTONE            : Logunit      - NEUTRON MATRIX              
TMAX.C        15.5                 : BHT          - MAXIMUM RECORDED TEMPERATURE
BHTD.M        321                  : BHTDEP       - MAXIMUM RECORDED TEMPERATURE
MATR.         0                    : LOGUNIT      - NEUTRON MATRIX              
RMT .C        25                   : MDTP         - TEMPERATURE OF MUD          
NEUT.         1                    : NEUTRON      - NEUTRON TYPE                
RESI.         0                    : RESIST       - RESISTIVITY TYPE            
RMC .OHMM     0.25                 : RMC          - RESISTIVITY OF MUD CAKE     
RMF .OHMM     0.25                 : RMF          - RESISTIVITY OF MUD FILTRATE 
SUFT.C        15                   : SUFT         - SURFACE TEMPERATURE         
~A  DEPTH     PHID     PHIN       GR     RESD
# ...
  254.401    0.328    0.360   31.039   15.468
  254.701    0.331    0.367   33.467   14.643
  255.001    0.328    0.380   35.298   13.606
  255.301    0.330    0.388   36.528   13.876
  255.601    0.320    0.363   35.958   14.147
  255.901    0.310    0.375   35.992   14.155
  256.201    0.309    0.380   37.233   13.656
  256.501    0.308    0.365   37.852   14.454
  256.801    0.298    0.393   40.283   10.942
  257.101    0.237    0.396   49.918   10.553
  257.401    0.105    0.182   52.350   13.199
  257.701    0.167    0.269   46.984   26.767
  258.001    0.302    0.309   42.205   57.394
  258.301    0.327    0.341   37.443   15.644
  258.601    0.337    0.353   36.879   11.207
  258.901    0.337    0.357   36.900   11.860
  259.201    0.305    0.343   38.730   12.094
  259.501    0.217    0.331   41.160   13.784
  259.801    0.231    0.343   38.797   24.090
  260.101    0.335    0.348   37.619   14.332
  260.401    0.339    0.351   40.662   12.593
  260.701    0.340    0.362   41.289   13.085
  261.001    0.335    0.362   38.312   13.339
  261.301    0.317    0.390   36.549   14.934
  261.601    0.322    0.384   36.577   15.507
  261.901    0.319    0.352   35.412   15.518
  262.201    0.317    0.358   34.830   14.693
  262.501    0.325    0.347   36.060   13.908
  262.801    0.325    0.345   39.096   13.662
  263.101    0.311    0.399   41.523   12.459
  263.401    0.173    0.407   47.559   10.950
  263.701    0.113    0.125   54.792   10.958
  264.001    0.000    0.090   58.429   23.064
  264.301    0.148    0.145   54.856   65.359
  264.601    0.270    0.233   43.478   57.432
  264.901    0.329    0.334   39.912   13.491
  265.201    0.306    0.401   38.741   11.425
  265.501    0.302    0.378   38.772   13.026
  265.801    0.315    0.368   38.212   13.531
  266.101    0.326    0.357   37.038   13.289
  266.401    0.332    0.353   36.460   13.551
  266.701    0.333    0.355   35.905   14.345
  267.001    0.337    0.379   37.127   14.089
  267.301    0.331    0.391   40.764   12.615
  267.601    0.303    0.394   41.987   12.394
  267.901    0.266    0.348   42.016   12.872
  268.201    0.219    0.307   40.241   15.805
  268.501    0.251    0.347   36.677   13.383
  268.801    0.297    0.364   37.319   12.668
  269.101    0.294    0.375   38.542   12.921
  269.401    0.294    0.382   39.764   13.170
  269.701    0.306    0.397   40.407   13.686
  270.001    0.311    0.398   40.424   13.695
  270.301    0.300    0.385   41.661   13.709
  270.600    0.297    0.357   44.089   13.982
  270.900    0.280    0.335   44.124   13.990
  271.200    0.270    0.344   45.956   14.265
  271.500    0.291    0.374   51.394   12.768
  271.800    0.291    0.403   55.616   11.431
  272.100    0.249    0.388   62.253   11.659
  272.400    0.237    0.388   64.680   11.886
  272.700    0.258    0.364   65.920   10.841
  273.000    0.257    0.379   66.546    9.887
  273.300    0.249    0.386   67.782    9.362
  273.600    0.247    0.385   67.812    9.194
  273.900    0.251    0.384   66.641    9.034
  274.200    0.248    0.381   62.461    9.383
  274.500    0.236    0.378   59.494   11.521
  274.800    0.224    0.363   63.129   13.631
  275.100    0.221    0.351   65.566   13.393
  275.400    0.225    0.358   66.201   11.130
  275.700    0.223    0.379   66.226   10.733
  276.000    0.225    0.403   66.263   10.948
  276.300    0.215    0.382   66.881   10.955
  276.600    0.212    0.375   67.522   11.169
  276.900    0.214    0.388   67.538   11.178
  277.200    0.235    0.382   67.569   11.614
  277.500    0.242    0.364   67.001   12.065
  277.800    0.235    0.347   66.437   12.075
  278.100    0.229    0.346   65.260   10.035
  278.400    0.231    0.379   61.097    8.820
  278.700    0.235    0.396   58.727    8.827
  279.000    0.227    0.400   58.753   10.638
  279.300    0.214    0.360   59.993   18.940
  279.600    0.174    0.317   62.420   21.996
  279.900    0.209    0.326   64.852   18.974
  280.200    0.235    0.340   66.684   13.097
  280.500    0.227    0.367   66.708   11.725
  280.800    0.222    0.381   66.141   10.695
  281.100    0.249    0.376   65.583   10.124
  281.400    0.246    0.373   64.996    9.947
  281.700    0.223    0.378   62.625    9.770
  282.000    0.210    0.370   54.252    9.779
  282.300    0.197    0.365   44.079   11.569
  282.600    0.267    0.367   41.108   15.882
  282.900    0.235    0.347   39.345   18.102
  283.200    0.272    0.338   38.767   18.805
  283.500    0.292    0.367   41.800   15.630
  283.800    0.273    0.367   47.833   13.735
  284.100    0.269    0.363   55.671   15.370
  284.400    0.267    0.357   50.899   15.672
  284.700    0.264    0.346   51.536   14.295
  285.000    0.259    0.364   52.169   12.797
  285.300    0.256    0.395   53.996   12.573
  285.600    0.265    0.355   57.622   13.059
  285.900    0.265    0.332   62.468   13.823
  286.200    0.260    0.333   64.288   13.326
  286.500    0.238    0.346   66.119   11.284
  286.800    0.194    0.346   66.751   12.396
  287.100    0.184    0.374   65.575   12.638
  287.400    0.233    0.373   59.605   13.127
  287.700    0.248    0.359   52.431   13.391
  288.000    0.238    0.352   50.665   13.396
  288.300    0.222    0.359   51.294   13.663
  288.600    0.265    0.378   54.923   12.230
  288.900    0.266    0.391   60.957   10.748
  289.200    0.252    0.357   63.400   11.375
  289.500    0.054    0.243   63.423   96.463
  289.800    0.014    0.144   59.851  199.291
  290.100    0.045    0.144   58.081   59.616
  290.400    0.144    0.179   58.118   31.715
  290.700    0.221    0.298   58.741   12.304
  291.000    0.246    0.340   59.375   10.038
  291.300    0.251    0.350   60.611    9.865
  291.600    0.242    0.363   63.044   10.245
  291.900    0.195    0.311   64.262   11.252
  292.200    0.081    0.215   66.696   31.887
  292.500    0.201    0.278   67.327   11.272
  292.800    0.235    0.343   66.773   10.670
  293.100    0.274    0.365   66.192   12.391
  293.400    0.284    0.366   65.033   12.636
  293.700    0.284    0.376   65.048   12.646
  294.000    0.272    0.361   66.290   11.976
  294.300    0.256    0.351   66.908   11.983
  294.600    0.241    0.350   66.939   12.448
  294.900    0.230    0.340   66.372   12.928
  295.199    0.244    0.357   64.605   13.431
  295.499    0.251    0.353   63.446   13.193
  295.799    0.260    0.344   63.473   12.260
  296.099    0.261    0.358   63.498   11.184
  296.399    0.251    0.383   64.122   11.404
  296.699    0.251    0.387   65.370   12.526
  296.999    0.239    0.370   66.592   13.006
  297.299    0.191    0.370   67.213   11.644
  297.599    0.201    0.399   68.454    8.497
  297.899    0.220    0.394   68.503    7.198
  298.199    0.226    0.371   67.927    7.477
  298.499    0.234    0.365   67.951    8.059
  298.799    0.215    0.370   67.375    9.536
  299.099    0.204    0.376   66.209   10.669
  299.399    0.183    0.370   64.430   10.676
  299.699    0.142    0.351   57.256   14.121
  299.999    0.138    0.310   50.081   18.677
  300.299    0.175    0.327   45.911   17.039
  300.599    0.183    0.321   42.344   15.833
  300.899    0.209    0.321   42.973   15.268
  301.199    0.249    0.347   49.007   14.449
  301.499    0.243    0.349   46.636   13.677
  301.799    0.227    0.345   43.660   14.745
  302.099    0.189    0.373   48.493   18.447
  302.399    0.128    0.293   53.930   20.259
  302.699    0.137    0.287   55.157   12.981
  302.999    0.194    0.309   51.602   13.236
  303.299    0.201    0.336   49.219   14.272
  303.599    0.205    0.348   46.855   15.673
  303.899    0.207    0.348   47.489   18.202
  304.199    0.202    0.328   49.307   17.554
  304.499    0.184    0.324   51.741   16.616
  304.799    0.196    0.336   54.772   16.026
  305.099    0.204    0.353   57.211   16.649
  305.399    0.198    0.352   59.649   17.289
  305.699    0.102    0.251   60.877   31.952
  305.999    0.113    0.246   60.895   20.098
  306.299    0.162    0.295   62.137   15.798
