~VERSION INFORMATION
 VERS.                 2.0:   CWLS LOG ASCII STANDARD -VERSION 2.0
 WRAP.                  NO:   ONE LINE PER DEPTH STEP
~WELL INFORMATION BLOCK
#MNEM.UNIT           DATA                    DESCRIPTION OF MNEMONIC
#---------    -------------------            -------------------------------
# Generated from Intellog Unique Number	CS_73_76/WELL/2610
WELL.         BOW VALLEY INDUSTRIES LTD      : Well_name    - WELL
LOC .         00/07-30-075-15W4/0            : Location     - LOCATION
UWI .         00/07-30-075-15W4/0            : Uwi          - UNIQUE WELL ID
ENTR.         SP                             : Entered      - ENTERED BY
SRVC.         SCHLUMBERGER                   : Scn          - SERVICE COMPANY
STRT.M        350                            : top_depth    - START DEPTH
STOP.M        565                            : bot_depth    - STOP DEPTH
STEP.M        0.25                           : increment    - STEP LENGTH
 NULL. -999.2500:NULL Value
~CURVE INFORMATION BLOCK
#MNEM UNIT       ERCB CURVE CODE    CURVE DESCRIPTION
#-----------   ------------------   ----------------------------------
DEPT.M        00 001 00 00         : DEPTH        - DEPTH
ILD .OHMM     00 120 00 00         : RESD         - DEEP RESISTIVITY (DIL)
DPHI.V/V      00 890 00 00         : PHID         - DENSITY POROSITY (LIMESTONE)
NPHI.V/V      00 330 00 00         : PHIN         - NEUTRON POROSITY (LIMESTONE)
GR  .API      00 310 00 00         : GR           - GAMMA RAY
~PARAMETER INFORMATION
#MNEM.UNIT           DATA             DESCRIPTION OF MNEMONIC
#---------         -----------     ------------------------------
GL  .M        733.4                : gl           - GROUND LEVEL ELEVATION
EREF.M        736.4                : kb           - ELEVATION OF DEPTH REFERENCE
DATM.M        733.4                : datum        - DATUM ELEVATION
TDD .M        564                  : tdd          - TOTAL DEPTH DRILLER
RUN .         ONE                  : Run          - RUN NUMBER
ENG .         BILL                 : Engineer     - RECORDING ENGINEER
WIT .         JIM                  : Witness      - WITNESSED BY
MUD .         GEL                  : Mud_type     - MUD TYPE
MATR.         LIMESTONE            : Logunit      - NEUTRON MATRIX
TMAX.C        26.6                 : BHT          - MAXIMUM RECORDED TEMPERATURE
BHTD.M        564                  : BHTDEP       - MAXIMUM RECORDED TEMPERATURE
MATR.         1                    : LOGUNIT      - NEUTRON MATRIX
RMT .C        25                   : MDTP         - TEMPERATURE OF MUD
NEUT.         1                    : NEUTRON      - NEUTRON TYPE
RESI.         0                    : RESIST       - RESISTIVITY TYPE
RMC .OHMM     0.25                 : RMC          - RESISTIVITY OF MUD CAKE
RMF .OHMM     0.25                 : RMF          - RESISTIVITY OF MUD FILTRATE
SUFT.C        15                   : SUFT         - SURFACE TEMPERATURE
~A  DEPTH     RESD     PHID     PHIN       GR
# ...
  524.000    6.700    0.171    0.383   97.295
  524.250    6.335    0.164    0.408   96.700
  524.500    5.879    0.172    0.430   93.098
  524.750    5.664    0.177    0.435   93.106
  525.000    5.558    0.179    0.429   93.716
  525.250    5.558    0.189    0.420   94.930
  525.500    5.557    0.207    0.410   97.353
  525.750    5.767    0.227    0.409   97.358
  526.000    5.985    0.204    0.409   96.163
  526.250    6.211    0.185    0.413   93.763
  526.500    6.327    0.194    0.409   90.156
  526.750    6.690    0.207    0.415   80.526
  527.000    6.943    0.216    0.420   73.911
  527.250    7.205    0.192    0.432   70.907
  527.500    7.618    0.168    0.382   76.939
  527.750    8.055    0.108    0.317   88.996
  528.000    8.516    0.126    0.363   99.849
  528.250    8.515    0.191    0.428  100.465
  528.500    8.052    0.198    0.432  100.470
  528.750    7.200    0.191    0.428   99.274
  529.000    6.559    0.196    0.428  104.104
  529.250    6.318    0.184    0.425  109.536
  529.500    6.086    0.176    0.411  111.351
  529.750    5.974    0.187    0.414  111.966
  530.000    5.862    0.185    0.406  111.973
  530.250    5.972    0.190    0.394  108.969
  530.500    6.083    0.204    0.400  105.965
  530.750    6.197    0.217    0.411  110.192
  531.000    6.196    0.208    0.416  110.803
  531.250    5.969    0.203    0.411  103.584
  531.500    5.644    0.210    0.405  101.181
  531.750    5.337    0.214    0.397   98.782
  532.000    5.237    0.216    0.401   96.983
  532.250    5.140    0.194    0.412   96.995
  532.500    5.045    0.187    0.426   98.810
  532.750    4.860    0.176    0.426  103.639
  533.000    4.346    0.193    0.412  103.044
  533.250    3.540    0.211    0.405  100.643
  533.500    2.831    0.232    0.407   98.846
  533.750    2.394    0.247    0.445   96.445
  534.000    2.062    0.264    0.497   94.646
  534.250    1.810    0.275    0.538   92.848
  534.500    1.744    0.282    0.567   92.256
  534.750    1.711    0.262    0.568   96.480
  535.000    1.743    0.251    0.531  103.719
  535.250    1.776    0.251    0.502  104.932
  535.500    1.843    0.247    0.499  102.531
  535.750    2.023    0.244    0.506  103.746
  536.000    2.391    0.245    0.523   96.526
  536.250    2.880    0.219    0.533   93.524
  536.500    3.342    0.184    0.483   95.943
  536.750    3.807    0.172    0.413   98.964
  537.000    4.257    0.173    0.428  101.986
  537.250    4.939    0.171    0.434  103.803
  537.500    5.522    0.161    0.443  103.208
  537.750    5.949    0.152    0.394   98.397
  538.000    6.408    0.173    0.376   97.201
  538.250    6.407    0.187    0.394   97.209
  538.500    6.527    0.177    0.407   89.388
  538.750    6.287    0.142    0.400   89.397
  539.000    6.056    0.143    0.385   94.828
  539.250    6.170    0.166    0.409  103.874
  539.500    6.403    0.177    0.431  100.268
  539.750    6.522    0.193    0.442   85.818
  540.000    6.522    0.103    0.340   76.188
  540.250    6.521    0.079    0.323   81.019
  540.500    6.520    0.110    0.349   87.653
  540.750    6.399    0.135    0.375   98.505
  541.000    6.518    0.172    0.402  107.553
  541.250    6.892    0.174    0.402  107.560
  541.500    7.423    0.167    0.408  105.161
  541.750    7.704    0.136    0.412  104.567
  542.000    8.299    0.068    0.391  103.973
  542.250    8.613    0.061    0.335  100.970
  542.500    8.938    0.097    0.327  101.582
  542.750    9.105    0.134    0.340  104.001
  543.000    9.104    0.150    0.362  105.215
  543.250    8.934    0.102    0.358  105.224
  543.500    8.769    0.104    0.323  105.835
  543.750    8.447    0.131    0.327  111.267
  544.000    7.414    0.162    0.349  119.109
  544.250    6.754    0.181    0.378  122.730
  544.500    6.386    0.189    0.389  126.356
  544.750    6.385    0.172    0.404  129.379
  545.000    6.385    0.162    0.417  130.588
  545.250    6.504    0.149    0.428  136.624
  545.500    6.503    0.087    0.437  140.245
  545.750    6.382    0.081    0.385  131.218
  546.000    6.264    0.109    0.373  113.157
  546.250    5.706    0.170    0.392  111.961
  546.500    5.102    0.179    0.402  114.378
  546.750    4.915    0.181    0.421  118.607
  547.000    4.915    0.181    0.427  119.819
  547.250    5.196    0.174    0.437  119.829
  547.500    5.494    0.156    0.450  116.824
  547.750    6.143    0.121    0.432  101.772
  548.000    6.868    0.093    0.438   89.131
  548.250    7.678    0.106    0.319   83.717
  548.500    8.271    0.135    0.333   87.944
  548.750    8.745    0.167    0.359   99.402
  549.000    8.908    0.186    0.385  105.432
  549.250    9.074    0.203    0.406  116.287
  549.500    9.073    0.204    0.391  122.921
  549.750    9.243    0.183    0.392  124.137
  550.000    9.415    0.213    0.394  116.919
  550.250    9.955    0.206    0.391  111.505
  550.500   10.525    0.181    0.386  106.693
  550.750   10.923    0.177    0.335  107.303
  551.000   11.127    0.163    0.331  116.952
  551.250    9.586    0.152    0.360  123.587
  551.500    8.897    0.193    0.394  130.223
  551.750    8.412    0.204    0.411  137.462
  552.000    8.411    0.203    0.425  134.462
  552.250    9.060    0.166    0.430  129.047
  552.500    9.943    0.149    0.378  111.584
  552.750   11.117    0.213    0.330  101.353
  553.000   13.642    0.234    0.300   97.144
  553.250   14.971    0.240    0.285   95.346
  553.500   16.127    0.233    0.278   98.969
  553.750   16.427    0.237    0.298  106.815
  554.000   16.122    0.198    0.330  109.232
  554.250   15.244    0.184    0.364  108.637
  554.500   14.685    0.206    0.388  107.439
  554.750   14.413    0.213    0.377  109.861
  555.000   13.884    0.214    0.359  108.664
  555.250   13.626    0.196    0.344  105.058
  555.500   13.624    0.177    0.350  102.657
  555.750   13.623    0.154    0.353  102.665
  556.000   13.877    0.128    0.345   98.458
  556.250   14.136    0.119    0.348   91.840
  556.500   14.134    0.152    0.333   87.632
  556.750   13.117    0.165    0.308  106.316
  557.000   11.950    0.146    0.333  118.375
  557.250   10.886    0.155    0.359  118.985
  557.500   10.294    0.172    0.368  114.778
  557.750   10.102    0.182    0.360  110.571
  558.000   10.485    0.193    0.357  109.977
  558.250   11.085    0.203    0.368  113.601
  558.500   11.504    0.184    0.359  111.200
  558.750   12.392    0.163    0.336  108.799
  559.000   12.624    0.159    0.338  109.410
  559.250   13.101    0.165    0.343  108.216
  559.500   13.345    0.175    0.334  108.224
  559.750   13.343    0.182    0.334  109.438
  560.000   13.342    0.187    0.335  108.242
  560.250   13.340    0.201    0.341  108.251
  560.500   13.589    0.206    0.356  112.481
  560.750   14.103    0.184    0.363  112.488
  561.000   14.911    0.175    0.338  111.893
  561.250   15.475    0.190    0.331  110.094
  561.500   16.059    0.219    0.337  114.321
  561.750   16.058    0.231    0.347  114.932
  562.000   16.055    0.206    0.355  112.533
  562.250   16.053    0.203    0.363  112.542
  562.500   15.755    0.208    0.372  112.551
  562.750   15.463    0.206    0.385  110.751
  563.000   15.460    0.197    0.378  109.558
  563.250   15.173    0.176    0.370  109.566
  563.500   14.892    0.172    0.375  110.779
  563.750   14.346    0.190    0.388  112.597
  564.000   13.819    0.191    0.399  113.212
  564.250   12.589    0.174    0.400  112.615
  564.500   12.127    0.142    0.390  112.628
  564.750   11.683    0.148    0.354  112.634
  565.000   11.254    0.168    0.359  113.247
