~VERSION INFORMATION
 VERS.                 2.0:   CWLS LOG ASCII STANDARD -VERSION 2.0
 WRAP.                  NO:   ONE LINE PER DEPTH STEP
~WELL INFORMATION BLOCK
#MNEM.UNIT           DATA                    DESCRIPTION OF MNEMONIC
#---------    -------------------            -------------------------------
# Generated from Intellog Unique Number	CC_80_83/WELL/2301
NULL.         -999.25                        : NULL_VALUE
WELL.         PARA ET AL GRANOR              : Well_name    - WELL
LOC .         07-25-083-18W4                 : Location     - LOCATION          
UWI .         00/07-25-083-18W400            : Uwi          - UNIQUE WELL ID    
ENTR.         DW                             : Entered      - ENTERED BY        
SRVC.         COMPUTALOG                     : Scn          - SERVICE COMPANY   
DATE.         18 JAN 82                      : Date         - LOG DATE
STRT.M        95                             : top_depth    - START DEPTH       
STOP.M        290                            : bot_depth    - STOP DEPTH        
STEP.M        0.3                            : increment    - STEP LENGTH       
~CURVE INFORMATION BLOCK
#MNEM UNIT       ERCB CURVE CODE    CURVE DESCRIPTION
#-----------   ------------------   ----------------------------------
DEPT.M        00 001 00 00         : DEPTH        - DEPTH                       
DPHI.V/V      00 890 00 00         : PHID         - DENSITY POROSITY (LIMESTONE)
NPHI.V/V      00 330 00 00         : PHIN         - NEUTRON POROSITY (LIMESTONE)
GR  .API      00 310 00 00         : GR           - GAMMA RAY                   
ILD .OHMM     00 120 00 00         : RESD         - DEEP RESISTIVITY (DIL)      
~PARAMETER INFORMATION       
#MNEM.UNIT           DATA             DESCRIPTION OF MNEMONIC
#---------         -----------     ------------------------------
GL  .M        543.08               : gl           - GROUND LEVEL ELEVATION      
EREF.M        546.68               : kb           - ELEVATION OF DEPTH REFERENCE
DATM.M        546.68               : datum        - DATUM ELEVATION             
TDD .M        298                  : tdd          - TOTAL DEPTH DRILLER         
RUN .         ONE                  : Run          - RUN NUMBER                  
ENG .         BILL                 : Engineer     - RECORDING ENGINEER          
WIT .         JIM                  : Witness      - WITNESSED BY                
MUD .         GEL                  : Mud_type     - MUD TYPE                    
MATR.         LIMESTONE            : Logunit      - NEUTRON MATRIX              
TMAX.C        20                   : BHT          - MAXIMUM RECORDED TEMPERATURE
BHTD.M        298                  : BHTDEP       - MAXIMUM RECORDED TEMPERATURE
MATR.         1                    : LOGUNIT      - NEUTRON MATRIX              
RMT .C        25                   : MDTP         - TEMPERATURE OF MUD          
NEUT.         1                    : NEUTRON      - NEUTRON TYPE                
RESI.         0                    : RESIST       - RESISTIVITY TYPE            
RMC .OHMM     0.25                 : RMC          - RESISTIVITY OF MUD CAKE     
RMF .OHMM     0.25                 : RMF          - RESISTIVITY OF MUD FILTRATE 
SUFT.C        15                   : SUFT         - SURFACE TEMPERATURE         
~A  DEPTH     PHID     PHIN       GR     RESD
# ...
  199.401    0.201    0.422   88.380    9.003
  199.701    0.199    0.385   89.611    9.008
  200.001    0.207    0.370   89.017    9.018
  200.301    0.218    0.374   89.026    8.695
  200.601    0.206    0.394   89.647    8.700
  200.901    0.210    0.415   92.708    7.930
  201.201    0.196    0.432   93.329    7.787
  201.501    0.199    0.405   86.637    7.651
  201.801    0.215    0.373   79.340    7.950
  202.101    0.202    0.357   80.572    8.108
  202.401    0.196    0.326   83.632    8.426
  202.701    0.202    0.341   88.517    8.593
  203.001    0.195    0.370   92.183    8.602
  203.301    0.190    0.439   88.539    8.943
  203.601    0.194    0.465   76.365    9.291
  203.901    0.252    0.407   69.674    9.657
  204.201    0.244    0.380   67.859    9.665
  204.501    0.225    0.371   72.749    9.491
  204.801    0.184    0.387   79.461    8.979
  205.101    0.213    0.413   89.224    8.029
  205.401    0.187    0.494   77.659    7.047
  205.701    0.149    0.453   86.201    6.544
  206.001    0.227    0.473   94.134    6.672
  206.301    0.238    0.488   95.975    6.935
  206.601    0.242    0.448   89.285    6.562
  206.901    0.240    0.463   89.301    5.979
  207.201    0.241    0.496   91.746    5.246
  207.501    0.260    0.522   87.493    5.057
  207.801    0.261    0.496   86.286    5.159
  208.101    0.255    0.454   74.721    5.890
  208.401    0.248    0.425   62.547    6.723
  208.701    0.228    0.449   63.777    7.819
  209.001    0.220    0.420   61.961    9.626
  209.301    0.259    0.454   66.851    9.999
  209.601    0.278    0.491   72.955   10.395
  209.901    0.265    0.523   76.013    9.652
  210.201    0.227    0.430   69.935    8.960
  210.501    0.166    0.367   66.288    8.322
  210.801    0.187    0.404   76.663    8.330
  211.101    0.238    0.463   76.064    8.494
  211.401    0.227    0.445   74.251    8.824
  211.701    0.206    0.423   74.266    9.173
  212.001    0.203    0.395   74.881    8.678
  212.301    0.222    0.387   80.988    8.054
  212.601    0.233    0.401   90.141    7.341
  212.901    0.227    0.469   95.028    7.076
  213.201    0.204    0.451   86.510    6.699
  213.501    0.182    0.386   78.599    6.706
  213.801    0.204    0.399   83.486    6.837
  214.101    0.200    0.450   89.592    6.971
  214.401    0.217    0.422   90.826    7.109
  214.701    0.227    0.476   88.398    6.853
  215.001    0.218    0.531   92.677    6.607
  215.301    0.205    0.470   94.516    6.612
  215.601    0.199    0.450   89.046    6.876
  215.901    0.215    0.422   98.198    7.144
  216.201    0.218    0.367  103.085    7.422
  216.501    0.168    0.347   93.956    7.858
  216.801    0.155    0.401   86.658    8.640
  217.101    0.231    0.520   84.232    9.500
  217.401    0.226    0.454   58.650   10.446
  217.701    0.014    0.291   53.790   11.704
  218.001    0.000    0.181   55.018   13.108
  218.301    0.000    0.196   65.999   14.415
  218.601    0.060    0.376   76.371   14.161
  218.901    0.143    0.385   86.742   11.966
  219.201    0.178    0.422   92.239    9.742
  219.501    0.185    0.434   92.864    8.392
  219.801    0.187    0.468   90.437    7.937
  220.101    0.198    0.499   87.402    7.651
  220.401    0.190    0.446   85.587    7.663
  220.701    0.186    0.414   83.162    7.814
  221.001    0.184    0.419   80.127    8.120
  221.301    0.220    0.494   82.578    8.125
  221.601    0.228    0.496   84.418    8.444
  221.901    0.218    0.550   82.602    8.777
  222.201    0.208    0.550   82.003    9.292
  222.501    0.127    0.403   78.359    9.841
  222.801    0.125    0.369   78.981   10.228
  223.101    0.224    0.463   85.086   10.048
  223.401    0.226    0.411   87.537    9.330
  223.701    0.208    0.365   89.988    8.994
  224.001    0.198    0.370   89.389    8.667
  224.301    0.198    0.464   86.964    8.518
  224.601    0.198    0.444   84.538    8.686
  224.901    0.199    0.397   82.118    8.857
  225.201    0.197    0.438   79.688    9.204
  225.501    0.199    0.503   86.407    9.216
  225.801    0.204    0.490   87.030    9.052
  226.101    0.209    0.378   85.820    8.725
  226.401    0.203    0.335   86.442    8.411
  226.701    0.184    0.341   87.062    8.110
  227.001    0.175    0.379   89.515    7.967
  227.301    0.195    0.405   89.524    7.973
  227.601    0.197    0.398   87.713    8.129
  227.901    0.174    0.390   86.502    8.292
  228.201    0.162    0.406   86.516    8.459
  228.501    0.161    0.427   84.707    8.306
  228.801    0.188    0.422   84.105    8.474
  229.101    0.182    0.423   85.944    8.644
  229.401    0.156    0.456   87.173    8.647
  229.701    0.141    0.448   84.748    8.655
  230.001    0.157    0.419   81.719    8.190
  230.301    0.175    0.435   81.726    7.752
  230.601    0.184    0.439  101.239    7.613
  230.901    0.183    0.452   90.892    7.478
  231.201    0.186    0.403   82.374    7.627
  231.501    0.188    0.424   76.293    7.777
  231.801    0.180    0.465   73.256    8.393
  232.101    0.135    0.241   63.520    9.225
  232.401    0.000    0.146   51.954   11.141
  232.701    0.000    0.113   53.798   13.972
  233.001    0.000    0.140   55.636   20.360
  233.301    0.000    0.134   54.428   29.121
  233.601    0.013    0.129   52.617   30.837
  233.901    0.026    0.127   52.624   30.289
  234.201    0.002    0.143   60.558   25.600
  234.501    0.008    0.187   68.493   21.235
  234.801    0.144    0.249   72.163   16.343
  235.101    0.214    0.295   72.178   13.303
  235.401    0.242    0.443   72.796   10.630
  235.701    0.269    0.427   77.683    9.333
  236.001    0.274    0.381   74.649    8.996
  236.301    0.255    0.372   75.878    8.835
  236.601    0.244    0.595   88.078    8.842
  236.901    0.240    0.582   65.544    8.847
  237.201    0.153    0.369   60.682    9.370
  237.501    0.150    0.337   74.100   10.112
  237.801    0.204    0.389   71.066   11.326
  238.101    0.285    0.427   69.254   13.678
  238.401    0.289    0.448   74.137   14.764
  238.701    0.248    0.410   75.368   14.498
  239.001    0.236    0.430   72.335   13.464
  239.301    0.262    0.495   68.693   12.041
  239.601    0.257    0.432   68.703   10.566
  239.901    0.220    0.430   82.121    9.448
  240.201    0.199    0.437   98.585    8.937
  240.501    0.208    0.455   99.819    7.142
  240.801    0.200    0.490   94.956    6.757
  241.101    0.193    0.481   88.872    6.889
  241.401    0.189    0.434   79.134    8.642
  241.701    0.197    0.383   71.835   10.241
  242.001    0.232    0.378   74.285   11.472
  242.301    0.241    0.423   77.344   12.852
  242.602    0.143    0.324   72.481   14.136
  242.902    0.120    0.306   69.448   13.882
  243.202    0.168    0.395   82.865   10.681
  243.502    0.179    0.390   90.799    8.695
  243.802    0.183    0.377   92.031    7.923
  244.102    0.191    0.401   92.043    7.641
  244.402    0.196    0.429   91.447    7.648
  244.702    0.190    0.440   97.552    7.796
  245.002    0.173    0.446   93.907    8.259
  245.302    0.156    0.438   91.485    8.582
  245.602    0.190    0.367   95.764    8.750
  245.902    0.202    0.376   95.779    8.761
  246.202    0.194    0.462   94.569    8.446
  246.502    0.157    0.416   95.187    7.989
  246.802    0.153    0.407   97.639    7.700
  247.102    0.174    0.449   97.040    7.150
  247.402    0.191    0.478   95.225    6.894
  247.702    0.167    0.441   95.849    6.772
  248.002    0.157    0.406   95.858    7.038
  248.302    0.175    0.407  108.059    7.044
  248.602    0.186    0.469  111.730    6.791
  248.902    0.185    0.469  109.913    6.796
  249.202    0.181    0.401   96.517    7.333
  249.502    0.154    0.320   85.561    8.692
  249.802    0.119    0.327   82.528   10.698
  250.102    0.166    0.381   91.071   11.329
  250.402    0.195    0.389   91.083   11.124
  250.702    0.210    0.387   90.486    9.586
  251.002    0.190    0.434   95.374    9.065
  251.302    0.175    0.451   99.652    8.262
