~VERSION INFORMATION
 VERS.                 2.0:   CWLS LOG ASCII STANDARD -VERSION 2.0
 WRAP.                  NO:   ONE LINE PER DEPTH STEP
~WELL INFORMATION BLOCK
#MNEM.UNIT           DATA                    DESCRIPTION OF MNEMONIC
#---------    -------------------            -------------------------------
# Generated from Intellog Unique Number	CS_71_72/WELL/770
WELL.         SULPETRO LIMITED               : Well_name    - WELL
LOC .         00/06-19-071-10W4/0            : Location     - LOCATION
UWI .         00/06-19-071-10W4/0            : Uwi          - UNIQUE WELL ID
ENTR.         SP                             : Entered      - ENTERED BY
SRVC.         SCHLUMBERGER                   : Scn          - SERVICE COMPANY
STRT.M        300                            : top_depth    - START DEPTH
STOP.M        525                            : bot_depth    - STOP DEPTH
STEP.M        0.25                           : increment    - STEP LENGTH
 NULL. -999.2500:NULL Value
~CURVE INFORMATION BLOCK
#MNEM UNIT       ERCB CURVE CODE    CURVE DESCRIPTION
#-----------   ------------------   ----------------------------------
DEPT.M        00 001 00 00         : DEPTH        - DEPTH
ILD .OHMM     00 120 00 00         : RESD         - DEEP RESISTIVITY (DIL)
DPHI.V/V      00 890 00 00         : PHID         - DENSITY POROSITY (LIMESTONE)
NPHI.V/V      00 330 00 00         : PHIN         - NEUTRON POROSITY (LIMESTONE)
GR  .API      00 310 00 00         : GR           - GAMMA RAY
~PARAMETER INFORMATION
#MNEM.UNIT           DATA             DESCRIPTION OF MNEMONIC
#---------         -----------     ------------------------------
GL  .M        648.81               : gl           - GROUND LEVEL ELEVATION
EREF.M        651.64               : kb           - ELEVATION OF DEPTH REFERENCE
DATM.M        648.81               : datum        - DATUM ELEVATION
TDD .M        538                  : tdd          - TOTAL DEPTH DRILLER
RUN .         ONE                  : Run          - RUN NUMBER
ENG .         BILL                 : Engineer     - RECORDING ENGINEER
WIT .         JIM                  : Witness      - WITNESSED BY
MUD .         GEL                  : Mud_type     - MUD TYPE
MATR.         LIMESTONE            : Logunit      - NEUTRON MATRIX
TMAX.C        24                   : BHT          - MAXIMUM RECORDED TEMPERATURE
BHTD.M        538                  : BHTDEP       - MAXIMUM RECORDED TEMPERATURE
MATR.         1                    : LOGUNIT      - NEUTRON MATRIX
RMT .C        25                   : MDTP         - TEMPERATURE OF MUD
NEUT.         1                    : NEUTRON      - NEUTRON TYPE
RESI.         0                    : RESIST       - RESISTIVITY TYPE
RMC .OHMM     0.25                 : RMC          - RESISTIVITY OF MUD CAKE
RMF .OHMM     0.25                 : RMF          - RESISTIVITY OF MUD FILTRATE
SUFT.C        15                   : SUFT         - SURFACE TEMPERATURE
~A  DEPTH     RESD     PHID     PHIN       GR
# ...
  387.000   13.175    0.338    0.429   58.119
  387.250   13.175    0.340    0.449   60.725
  387.500   13.102    0.341    0.454   63.817
  387.750   13.078    0.341    0.460   65.209
  388.000   13.055    0.338    0.450   63.018
  388.250   13.080    0.337    0.446   59.248
  388.500   13.105    0.336    0.469   57.785
  388.750   13.180    0.350    0.486   58.266
  389.000   13.205    0.356    0.506   59.657
  389.250   13.280    0.349    0.471   59.167
  389.500   13.356    0.342    0.445   58.069
  389.750   13.432    0.346    0.441   60.856
  390.000   13.457    0.353    0.421   61.761
  390.250   13.509    0.351    0.397   61.697
  390.500   13.560    0.348    0.388   59.141
  390.750   13.586    0.347    0.410   58.893
  391.000   13.715    0.345    0.431   58.949
  391.250   14.425    0.337    0.442   58.519
  391.500   14.835    0.329    0.459   57.543
  391.750   15.691    0.320    0.485   54.743
  392.000   17.227    0.078    0.460   52.188
  392.250   18.808    0.041    0.371   50.544
  392.500   22.883    0.015    0.125   51.449
  392.750   27.841   -0.000    0.097   53.751
  393.000   32.267   -0.006    0.087   54.293
  393.250   34.256   -0.008    0.087   52.891
  393.500   35.100   -0.006    0.090   48.150
  393.750   34.971    0.004    0.095   42.497
  394.000   33.629    0.031    0.107   38.059
  394.250   30.576    0.098    0.139   43.822
  394.500   26.832    0.204    0.181   47.097
  394.750   22.223    0.259    0.244   51.282
  395.000   18.857    0.246    0.326   55.892
  395.250   15.734    0.236    0.404   54.673
  395.500   13.833    0.291    0.401   53.696
  395.750   12.438    0.319    0.397   56.303
  396.000   11.522    0.315    0.394   59.637
  396.250   11.204    0.298    0.405   56.232
  396.500   11.101    0.283    0.437   59.202
  396.750   11.227    0.305    0.425   61.869
  397.000   11.503    0.324    0.412   60.285
  397.250   11.743    0.331    0.407   57.791
  397.500   11.876    0.322    0.379   57.785
  397.750   11.810    0.314    0.362   56.870
  398.000   11.528    0.308    0.371   60.203
  398.250   11.044    0.305    0.406   63.843
  398.500   10.443    0.305    0.429   67.846
  398.750   10.193    0.308    0.421   69.845
  399.000   10.100    0.311    0.398   71.055
  399.250   10.119    0.315    0.412   70.078
  399.500   10.466    0.319    0.442   63.089
  399.750   10.544    0.322    0.453   57.618
  400.000   10.486    0.323    0.446   53.059
  400.250   10.216    0.310    0.439   51.050
  400.500    9.769    0.293    0.431   61.733
  400.750    9.050    0.269    0.427   70.533
  401.000    8.462    0.238    0.424   78.543
  401.250    8.107    0.217    0.444   83.640
  401.500    7.666    0.212    0.460   85.518
  401.750    7.427    0.221    0.448   79.865
  402.000    7.089    0.238    0.405   80.589
  402.250    7.050    0.253    0.376   81.434
  402.500    7.103    0.268    0.365   81.429
  402.750    7.265    0.284    0.372   80.330
  403.000    7.347    0.295    0.403   77.775
  403.250    7.486    0.289    0.425   74.795
  403.500    7.528    0.284    0.446   76.611
  403.750    7.487    0.284    0.463   78.549
  404.000    7.459    0.282    0.431   80.062
  404.250    7.418    0.269    0.408   81.151
  404.500    7.418    0.264    0.399   83.028
  404.750    7.377    0.263    0.393   81.262
  405.000    7.282    0.280    0.384   75.852
  405.250    7.201    0.288    0.366   70.746
  405.500    7.056    0.285    0.361   72.745
  405.750    6.874    0.268    0.376   79.602
  406.000    6.710    0.265    0.397   84.576
  406.250    6.488    0.261    0.387   86.758
  406.500    6.286    0.243    0.404   84.992
  406.750    6.159    0.221    0.435   82.193
  407.000    6.405    0.195    0.464   82.735
  407.250    6.724    0.170    0.491   85.220
  407.500    7.020    0.137    0.282   86.247
  407.750    7.193    0.096    0.248   73.914
  408.000    7.180    0.143    0.322   72.755
  408.250    7.034    0.194    0.384   81.495
  408.500    6.676    0.205    0.421   87.563
  408.750    6.337    0.208    0.393   89.865
  409.000    5.992    0.212    0.389   86.581
  409.250    5.687    0.220    0.440   83.539
  409.500    5.530    0.215    0.466   83.292
  409.750    5.583    0.223    0.393   81.647
  410.000    5.646    0.228    0.351   80.913
  410.250    5.667    0.235    0.383   82.730
  410.500    5.678    0.233    0.427   84.972
  410.750    5.679    0.231    0.465   86.303
  411.000    5.690    0.235    0.420   81.257
  411.250    5.690    0.240    0.375   75.969
  411.500    5.701    0.236    0.379   71.834
  411.750    5.723    0.239    0.405   77.356
  412.000    5.734    0.241    0.428   81.722
  412.250    5.745    0.234    0.393   80.564
  412.500    5.767    0.225    0.361   82.987
  412.750    5.735    0.218    0.342   86.140
  413.000    5.714    0.214    0.343   87.471
  413.250    5.682    0.208    0.375   89.410
  413.500    5.630    0.210    0.394   92.684
  413.750    5.568    0.223    0.378   94.440
  414.000    5.506    0.234    0.360   89.455
  414.250    5.435    0.239    0.357   86.596
  414.500    5.395    0.229    0.376   85.923
  414.750    5.385    0.213    0.389   87.072
  415.000    5.365    0.212    0.399   89.132
  415.250    5.356    0.221    0.405   90.948
  415.500    5.386    0.227    0.410   92.157
  415.750    5.467    0.229    0.401   92.457
  416.000    5.623    0.230    0.386   88.747
  416.250    5.740    0.220    0.388   83.763
  416.500    5.838    0.207    0.386   84.850
  416.750    5.871    0.202    0.400   92.922
  417.000    5.806    0.207    0.400   95.528
  417.250    5.699    0.214    0.394   91.757
  417.500    5.573    0.222    0.396   89.324
  417.750    5.460    0.222    0.421   91.080
  418.000    5.399    0.214    0.435   90.407
  418.250    5.360    0.204    0.448   85.847
  418.500    5.261    0.199    0.458   82.806
  418.750    4.910    0.211    0.422   86.323
  419.000    4.277    0.229    0.397   91.236
  419.250    3.496    0.242    0.434   92.507
  419.500    2.906    0.258    0.508   89.769
  419.750    2.475    0.274    0.599   94.076
  420.000    2.164    0.264    0.571   96.925
  420.250    1.949    0.251    0.505   93.823
  420.500    1.885    0.240    0.461   86.287
  420.750    2.062    0.234    0.428   80.878
  421.000    2.285    0.235    0.404   88.646
  421.250    2.634    0.245    0.399   94.714
  421.500    3.013    0.250    0.418   95.377
  421.750    3.421    0.241    0.429   90.878
  422.000    3.791    0.231    0.417   86.257
  422.250    4.032    0.223    0.414   81.880
  422.500    4.209    0.232    0.432   83.211
  422.750    4.362    0.249    0.451   86.667
  423.000    4.444    0.261    0.456   83.990
  423.250    4.486    0.279    0.432   79.552
  423.500    4.545    0.288    0.437   74.021
  423.750    4.588    0.287    0.462   78.267
  424.000    4.666    0.286    0.480   77.351
  424.250    4.702    0.287    0.504   75.585
  424.500    4.711    0.290    0.424   78.495
  424.750    4.711    0.294    0.382   73.874
  425.000    4.676    0.295    0.373   67.796
  425.250    4.642    0.295    0.396   67.548
  425.500    4.599    0.289    0.454   70.093
  425.750    4.573    0.284    0.489   72.516
  426.000    4.540    0.283    0.501   73.849
  426.250    4.532    0.288    0.474   75.423
  426.500    4.566    0.289    0.463   73.656
  426.750    4.678    0.286    0.412   75.655
  427.000    4.829    0.279    0.389   79.961
  427.250    4.948    0.268    0.396   81.475
  427.500    5.070    0.262    0.417   78.069
  427.750    5.137    0.275    0.433   76.060
  428.000    5.147    0.286    0.449   74.477
  428.250    5.138    0.273    0.457   70.767
  428.500    5.148    0.253    0.384   73.312
  428.750    5.197    0.233    0.347   74.583
  429.000    5.265    0.225    0.336   75.489
  429.250    5.345    0.235    0.356   74.876
  429.500    5.436    0.242    0.386   78.211
  429.750    5.528    0.235    0.408   82.457
  430.000    5.560    0.236    0.414   85.063
  430.250    5.602    0.234    0.403   84.328
