~VERSION INFORMATION
 VERS.                 2.0:   CWLS LOG ASCII STANDARD -VERSION 2.0
 WRAP.                  NO:   ONE LINE PER DEPTH STEP
~WELL INFORMATION BLOCK
#MNEM.UNIT           DATA                    DESCRIPTION OF MNEMONIC
#---------    -------------------            -------------------------------
# Generated from Intellog Unique Number	CS_73_76/WELL/1998
WELL.         ASHLAND OIL CANADA             : Well_name    - WELL
LOC .         00/06-31-076-18W4/0            : Location     - LOCATION
UWI .         00/06-31-076-18W4/0            : Uwi          - UNIQUE WELL ID
ENTR.         SP                             : Entered      - ENTERED BY
SRVC.         SCHLUMBERGER                   : Scn          - SERVICE COMPANY
STRT.M        207.264                        : top_depth    - START DEPTH
STOP.M        386.764                        : bot_depth    - STOP DEPTH
STEP.M        0.25                           : increment    - STEP LENGTH
 NULL. -999.2500:NULL Value
~CURVE INFORMATION BLOCK
#MNEM UNIT       ERCB CURVE CODE    CURVE DESCRIPTION
#-----------   ------------------   ----------------------------------
DEPT.M        00 001 00 00         : DEPTH        - DEPTH
GR  .API      00 310 00 00         : GR           - GAMMA RAY
DPHI.V/V      00 890 00 00         : PHID         - DENSITY POROSITY (SANDSTONE)
NPHI.V/V      00 330 00 00         : PHIN         - NEUTRON POROSITY (SANDSTONE)
ILD .OHMM     00 120 00 00         : RESD         - DEEP RESISTIVITY (DIL)
~PARAMETER INFORMATION
#MNEM.UNIT           DATA             DESCRIPTION OF MNEMONIC
#---------         -----------     ------------------------------
GL  .M        563.575              : gl           - GROUND LEVEL ELEVATION
EREF.M        567.538              : kb           - ELEVATION OF DEPTH REFERENCE
DATM.M        563.575              : datum        - DATUM ELEVATION
TDD .M        471.83               : tdd          - TOTAL DEPTH DRILLER
RUN .         ONE                  : Run          - RUN NUMBER
ENG .         BILL                 : Engineer     - RECORDING ENGINEER
WIT .         JIM                  : Witness      - WITNESSED BY
MUD .         GEL                  : Mud_type     - MUD TYPE
MATR.         SANDSTONE            : Logunit      - NEUTRON MATRIX
TMAX.C        23.3333              : BHT          - MAXIMUM RECORDED TEMPERATURE
BHTD.M        471.83               : BHTDEP       - MAXIMUM RECORDED TEMPERATURE
MATR.         1                    : LOGUNIT      - NEUTRON MATRIX
RMT .C        25                   : MDTP         - TEMPERATURE OF MUD
NEUT.         1                    : NEUTRON      - NEUTRON TYPE
RESI.         0                    : RESIST       - RESISTIVITY TYPE
RMC .OHMM     0.25                 : RMC          - RESISTIVITY OF MUD CAKE
RMF .OHMM     0.25                 : RMF          - RESISTIVITY OF MUD FILTRATE
SUFT.C        15                   : SUFT         - SURFACE TEMPERATURE
~A  DEPTH       GR     PHID     PHIN     RESD
  207.264   85.800    0.000    0.000    3.000
  207.514   83.327    0.263    0.631    2.859
  207.764   85.697    0.248    0.608    2.812
  208.014   85.887    0.249    0.611    2.604
  208.264   84.597    0.257    0.622    2.596
  208.514   83.129    0.274    0.630    2.589
  208.764   80.661    0.264    0.627    2.586
  209.014   79.088    0.280    0.620    2.584
  209.264   79.155    0.271    0.616    2.582
  209.514   79.542    0.260    0.612    2.580
  209.764   81.276    0.255    0.607    2.578
  210.014   81.513    0.246    0.606    2.576
  210.264   80.328    0.232    0.609    2.559
  210.514   79.600    0.265    0.609    2.860
  210.764   76.858    0.264    0.607    2.961
  211.014   70.249    0.267    0.599    3.377
  211.264   65.243    0.263    0.582    3.943
  211.514   59.716    0.226    0.518    5.258
  211.764   56.791    0.208    0.481    7.868
  212.014   56.072    0.299    0.503    9.939
  212.264   53.431    0.320    0.497   12.353
  212.514   54.795    0.327    0.470   13.527
  212.764   55.714    0.334    0.470   15.431
  213.014   54.411    0.323    0.508   16.876
  213.264   52.046    0.331    0.547   18.160
  213.514   50.295    0.325    0.563   18.143
  213.764   50.614    0.324    0.588   18.205
  214.014   52.579    0.327    0.544   17.010
  214.264   56.013    0.321    0.514   15.018
  214.514   62.801    0.308    0.504   13.468
  214.764   65.126    0.290    0.508   11.830
  215.014   68.529    0.281    0.530   10.227
  215.264   70.964    0.269    0.559    8.768
  215.514   73.313    0.257    0.592    8.065
  215.764   73.194    0.266    0.571    6.885
  216.014   73.486    0.268    0.570    6.188
  216.264   75.541    0.278    0.582    5.300
  216.514   77.594    0.270    0.586    4.841
  216.764   79.826    0.258    0.602    4.458
  217.014   80.192    0.257    0.612    4.115
  217.264   83.563    0.259    0.590    3.987
  217.514   84.875    0.233    0.556    3.914
  217.764   89.067    0.220    0.535    3.906
  218.014   90.437    0.222    0.524    3.899
  218.264   91.726    0.227    0.547    3.875
  218.514   91.905    0.236    0.598    3.677
  218.764   88.562    0.256    0.611    3.960
  219.014   82.982    0.274    0.622    4.754
  219.264   76.321    0.296    0.616    5.899
  219.514   66.563    0.270    0.598    7.094
  219.764   58.464    0.286    0.587   10.545
  220.014   51.483    0.309    0.556   14.379
  220.264   56.295    0.306    0.521   15.233
  220.514   53.307    0.303    0.512   16.251
  220.764   51.880    0.280    0.476   16.797
  221.014   52.489    0.282    0.454   17.062
  221.264   54.899    0.276    0.464   16.706
  221.514   56.788    0.291    0.457   15.936
  221.764   58.740    0.238    0.491   15.380
  222.014   60.596    0.230    0.516   14.507
  222.264   64.165    0.240    0.517   13.515
  222.514   67.757    0.203    0.483   12.419
  222.764   73.371    0.234    0.493   11.092
  223.014   77.625    0.237    0.500    9.758
  223.264   80.138    0.250    0.507    8.864
  223.514   81.197    0.254    0.512    8.003
  223.764   83.448    0.270    0.546    7.083
  224.014   84.421    0.285    0.586    6.281
  224.264   79.847    0.295    0.572    6.673
  224.514   76.210    0.325    0.562    7.547
  224.764   76.273    0.345    0.522    9.217
  225.014   77.559    0.284    0.529   11.004
  225.264   79.530    0.299    0.533   11.469
  225.514   77.849    0.277    0.495   11.349
  225.764   79.809    0.251    0.502   10.950
  226.014   83.127    0.235    0.483   10.831
  226.264   84.317    0.235    0.461   11.234
  226.514   78.412    0.248    0.448   12.158
  226.764   73.071    0.252    0.452   13.772
  227.014   66.855    0.268    0.444   15.768
  227.264   55.241    0.282    0.414   17.127
  227.514   45.943    0.286    0.393   18.934
  227.764   39.660    0.306    0.397   19.730
  228.014   35.691    0.316    0.403   20.261
  228.264   31.491    0.302    0.396   20.582
  228.514   30.158    0.304    0.396   20.605
  228.764   29.615    0.322    0.407   20.606
  229.014   29.588    0.323    0.419   20.738
  229.264   30.331    0.325    0.415   21.070
  229.514   33.214    0.319    0.395   21.401
  229.764   35.229    0.304    0.390   21.419
  230.014   41.082    0.304    0.388   21.182
  230.264   45.432    0.290    0.401   21.026
  230.514   51.423    0.274    0.419   20.500
  230.764   59.778    0.271    0.476   19.666
  231.014   63.070    0.283    0.496   18.558
  231.264   61.453    0.297    0.482   16.795
  231.514   66.536    0.288    0.464   15.299
  231.764   70.338    0.248    0.445   14.020
  232.014   73.015    0.233    0.444   13.005
  232.264   76.445    0.242    0.446   12.571
  232.514   77.336    0.248    0.430   12.132
  232.764   75.613    0.261    0.448   11.192
  233.014   76.910    0.270    0.482   10.003
  233.264   80.206    0.276    0.480    8.592
  233.514   86.580    0.215    0.466    6.986
  233.764   94.172    0.202    0.491    6.219
  234.014   99.158    0.192    0.563    5.235
  234.264  100.242    0.181    0.588    4.524
  234.514   98.637    0.173    0.608    4.048
  234.764   97.844    0.181    0.605    3.451
  235.014   98.591    0.203    0.602    3.135
  235.264   99.495    0.212    0.601    2.921
  235.514  101.054    0.221    0.606    3.167
  235.764  100.925    0.227    0.609    3.146
  236.014  101.900    0.230    0.611    3.282
  236.264  102.758    0.250    0.613    3.378
  236.514  102.730    0.259    0.613    3.721
  236.764  101.712    0.263    0.613    4.485
  237.014  101.536    0.275    0.611    5.236
  237.264  100.984    0.233    0.610    6.264
  237.514  101.197    0.241    0.617    6.635
  237.764  101.468    0.225    0.518    6.727
  238.014  101.968    0.240    0.532    6.706
  238.264  102.023    0.236    0.522    6.926
  238.514   98.992    0.218    0.533    7.125
  238.764   96.734    0.225    0.544    7.362
  239.014   92.728    0.222    0.565    7.970
  239.264   87.770    0.243    0.571    8.697
  239.514   81.549    0.250    0.580    9.450
  239.764   79.351    0.259    0.564   10.775
  240.014   74.624    0.257    0.522   11.862
  240.264   72.072    0.295    0.488   12.716
  240.514   73.655    0.299    0.485   13.568
  240.764   75.185    0.277    0.511   13.853
  241.014   73.650    0.288    0.523   14.043
  241.264   75.207    0.289    0.528   13.684
  241.514   79.361    0.275    0.558   13.187
  241.764   80.971    0.292    0.552   12.708
  242.014   83.427    0.295    0.523   11.682
  242.264   83.384    0.295    0.518   10.928
  242.514   83.251    0.303    0.516   10.566
  242.764   82.805    0.297    0.580   10.272
  243.014   83.066    0.303    0.602   10.492
  243.264   84.956    0.324    0.573   10.444
  243.514   90.609    0.308    0.537   10.282
  243.764   95.338    0.276    0.533    9.966
  244.014   99.974    0.261    0.563    9.628
  244.264  102.591    0.260    0.559    9.087
  244.514  100.034    0.252    0.527    9.009
  244.764   93.955    0.269    0.509    8.663
  245.014   84.106    0.280    0.577    8.637
  245.264   80.295    0.289    0.592    9.244
  245.514   76.221    0.299    0.585   10.438
  245.764   69.938    0.318    0.543   11.769
  246.014   65.072    0.299    0.514   12.809
  246.264   62.364    0.256    0.483   13.631
  246.514   62.949    0.178    0.448   13.589
  246.764   65.186    0.221    0.410   12.765
  247.014   69.291    0.280    0.420   11.962
  247.264   71.204    0.314    0.493   10.926
  247.514   73.816    0.309    0.506   10.389
  247.764   75.763    0.290    0.475    9.093
  248.014   75.113    0.277    0.475    7.454
  248.264   76.144    0.274    0.543    6.219
  248.514   77.888    0.270    0.578    5.700
  248.764   75.000    0.276    0.604    5.350
  249.014   68.413    0.287    0.606    5.413
  249.264   64.595    0.309    0.613    5.698
  249.514   62.219    0.297    0.614    6.512
  249.764   62.103    0.309    0.593    7.542
  250.014   64.760    0.325    0.562    8.793
  250.264   65.785    0.336    0.538   10.560
  250.514   64.534    0.320    0.518   12.267
