~VERSION INFORMATION
 VERS.                 2.0:   CWLS LOG ASCII STANDARD -VERSION 2.0
 WRAP.                  NO:   ONE LINE PER DEPTH STEP
~WELL INFORMATION BLOCK
#MNEM.UNIT           DATA                    DESCRIPTION OF MNEMONIC
#---------    -------------------            -------------------------------
# Generated from Intellog Unique Number	CW_70_72/WELL/3001
NULL.         -999.25                        : NULL_VALUE
WELL.         NORCEN SHERRITT MITSUE 03-22   : Well_name    - WELL              
LOC .         03-22-070-02W5                 : Location     - LOCATION          
UWI .         00/03-22-070-02W5/0            : Uwi          - UNIQUE WELL ID    
ENTR.         JAYE                           : Entered      - ENTERED BY        
SRVC.         COMPUTALOG                     : Scn          - SERVICE COMPANY   
DATE.         23 FEB 84                      : Date         - LOG DATE          
STRT.M        435                            : top_depth    - START DEPTH       
STOP.M        655                            : bot_depth    - STOP DEPTH        
STEP.M        0.25                           : increment    - STEP LENGTH       
~CURVE INFORMATION BLOCK
#MNEM UNIT       ERCB CURVE CODE    CURVE DESCRIPTION
#-----------   ------------------   ----------------------------------
DEPT.M        00 001 00 00         : DEPTH        - DEPTH                       
ILD .OHMM     00 120 00 00         : RESD         - DEEP RESISTIVITY (DIL)      
CALI.MM       00 280 01 00         : CAL          - CALIPER                     
GR  .API      00 310 00 00         : GR           - GAMMA RAY                   
NPHI.V/V      00 330 00 00         : PHIN         - NEUTRON POROSITY (SANDSTONE)
DPHI.V/V      00 890 00 00         : PHID         - DENSITY POROSITY (SANDSTONE)
~PARAMETER INFORMATION       
#MNEM.UNIT           DATA             DESCRIPTION OF MNEMONIC
#---------         -----------     ------------------------------
GL  .M        597.2                : gl           - GROUND LEVEL ELEVATION      
EREF.M        600.95               : kb           - ELEVATION OF DEPTH REFERENCE
DATM.M        597.2                : datum        - DATUM ELEVATION             
TDD .M        673                  : tdd          - TOTAL DEPTH DRILLER         
RUN .         ONE                  : Run          - RUN NUMBER                  
ENG .         MACLEAN              : Engineer     - RECORDING ENGINEER          
WIT .         BOGNER/CARLSON       : Witness      - WITNESSED BY                
BASE.         EDMONTON             : Branch       - HOME BASE OF LOGGING UNIT   
MUD .         GEL CHEM             : Mud_type     - MUD TYPE                    
MATR.         SANDSTONE            : Logunit      - NEUTRON MATRIX              
TMAX.C        28                   : BHT          - MAXIMUM RECORDED TEMPERATURE
BHTD.M        671.5                : BHTDEP       - MAXIMUM RECORDED TEMPERATURE
RMT .C        19                   : MDTP         - TEMPERATURE OF MUD          
MUDD.KG/M     1120                 : MWT          - MUD DENSITY                 
NEUT.         1                    : NEUTRON      - NEUTRON TYPE                
RESI.         0                    : RESIST       - RESISTIVITY TYPE            
RM  .OHMM     3.5                  : RM           - RESISTIVITY OF MUD          
RMC .OHMM     2.8                  : RMC          - RESISTIVITY OF MUD CAKE     
RMF .OHMM     3.5                  : RMF          - RESISTIVITY OF MUD FILTRATE 
SUFT.C        5                    : SUFT         - SURFACE TEMPERATURE         
~A  DEPTH     RESD      CAL       GR     PHIN     PHID
# ...
  581.000    4.447  200.551   76.033    0.325    0.155
  581.250    4.308  201.340   76.079    0.366    0.179
  581.500    4.508  202.041   76.432    0.372    0.192
  581.750    4.807  202.841   77.606    0.380    0.203
  582.000    4.974  203.241   79.210    0.387    0.210
  582.250    4.928  203.828   80.192    0.375    0.215
  582.500    4.756  204.522   74.238    0.359    0.206
  582.750    4.624  204.183   75.156    0.367    0.197
  583.000    4.513  203.730   79.214    0.380    0.192
  583.250    4.412  203.914   79.563    0.371    0.198
  583.500    4.339  203.888   76.231    0.359    0.200
  583.750    4.242  203.748   74.085    0.357    0.194
  584.000    4.235  203.530   75.759    0.357    0.201
  584.250    4.292  203.795   76.432    0.345    0.208
  584.500    4.425  204.093   75.163    0.332    0.212
  584.750    4.527  204.470   74.327    0.329    0.202
  585.000    4.675  204.872   76.626    0.349    0.195
  585.250    4.874  205.363   76.360    0.372    0.195
  585.500    5.178  205.433   72.403    0.356    0.193
  585.750    5.512  205.498   73.700    0.332    0.185
  586.000    5.844  205.576   72.864    0.328    0.185
  586.250    6.399  205.667   69.475    0.347    0.185
  586.500    6.889  205.720   66.577    0.361    0.155
  586.750    7.361  205.483   63.056    0.297    0.132
  587.000    7.293  205.245   61.290    0.273    0.102
  587.250    6.854  205.425   61.895    0.264    0.105
  587.500    6.321  204.457   65.878    0.279    0.137
  587.750    5.918  204.220   68.176    0.304    0.160
  588.000    5.583  204.307   62.778    0.301    0.119
  588.250    5.207  204.188   59.948    0.264    0.104
  588.500    4.848  204.454   65.808    0.283    0.101
  588.750    4.539  204.550   74.735    0.313    0.125
  589.000    4.591  204.596   79.850    0.335    0.152
  589.250    4.906  204.681   81.092    0.328    0.171
  589.500    5.536  204.761   80.690    0.345    0.179
  589.750    6.248  204.945   77.608    0.386    0.192
  590.000    7.064  205.017   71.396    0.325    0.089
  590.250    7.779  204.983   59.619    0.239    0.028
  590.500    8.156  204.749   50.970    0.214   -0.004
  590.750    7.959  204.828   51.834    0.192   -0.017
  591.000    7.424  204.684   68.011    0.212   -0.012
  591.250    7.567  204.859   76.502    0.264    0.044
  591.500    8.009  204.628   78.172    0.289    0.098
  591.750    8.397  204.486   74.716    0.268    0.074
  592.000    8.854  204.577   75.763    0.268    0.060
  592.250    8.528  204.740   73.619    0.275    0.058
  592.500    7.732  205.024   69.909    0.271    0.054
  592.750    7.037  204.682   75.837    0.264    0.044
  593.000    6.381  204.555   80.699    0.267    0.047
  593.250    5.997  203.932   85.622    0.288    0.100
  593.500    5.711  203.799   89.234    0.306    0.128
  593.750    5.573  203.843   94.290    0.302    0.124
  594.000    5.460  203.919   98.953    0.304    0.112
  594.250    5.440  204.114  105.699    0.315    0.109
  594.500    5.545  204.073  109.690    0.306    0.106
  594.750    5.759  204.139  111.798    0.297    0.100
  595.000    6.130  204.643  112.523    0.312    0.111
  595.250    6.624  205.020  111.444    0.316    0.112
  595.500    7.405  205.614  107.733    0.318    0.093
  595.750    8.078  206.537  101.461    0.331    0.081
  596.000    8.828  207.138   91.065    0.347    0.074
  596.250    9.379  207.934   78.159    0.281    0.056
  596.500    9.328  208.328   65.063    0.256    0.005
  596.750    8.766  209.120   62.171    0.278   -0.018
  597.000    7.815  209.626   78.164    0.307   -0.007
  597.250    7.166  209.407   89.540    0.324    0.026
  597.500    6.647  209.030   94.207    0.342    0.087
  597.750    6.223  208.169   89.184    0.336    0.087
  598.000    5.982  207.216   87.923    0.327    0.086
  598.250    5.849  206.976   91.463    0.317    0.091
  598.500    5.796  206.737   94.015    0.313    0.099
  598.750    5.818  206.595   94.939    0.315    0.104
  599.000    5.897  206.565   96.047    0.320    0.103
  599.250    5.831  206.545   95.404    0.324    0.098
  599.500    5.702  206.626   91.568    0.331    0.088
  599.750    5.523  206.391   92.051    0.337    0.079
  600.000    5.349  206.450   94.163    0.344    0.083
  600.250    5.231  206.733   96.084    0.347    0.098
  600.500    5.212  207.135   97.813    0.349    0.114
  600.750    5.232  207.307   95.736    0.357    0.119
  601.000    5.414  207.391   96.721    0.353    0.111
  601.250    5.623  207.357   98.260    0.346    0.098
  601.500    5.796  207.527   98.058    0.344    0.088
  601.750    5.941  209.481   95.478    0.351    0.089
  602.000    6.206  211.352   95.080    0.340    0.096
  602.250    6.349  211.195   97.575    0.332    0.107
  602.500    6.619  209.605   98.677    0.331    0.115
  602.750    6.849  208.841   97.724    0.326    0.113
  603.000    7.020  208.086   95.701    0.318    0.109
  603.250    7.102  207.961   94.993    0.315    0.103
  603.500    7.130  207.921   93.662    0.314    0.094
  603.750    7.104  207.574   94.897    0.308    0.081
  604.000    7.079  207.662   96.695    0.300    0.067
  604.250    7.013  207.315   98.116    0.307    0.055
  604.500    6.935  206.970   95.786    0.305    0.074
  604.750    6.756  206.421   94.646    0.299    0.079
  605.000    6.349  206.821   96.941    0.298    0.054
  605.250    5.967  208.665  102.241    0.301    0.056
  605.500    5.545  210.624  108.290    0.308    0.094
  605.750    5.075  211.201  117.089    0.350    0.111
  606.000    4.423  210.032  113.637    0.368    0.124
  606.250    3.775  207.191  108.299    0.359    0.124
  606.500    2.761  205.818  104.088    0.342    0.118
  606.750    2.248  206.623  108.585    0.422    0.126
  607.000    2.097  208.457  112.625    0.456    0.195
  607.250    1.982  211.675  115.239    0.473    0.225
  607.500    1.912  213.811  115.781    0.457    0.232
  607.750    1.891  213.991  113.510    0.430    0.205
  608.000    1.931  210.635  114.556    0.411    0.189
  608.250    2.036  209.567  115.350    0.436    0.193
  608.500    2.242  208.811  113.144    0.467    0.200
  608.750    2.382  208.356  108.185    0.476    0.190
  609.000    2.776  208.021  101.914    0.386    0.150
  609.250    3.469  207.358   93.580    0.353    0.079
  609.500    4.375  206.712   87.684    0.333    0.013
  609.750    4.956  206.053   88.037    0.320   -0.012
  610.000    5.266  204.467   96.278    0.344    0.021
  610.250    5.257  203.910   99.139    0.356    0.069
  610.500    5.025  204.196   94.120    0.357    0.082
  610.750    4.687  206.762   95.597    0.358    0.047
  611.000    4.609  211.336  101.586    0.365    0.042
  611.250    4.601  212.125  103.389    0.372    0.086
  611.500    4.601  210.114  102.116    0.372    0.086
  611.750    4.628  207.481  101.288    0.367    0.081
  612.000    4.735  205.594   99.642    0.351    0.080
  612.250    4.946  205.239   97.872    0.334    0.072
  612.500    5.196  205.209   99.735    0.333    0.037
  612.750    5.468  206.015  102.783    0.355    0.067
  613.000    5.531  207.027  106.712    0.358    0.081
  613.250    5.522  207.313  108.944    0.337    0.085
  613.500    5.389  207.603  110.356    0.343    0.103
  613.750    5.359  207.774  111.466    0.359    0.118
  614.000    5.191  206.917  108.321    0.355    0.104
  614.250    5.076  206.357  103.985    0.345    0.100
  614.500    3.950  206.328  101.153    0.343    0.093
  614.750    1.059  206.003   99.704    0.339    0.086
  615.000    0.428  205.449   97.552    0.299    0.047
  615.250    0.308  205.408   91.594    0.278    0.014
  615.500    0.232  205.080  100.023    0.273   -0.005
  615.750    0.181  204.946  108.447    0.329    0.038
  616.000    0.175  205.012  109.621    0.358    0.072
  616.250    0.173  204.779   98.097    0.318    0.080
  616.500    0.172  204.763   92.193    0.289    0.055
  616.750    0.179  205.335   96.560    0.275    0.034
  617.000    0.211  208.229  105.235    0.314    0.057
  617.250   53.370  211.545  112.099    0.366    0.092
