~VERSION INFORMATION
 VERS.                 2.0:   CWLS LOG ASCII STANDARD -VERSION 2.0
 WRAP.                  NO:   ONE LINE PER DEPTH STEP
~WELL INFORMATION BLOCK
#MNEM.UNIT           DATA                    DESCRIPTION OF MNEMONIC
#---------    -------------------            -------------------------------
# Generated from Intellog Unique Number	CS_77_79/WELL/3297
WELL.         LOGAN RESOURCES LTD.           : Well_name    - WELL
LOC .         00/07-13-078-14W4/0            : Location     - LOCATION
UWI .         00/07-13-078-14W4/0            : Uwi          - UNIQUE WELL ID
ENTR.         JOETTE                         : Entered      - ENTERED BY
SRVC.         SCHLUMBERGER                   : Scn          - SERVICE COMPANY
DATE.         08-14-92]                      : Date         - LOG DATE
STRT.M        310                            : top_depth    - START DEPTH
STOP.M        505                            : bot_depth    - STOP DEPTH
STEP.M        0.25                           : increment    - STEP LENGTH
 NULL. -999.2500:NULL Value
~CURVE INFORMATION BLOCK
#MNEM UNIT       ERCB CURVE CODE    CURVE DESCRIPTION
#-----------   ------------------   ----------------------------------
DEPT.M        00 001 00 00         : DEPTH        - DEPTH
GR  .API      00 310 00 00         : GR           - GAMMA RAY
NPHI.V/V      00 330 00 00         : PHIN         - NEUTRON POROSITY (SANDSTONE)
DPHI.V/V      00 890 00 00         : PHID         - DENSITY POROSITY (SANDSTONE)
ILD .OHMM     00 120 00 00         : RESD         - DEEP RESISTIVITY (DIL)
~PARAMETER INFORMATION
#MNEM.UNIT           DATA             DESCRIPTION OF MNEMONIC
#---------         -----------     ------------------------------
GL  .M        678.1                : gl           - GROUND LEVEL ELEVATION
EREF.M        676.6                : kb           - ELEVATION OF DEPTH REFERENCE
DATM.M        676.6                : datum        - DATUM ELEVATION
TDD .M        508                  : tdd          - TOTAL DEPTH DRILLER
RUN .         ONE                  : Run          - RUN NUMBER
ENG .         BILL                 : Engineer     - RECORDING ENGINEER
WIT .         JIM                  : Witness      - WITNESSED BY
MUD .         GEL                  : Mud_type     - MUD TYPE
MATR.         SANDSTONE            : Logunit      - NEUTRON MATRIX
TMAX.C        30                   : BHT          - MAXIMUM RECORDED TEMPERATURE
BHTD.M        508                  : BHTDEP       - MAXIMUM RECORDED TEMPERATURE
RMT .C        19                   : MDTP         - TEMPERATURE OF MUD
MUDD.KG/M     1160                 : MWT          - MUD DENSITY
NEUT.         1                    : NEUTRON      - NEUTRON TYPE
RESI.         0                    : RESIST       - RESISTIVITY TYPE
RM  .OHMM     3.54                 : RM           - RESISTIVITY OF MUD
RMC .OHMM     2.95                 : RMC          - RESISTIVITY OF MUD CAKE
RMF .OHMM     3.62                 : RMF          - RESISTIVITY OF MUD FILTRATE
SUFT.C        15                   : SUFT         - SURFACE TEMPERATURE
~A  DEPTH       GR     PHIN     PHID     RESD
  310.000   79.184    0.350    0.237   11.449
  310.250   84.029    0.366    0.229   11.463
  310.500   82.278    0.345    0.237   11.061
  310.750   89.534    0.333    0.246   10.475
  311.000   90.193    0.345    0.251    9.738
  311.250  111.815    0.350    0.235    8.563
  311.500  129.864    0.359    0.210    7.530
  311.750  136.507    0.356    0.200    7.002
  312.000  137.155    0.364    0.211    7.548
  312.250  122.812    0.382    0.221    7.985
  312.500  113.866    0.412    0.230    8.768
  312.750   99.512    0.378    0.244    9.105
  313.000   92.976    0.367    0.227    9.459
  313.250   98.409    0.355    0.226    9.469
  313.500  103.254    0.360    0.233    9.476
  313.750  107.511    0.371    0.232    9.485
  314.000  115.954    0.378    0.234    9.321
  314.250  120.798    0.381    0.240    8.992
  314.500  111.852    0.383    0.251    8.676
  314.750  109.502    0.387    0.254    8.682
  315.000  103.554    0.385    0.249    8.534
  315.250  101.803    0.369    0.243    8.700
  315.500  100.052    0.363    0.250    9.916
  315.750  108.495    0.359    0.268   10.886
  316.000   97.150    0.349    0.285   11.736
  316.250   67.206    0.361    0.304   11.960
  316.500   70.852    0.386    0.313   11.756
  316.750   86.490    0.380    0.302   11.338
  317.000   85.938    0.381    0.299   11.144
  317.250   84.187    0.382    0.296   11.152
  317.500   93.242    0.381    0.287   10.964
  317.750   97.487    0.377    0.276   10.973
  318.000   81.945    0.380    0.266   10.981
  318.250   83.192    0.387    0.257   11.405
  318.500   74.834    0.387    0.249   12.761
  318.750   74.282    0.383    0.246   14.268
  319.000   46.736    0.381    0.248   16.866
  319.250   28.796    0.302    0.250   20.688
  319.500   31.255    0.273    0.250   28.887
  319.750   25.295    0.269    0.248   30.005
  320.000   27.741    0.267    0.244   31.754
  320.250   24.192    0.263    0.239   31.203
  320.500   20.042    0.251    0.236   30.101
  320.750   26.086    0.257    0.239   29.579
  321.000   30.332    0.263    0.243   29.601
  321.250   28.581    0.264    0.249   29.645
  321.500   25.031    0.272    0.260   30.213
  321.750   25.079    0.282    0.264   31.990
  322.000   23.329    0.288    0.270   33.219
  322.250   22.177    0.273    0.270   34.487
  322.500   20.427    0.261    0.243   38.578
  322.750   27.670    0.260    0.233   41.579
  323.000   39.123    0.260    0.232   43.992
  323.250   34.973    0.251    0.212   45.705
  323.500   33.235    0.247    0.216   44.090
  323.750   33.271    0.246    0.191   40.239
  324.000   30.321    0.223    0.184   36.043
  324.250   36.365    0.222    0.189   32.292
  324.500   40.610    0.258    0.240   28.417
  324.750   38.871    0.308    0.253   27.399
  325.000   40.706    0.332    0.300   26.431
  325.250   46.163    0.355    0.312   26.951
  325.500   40.203    0.353    0.325   30.140
  325.750   40.850    0.338    0.332   34.985
  326.000   43.309    0.330    0.338   38.400
  326.250   44.544    0.337    0.348   42.955
  326.500   55.409    0.349    0.342   45.448
  326.750   52.447    0.357    0.327   46.353
  327.000   49.497    0.351    0.321   44.705
  327.250   44.748    0.347    0.323   41.561
  327.500   40.587    0.346    0.328   39.349
  327.750   40.035    0.340    0.330   42.430
  328.000   41.882    0.339    0.335   45.730
  328.250   45.552    0.344    0.343   44.115
  328.500   46.188    0.349    0.350   40.252
  328.750   49.246    0.343    0.338   34.118
  329.000   45.684    0.329    0.325   29.459
  329.250   40.947    0.326    0.327   24.971
  329.500   43.382    0.339    0.336   22.789
  329.750   49.438    0.352    0.349   21.187
  330.000   45.876    0.355    0.349   21.213
  330.250   45.924    0.344    0.332   22.444
  330.500   48.983    0.328    0.313   23.312
  330.750   44.234    0.329    0.299   23.770
  331.000   40.672    0.336    0.298   23.364
  331.250   37.722    0.333    0.288   22.953
  331.500   37.770    0.319    0.266   22.555
  331.750   42.615    0.295    0.253   21.366
  332.000   49.858    0.303    0.267   20.985
  332.250   60.112    0.342    0.294   20.244
  332.500   55.363    0.375    0.314   19.175
  332.750   51.202    0.379    0.291   19.195
  333.000   42.256    0.364    0.272   18.862
  333.250   44.702    0.365    0.265   18.880
  333.500   46.549    0.368    0.280   18.899
  333.750   42.999    0.369    0.305   18.913
  334.000   43.047    0.357    0.324   18.932
  334.250   44.894    0.358    0.337   18.277
  334.500   47.353    0.358    0.345   17.951
  334.750   50.999    0.350    0.350   17.008
  335.000   42.053    0.359    0.348   16.713
  335.250   43.300    0.360    0.332   16.419
  335.500   44.547    0.362    0.342   16.135
  335.750   40.398    0.367    0.350   16.151
  336.000   50.052    0.374    0.363   15.871
  336.250   43.492    0.368    0.355   15.596
  336.500   47.737    0.365    0.340   15.325
  336.750   42.988    0.369    0.330   15.059
  337.000   41.849    0.368    0.322   15.074
  337.250   43.084    0.341    0.328   15.089
  337.500   46.131    0.348    0.337   15.108
  337.750   41.981    0.354    0.349   15.116
  338.000   42.029    0.359    0.350   15.130
  338.250   45.675    0.356    0.338   15.153
  338.500   41.526    0.356    0.335   16.327
  338.750   34.391    0.356    0.339   16.343
  339.000   34.427    0.351    0.346   16.068
  339.250   38.072    0.348    0.354   16.080
  339.500   42.929    0.349    0.361   16.092
  339.750   40.567    0.356    0.352   16.112
  340.000   36.430    0.362    0.340   15.833
  340.250   38.876    0.359    0.335   15.558
  340.500   43.109    0.357    0.340   15.570
  340.750   38.960    0.359    0.347   15.589
  341.000   40.220    0.352    0.353   15.601
  341.250   39.068    0.353    0.320   15.616
  341.500   43.302    0.359    0.323   15.631
  341.750   41.551    0.365    0.326   15.651
  342.000   38.601    0.333    0.327   15.662
  342.250   35.051    0.332    0.345   15.678
  342.500   38.709    0.344    0.339   15.410
  342.750   40.556    0.357    0.331   15.421
  343.000   44.202    0.357    0.333   15.444
  343.250   35.855    0.350    0.326   15.456
  343.500   34.092    0.356    0.333   15.475
  343.750   41.947    0.358    0.346   15.494
  344.000   45.005    0.357    0.346   15.505
  344.250   37.846    0.358    0.328   15.236
  344.500   43.291    0.355    0.324   15.252
  344.750   38.542    0.350    0.325   14.991
  345.000   37.391    0.353    0.326   15.002
  345.250   44.634    0.363    0.328   15.013
  345.500   48.879    0.371    0.330   15.036
  345.750   42.931    0.366    0.326   15.047
  346.000   44.179    0.353    0.321   15.058
  346.250   42.440    0.355    0.322   15.076
  346.500   37.091    0.353    0.323   15.369
  346.750   38.926    0.347    0.324   15.388
  347.000   47.968    0.339    0.330   15.407
  347.250   45.618    0.349    0.334   15.415
  347.500   43.879    0.378    0.332   15.438
  347.750   45.714    0.366    0.323   15.449
  348.000   47.573    0.355    0.315   15.464
  348.250   54.229    0.371    0.307   15.480
  348.500   50.068    0.362    0.311   15.499
  348.750   50.715    0.356    0.325   15.514
  349.000   50.176    0.352    0.321   15.529
  349.250   47.813    0.351    0.311   15.839
  349.500   48.461    0.356    0.315   15.846
  349.750   53.306    0.363    0.313   15.862
  350.000   44.959    0.359    0.308   15.882
  350.250   43.808    0.363    0.304   15.893
  350.500   49.864    0.369    0.307   15.913
  350.750   50.512    0.378    0.312   16.222
  351.000   48.761    0.372    0.315   16.246
  351.250   48.198    0.370    0.316   16.254
  351.500   49.445    0.360    0.309   16.274
  351.750   51.903    0.355    0.302   16.290
  352.000   51.364    0.352    0.307   16.310
  352.250   50.788    0.352    0.314   16.323
  352.500   50.237    0.357    0.317   16.339
  352.750   52.683    0.359    0.312   16.059
  353.000   52.731    0.353    0.309   15.492
  353.250   50.381    0.347    0.312   15.504
