~VERSION INFORMATION
 VERS.                 2.0:   CWLS LOG ASCII STANDARD -VERSION 2.0
 WRAP.                  NO:   ONE LINE PER DEPTH STEP
~WELL INFORMATION BLOCK
#MNEM.UNIT           DATA                    DESCRIPTION OF MNEMONIC
#---------    -------------------            -------------------------------
# Generated from Intellog Unique Number	CW_70_72/WELL/2897
NULL.         -999.25                        : NULL_VALUE
WELL.         MESA SULPETRO CROOKED          : Well_name    - WELL              
LOC .         03-06-070-22W4                 : Location     - LOCATION          
UWI .         00/03-06-070-22W4/0            : Uwi          - UNIQUE WELL ID    
ENTR.         MAX                            : Entered      - ENTERED BY        
SRVC.         SCHLUMBERGER                   : Scn          - SERVICE COMPANY   
DATE.         06 MAR 79                      : Date         - LOG DATE
STRT.M        425                            : top_depth    - START DEPTH       
STOP.M        580                            : bot_depth    - STOP DEPTH        
STEP.M        0.25                           : increment    - STEP LENGTH       
~CURVE INFORMATION BLOCK
#MNEM UNIT       ERCB CURVE CODE    CURVE DESCRIPTION
#-----------   ------------------   ----------------------------------
DEPT.M        00 001 00 00         : DEPTH        - DEPTH                       
GR  .API      00 310 00 00         : GR           - GAMMA RAY                   
ILD .OHMM     00 120 00 00         : RESD         - DEEP RESISTIVITY (DIL)      
NPHI.V/V      00 330 00 00         : PHIN         - NEUTRON POROSITY (SANDSTONE)
DPHI.V/V      00 890 00 00         : PHID         - DENSITY POROSITY (SANDSTONE)
CALI.MM       00 280 01 00         : CAL          - CALIPER                     
~PARAMETER INFORMATION       
#MNEM.UNIT           DATA             DESCRIPTION OF MNEMONIC
#---------         -----------     ------------------------------
GL  .M        633.4                : gl           - GROUND LEVEL ELEVATION      
EREF.M        637.8                : kb           - ELEVATION OF DEPTH REFERENCE
DATM.M        633.4                : datum        - DATUM ELEVATION             
TDD .M        611                  : tdd          - TOTAL DEPTH DRILLER         
RUN .         ONE                  : Run          - RUN NUMBER                  
ENG .         BILL                 : Engineer     - RECORDING ENGINEER          
WIT .         JIM                  : Witness      - WITNESSED BY                
MUD .         GEL                  : Mud_type     - MUD TYPE                    
MATR.         SANDSTONE            : Logunit      - NEUTRON MATRIX              
TMAX.C        26                   : BHT          - MAXIMUM RECORDED TEMPERATURE
BHTD.M        611                  : BHTDEP       - MAXIMUM RECORDED TEMPERATURE
RMT .C        20                   : MDTP         - TEMPERATURE OF MUD          
MUDD.KG/M     1120                 : MWT          - MUD DENSITY                 
NEUT.         1                    : NEUTRON      - NEUTRON TYPE                
RESI.         0                    : RESIST       - RESISTIVITY TYPE            
RM  .OHMM     4.32                 : RM           - RESISTIVITY OF MUD          
RMC .OHMM     0.25                 : RMC          - RESISTIVITY OF MUD CAKE     
RMF .OHMM     5.21                 : RMF          - RESISTIVITY OF MUD FILTRATE 
SUFT.C        -10                  : SUFT         - SURFACE TEMPERATURE         
~A  DEPTH       GR     RESD     PHIN     PHID      CAL
# ...
  534.500   97.261    4.547    0.461    0.233  177.893
  534.750   96.954    4.545    0.479    0.209  177.387
  535.000   97.536    4.502    0.469    0.207  173.417
  535.250   99.306    4.419    0.432    0.197  168.951
  535.500  102.555    4.458    0.437    0.189  170.911
  535.750  104.621    4.498    0.437    0.203  174.353
  536.000  106.390    4.496    0.440    0.222  175.325
  536.250  106.084    4.413    0.478    0.219  178.271
  536.500  106.369    4.292    0.497    0.204  180.725
  536.750  108.732    4.061    0.497    0.152  178.240
  537.000  114.058    3.913    0.491    0.182  175.750
  537.250  113.455    3.913    0.482    0.184  180.677
  537.500  114.038    3.839    0.481    0.181  181.649
  537.750  115.213    3.768    0.480    0.177  178.173
  538.000  112.833    3.943    0.465    0.160  172.223
  538.250  106.593    4.053    0.426    0.127  168.253
  538.500  108.661    4.014    0.425    0.120  166.756
  538.750  114.284    3.868    0.447    0.155  171.187
  539.000  118.128    3.660    0.486    0.168  173.639
  539.250  117.525    3.692    0.492    0.204  174.608
  539.500  113.957    3.759    0.465    0.206  172.125
  539.750  106.238    4.007    0.441    0.167  168.155
  540.000  102.375    4.272    0.438    0.145  165.664
  540.250   95.249    4.596    0.435    0.128  165.651
  540.500   93.756    4.944    0.427    0.111  165.631
  540.750   95.522    5.034    0.405    0.099  166.108
  541.000   97.590    5.079    0.398    0.122  167.082
  541.250   99.062    5.030    0.428    0.153  167.557
  541.500  101.423    4.893    0.434    0.170  167.542
  541.750  103.786    4.586    0.425    0.173  168.020
  542.000  103.183    4.420    0.423    0.154  168.001
  542.250  103.469    4.378    0.425    0.154  167.985
  542.500  110.278    4.417    0.430    0.156  168.464
  542.750  114.123    4.415    0.434    0.155  168.942
  543.000  115.890    4.374    0.441    0.153  169.417
  543.250  112.324    4.292    0.452    0.149  169.396
  543.500  110.532    4.292    0.447    0.135  169.379
  543.750  115.860    4.290    0.429    0.127  168.871
  544.000  119.407    4.249    0.433    0.138  168.856
  544.250  115.838    4.366    0.428    0.145  170.812
  544.500  114.644    4.405    0.450    0.162  173.268
  544.750  113.151    4.444    0.435    0.162  174.240
  545.000  111.658    4.442    0.430    0.140  170.270
  545.250  108.685    4.565    0.415    0.142  167.291
  545.500  104.226    4.822    0.403    0.147  168.260
  545.750  102.734    5.001    0.409    0.144  169.232
  546.000  102.426    4.953    0.406    0.135  169.707
  546.250  102.416    4.906    0.393    0.126  170.185
  546.500  102.703    4.728    0.375    0.142  170.660
  546.750  110.698    4.598    0.380    0.174  170.645
  547.000  111.577    4.471    0.398    0.165  170.627
  547.250  111.271    4.429    0.418    0.157  170.118
  547.500  111.557    4.428    0.428    0.150  170.103
  547.750  113.029    4.467    0.430    0.157  169.593
  548.000  115.096    4.632    0.414    0.152  169.080
  548.250  115.678    4.848    0.418    0.146  168.567
  548.500  114.185    5.028    0.421    0.141  168.550
  548.750  111.801    5.119    0.405    0.133  168.536
  549.000  113.572    5.260    0.399    0.138  168.519
  549.250  115.934    5.506    0.401    0.162  168.004
  549.500  114.738    5.762    0.401    0.177  167.991
  549.750  111.764    6.031    0.389    0.164  167.975
  550.000   96.469    5.294    0.381    0.168  163.844
  550.250   89.101    5.706    0.362    0.149  163.854
  550.500   89.400    6.306    0.355    0.108  163.864
  550.750   89.407    7.266    0.371    0.118  163.877
  551.000   82.037    7.963    0.329    0.121  163.885
  551.250   71.128    7.963    0.221    0.096  163.894
  551.500   70.544    8.948    0.232    0.071  163.906
  551.750   83.531   10.396    0.264    0.043  163.914
  552.000   87.667   11.206    0.289    0.067  163.927
  552.250   91.803   10.056    0.314    0.090  162.954
  552.500   97.710    7.897    0.394    0.110  162.962
  552.750  102.141    4.750    0.392    0.138  162.481
  553.000  103.622    4.444    0.399    0.126  162.982
  553.250   95.073    4.444    0.399    0.110  163.484
  553.500   89.179    4.595    0.392    0.114  163.497
  553.750   88.891    4.790    0.365    0.103  163.503
  554.000   93.616    5.163    0.382    0.123  163.021
  554.250   93.034    5.565    0.366    0.112  164.015
  554.500   92.448    5.659    0.370    0.117  165.008
  554.750   93.930    5.473    0.395    0.142  163.544
  555.000   95.706    4.952    0.405    0.148  162.079
  555.250   95.711    4.750    0.410    0.144  161.106
  555.500   95.128    4.633    0.406    0.132  161.115
  555.750   94.544    4.595    0.396    0.146  163.093
  556.000   96.024    4.595    0.395    0.145  165.068
  556.250   93.965    4.633    0.396    0.145  165.078
  556.500   94.856    4.672    0.393    0.120  164.106
  556.750  100.172    4.672    0.396    0.136  163.623
  557.000  103.129    4.711    0.398    0.135  163.635
  557.250   99.890    4.750    0.396    0.122  163.645
  557.500   99.306    4.994    0.382    0.119  163.653
  557.750   94.591    5.428    0.377    0.095  163.666
  558.000   85.747    5.949    0.333    0.066  163.182
  558.250   86.934    6.466    0.297    0.058  162.208
  558.500   94.314    6.574    0.288    0.074  162.220
  558.750   98.745    6.359    0.352    0.103  162.230
  559.000  101.408    6.049    0.362    0.124  161.749
  559.250  102.002    5.754    0.362    0.127  160.776
  559.500  104.074    5.383    0.355    0.122  161.278
  559.750  107.325    5.383    0.353    0.116  162.271
  560.000  112.346    5.206    0.365    0.123  163.265
  560.250  116.482    4.952    0.380    0.135  165.241
  560.500  121.798    4.871    0.394    0.142  166.235
  560.750  115.609    4.830    0.397    0.143  166.245
  561.000  111.780    4.994    0.384    0.141  166.254
  561.250  109.131    5.120    0.371    0.125  166.264
  561.500  102.647    5.338    0.355    0.097  165.782
  561.750   98.522    5.565    0.345    0.084  165.300
  562.000  101.184    5.706    0.357    0.090  164.820
  562.250  107.681    5.565    0.387    0.145  165.323
  562.500  108.277    5.294    0.388    0.143  164.840
  562.750  100.317    4.911    0.387    0.153  163.867
  563.000  101.210    4.556    0.383    0.169  163.877
  563.250  105.345    3.988    0.393    0.153  164.870
  563.500  111.546    3.461    0.452    0.140  164.879
  563.750  119.222    3.184    0.499    0.189  162.926
  564.000  116.868    3.054    0.509    0.172  162.442
  564.250  103.894    3.132    0.477    0.158  162.452
  564.500   94.459    3.265    0.453    0.146  163.446
  564.750   90.632    4.089    0.395    0.130  163.947
  565.000   90.636    4.711    0.347    0.068  164.447
  565.250   92.413    5.206    0.331    0.077  164.459
  565.500  100.384    5.473    0.356    0.091  164.467
  565.750  100.095    5.473    0.369    0.087  164.479
  566.000  100.101    5.338    0.375    0.060  163.507
  566.250  102.467    5.163    0.385    0.091  163.514
  566.500  106.308    4.952    0.387    0.098  163.524
  566.750  108.085    4.750    0.388    0.125  164.026
  567.000  108.091    4.750    0.390    0.135  165.021
  567.250  108.097    4.633    0.397    0.104  166.014
  567.500  108.693    4.519    0.417    0.140  168.484
  567.750  109.288    4.519    0.413    0.129  169.966
  568.000  109.590    4.672    0.397    0.140  171.454
  568.250  107.825    4.952    0.397    0.142  171.463
  568.500  101.046    5.338    0.400    0.117  170.980
  568.750   89.546    5.850    0.392    0.110  169.515
  569.000   81.292    6.520    0.350    0.087  167.068
  569.250   81.888    7.450    0.301    0.081  165.603
  569.500   86.320    7.638    0.294    0.086  165.611
  569.750   92.521    7.512    0.314    0.097  166.114
  570.000  101.082    6.741    0.376    0.097  167.603
  570.250  104.333    5.850    0.400    0.084  168.102
  570.500  107.585    5.163    0.379    0.066  168.112
  570.750  109.950    4.711    0.379    0.063  167.631
