~VERSION INFORMATION
 VERS.                 2.0:   CWLS LOG ASCII STANDARD -VERSION 2.0
 WRAP.                  NO:   ONE LINE PER DEPTH STEP
~WELL INFORMATION BLOCK
#MNEM.UNIT           DATA                    DESCRIPTION OF MNEMONIC
#---------    -------------------            -------------------------------
# Generated from Intellog Unique Number	CS_67_68/WELL/2184
WELL.         CHIEFCO et al TWEEDIE          : Well_name    - WELL
LOC .         00/08-05-067-12W4/0            : Location     - LOCATION
UWI .         00/08-05-067-12W4/0            : Uwi          - UNIQUE WELL ID
ENTR.         SP                             : Entered      - ENTERED BY
SRVC.         SCHLUMBERGER                   : Scn          - SERVICE COMPANY
STRT.M        280                            : top_depth    - START DEPTH
STOP.M        485                            : bot_depth    - STOP DEPTH
STEP.M        0.25                           : increment    - STEP LENGTH
 NULL. -999.2500:NULL Value
~CURVE INFORMATION BLOCK
#MNEM UNIT       ERCB CURVE CODE    CURVE DESCRIPTION
#-----------   ------------------   ----------------------------------
DEPT.M        00 001 00 00         : DEPTH        - DEPTH
ILD .OHMM     00 120 00 00         : RESD         - DEEP RESISTIVITY (DIL)
DPHI.V/V      00 890 00 00         : PHID         - DENSITY POROSITY (LIMESTONE)
NPHI.V/V      00 330 00 00         : PHIN         - NEUTRON POROSITY (LIMESTONE)
GR  .API      00 310 00 00         : GR           - GAMMA RAY
CALI.MM       00 280 01 00         : CAL          - CALIPER
~PARAMETER INFORMATION
#MNEM.UNIT           DATA             DESCRIPTION OF MNEMONIC
#---------         -----------     ------------------------------
GL  .M        555.5                : gl           - GROUND LEVEL ELEVATION
EREF.M        558.5                : kb           - ELEVATION OF DEPTH REFERENCE
DATM.M        558.5                : datum        - DATUM ELEVATION
TDD .M        488                  : tdd          - TOTAL DEPTH DRILLER
RUN .         ONE                  : Run          - RUN NUMBER
ENG .         BILL                 : Engineer     - RECORDING ENGINEER
WIT .         JIM                  : Witness      - WITNESSED BY
MUD .         GEL                  : Mud_type     - MUD TYPE
MATR.         LIMESTONE            : Logunit      - NEUTRON MATRIX
TMAX.C        19                   : BHT          - MAXIMUM RECORDED TEMPERATURE
BHTD.M        487.4                : BHTDEP       - MAXIMUM RECORDED TEMPERATURE
MATR.         1                    : LOGUNIT      - NEUTRON MATRIX
RMT .C        25                   : MDTP         - TEMPERATURE OF MUD
NEUT.         1                    : NEUTRON      - NEUTRON TYPE
RESI.         0                    : RESIST       - RESISTIVITY TYPE
RMC .OHMM     0.25                 : RMC          - RESISTIVITY OF MUD CAKE
RMF .OHMM     0.25                 : RMF          - RESISTIVITY OF MUD FILTRATE
SUFT.C        15                   : SUFT         - SURFACE TEMPERATURE
~A  DEPTH     RESD     PHID     PHIN       GR      CAL
# ...
  389.500    2.583    0.333    0.323   69.593  176.556
  389.750    2.867    0.286    0.307   66.141  176.386
  390.000    3.248    0.183    0.281   62.873  176.419
  390.250    3.727    0.076    0.259   63.014  176.144
  390.500    4.062    0.132    0.277   62.850  176.185
  390.750    3.523    0.219    0.317   63.662  176.111
  391.000    2.945    0.250    0.360   66.420  175.935
  391.250    2.435    0.278    0.382   69.486  175.967
  391.500    2.020    0.297    0.372   72.307  175.795
  391.750    1.981    0.306    0.375   72.809  175.733
  392.000    2.072    0.309    0.371   69.359  175.757
  392.250    2.167    0.299    0.363   66.881  175.484
  392.500    2.288    0.292    0.364   64.343  175.315
  392.750    2.394    0.285    0.370   66.799  175.246
  393.000    2.500    0.278    0.373   69.438  175.378
  393.250    2.581    0.273    0.369   72.567  175.309
  393.500    2.670    0.283    0.363   74.105  175.239
  393.750    2.732    0.291    0.358   75.276  175.372
  394.000    2.890    0.299    0.341   74.383  175.413
  394.250    3.178    0.294    0.322   70.994  175.541
  394.500    3.870    0.084    0.283   68.699  175.773
  394.750    5.589    0.061    0.258   64.639  175.904
  395.000   10.178    0.045    0.224   62.343  176.446
  395.250   11.214    0.076    0.272   59.866  176.889
  395.500   11.579    0.136    0.340   55.867  177.121
  395.750    5.270    0.195    0.369   59.661  177.352
  396.000    3.993    0.243    0.386   67.178  177.181
  396.250    3.332    0.276    0.398   69.379  177.215
  396.500    2.874    0.299    0.400   73.113  177.249
  396.750    2.782    0.283    0.393   76.906  176.879
  397.000    2.773    0.271    0.394   76.134  176.903
  397.250    2.764    0.261    0.404   74.876  176.638
  397.500    2.766    0.252    0.406   75.018  176.771
  397.750    2.788    0.261    0.402   75.705  177.009
  398.000    2.816    0.252    0.398   77.002  177.031
  398.250    2.848    0.248    0.396   78.483  177.066
  398.500    2.925    0.243    0.394   77.530  176.894
  398.750    3.009    0.251    0.400   77.608  176.826
  399.000    3.107    0.253    0.409   80.246  176.860
  399.250    3.232    0.260    0.408   86.174  176.789
  399.500    3.375    0.246    0.403   88.259  176.823
  399.750    3.518    0.205    0.397   87.365  176.852
  400.000    3.613    0.172    0.392   85.071  177.191
  400.250    3.662    0.215    0.390   86.433  177.826
  400.500    3.557    0.237    0.387   88.884  179.078
  400.750    3.310    0.236    0.382   94.631  180.330
  401.000    3.121    0.223    0.392   98.364  181.585
  401.250    2.900    0.216    0.397   99.781  182.723
  401.500    2.704    0.225    0.412  100.898  184.278
  401.750    2.448    0.220    0.410  101.524  184.922
  402.000    2.552    0.208    0.404   99.837  185.052
  402.250    2.719    0.205    0.401   98.212  184.683
  402.500    2.980    0.196    0.397  101.463  184.612
  402.750    3.199    0.188    0.392  102.937  184.547
  403.000    3.466    0.197    0.388  105.088  184.570
  403.250    3.728    0.207    0.385  103.037  184.603
  403.500    4.010    0.215    0.394   98.369  184.229
  403.750    4.226    0.223    0.395   99.058  184.159
  404.000    4.355    0.204    0.400  100.542  183.990
  404.250    4.498    0.180    0.400  101.592  183.823
  404.500    4.328    0.165    0.398  102.828  184.358
  404.750    3.962    0.155    0.399  101.691  184.593
  405.000    3.534    0.217    0.409  102.015  185.232
  405.250    3.193    0.245    0.432  102.886  186.382
  405.500    2.806    0.271    0.452  104.610  188.340
  405.750    2.494    0.287    0.461  107.796  191.316
  406.000    2.330    0.290    0.475  109.581  195.010
  406.250    2.193    0.277    0.474  108.565  196.966
  406.500    2.110    0.285    0.462  107.430  198.008
  406.750    2.073    0.300    0.453  108.546  198.144
  407.000    2.093    0.324    0.452  109.781  198.378
  407.250    2.231    0.340    0.464  110.589  198.818
  407.500    2.413    0.372    0.472  107.386  199.158
  407.750    2.571    0.308    0.464  106.062  199.085
  408.000    2.710    0.294    0.455  105.414  198.510
  408.250    2.772    0.274    0.445  103.969  197.724
  408.500    2.831    0.259    0.434  100.826  196.538
  408.750    2.875    0.262    0.426   99.504  196.169
  409.000    2.919    0.272    0.424  100.559  196.195
  409.250    3.009    0.279    0.417  102.036  196.435
  409.500    3.183    0.287    0.406  102.544  196.064
  409.750    3.336    0.270    0.397  100.983  195.176
  410.000    3.786    0.254    0.389   99.903  193.081
  410.250    4.369    0.135    0.384   98.461  190.677
  410.500    4.923    0.071    0.373   96.350  188.176
  410.750    5.285    0.041    0.354   90.036  186.678
  411.000    5.498    0.039    0.343   83.786  184.682
  411.250    5.552    0.091    0.333   77.655  182.788
  411.500    5.394    0.134    0.355   81.815  181.906
  411.750    5.133    0.161    0.370   86.523  181.131
  412.000    4.570    0.193    0.382   89.889  181.157
  412.250    3.920    0.206    0.388   93.685  181.090
  412.500    4.048    0.207    0.380   96.504  180.717
  412.750    4.306    0.195    0.373   94.697  180.441
  413.000    4.513    0.179    0.364   92.708  179.765
  413.250    4.818    0.167    0.343   90.595  179.393
  413.500    5.571    0.171    0.326   88.603  179.018
  413.750    6.709    0.182    0.312   91.484  179.053
  414.000    7.931    0.174    0.281   90.529  179.081
  414.250    9.412    0.001    0.259   82.451  179.421
  414.500   10.663    0.000    0.239   73.825  179.552
  414.750   11.175    0.008    0.224   64.346  179.689
  415.000   11.161    0.043    0.307   60.288  179.722
  415.250   10.465    0.099    0.337   65.663  179.652
  415.500    8.879    0.140    0.359   74.573  179.782
  415.750    6.258    0.172    0.379   81.287  179.711
  416.000    5.022    0.182    0.393   88.735  179.439
  416.250    4.430    0.195    0.390   94.538  179.270
  416.500    4.351    0.186    0.385   98.636  179.297
  416.750    4.322    0.178    0.385  100.055  179.328
  417.000    4.300    0.174    0.394   98.066  179.671
  417.250    4.303    0.174    0.401   96.076  179.910
  417.500    4.305    0.161    0.399   95.547  179.933
  417.750    4.299    0.153    0.392   95.565  180.380
  418.000    4.310    0.173    0.385   97.533  180.910
  418.250    4.296    0.220    0.378   95.056  181.151
  418.500    4.291    0.220    0.373   95.684  181.379
  418.750    4.262    0.211    0.370   98.689  181.518
  419.000    4.352    0.201    0.379  101.572  181.645
  419.250    4.586    0.193    0.388  101.891  181.790
  419.500    4.824    0.194    0.382   96.493  181.921
  419.750    5.094    0.210    0.386   97.060  182.046
  420.000    5.319    0.224    0.387   98.844  181.584
  420.250    5.574    0.236    0.382   98.377  181.609
  420.500    5.984    0.227    0.373   97.359  181.029
  420.750    6.461    0.201    0.370   98.172  180.357
  421.000    6.746    0.188    0.366   99.410  179.977
  421.250    6.812    0.111    0.357  100.461  179.503
  421.500    6.880    0.077    0.349  102.063  179.631
  421.750    7.039    0.170    0.342   98.916  179.663
  422.000    7.269    0.189    0.369   97.294  179.802
  422.250    7.547    0.210    0.383  101.516  180.238
  422.500    7.895    0.187    0.395   98.182  180.775
  422.750    8.183    0.172    0.396   88.586  181.618
  423.000    8.387    0.172    0.395   82.696  182.767
  423.250    7.303    0.148    0.394   76.140  183.514
  423.500    5.764    0.192    0.402   80.364  184.254
  423.750    5.046    0.253    0.417   83.851  185.502
  424.000    3.583    0.316    0.434   88.435  189.897
  424.250    2.611    0.304    0.449   91.681  194.903
  424.500    2.282    0.289    0.451   93.588  198.889
  424.750    2.267    0.278    0.443   93.363  198.618
  425.000    2.276    0.272    0.444   91.558  190.939
  425.250    2.261    0.274    0.445   92.428  186.708
  425.500    2.271    0.294    0.448   94.213  184.101
  425.750    2.310    0.310    0.460   96.424  188.398
