~VERSION INFORMATION
 VERS.                 2.0:   CWLS LOG ASCII STANDARD -VERSION 2.0
 WRAP.                  NO:   ONE LINE PER DEPTH STEP
~WELL INFORMATION BLOCK
#MNEM.UNIT           DATA                    DESCRIPTION OF MNEMONIC
#---------    -------------------            -------------------------------
# Generated from Intellog Unique Number	CW_79_81/WELL/2452
WELL.         GULF AMOCO HOOLE               : Well_name    - WELL
LOC .         00/06-20-081-24W4/0            : Location     - LOCATION
UWI .         00/06-20-081-24W4/0            : Uwi          - UNIQUE WELL ID
ENTR.         MAX                            : Entered      - ENTERED BY
SRVC.         COMPUTALOG                     : Scn          - SERVICE COMPANY
STRT.M        210                            : top_depth    - START DEPTH
STOP.M        474.75                         : bot_depth    - STOP DEPTH
STEP.M        0.25                           : increment    - STEP LENGTH
 NULL. -999.2500:NULL Value
~CURVE INFORMATION BLOCK
#MNEM UNIT       ERCB CURVE CODE    CURVE DESCRIPTION
#-----------   ------------------   ----------------------------------
DEPT.M        00 001 00 00         : DEPTH        - DEPTH
ILD .OHMM     00 120 00 00         : RESD         - DEEP RESISTIVITY (DIL)
NPHI.V/V      00 330 00 00         : PHIN         - NEUTRON POROSITY (SANDSTONE)
DPHI.V/V      00 890 00 00         : PHID         - DENSITY POROSITY (SANDSTONE)
GR  .API      00 310 00 00         : GR           - GAMMA RAY
CALI.MM       00 280 01 00         : CAL          - CALIPER
~PARAMETER INFORMATION
#MNEM.UNIT           DATA             DESCRIPTION OF MNEMONIC
#---------         -----------     ------------------------------
GL  .M        599.05               : gl           - GROUND LEVEL ELEVATION
EREF.M        603.3                : kb           - ELEVATION OF DEPTH REFERENCE
DATM.M        599.05               : datum        - DATUM ELEVATION
TDD .M        487                  : tdd          - TOTAL DEPTH DRILLER
RUN .         ONE                  : Run          - RUN NUMBER
ENG .         BILL                 : Engineer     - RECORDING ENGINEER
WIT .         JIM                  : Witness      - WITNESSED BY
MUD .         GEL                  : Mud_type     - MUD TYPE
MATR.         SANDSTONE            : Logunit      - NEUTRON MATRIX
TMAX.C        24                   : BHT          - MAXIMUM RECORDED TEMPERATURE
BHTD.M        487                  : BHTDEP       - MAXIMUM RECORDED TEMPERATURE
MATR.         1                    : LOGUNIT      - NEUTRON MATRIX
RMT .C        17.8                 : MDTP         - TEMPERATURE OF MUD
NEUT.         1                    : NEUTRON      - NEUTRON TYPE
RESI.         0                    : RESIST       - RESISTIVITY TYPE
RMC .OHMM     5                    : RMC          - RESISTIVITY OF MUD CAKE
RMF .OHMM     5.8                  : RMF          - RESISTIVITY OF MUD FILTRATE
SUFT.C        -20                  : SUFT         - SURFACE TEMPERATURE
~A  DEPTH     RESD     PHIN     PHID       GR      CAL
# ...
  429.000   10.803    0.374    0.099   97.420  221.676
  429.250   11.608    0.364    0.072   85.805  221.282
  429.500   12.610    0.358    0.069   82.722  221.777
  429.750   13.898    0.346    0.082   84.501  222.568
  430.000   15.918    0.328    0.131   86.991  223.162
  430.250   20.951    0.309    0.275   81.520  222.587
  430.500   25.604    0.273    0.328   61.269  219.707
  430.750   32.520    0.224    0.340   51.788  216.548
  431.000   37.761    0.191    0.335   42.127  215.462
  431.250   42.111    0.186    0.331   35.963  215.463
  431.500   46.288    0.201    0.334   35.075  215.859
  431.750   48.646    0.204    0.348   39.442  216.338
  432.000   50.139    0.200    0.357   39.937  216.751
  432.250   49.406    0.213    0.359   39.937  216.752
  432.500   47.353    0.225    0.352   40.827  217.049
  432.750   43.628    0.235    0.344   42.132  216.655
  433.000   38.821    0.242    0.338   43.732  215.471
  433.250   32.622    0.254    0.330   46.410  214.122
  433.500   27.487    0.264    0.317   49.127  213.300
  433.750   22.996    0.276    0.284   52.447  214.091
  434.000   19.960    0.285    0.243   55.767  216.661
  434.250   18.134    0.294    0.192   58.850  218.835
  434.500   17.084    0.302    0.144   60.391  219.528
  434.750   16.330    0.309    0.146   57.528  218.492
  435.000   16.205    0.312    0.203   55.059  217.258
  435.250   16.440    0.309    0.208   54.585  216.864
  435.500   17.132    0.305    0.211   53.400  217.063
  435.750   18.275    0.297    0.246   51.267  217.064
  436.000   19.566    0.286    0.302   48.008  216.670
  436.250   20.049    0.276    0.325   43.060  216.111
  436.500   19.597    0.264    0.328   40.838  215.289
  436.750   18.207    0.259    0.329   40.364  215.291
  437.000   16.826    0.267    0.319   41.491  215.292
  437.250   15.409    0.284    0.301   43.389  215.293
  437.500   14.080    0.303    0.282   45.523  215.294
  437.750   12.782    0.324    0.277   48.003  215.707
  438.000   11.766    0.360    0.274   49.733  217.766
  438.250   11.850    0.380    0.262   51.630  219.742
  438.500   12.326    0.373    0.239   54.060  221.126
  438.750   12.740    0.362    0.203   58.329  221.720
  439.000   12.662    0.362    0.158   64.493  221.524
  439.250   11.523    0.380    0.115   72.801  220.735
  439.500   10.071    0.398    0.134   79.964  220.736
  439.750    9.637    0.395    0.148   87.314  221.133
  440.000    9.690    0.381    0.161   96.087  221.232
  440.250   10.149    0.367    0.175   99.644  221.233
  440.500   11.007    0.358    0.199   93.363  221.037
  440.750   12.643    0.348    0.254   72.905  219.754
  441.000   14.742    0.337    0.253   64.262  217.286
  441.250   16.765    0.330    0.233   64.737  216.101
  441.500   18.700    0.327    0.218   65.923  215.510
  441.750   19.569    0.330    0.207   67.583  215.313
  442.000   19.176    0.336    0.196   69.184  215.314
  442.250   18.320    0.334    0.180   69.698  215.398
  442.500   17.506    0.331    0.167   68.711  215.811
  442.750   17.000    0.330    0.148   68.949  215.417
  443.000   16.692    0.348    0.134   70.254  215.319
  443.250   16.327    0.369    0.118   71.203  216.110
  443.500   15.858    0.377    0.099   71.440  217.593
  443.750   15.136    0.357    0.091   71.974  218.780
  444.000   13.933    0.349    0.153   73.457  218.781
  444.250   12.755    0.347    0.207   76.065  218.782
  444.500   10.831    0.361    0.213   79.207  218.783
  444.750    8.463    0.380    0.201   82.527  218.389
  445.000    6.662    0.395    0.190   85.195  217.699
  445.250    5.780    0.400    0.188   85.463  217.305
  445.500    5.607    0.405    0.204   83.241  217.306
  445.750    5.771    0.412    0.203   84.189  217.307
  446.000    6.101    0.418    0.183   85.494  217.605
  446.250    6.557    0.419    0.159   83.836  217.803
  446.500    7.129    0.416    0.146   80.221  217.903
  446.750    8.014    0.411    0.169   81.515  218.218
  447.000    8.989    0.398    0.201   89.172  217.807
  447.250    9.868    0.377    0.232   89.172  217.018
  447.500   10.952    0.346    0.264   83.128  215.932
  447.750   12.090    0.313    0.290   74.713  215.341
  448.000   12.971    0.293    0.303   68.252  215.539
  448.250   12.996    0.312    0.295   70.159  216.578
  448.500   12.234    0.336    0.309   77.322  217.814
  448.750    9.267    0.425    0.338   79.693  219.001
  449.000    7.576    0.474    0.364   81.531  219.891
  449.250    6.729    0.503    0.361   83.428  219.497
  449.500    6.375    0.519    0.331   86.037  218.312
  449.750    6.209    0.504    0.288   89.772  218.643
  450.000    6.068    0.492    0.228   88.291  220.291
  450.250    6.023    0.494    0.294   88.055  223.057
  450.500    6.044    0.499    0.305   84.973  224.639
  450.750    6.110    0.494    0.278   80.470  224.640
  451.000    6.242    0.479    0.232   76.736  223.357
  451.250    6.580    0.458    0.187   77.379  221.531
  451.500    6.886    0.446    0.160   80.590  220.297
  451.750    7.036    0.441    0.172   90.073  220.298
  452.000    7.152    0.434    0.173   92.267  220.596
  452.250    7.151    0.423    0.183   91.320  220.597
  452.500    7.046    0.413    0.204   90.787  220.203
  452.750    6.954    0.415    0.215   94.472  219.974
  453.000    7.006    0.417    0.191   98.671  220.798
  453.250    7.159    0.404    0.159   88.716  221.194
  453.500    7.594    0.393    0.147   85.693  220.998
  453.750    8.361    0.385    0.168   86.286  220.209
  454.000    9.408    0.381    0.216   88.598  219.025
  454.250   10.488    0.369    0.273   90.871  217.593
  454.500   11.231    0.338    0.297   84.451  216.360
  454.750   11.148    0.326    0.298   80.659  216.361
  455.000   10.884    0.369    0.284   79.888  218.140
  455.250   10.766    0.406    0.269   83.563  220.907
  455.500   10.882    0.413    0.260   90.676  223.378
  455.750   11.221    0.397    0.256   96.457  223.857
  456.000   11.743    0.379    0.233   89.789  224.269
  456.250   12.174    0.369    0.169   86.471  224.270
  456.500   12.826    0.363    0.165   84.041  223.679
  456.750   13.498    0.356    0.185   84.279  222.495
  457.000   14.124    0.347    0.207   86.058  220.915
  457.250   14.931    0.334    0.232   82.928  219.254
  457.500   15.272    0.320    0.244   70.827  218.843
  457.750   15.049    0.315    0.252   67.035  218.449
  458.000   14.424    0.315    0.256   67.509  217.759
  458.250   13.758    0.327    0.250   72.369  217.365
  458.500   13.170    0.349    0.233   79.246  217.563
  458.750   12.550    0.372    0.227   83.771  218.355
  459.000   12.267    0.379    0.283   86.241  218.356
  459.250   12.088    0.369    0.303   77.708  216.382
  459.500   12.174    0.354    0.295   74.507  214.407
  459.750   12.572    0.345    0.285   73.796  213.420
  460.000   13.296    0.345    0.284   73.205  213.619
  460.250   14.496    0.352    0.289   70.341  214.657
  460.500   15.525    0.346    0.283   67.872  215.893
  460.750   15.635    0.339    0.271   66.924  217.475
  461.000   14.899    0.330    0.242   68.644  218.464
  461.250   13.899    0.324    0.215   74.689  219.453
  461.500   12.952    0.323    0.200   84.291  220.343
  461.750   12.004    0.332    0.190   96.275  220.097
  462.000   11.385    0.352    0.182  106.401  218.864
  462.250   10.975    0.357    0.172  109.484  218.865
  462.500   10.463    0.358    0.170  104.743  220.940
  462.750    9.942    0.357    0.169  101.069  223.510
  463.000    9.412    0.356    0.167  101.425  225.388
  463.250    8.710    0.359    0.157  102.700  225.702
  463.500    8.199    0.378    0.145  101.960  225.292
  463.750    7.846    0.379    0.126   96.034  225.293
  464.000    8.017    0.348    0.096   85.485  225.294
  464.250    9.116    0.309    0.055   71.855  225.295
  464.500   11.899    0.272    0.016   57.926  225.197
  464.750   18.867    0.230    0.016   47.040  224.639
  465.000   24.174    0.216    0.076   43.584  223.817
  465.250   28.075    0.236    0.096   43.347  223.423
