~VERSION INFORMATION
 VERS.                 2.0:   CWLS LOG ASCII STANDARD -VERSION 2.0
 WRAP.                  NO:   ONE LINE PER DEPTH STEP
~WELL INFORMATION BLOCK
#MNEM.UNIT           DATA                    DESCRIPTION OF MNEMONIC
#---------    -------------------            -------------------------------
# Generated from Intellog Unique Number	CW_82_90/WELL/3416
WELL.         PARA ET AL LIEGE               : Well_name    - WELL
LOC .         00/04-36-090-20W4/0            : Location     - LOCATION
UWI .         00/04-36-090-20W4/0            : Uwi          - UNIQUE WELL ID
ENTR.         MAX                            : Entered      - ENTERED BY
SRVC.         COMPUTALOG                     : Scn          - SERVICE COMPANY
STRT.M        75                             : top_depth    - START DEPTH
STOP.M        237                            : bot_depth    - STOP DEPTH
STEP.M        0.25                           : increment    - STEP LENGTH
 NULL. -999.2500:NULL Value
~CURVE INFORMATION BLOCK
#MNEM UNIT       ERCB CURVE CODE    CURVE DESCRIPTION
#-----------   ------------------   ----------------------------------
DEPT.M        00 001 00 00         : DEPTH        - DEPTH
GR  .API      00 310 00 00         : GR           - GAMMA RAY
CALI.MM       00 280 01 00         : CAL          - CALIPER
DPHI.V/V      00 890 00 00         : PHID         - DENSITY POROSITY (SANDSTONE)
NPHI.V/V      00 330 00 00         : PHIN         - NEUTRON POROSITY (SANDSTONE)
ILD .OHMM     00 120 00 00         : RESD         - DEEP RESISTIVITY (DIL)
~PARAMETER INFORMATION
#MNEM.UNIT           DATA             DESCRIPTION OF MNEMONIC
#---------         -----------     ------------------------------
GL  .M        517.6                : gl           - GROUND LEVEL ELEVATION
EREF.M        520.7                : kb           - ELEVATION OF DEPTH REFERENCE
DATM.M        517.6                : datum        - DATUM ELEVATION
TDD .M        238.1                : tdd          - TOTAL DEPTH DRILLER
RUN .         ONE                  : Run          - RUN NUMBER
ENG .         BILL                 : Engineer     - RECORDING ENGINEER
WIT .         JIM                  : Witness      - WITNESSED BY
MUD .         GEL                  : Mud_type     - MUD TYPE
MATR.         SANDSTONE            : Logunit      - NEUTRON MATRIX
TMAX.C        18                   : BHT          - MAXIMUM RECORDED TEMPERATURE
BHTD.M        238.1                : BHTDEP       - MAXIMUM RECORDED TEMPERATURE
MATR.         1                    : LOGUNIT      - NEUTRON MATRIX
RMT .C        16.7                 : MDTP         - TEMPERATURE OF MUD
NEUT.         1                    : NEUTRON      - NEUTRON TYPE
RESI.         0                    : RESIST       - RESISTIVITY TYPE
RMC .OHMM     3.07                 : RMC          - RESISTIVITY OF MUD CAKE
RMF .OHMM     3.05                 : RMF          - RESISTIVITY OF MUD FILTRATE
SUFT.C        -10                  : SUFT         - SURFACE TEMPERATURE
~A  DEPTH       GR      CAL     PHID     PHIN     RESD
   75.000  136.189  165.147    0.267    0.425   10.489
   75.250  110.333  164.673    0.265    0.397    8.974
   75.500   98.156  166.183    0.263    0.397    8.336
   75.750  100.546  167.686    0.265    0.396    9.556
   76.000  107.695  167.713    0.272    0.395   11.361
   76.250  104.437  167.734    0.276    0.388   10.459
   76.500   99.098  167.755    0.274    0.391    8.705
   76.750   94.948  167.281    0.277    0.398    7.515
   77.000   92.882  165.317    0.283    0.398    6.086
   77.250   94.973  166.830    0.278    0.395    5.864
   77.500  100.934  169.329    0.262    0.392    5.300
   77.750  108.977  170.837    0.255    0.400    5.154
   78.000  103.933  169.865    0.272    0.438    5.246
   78.250  100.972  169.396    0.296    0.453    5.438
   78.500  108.716  168.916    0.293    0.447    5.586
   78.750  112.299  168.940    0.283    0.458    5.738
   79.000  108.743  169.454    0.272    0.450    6.002
   79.250  110.838  170.472    0.266    0.437    6.223
   79.500  115.908  170.986    0.269    0.441    7.068
   79.750  116.513  171.013    0.271    0.447    8.252
   80.000  115.339  171.524    0.273    0.453    9.723
   80.250  111.483  171.548    0.275    0.453   10.944
   80.500   96.034  168.098    0.281    0.448   12.318
   80.750   79.395  164.154    0.307    0.436   14.121
   81.000   64.541  162.689    0.312    0.421   15.045
   81.250   58.012  165.684    0.260    0.399   15.036
   81.500   57.431  167.692    0.211    0.378   13.968
   81.750   59.526  167.711    0.204    0.365   12.624
   82.000   66.377  165.254    0.321    0.375   13.085
   82.250   78.284  163.293    0.324    0.380   14.331
   82.500   85.137  164.311    0.311    0.388   16.279
   82.750   80.986  164.823    0.302    0.411   19.180
   83.000   70.889  164.844    0.315    0.418   22.393
   83.250   57.223  164.865    0.345    0.404   25.435
   83.500   48.613  165.390    0.364    0.389   27.102
   83.750   42.383  164.910    0.363    0.369   28.614
   84.000   42.693  162.456    0.357    0.355   30.481
   84.250   45.975  161.985    0.351    0.354   31.315
   84.500   47.478  162.001    0.347    0.357   31.294
   84.750   42.732  162.024    0.340    0.338   31.278
   85.000   37.987  163.532    0.322    0.318   31.259
   85.250   36.215  163.554    0.203    0.306   31.243
   85.500   37.419  162.584    0.182    0.314   30.659
   85.750   40.108  163.101    0.306    0.335   29.538
   86.000   42.202  163.122    0.338    0.360   28.204
   86.250   44.298  163.143    0.349    0.369   28.183
   86.500   45.796  162.179    0.349    0.365   28.169
   86.750   48.189  162.194    0.347    0.355   28.154
   87.000   49.391  162.717    0.336    0.357   27.881
   87.250   47.023  163.236    0.334    0.373   27.607
   87.500   44.362  163.252    0.338    0.389   26.356
   87.750   44.075  162.780    0.348    0.389   22.968
   88.000   47.660  163.790    0.361    0.376   14.935
   88.250   51.536  164.803    0.359    0.363   11.876
   88.500   63.740  165.322    0.355    0.371    9.357
   88.750   84.272  165.346    0.343    0.384    8.153
   89.000   95.881  164.874    0.311    0.428    6.483
   89.250  101.247  164.890    0.287    0.442    6.021
   89.500  102.747  164.421    0.272    0.451    5.855
   89.750  106.030  164.437    0.268    0.450    5.959
   90.000  113.776  164.461    0.276    0.440    6.122
   90.250  108.137  164.978    0.304    0.435    6.463
   90.500  101.608  164.999    0.312    0.444    7.078
   90.750   97.162  165.020    0.306    0.433    8.114
   91.000   93.903  165.537    0.285    0.441    9.737
   91.250   84.698  165.558    0.281    0.430   11.368
   91.500   71.925  165.580    0.288    0.402   13.517
   91.750   60.638  166.096    0.322    0.392   16.220
   92.000   55.299  166.118    0.341    0.402   17.124
   92.250   57.690  166.635    0.348    0.402   15.908
   92.500   62.758  165.667    0.337    0.384   14.776
   92.750   69.314  165.689    0.299    0.362   14.366
   93.000   74.382  165.217    0.268    0.368   14.360
   93.250   74.693  168.212    0.261    0.373   14.614
   93.500   66.974  166.251    0.262    0.378   15.291
   93.750   65.499  165.281    0.231    0.389   16.291
   94.000   67.296  165.305    0.260    0.390   16.134
   94.250   68.499  166.314    0.293    0.390   14.582
   94.500   63.754  166.338    0.293    0.397   11.808
   94.750   64.363  166.359    0.275    0.407    9.739
   95.000   77.756  166.876    0.229    0.417    8.883
   95.250   91.149  168.880    0.200    0.441    7.883
   95.500  112.573  170.393    0.227    0.441    7.457
   95.750  118.830  171.398    0.263    0.447    7.385
   96.000  117.653  172.418    0.266    0.459    7.313
   96.250  114.397  172.439    0.259    0.464    7.176
   96.500  115.894  171.962    0.264    0.458    7.172
   96.750  118.289  170.995    0.264    0.461    7.103
   97.000  117.707  169.524    0.260    0.452    7.164
   97.250  115.934  168.557    0.254    0.431    7.358
   97.500  114.460  168.581    0.251    0.432    7.489
   97.750  113.878  169.095    0.253    0.441    7.624
   98.000  112.404  169.122    0.258    0.443    7.903
   98.250  109.444  169.137    0.256    0.424    8.193
   98.500  106.186  169.164    0.247    0.414    8.415
   98.750  102.929  169.180    0.211    0.421    8.410
   99.000  102.648  168.708    0.192    0.440    8.405
   99.250  105.928  168.730    0.205    0.446    8.401
   99.500  113.971  168.751    0.244    0.436    8.320
   99.750  113.686  168.775    0.243    0.421    8.315
  100.000  107.453  169.292    0.249    0.431    8.158
  100.250  103.899  169.811    0.256    0.443    8.153
  100.500  107.778  170.323    0.262    0.436    8.150
  100.750  104.222  170.346    0.267    0.419    8.145
  101.000  103.343  169.869    0.265    0.409    8.366
  101.250  107.221  169.899    0.260    0.422    8.673
  101.500  109.018  169.917    0.254    0.436    8.909
  101.750  105.463  170.932    0.233    0.436    9.152
  102.000  102.505  171.444    0.214    0.431    9.315
  102.250  104.300  171.963    0.229    0.421    9.481
  102.500  106.099  172.976    0.251    0.406    9.739
  102.750  102.543  174.977    0.258    0.409   10.004
  103.000   99.878  175.992    0.254    0.426   10.183
  103.250   96.622  175.022    0.250    0.415   10.176
  103.500   93.066  170.585    0.225    0.392    9.030
  103.750   91.293  169.613    0.184    0.386    7.941
  104.000   95.766  168.153    0.205    0.402    7.309
  104.250  117.489  169.163    0.256    0.443    7.238
  104.500  115.716  170.172    0.263    0.441    7.435
  104.750  111.566  172.176    0.248    0.439    7.568
  105.000  104.145  173.689    0.245    0.435    7.426
  105.250  100.589  172.224    0.250    0.430    6.712
  105.500  102.981  169.770    0.259    0.421    6.292
  105.750  109.833  168.797    0.268    0.400    5.791
  106.000  118.173  168.818    0.270    0.398    5.631
  106.250  124.134  167.350    0.272    0.419    5.891
  106.500  123.848  165.890    0.278    0.488    5.996
  106.750  125.646  165.906    0.273    0.501    5.370
  107.000  122.089  166.428    0.265    0.514    6.269
  107.250  108.721  166.449    0.264    0.533    7.387
  107.500   97.732  166.468    0.256    0.517    9.364
  107.750   86.446  166.495    0.260    0.480   13.008
  108.000   79.025  167.006    0.266    0.437   18.741
  108.250   67.441  167.523    0.280    0.404   22.489
  108.500   55.857  166.553    0.316    0.401   25.780
  108.750   41.003  164.104    0.349    0.394   27.973
  109.000   38.934  163.625    0.345    0.377   29.265
  109.250   39.840  163.150    0.337    0.375   28.981
  109.500   43.420  162.681    0.342    0.373   28.441
  109.750   45.815  162.697    0.345    0.368   26.907
  110.000   48.799  162.721    0.347    0.358   22.602
  110.250   57.138  162.745    0.355    0.360   18.473
  110.500   65.476  163.755    0.302    0.360   15.517
  110.750   75.005  166.752    0.244    0.364   13.396
  111.000   84.831  168.753    0.173    0.388   14.537
  111.250   90.197  168.780    0.211    0.404   16.817
