~VERSION INFORMATION
 VERS.                 2.0:   CWLS LOG ASCII STANDARD -VERSION 2.0
 WRAP.                  NO:   ONE LINE PER DEPTH STEP
~WELL INFORMATION BLOCK
#MNEM.UNIT           DATA                    DESCRIPTION OF MNEMONIC
#---------    -------------------            -------------------------------
# Generated from Intellog Unique Number	CS_69_70/WELL/854
WELL.         HUSKY OIL OPERATIONS           : Well_name    - WELL
LOC .         00/08-32-069-06W4/0            : Location     - LOCATION
UWI .         00/08-32-069-06W4/0            : Uwi          - UNIQUE WELL ID
ENTR.         SP                             : Entered      - ENTERED BY
SRVC.         SCHLUMBERGER                   : Scn          - SERVICE COMPANY
STRT.M        330                            : top_depth    - START DEPTH
STOP.M        570                            : bot_depth    - STOP DEPTH
STEP.M        0.25                           : increment    - STEP LENGTH
 NULL. -999.2500:NULL Value
~CURVE INFORMATION BLOCK
#MNEM UNIT       ERCB CURVE CODE    CURVE DESCRIPTION
#-----------   ------------------   ----------------------------------
DEPT.M        00 001 00 00         : DEPTH        - DEPTH
ILD .OHMM     00 120 00 00         : RESD         - DEEP RESISTIVITY (DIL)
DPHI.V/V      00 890 00 00         : PHID         - DENSITY POROSITY (LIMESTONE)
NPHI.V/V      00 330 00 00         : PHIN         - NEUTRON POROSITY (LIMESTONE)
GR  .API      00 310 00 00         : GR           - GAMMA RAY
~PARAMETER INFORMATION
#MNEM.UNIT           DATA             DESCRIPTION OF MNEMONIC
#---------         -----------     ------------------------------
GL  .M        685.1                : gl           - GROUND LEVEL ELEVATION
EREF.M        688.8                : kb           - ELEVATION OF DEPTH REFERENCE
DATM.M        685.1                : datum        - DATUM ELEVATION
TDD .M        575                  : tdd          - TOTAL DEPTH DRILLER
RUN .         ONE                  : Run          - RUN NUMBER
ENG .         BILL                 : Engineer     - RECORDING ENGINEER
WIT .         JIM                  : Witness      - WITNESSED BY
MUD .         GEL                  : Mud_type     - MUD TYPE
MATR.         LIMESTONE            : Logunit      - NEUTRON MATRIX
TMAX.C        25                   : BHT          - MAXIMUM RECORDED TEMPERATURE
BHTD.M        575                  : BHTDEP       - MAXIMUM RECORDED TEMPERATURE
MATR.         1                    : LOGUNIT      - NEUTRON MATRIX
RMT .C        25                   : MDTP         - TEMPERATURE OF MUD
NEUT.         1                    : NEUTRON      - NEUTRON TYPE
RESI.         0                    : RESIST       - RESISTIVITY TYPE
RMC .OHMM     0.25                 : RMC          - RESISTIVITY OF MUD CAKE
RMF .OHMM     0.25                 : RMF          - RESISTIVITY OF MUD FILTRATE
SUFT.C        15                   : SUFT         - SURFACE TEMPERATURE
~A  DEPTH     RESD     PHID     PHIN       GR
  330.000    2.204    0.274    0.522   97.909
  330.250    2.251    0.275    0.529   97.847
  330.500    2.280    0.274    0.536   94.742
  330.750    2.337    0.268    0.540   96.498
  331.000    2.399    0.263    0.541   97.343
  331.250    2.473    0.260    0.535   97.277
  331.500    2.539    0.260    0.528   95.812
  331.750    2.616    0.264    0.519   93.679
  332.000    2.621    0.268    0.514   98.900
  332.250    2.612    0.251    0.512  100.961
  332.500    2.617    0.248    0.512  100.834
  332.750    2.641    0.253    0.518  100.889
  333.000    2.682    0.257    0.513  101.066
  333.250    2.769    0.253    0.509  101.242
  333.500    2.837    0.238    0.511  101.358
  333.750    2.929    0.228    0.515  103.784
  334.000    2.985    0.234    0.515  104.142
  334.250    3.008    0.244    0.502  103.529
  334.500    3.002    0.241    0.495  105.833
  334.750    2.986    0.234    0.487  105.705
  335.000    2.986    0.234    0.485  103.146
  335.250    3.020    0.238    0.493  103.932
  335.500    3.071    0.240    0.485  107.025
  335.750    3.159    0.234    0.493  102.036
  336.000    3.280    0.212    0.501   99.235
  336.250    3.311    0.201    0.490   97.588
  336.500    3.287    0.214    0.478   94.725
  336.750    3.232    0.227    0.470   94.841
  337.000    3.190    0.233    0.459  100.549
  337.250    3.143    0.240    0.449  104.858
  337.500    3.125    0.250    0.465  102.968
  337.750    3.102    0.244    0.484  100.653
  338.000    3.090    0.222    0.485  100.465
  338.250    3.027    0.210    0.464  102.951
  338.500    2.994    0.205    0.479  105.559
  338.750    3.073    0.234    0.496  104.095
  339.000    3.185    0.247    0.492   98.740
  339.250    3.264    0.247    0.505   96.182
  339.500    3.277    0.241    0.508  100.552
  339.750    3.308    0.241    0.493  100.607
  340.000    3.283    0.251    0.486   99.082
  340.250    3.216    0.256    0.480  107.950
  340.500    3.174    0.249    0.475  116.453
  340.750    3.133    0.238    0.475  109.944
  341.000    3.041    0.231    0.479  103.314
  341.250    2.951    0.252    0.475   99.175
  341.500    2.912    0.273    0.454   96.920
  341.750    2.973    0.293    0.446  112.535
  342.000    3.353    0.366    0.473  126.751
  342.250    3.817    0.408    0.511  124.922
  342.500    4.453    0.446    0.593  102.732
  342.750    5.495    0.496    0.620   89.963
  343.000    6.556    0.346    0.526   73.365
  343.250    7.407    0.331    0.247   62.601
  343.500    8.433    0.351    0.238   59.435
  343.750    9.228    0.365    0.232   55.357
  344.000    9.672    0.380    0.213   46.903
  344.250    8.790    0.389    0.202   41.246
  344.500    7.751    0.375    0.238   37.168
  344.750    6.952    0.360    0.275   35.521
  345.000    6.211    0.350    0.292   34.117
  345.250    5.592    0.343    0.307   34.415
  345.500    5.158    0.340    0.318   33.438
  345.750    4.885    0.331    0.326   50.632
  346.000    4.741    0.320    0.336   58.101
  346.250    4.759    0.311    0.346   63.202
  346.500    4.868    0.300    0.347   68.605
  346.750    4.988    0.292    0.339   68.295
  347.000    5.160    0.296    0.337   67.013
  347.250    5.318    0.281    0.348   76.185
  347.500    5.480    0.255    0.365   89.733
  347.750    5.722    0.239    0.377   99.998
  348.000    5.897    0.227    0.392  103.396
  348.250    6.089    0.220    0.401  100.899
  348.500    6.216    0.225    0.386   94.997
  348.750    6.275    0.263    0.385   90.858
  349.000    6.205    0.294    0.391   88.179
  349.250    5.988    0.301    0.405   88.052
  349.500    5.746    0.297    0.415   89.139
  349.750    5.514    0.307    0.411   88.465
  350.000    5.608    0.310    0.402   88.520
  350.250    5.704    0.292    0.392   90.399
  350.500    5.801    0.274    0.385   96.045
  350.750    5.867    0.258    0.381   98.836
  351.000    5.813    0.240    0.377   97.493
  351.250    5.726    0.230    0.375   87.763
  351.500    5.802    0.259    0.378   77.546
  351.750    5.847    0.275    0.390   75.413
  352.000    5.858    0.268    0.391   85.496
  352.250    5.858    0.254    0.384   94.060
  352.500    5.793    0.245    0.380   99.464
  352.750    5.643    0.240    0.378  101.525
  353.000    5.486    0.260    0.383  101.884
  353.250    5.487    0.286    0.400  101.453
  353.500    5.456    0.303    0.406  105.337
  353.750    5.365    0.303    0.418  110.982
  354.000    5.335    0.217    0.430  113.530
  354.250    5.296    0.178    0.436  115.409
  354.500    5.101    0.127    0.445  109.386
  354.750    4.867    0.104    0.433  104.701
  355.000    4.714    0.089    0.398  107.125
  355.250    4.567    0.158    0.409  112.164
  355.500    4.407    0.186    0.434  116.535
  355.750    4.173    0.198    0.461  119.690
  356.000    3.771    0.208    0.459  121.993
  356.250    3.518    0.217    0.460  123.932
  356.500    3.295    0.228    0.469  124.899
  356.750    3.150    0.233    0.481  125.319
  357.000    2.994    0.237    0.489  124.098
  357.250    2.911    0.242    0.503  119.291
  357.500    2.911    0.254    0.495  109.804
  357.750    3.139    0.264    0.492   99.830
  358.000    3.586    0.218    0.447   94.172
  358.250    4.168    0.182    0.409   85.901
  358.500    4.613    0.221    0.380   81.641
  358.750    5.153    0.256    0.385   83.762
  359.000    5.524    0.285    0.412   75.673
  359.250    5.381    0.308    0.425   59.196
  359.500    5.087    0.338    0.414   44.968
  359.750    4.773    0.349    0.397   38.034
  360.000    4.537    0.352    0.388   36.570
  360.250    4.428    0.354    0.383   44.828
  360.500    4.346    0.350    0.376   48.532
  360.750    4.313    0.349    0.371   52.294
  361.000    4.346    0.349    0.381   55.449
  361.250    4.521    0.336    0.390   58.542
  361.500    4.774    0.325    0.398   60.725
  361.750    5.032    0.313    0.406   61.509
  362.000    5.275    0.302    0.414   60.592
  362.250    5.405    0.300    0.396   60.039
  362.500    5.345    0.310    0.385   64.105
  362.750    5.285    0.324    0.396   70.360
  363.000    5.177    0.332    0.404   75.641
  363.250    5.062    0.317    0.408   79.344
  363.500    4.922    0.312    0.413   75.813
  363.750    4.849    0.310    0.420   72.768
  364.000    4.813    0.315    0.409   73.857
  364.250    4.768    0.316    0.407   76.464
  364.500    4.715    0.308    0.409   75.668
  364.750    4.680    0.311    0.416   70.983
  365.000    4.550    0.335    0.420   60.098
  365.250    4.525    0.355    0.421   50.246
  365.500    4.483    0.356    0.422   51.699
  365.750    4.500    0.343    0.414   56.616
  366.000    4.500    0.337    0.405   59.041
  366.250    4.526    0.329    0.400   59.826
  366.500    4.569    0.329    0.406   63.892
  366.750    4.621    0.322    0.407   69.114
  367.000    4.726    0.315    0.396   73.726
  367.250    4.871    0.311    0.389   78.704
  367.500    4.991    0.294    0.385   81.495
  367.750    5.192    0.274    0.378   84.649
  368.000    5.381    0.261    0.376   84.948
  368.250    5.598    0.253    0.385   77.223
  368.500    5.802    0.256    0.389   72.660
  368.750    5.990    0.253    0.381   73.687
  369.000    6.127    0.242    0.374   76.173
  369.250    6.255    0.233    0.368   81.879
  369.500    6.291    0.228    0.369   87.831
  369.750    6.363    0.242    0.396   94.510
  370.000    6.399    0.249    0.415   96.146
  370.250    6.387    0.272    0.409   94.013
  370.500    6.257    0.289    0.408   97.958
  370.750    6.049    0.292    0.420  101.174
  371.000    5.612    0.290    0.425   94.969
  371.250    5.187    0.309    0.427   76.668
  371.500    4.977    0.330    0.421   68.215
  371.750    4.812    0.345    0.396   63.955
  372.000    4.996    0.356    0.381   74.038
  372.250    5.149    0.325    0.382   83.514
  372.500    5.306    0.297    0.383   94.995
  372.750    5.510    0.283    0.378  102.708
  373.000    5.699    0.267    0.384  109.084
  373.250    5.808    0.256    0.409  106.282
