~VERSION INFORMATION
 VERS.                 2.0:   CWLS LOG ASCII STANDARD -VERSION 2.0
 WRAP.                  NO:   ONE LINE PER DEPTH STEP
~WELL INFORMATION BLOCK
#MNEM.UNIT           DATA                    DESCRIPTION OF MNEMONIC
#---------    -------------------            -------------------------------
# Generated from Intellog Unique Number	CS_77_79/WELL/858
WELL.         DOME COWPAR                    : Well_name    - WELL
LOC .         00/05-19-079-02W4/0            : Location     - LOCATION
UWI .         00/05-19-079-02W4/0            : Uwi          - UNIQUE WELL ID
ENTR.         JHS                            : Entered      - ENTERED BY
SRVC.         SCHLUMBERGER                   : Scn          - SERVICE COMPANY
STRT.M        105                            : top_depth    - START DEPTH
STOP.M        335                            : bot_depth    - STOP DEPTH
STEP.M        0.25                           : increment    - STEP LENGTH
 NULL. -999.2500:NULL Value
~CURVE INFORMATION BLOCK
#MNEM UNIT       ERCB CURVE CODE    CURVE DESCRIPTION
#-----------   ------------------   ----------------------------------
DEPT.M        00 001 00 00         : DEPTH        - DEPTH
DPHI.V/V      00 890 00 00         : PHID         - DENSITY POROSITY (LIMESTONE)
NPHI.V/V      00 330 00 00         : PHIN         - NEUTRON POROSITY (LIMESTONE)
GR  .API      00 310 00 00         : GR           - GAMMA RAY
ILD .OHMM     00 120 00 00         : RESD         - DEEP RESISTIVITY (DIL)
RHOB.KG/M3    00 350 00 00         : DENS         - BULK DENSITY
~PARAMETER INFORMATION
#MNEM.UNIT           DATA             DESCRIPTION OF MNEMONIC
#---------         -----------     ------------------------------
GL  .M        522.7                : gl           - GROUND LEVEL ELEVATION
EREF.M        526.2                : kb           - ELEVATION OF DEPTH REFERENCE
DATM.M        526.2                : datum        - DATUM ELEVATION
TDD .M        338.8                : tdd          - TOTAL DEPTH DRILLER
RUN .         ONE                  : Run          - RUN NUMBER
ENG .         BILL                 : Engineer     - RECORDING ENGINEER
WIT .         JIM                  : Witness      - WITNESSED BY
MUD .         GEL                  : Mud_type     - MUD TYPE
MATR.         LIMESTONE            : Logunit      - NEUTRON MATRIX
TMAX.C        22                   : BHT          - MAXIMUM RECORDED TEMPERATURE
BHTD.M        338.8                : BHTDEP       - MAXIMUM RECORDED TEMPERATURE
MATR.         1                    : LOGUNIT      - NEUTRON MATRIX
RMT .C        25                   : MDTP         - TEMPERATURE OF MUD
NEUT.         1                    : NEUTRON      - NEUTRON TYPE
RESI.         0                    : RESIST       - RESISTIVITY TYPE
RMC .OHMM     0.25                 : RMC          - RESISTIVITY OF MUD CAKE
RMF .OHMM     0.25                 : RMF          - RESISTIVITY OF MUD FILTRATE
SUFT.C        15                   : SUFT         - SURFACE TEMPERATURE
~A  DEPTH     PHID     PHIN       GR     RESD     DENS
# ...
  214.500    0.303    0.442   82.452    5.861    0.000
  214.750    0.284    0.423   80.026    5.873    0.000
  215.000    0.273    0.419   75.174    5.885    0.000
  215.250    0.293    0.425   77.608    5.787    0.000
  215.500    0.302    0.425   81.864    5.792    0.000
  215.750    0.292    0.446   81.870    5.389    0.000
  216.000    0.281    0.454   86.734    5.009    0.000
  216.250    0.271    0.457   91.596    4.406    0.000
  216.500    0.257    0.478   99.499    3.877    0.000
  216.750    0.255    0.498  101.324    3.605    0.000
  217.000    0.281    0.515  103.153    3.230    0.000
  217.250    0.286    0.540  106.193    2.841    0.000
  217.500    0.300    0.569  109.235    2.691    0.000
  217.750    0.275    0.568  109.242    2.599    0.000
  218.000    0.279    0.548  108.030    2.602    0.000
  218.250    0.267    0.538  104.999    2.656    0.000
  218.500    0.271    0.540  108.041    2.711    0.000
  218.750    0.256    0.563  110.475    2.766    0.000
  219.000    0.243    0.556  113.518    2.770    0.000
  219.250    0.233    0.541  109.272    2.826    0.000
  219.500    0.253    0.528  109.277    2.780    0.000
  219.750    0.270    0.516  111.712    2.786    0.000
  220.000    0.260    0.533  111.111    2.737    0.000
  220.250    0.259    0.560  108.078    2.692    0.000
  220.500    0.253    0.548  103.225    2.695    0.000
  220.750    0.257    0.543   99.587    2.804    0.000
  221.000    0.272    0.543   98.378    2.967    0.000
  221.250    0.270    0.530   99.597    3.385    0.000
  221.500    0.257    0.520   99.602    3.653    0.000
  221.750    0.245    0.525   97.177    3.798    0.000
  222.000    0.253    0.517   89.287    3.802    0.000
  222.250    0.298    0.494   85.649    3.809    0.000
  222.500    0.286    0.480   86.868    3.676    0.000
  222.750    0.274    0.480   85.659    3.617    0.000
  223.000    0.274    0.476   87.487    3.620    0.000
  223.250    0.260    0.479   88.707    3.767    0.000
  223.500    0.303    0.477   86.889    3.842    0.000
  223.750    0.281    0.483   83.858    3.847    0.000
  224.000    0.271    0.474   83.257    3.784    0.000
  224.250    0.260    0.466   81.439    3.791    0.000
  224.500    0.283    0.461   74.764    3.796    0.000
  224.750    0.270    0.430   71.734    3.803    0.000
  225.000    0.258    0.438   72.955    3.880    0.000
  225.250    0.264    0.454   74.781    4.032    0.000
  225.500    0.293    0.459   74.786    4.351    0.000
  225.750    0.284    0.451   71.146    4.781    0.000
  226.000    0.258    0.446   69.330    5.063    0.000
  226.250    0.207    0.420   70.552    5.266    0.000
  226.500    0.168    0.350   72.986    5.083    0.000
  226.750    0.166    0.351   74.204    4.815    0.000
  227.000    0.294    0.421   76.638    4.396    0.000
  227.250    0.295    0.437   79.680    4.165    0.000
  227.500    0.291    0.439   78.472    4.095    0.000
  227.750    0.293    0.437   76.655    4.180    0.000
  228.000    0.293    0.439   81.519    4.345    0.000
  228.250    0.290    0.432   83.953    4.598    0.000
  228.500    0.285    0.437   81.529    5.054    0.000
  228.750    0.266    0.409   72.424    5.557    0.000
  229.000    0.236    0.393   66.356    5.776    0.000
  229.250    0.114    0.346   71.827    5.573    0.000
  229.500    0.092    0.284   76.691    5.280    0.000
  229.750    0.175    0.307   76.696    4.823    0.000
  230.000    0.199    0.337   79.131    4.400    0.000
  230.250    0.285    0.449   77.921    3.799    0.000
  230.500    0.294    0.455   75.499    3.668    0.000
  230.750    0.294    0.449   77.934    3.743    0.000
  231.000    0.315    0.443   79.152    3.821    0.000
  231.250    0.305    0.436   81.587    3.826    0.000
  231.500    0.309    0.427   84.021    3.903    0.000
  231.750    0.302    0.424   87.670    4.058    0.000
  232.000    0.288    0.435   91.320    4.298    0.000
  232.250    0.278    0.450   94.969    4.551    0.000
  232.500    0.261    0.465   97.402    4.646    0.000
  232.750    0.246    0.462   99.837    4.654    0.000
  233.000    0.251    0.446   99.841    4.490    0.000
  233.250    0.256    0.438   96.810    4.416    0.000
  233.500    0.250    0.429  100.460    4.504    0.000
  233.750    0.260    0.435   96.821    4.685    0.000
  234.000    0.250    0.447   93.789    4.777    0.000
  234.250    0.243    0.440   94.401    4.612    0.000
  234.500    0.235    0.424   97.444    4.289    0.000
  234.750    0.264    0.440   98.663    3.915    0.000
  235.000    0.258    0.473   92.595    3.709    0.000
  235.250    0.271    0.489   87.134    3.785    0.000
  235.500    0.263    0.497   91.999    3.794    0.000
  235.750    0.243    0.493   93.826    3.729    0.000
  236.000    0.273    0.511   99.298    3.599    0.000
  236.250    0.287    0.503  101.732    3.409    0.000
  236.500    0.255    0.493   99.915    3.230    0.000
  236.750    0.258    0.491   95.668    3.118    0.000
  237.000    0.269    0.521   99.319    3.066    0.000
  237.250    0.264    0.543  100.538    3.013    0.000
  237.500    0.267    0.538   99.935    2.802    0.000
  237.750    0.268    0.544  102.979    2.607    0.000
  238.000    0.255    0.558  104.805    2.563    0.000
  238.250    0.270    0.546  103.595    2.566    0.000
  238.500    0.258    0.534   99.350    2.769    0.000
  238.750    0.253    0.524   96.319    3.218    0.000
  239.000    0.270    0.511   93.287    3.603 2247.740
  239.250    0.269    0.524   89.650    3.887 2249.830
  239.500    0.247    0.484   87.225    4.040 2287.080
  239.750    0.232    0.506   84.800    4.047 2314.000
  240.000    0.211    0.495   82.983    4.130 2349.190
  240.250    0.204    0.463   88.454    4.799 2361.620
  240.500    0.276    0.464   92.712    5.274 2237.520
  240.750    0.256    0.469   92.716    5.487 2272.710
  241.000    0.131    0.287   86.648    5.393 2485.800
  241.250    0.100    0.288   88.475    4.924 2539.610
  241.500    0.101    0.317   90.909    4.495 2537.560
  241.750    0.208    0.398   90.915    4.179 2353.470
  242.000    0.254    0.478   86.062    3.886 2274.890
  242.250    0.287    0.490   85.463    3.751 2219.050
  242.500    0.263    0.492   85.465    3.757 2260.450
  242.750    0.259    0.484   87.292    3.835 2266.670
  243.000    0.262    0.470   87.297    3.914 2262.560
  243.250    0.283    0.452   83.051    3.993 2225.350
  243.500    0.279    0.458   81.843    3.999 2233.640
  243.750    0.269    0.485   81.241    3.933 2250.210
  244.000    0.263    0.482   80.030    3.938 2260.570
  244.250    0.294    0.468   87.323    3.871 2206.820
  244.500    0.289    0.456   90.972    3.880 2215.110
  244.750    0.275    0.452   90.371    3.886 2239.950
  245.000    0.281    0.476   87.945    4.040 2229.630
  245.250    0.292    0.481   86.736    4.199 2211.040
  245.500    0.291    0.494   86.134    4.448 2213.130
  245.750    0.281    0.470   81.281    4.455 2229.690
  246.000    0.260    0.459   86.753    4.463 2264.880
  246.250    0.239    0.453   89.794    4.386 2302.140
  246.500    0.226    0.455   88.584    4.234 2322.850
  246.750    0.255    0.465   83.731    3.941 2273.220
  247.000    0.269    0.457   83.131    3.871 2250.490
  247.250    0.275    0.442   86.172    3.535 2240.160
  247.500    0.243    0.434   87.390    3.109 2293.970
  247.750    0.238    0.443   86.790    2.686 2302.270
  248.000    0.266    0.479   84.366    2.542 2254.710
  248.250    0.266    0.505   84.370    2.196 2254.730
  248.500    0.267    0.536   84.375    2.120 2252.680
  248.750    0.292    0.546   81.952    2.122 2211.340
  249.000    0.288    0.534   82.564    2.166 2217.560
  249.250    0.293    0.538   81.963    2.210 2209.310
  249.500    0.311    0.553   81.359    2.341 2178.300
  249.750    0.321    0.546   81.972    2.345 2161.770
  250.000    0.291    0.513   81.065    2.102 2212.580
  250.250    0.267    0.503   81.683    2.184 2254.120
  250.500    0.256    0.486   77.470    2.490 2272.850
  250.750    0.279    0.464   79.308    2.891 2233.530
