~VERSION INFORMATION
 VERS.                 2.0:   CWLS LOG ASCII STANDARD -VERSION 2.0
 WRAP.                  NO:   ONE LINE PER DEPTH STEP
~WELL INFORMATION BLOCK
#MNEM.UNIT           DATA                    DESCRIPTION OF MNEMONIC
#---------    -------------------            -------------------------------
# Generated from Intellog Unique Number	CX_WELLS/WELL/1055
WELL.         05-01-088-17W4                 : Well_name    - WELL
LOC .         00/05-01-088-17W4/0            : Location     - LOCATION
UWI .         00/05-01-088-17W400            : Uwi          - UNIQUE WELL ID
ENTR.         DW                             : Entered      - ENTERED BY
SRVC.         SCHLUMBERGER                   : Scn          - SERVICE COMPANY
STRT.M        100                            : top_depth    - START DEPTH
STOP.M        235                            : bot_depth    - STOP DEPTH
STEP.M        0.25                           : increment    - STEP LENGTH
 NULL. -999.2500:NULL Value
~CURVE INFORMATION BLOCK
#MNEM UNIT       ERCB CURVE CODE    CURVE DESCRIPTION
#-----------   ------------------   ----------------------------------
DEPT.M        00 001 00 00         : DEPTH        - DEPTH
GR  .API      00 310 00 00         : GR           - GAMMA RAY
NPHI.V/V      00 330 00 00         : PHIN         - NEUTRON POROSITY (SANDSTONE)
DPHI.V/V      00 890 00 00         : PHID         - DENSITY POROSITY (SANDSTONE)
ILD .OHMM     00 120 00 00         : RESD         - DEEP RESISTIVITY (DIL)
~PARAMETER INFORMATION
#MNEM.UNIT           DATA             DESCRIPTION OF MNEMONIC
#---------         -----------     ------------------------------
GL  .M        532.79               : gl           - GROUND LEVEL ELEVATION
EREF.M        536.09               : kb           - ELEVATION OF DEPTH REFERENCE
DATM.M        536.09               : datum        - DATUM ELEVATION
TDD .M        236                  : tdd          - TOTAL DEPTH DRILLER
RUN .         ONE                  : Run          - RUN NUMBER
ENG .         BILL                 : Engineer     - RECORDING ENGINEER
WIT .         JIM                  : Witness      - WITNESSED BY
MUD .         GEL                  : Mud_type     - MUD TYPE
MATR.         SANDSTONE            : Logunit      - NEUTRON MATRIX
TMAX.C        16                   : BHT          - MAXIMUM RECORDED TEMPERATURE
BHTD.M        236                  : BHTDEP       - MAXIMUM RECORDED TEMPERATURE
MATR.         1                    : LOGUNIT      - NEUTRON MATRIX
RMT .C        25                   : MDTP         - TEMPERATURE OF MUD
NEUT.         1                    : NEUTRON      - NEUTRON TYPE
RESI.         0                    : RESIST       - RESISTIVITY TYPE
RMC .OHMM     0.25                 : RMC          - RESISTIVITY OF MUD CAKE
RMF .OHMM     0.25                 : RMF          - RESISTIVITY OF MUD FILTRATE
SUFT.C        15                   : SUFT         - SURFACE TEMPERATURE
~A  DEPTH       GR     PHIN     PHID     RESD
  100.000  117.178    0.524    0.256    6.086
  100.250  117.832    0.535    0.260    5.765
  100.500  119.078    0.548    0.260    5.467
  100.750  120.915    0.557    0.256    5.378
  101.000  122.160    0.563    0.250    5.288
  101.250  122.223    0.557    0.243    5.199
  101.500  122.286    0.547    0.240    5.213
  101.750  120.575    0.534    0.234    5.225
  102.000  118.272    0.516    0.221    5.337
  102.250  115.378    0.512    0.172    5.349
  102.500  111.317    0.512    0.150    5.458
  102.750  108.999    0.511    0.149    5.573
  103.000  107.288    0.508    0.153    5.693
  103.250  110.308    0.509    0.161    5.816
  103.500  112.767    0.510    0.172    5.825
  103.750  113.437    0.513    0.184    5.944
  104.000  112.877    0.513    0.191    6.076
  104.250  112.940    0.511    0.199    6.197
  104.500  114.777    0.506    0.210    6.334
  104.750  116.613    0.504    0.222    6.463
  105.000  116.692    0.502    0.229    6.599
  105.250  116.163    0.499    0.228    6.741
  105.500  117.409    0.496    0.220    6.879
  105.750  119.246    0.493    0.210    7.027
  106.000  119.309    0.488    0.202    7.178
  106.250  120.554    0.486    0.198    7.186
  106.500  123.589    0.491    0.208    7.073
  106.750  123.045    0.498    0.222    6.834
  107.000  120.758    0.505    0.220    6.715
  107.250  119.047    0.514    0.215    6.488
  107.500  118.503    0.518    0.210    6.039
  107.750  116.792    0.523    0.208    5.829
  108.000  116.263    0.528    0.219    5.625
  108.250  116.326    0.532    0.243    5.432
  108.500  116.996    0.539    0.250    5.148
  108.750  115.892    0.553    0.269    4.880
  109.000  113.558    0.568    0.274    4.625
  109.250  113.652    0.567    0.276    4.386
  109.500  114.897    0.555    0.281    4.231
  109.750  114.945    0.539    0.283    4.085
  110.000  114.416    0.541    0.288    3.803
  110.250  112.113    0.553    0.292    3.606
  110.500  111.585    0.560    0.299    3.479
  110.750  111.663    0.557    0.301    3.363
  111.000  111.135    0.566    0.292    3.304
  111.250  109.424    0.573    0.283    3.251
  111.500  107.106    0.559    0.277    3.260
  111.750  101.846    0.526    0.266    3.265
  112.000   94.813    0.515    0.257    3.530
  112.250   89.538    0.512    0.251    3.668
  112.500   83.704    0.495    0.246    4.112
  112.750   81.992    0.478    0.242    4.691
  113.000   79.674    0.466    0.248    5.990
  113.250   73.232    0.460    0.257    8.389
  113.500   67.989    0.454    0.266   19.439
  113.750   66.262    0.445    0.257   20.599
  114.000   65.733    0.436    0.251   21.032
  114.250   66.403    0.433    0.243   21.066
  114.500   67.649    0.428    0.244   21.112
  114.750   68.287    0.426    0.253   21.159
  115.000   69.533    0.426    0.259   20.814
  115.250   69.611    0.432    0.266   20.487
  115.500   69.674    0.441    0.269   20.143
  115.750   67.963    0.464    0.266   18.750
  116.000   63.295    0.507    0.279   16.808
  116.250   62.175    0.520    0.302   15.059
  116.500   62.845    0.527    0.316   12.760
  116.750   63.499    0.518    0.338   10.618
  117.000   62.986    0.502    0.336    9.171
  117.250   63.018    0.482    0.325    8.221
  117.500   61.898    0.467    0.318    8.551
  117.750   59.611    0.452    0.317    9.761
  118.000   59.674    0.444    0.322   12.241
  118.250   59.721    0.443    0.324   13.965
  118.500   60.966    0.441    0.325   17.171
  118.750   62.228    0.437    0.323   17.208
  119.000   63.473    0.433    0.308   16.626
  119.250   68.858    0.437    0.285   15.175
  119.500   70.695    0.449    0.257   12.865
  119.750   70.757    0.486    0.249   11.118
  120.000   69.638    0.486    0.234   10.532
  120.250   67.927    0.459    0.227    9.441
  120.500   64.441    0.436    0.233    9.462
  120.750   62.746    0.435    0.239   11.420
  121.000   63.400    0.436    0.248   13.529
  121.250   65.828    0.441    0.255   18.265
  121.500   68.240    0.446    0.266   21.240
  121.750   72.458    0.453    0.272   18.690
  122.000   76.692    0.461    0.281   14.438
  122.250   77.906    0.474    0.289   10.349
  122.500   77.985    0.470    0.297    8.779
  122.750   75.682    0.450    0.305    8.168
  123.000   72.181    0.443    0.258    7.599
  123.250   68.120    0.442    0.248    7.616
  123.500   69.350    0.445    0.229    8.376
  123.750   72.370    0.445    0.225    9.207
  124.000   74.798    0.443    0.253   11.976
  124.250   77.273    0.447    0.277   13.934
  124.500   77.896    0.454    0.290   13.208
  124.750   80.931    0.461    0.302   11.401
  125.000   82.161    0.469    0.304    9.488
  125.250   84.013    0.474    0.305    8.039
  125.500   84.667    0.482    0.304    7.480
  125.750   83.547    0.477    0.295    7.496
  126.000   81.245    0.471    0.286    7.801
  126.250   78.942    0.465    0.276    8.110
  126.500   77.231    0.461    0.272    8.929
  126.750   77.870    0.460    0.270    9.457
  127.000   79.162    0.458    0.274   10.027
  127.250   79.801    0.457    0.302   10.237
  127.500   79.848    0.461    0.299    9.529
  127.750   79.942    0.466    0.290    9.202
  128.000   78.791    0.469    0.278    8.881
  128.250   75.321    0.475    0.277    8.417
  128.500   71.229    0.482    0.305    7.982
  128.750   66.546    0.460    0.313    7.700
  129.000   55.964    0.449    0.328    7.435
  129.250   53.086    0.440    0.359    8.026
  129.500   53.149    0.429    0.365    9.509
  129.750   53.212    0.424    0.365   12.141
  130.000   53.259    0.428    0.359   17.003
  130.250   53.337    0.438    0.354   23.387
  130.500   53.416    0.448    0.351   27.722
  130.750   52.872    0.447    0.350   28.288
  131.000   52.343    0.445    0.347   28.882
  131.250   51.239    0.439    0.345   28.977
  131.500   50.726    0.439    0.340   29.025
  131.750   50.166    0.445    0.338   29.072
  132.000   50.229    0.449    0.342   28.119
  132.250   50.883    0.449    0.343   28.165
  132.500   52.160    0.448    0.347   27.692
  132.750   52.783    0.449    0.344   27.271
  133.000   54.029    0.450    0.342   27.316
  133.250   54.683    0.451    0.339   26.886
  133.500   55.337    0.453    0.335   26.434
  133.750   56.022    0.451    0.334   25.990
  134.000   56.692    0.444    0.333   25.110
  134.250   57.906    0.440    0.331   24.247
  134.500   59.743    0.438    0.329   23.413
  134.750   61.596    0.436    0.317   23.451
  135.000   62.266    0.433    0.288   23.503
  135.250   62.297    0.433    0.288   22.707
  135.500   62.967    0.438    0.296   22.325
  135.750   63.621    0.443    0.301   21.962
  136.000   64.866    0.451    0.303   21.605
  136.250   66.703    0.456    0.289   21.253
  136.500   67.949    0.463    0.270   19.420
  136.750   68.603    0.468    0.265   15.855
  137.000   69.273    0.469    0.272   12.705
  137.250   69.927    0.440    0.284    9.112
  137.500   70.565    0.423    0.271    8.478
  137.750   70.628    0.404    0.272    8.340
  138.000   69.555    0.391    0.274    8.842
  138.250   68.995    0.392    0.284    9.546
  138.500   67.891    0.402    0.286   10.498
  138.750   67.954    0.421    0.286   11.125
  139.000   68.608    0.428    0.286   11.352
  139.250   69.262    0.434    0.287   11.597
  139.500   69.341    0.443    0.287   11.840
  139.750   69.979    0.452    0.287   12.095
  140.000   70.042    0.456    0.287   12.122
  140.250   70.105    0.444    0.286   12.142
  140.500   71.350    0.436    0.286   12.175
  140.750   70.822    0.434    0.285   12.195
  141.000   70.309    0.436    0.281   12.229
  141.250   69.781    0.437    0.278   12.255
  141.500   68.661    0.433    0.273   12.754
  141.750   68.132    0.399    0.263   12.768
  142.000   67.604    0.360    0.243   14.314
  142.250   67.075    0.312    0.192   16.339
  142.500   66.562    0.263    0.178   19.000
  142.750   65.411    0.232    0.060   23.814
  143.000   63.700    0.230    0.069   26.177
  143.250   62.580    0.224    0.079   28.274
