~VERSION INFORMATION
 VERS.                 2.0:   CWLS LOG ASCII STANDARD -VERSION 2.0
 WRAP.                  NO:   ONE LINE PER DEPTH STEP
~WELL INFORMATION BLOCK
#MNEM.UNIT           DATA                    DESCRIPTION OF MNEMONIC
#---------    -------------------            -------------------------------
# Generated from Intellog Unique Number	CW_76_78/WELL/2794
NULL.         -999.25                        : NULL_VALUE
WELL.         06-36-077-02W5                 : Well_name    - WELL              
LOC .         00/06-36-077-02W5/0            : Location     - LOCATION          
UWI .         00/06-36-077-02W5/0            : Uwi          - UNIQUE WELL ID    
ENTR.         JJ                             : Entered      - ENTERED BY        
SRVC.         WESTERN ATLAS                  : Scn          - SERVICE COMPANY   
DATE.         10 JAN 67                      : Date         - LOG DATE          
STRT.M        487.68                         : top_depth    - START DEPTH       
STOP.M        615.68                         : bot_depth    - STOP DEPTH        
STEP.M        0.25                           : increment    - STEP LENGTH       
~CURVE INFORMATION BLOCK
#MNEM UNIT       ERCB CURVE CODE    CURVE DESCRIPTION
#-----------   ------------------   ----------------------------------
DEPT.M        00 001 00 00         : DEPTH        - DEPTH                       
CALI.MM       00 280 01 00         : CAL          - CALIPER                     
GR  .API      00 310 00 00         : GR           - GAMMA RAY                   
ILD .OHMM     00 120 00 00         : RESD         - DEEP RESISTIVITY (DIL)      
DELT.US/F     00 520 00 00         : DELT         - SONIC TRAVEL TIME           
~PARAMETER INFORMATION       
#MNEM.UNIT           DATA             DESCRIPTION OF MNEMONIC
#---------         -----------     ------------------------------
GL  .M        659.282              : gl           - GROUND LEVEL ELEVATION      
EREF.M        662.635              : kb           - ELEVATION OF DEPTH REFERENCE
DATM.M        659.282              : datum        - DATUM ELEVATION             
TDD .M        649.529              : tdd          - TOTAL DEPTH DRILLER         
RUN .         ONE                  : Run          - RUN NUMBER                  
ENG .         OBERMEYER            : Engineer     - RECORDING ENGINEER          
WIT .         GEORGE               : Witness      - WITNESSED BY                
MUD .         GEL                  : Mud_type     - MUD TYPE                    
MATR.         SANDSTONE            : Logunit      - NEUTRON MATRIX              
TMAX.C        22.2222              : BHT          - MAXIMUM RECORDED TEMPERATURE
BHTD.M        650.138              : BHTDEP       - MAXIMUM RECORDED TEMPERATURE
RMT .C        21.1111              : MDTP         - TEMPERATURE OF MUD          
MUDD.KG/M     1140                 : MWT          - MUD DENSITY                 
NEUT.         1                    : NEUTRON      - NEUTRON TYPE                
RESI.         0                    : RESIST       - RESISTIVITY TYPE            
RM  .OHMM     4.65                 : RM           - RESISTIVITY OF MUD          
RMC .OHMM     4.68                 : RMC          - RESISTIVITY OF MUD CAKE     
RMF .OHMM     4.55                 : RMF          - RESISTIVITY OF MUD FILTRATE 
SUFT.C        5                    : SUFT         - SURFACE TEMPERATURE         
~A  DEPTH      CAL       GR     RESD     DELT
# ...
  531.180  231.413   79.806    5.596  332.132
  531.430  232.681   79.212    5.074  331.730
  531.680  232.791   79.081    4.885  354.614
  531.930  232.901   80.009    4.722  361.171
  532.180  233.325   79.348    4.672  371.944
  532.430  234.066   76.635    4.696  371.676
  532.680  232.494   76.239    4.802  380.976
  532.930  229.346   76.505    4.769  400.849
  533.180  229.246   78.362    4.483  382.715
  533.430  230.511   80.317    4.115  365.316
  533.680  232.409   82.239    4.050  369.665
  533.930  234.622   84.525    4.172  373.880
  534.180  234.942   82.076    4.449  374.950
  534.430  234.108   77.574    4.816  368.392
  534.680  233.060   76.152    5.305  369.194
  534.930  231.908   78.803    5.778  369.528
  535.180  231.283   81.586    6.006  364.910
  535.430  232.548   83.011    5.965  361.898
  535.680  233.290   82.946    5.712  360.693
  535.930  233.399   82.551    5.613  359.421
  536.180  233.615   83.148    5.638  355.807
  536.430  234.671   84.044    5.686  354.134
  536.680  234.150   84.045    5.596  356.140
  536.930  232.683   84.610    5.416  361.694
  537.180  228.903   81.168    5.220  359.552
  537.430  225.756   80.044    5.048  360.153
  537.680  224.918   80.541    4.933  362.294
  537.930  227.341   82.629    4.859  365.639
  538.180  230.606   84.585    4.826  368.047
  538.430  232.188   86.805    4.801  368.716
  538.680  232.612   88.528    4.785  368.648
  538.930  233.670   83.033    4.776  367.510
  539.180  233.884   82.339    4.800  364.766
  539.430  234.520   83.367    4.816  361.754
  539.680  235.787   85.720    4.840  359.077
  539.930  236.317   86.648    4.872  358.675
  540.180  236.112   86.054    4.880  367.038
  540.430  233.067   82.578    4.831  371.989
  540.680  232.547   81.620    4.773  373.996
  540.930  234.128   80.032    4.961  369.914
  541.180  234.870   79.139    5.703  367.638
  541.430  233.192   77.022    6.601  370.314
  541.680  228.887   72.288    8.021  368.239
  541.930  225.319   68.648   10.428  355.993
  542.180  223.535   66.993   12.077  348.832
  542.430  223.646   65.108   13.113  334.311
  542.680  225.648   63.354   11.121  326.080
  542.930  228.701   64.978    8.819  318.250
  543.180  232.071   64.483    7.031  323.670
  543.430  232.916   61.207    7.585  332.435
  543.680  232.606   58.129    8.785  334.442
  543.930  232.296   55.051   16.197  318.315
  544.180  232.091   51.609   18.792  300.448
  544.430  231.990   55.518   20.680  262.707
  544.680  231.364   60.685   23.248  225.368
  544.930  230.738   62.243   26.077  212.519
  545.180  230.848   59.827   27.333  222.890
  545.430  231.273   60.160   25.885  231.254
  545.680  231.490   63.042   11.094  239.685
  545.930  231.285   73.341    8.307  250.257
  546.180  232.446   75.296    6.614  262.502
  546.430  233.922   76.027    5.713  291.274
  546.680  234.558   77.055    5.083  322.255
  546.930  235.300   79.076    4.828  354.508
  547.180  235.303   78.349    4.973  349.087
  547.430  234.679   76.596    4.955  349.086
  547.680  231.635   76.697    4.823  347.011
  547.930  228.695   77.096    4.649  344.736
  548.180  225.756   77.064    4.459  344.869
  548.430  224.815   78.092    4.376  342.927
  548.680  226.398   77.233    4.318  342.860
  548.930  228.820   81.969    4.414  344.733
  549.180  230.927   82.136    4.461  340.048
  549.430  233.981   84.588    4.411  332.018
  549.680  235.669   85.948    4.237  337.237
  549.930  233.150   86.777    3.933  341.920
  550.180  235.573   88.301    3.736  349.681
  550.430  236.944   91.283    3.619  355.569
  550.680  237.370   89.132    3.805  361.056
  550.930  237.060   85.856    3.935  368.349
  551.180  236.538   82.877    4.243  358.913
  551.430  235.493   80.925    4.569  345.195
  551.680  233.922   74.735    5.318  335.023
  551.930  232.034   72.584    6.297  319.699
  552.180  230.147   70.301    7.684  302.501
  552.430  230.151   67.455   10.052  268.775
  552.680  230.997   64.741   12.779  252.113
  552.930  231.317   63.418   14.950  241.138
  553.180  230.165   65.969   15.398  250.439
  553.430  229.014   68.951   14.832  251.575
  553.680  229.860   73.058   11.677  255.121
  553.930  231.967   76.272    9.380  270.043
  554.180  234.181   78.293    8.373  315.879
  554.430  235.131   76.772    7.105  360.310
  554.680  235.453   76.177    6.238  381.521
  554.930  235.562   80.185    5.550  391.959
  555.180  234.725   81.181    5.335  399.520
  555.430  233.365   81.745    5.334  378.642
  555.680  233.684   82.608    5.487  336.886
  555.930  234.635   83.039    5.690  329.726
  556.180  235.481   85.524    5.949  329.993
  556.430  234.856   87.678    6.136  322.966
  556.680  232.232   91.388    6.257  317.746
  556.930  232.027   93.840    6.247  312.994
  557.180  233.609   95.597    5.477  309.581
  557.430  234.665   95.565    4.683  319.015
  557.680  235.721   92.884    4.028  336.145
  557.930  236.043   85.171    3.659  357.691
  558.180  235.836   78.583    3.502  398.442
  558.430  234.369   74.346    3.826  422.865
  558.680  231.746   74.281    4.103  404.596
  558.930  227.862   76.501    4.493  397.570
  559.180  226.290   77.099    4.442  384.788
  559.430  226.189   76.207    4.417  398.773
  559.680  226.194   74.553    4.546  412.757
  559.930  226.620   74.488    4.691  361.366
  560.180  227.360   75.649    4.811  373.410
  560.430  229.783   76.478    4.786  331.989
  560.680  232.310   76.976    4.580  326.368
  560.930  233.683   74.196    4.145  328.709
  561.180  233.267   67.807    3.726  354.337
  561.430  233.062   61.650    3.717  357.414
  561.680  231.175   56.055    4.115  407.667
  561.930  228.761   50.064    5.029  359.353
  562.180  225.928   40.066    9.676  355.405
  562.430  224.042   36.226   13.930  352.192
  562.680  223.205   34.042   16.338  342.489
  562.930  222.788   33.117   16.084  346.637
  563.180  222.058   30.535   13.321  349.982
  563.430  221.852   30.040   11.056  357.409
  563.680  222.908   31.002    8.342  365.840
  563.930  225.542   32.097    6.404  364.166
  564.180  226.388   32.230    5.234  360.017
  564.430  226.708   32.000    3.958  361.890
  564.680  226.818   31.637    3.066  364.833
  564.930  227.874   31.970    2.590  362.557
  565.180  228.089   32.336    2.376  362.289
  565.430  225.676   32.702    2.211  363.961
  565.680  223.263   33.068    2.095  364.295
  565.930  222.216   33.798    2.044  362.822
  566.180  221.907   34.958    2.002  361.550
  566.430  222.227   35.986    2.008  359.408
  566.680  222.757   36.816    2.023  356.865
  566.930  222.237   36.254    2.045  355.459
  567.180  221.505   34.136    2.068  354.923
  567.430  220.985   34.635    2.058  355.391
  567.680  220.360   35.630    2.039  354.922
  567.930  220.364   36.094    2.046  353.650
  568.180  220.790   35.633    2.070  352.177
  568.430  221.215   35.204    2.125  350.303
  568.680  221.851   35.271    2.123  349.432
  568.930  222.171   35.737    2.147  349.632
  569.180  222.282   35.937    2.202  350.234
  569.430  222.181   36.766    2.200  350.166
  569.680  221.976   37.993    2.166  350.433
  569.930  222.191   37.928    2.099  356.388
  570.180  222.406   38.294    1.967  353.109
  570.430  222.621   38.925    1.842  348.892
  570.680  222.521   39.622    1.815  346.884
  570.930  222.000   39.955    1.831  346.951
  571.180  220.849   40.088    1.862  347.218
  571.430  220.118   39.726    1.908  345.812
  571.680  218.967   38.535    1.915  343.804
  571.930  218.866   37.444    1.954  340.658
  572.180  219.397   37.379    2.001  337.847
  572.430  220.139   38.772    2.017  338.582
  572.680  220.457   39.435    2.007  339.719
  572.930  220.147   38.179    1.980  340.187
  573.180  219.732   36.591    1.970  339.584
  573.430  219.422   35.731    1.895  338.981
  573.680  219.743   35.733    1.894  340.386
  573.930  220.483   37.225    1.925  343.463
  574.180  221.854   38.485    2.046  345.671
  574.430  225.013   39.049    2.346  321.380
