~VERSION INFORMATION
 VERS.                 2.0:   CWLS LOG ASCII STANDARD -VERSION 2.0
 WRAP.                  NO:   ONE LINE PER DEPTH STEP
~WELL INFORMATION BLOCK
#MNEM.UNIT           DATA                    DESCRIPTION OF MNEMONIC
#---------    -------------------            -------------------------------
# Generated from Intellog Unique Number	CC_80_83/WELL/1174
NULL.         -999.25                        : NULL_VALUE
WELL.         GULF RESDLEN                   : Well_name    - WELL
LOC .         07-07-081-06W4                 : Location     - LOCATION          
UWI .         00/07-07-081-06W4/0            : Uwi          - UNIQUE WELL ID    
ENTR.         DW                             : Entered      - ENTERED BY        
SRVC.         SCHLUMBERGER                   : Scn          - SERVICE COMPANY   
DATE.         10 JAN 86                      : Date         - LOG DATE
STRT.M        130                            : top_depth    - START DEPTH       
STOP.M        309.999                        : bot_depth    - STOP DEPTH        
STEP.M        0.3                            : increment    - STEP LENGTH       
~CURVE INFORMATION BLOCK
#MNEM UNIT       ERCB CURVE CODE    CURVE DESCRIPTION
#-----------   ------------------   ----------------------------------
DEPT.M        00 001 00 00         : DEPTH        - DEPTH                       
DPHI.V/V      00 890 00 00         : PHID         - DENSITY POROSITY (LIMESTONE)
NPHI.V/V      00 330 00 00         : PHIN         - NEUTRON POROSITY (LIMESTONE)
GR  .API      00 310 00 00         : GR           - GAMMA RAY                   
ILD .OHMM     00 120 00 00         : RESD         - DEEP RESISTIVITY (DIL)      
~PARAMETER INFORMATION       
#MNEM.UNIT           DATA             DESCRIPTION OF MNEMONIC
#---------         -----------     ------------------------------
GL  .M        512.58               : gl           - GROUND LEVEL ELEVATION      
EREF.M        516.08               : kb           - ELEVATION OF DEPTH REFERENCE
DATM.M        516.08               : datum        - DATUM ELEVATION             
TDD .M        327                  : tdd          - TOTAL DEPTH DRILLER         
RUN .         ONE                  : Run          - RUN NUMBER                  
ENG .         BILL                 : Engineer     - RECORDING ENGINEER          
WIT .         JIM                  : Witness      - WITNESSED BY                
MUD .         GEL                  : Mud_type     - MUD TYPE                    
MATR.         LIMESTONE            : Logunit      - NEUTRON MATRIX              
TMAX.C        24                   : BHT          - MAXIMUM RECORDED TEMPERATURE
BHTD.M        327                  : BHTDEP       - MAXIMUM RECORDED TEMPERATURE
MATR.         1                    : LOGUNIT      - NEUTRON MATRIX              
RMT .C        25                   : MDTP         - TEMPERATURE OF MUD          
NEUT.         1                    : NEUTRON      - NEUTRON TYPE                
RESI.         0                    : RESIST       - RESISTIVITY TYPE            
RMC .OHMM     0.25                 : RMC          - RESISTIVITY OF MUD CAKE     
RMF .OHMM     0.25                 : RMF          - RESISTIVITY OF MUD FILTRATE 
SUFT.C        15                   : SUFT         - SURFACE TEMPERATURE         
~A  DEPTH     PHID     PHIN       GR     RESD
  130.000    0.235    0.410  100.181   12.443
  130.300    0.234    0.411  102.000   11.322
  130.600    0.252    0.431  105.642   10.903
  130.900    0.254    0.451  114.747   10.111
  131.200    0.244    0.478  118.995    9.201
  131.500    0.234    0.485  117.171    8.860
  131.800    0.227    0.468  112.919    8.531
  132.100    0.247    0.490  108.667    8.530
  132.400    0.265    0.503  111.094    8.369
  132.700    0.278    0.515  112.307    9.545
  133.000    0.292    0.520  109.876   10.485
  133.300    0.311    0.502  106.838   11.736
  133.600    0.317    0.474  103.800   13.385
  133.900    0.307    0.478  100.763   14.428
  134.200    0.289    0.485   97.118   14.700
  134.500    0.269    0.480   92.258   14.423
  134.800    0.236    0.421   91.042   12.881
  135.100    0.242    0.391   95.898   12.404
  135.400    0.242    0.451  112.896   11.502
  135.700    0.228    0.489  114.108   10.666
  136.000    0.243    0.508  111.677   10.465
  136.300    0.234    0.492  106.818   10.268
  136.600    0.260    0.480  100.745   10.075
  136.900    0.271    0.480   94.672   10.265
  137.200    0.286    0.479   90.419   11.065
  137.500    0.299    0.461   83.131   11.706
  137.800    0.301    0.448   80.701   11.485
  138.100    0.278    0.460   94.056   11.059
  138.400    0.289    0.466   99.519   10.450
  138.700    0.293    0.456  101.945    9.159
  139.000    0.240    0.468  101.337    7.878
  139.300    0.228    0.483   97.085    7.305
  139.600    0.265    0.497   86.760    7.584
  139.900    0.293    0.480   76.437   11.911
  140.200    0.315    0.436   67.328   18.356
  140.500    0.324    0.439   58.826   21.334
  140.800    0.312    0.459   55.180   23.433
  141.100    0.324    0.470   57.607   22.991
  141.400    0.333    0.442   61.855   22.561
  141.700    0.349    0.411   63.675   21.723
  142.000    0.347    0.410   60.029   21.313
  142.300    0.352    0.421   58.206   21.310
  142.600    0.356    0.444   57.597   21.712
  142.900    0.349    0.453   57.595   22.540
  143.200    0.335    0.455   59.415   23.399
  143.500    0.330    0.418   63.056   23.396
  143.800    0.346    0.422   63.661   23.833
  144.100    0.346    0.428   63.659   24.281
  144.400    0.341    0.426   62.443   23.825
  144.700    0.338    0.428   61.226   23.378
  145.000    0.333    0.442   60.617   22.937
  145.300    0.333    0.438   59.401   22.506
  145.600    0.351    0.439   59.399   22.503
  145.900    0.337    0.443   60.611   23.360
  146.200    0.330    0.454   61.824   23.801
  146.500    0.346    0.472   61.214   23.797
  146.800    0.355    0.455   59.391   22.485
  147.100    0.341    0.431   58.782   21.652
  147.400    0.349    0.415   63.637   19.704
  147.700    0.337    0.467   62.420   17.597
  148.000    0.333    0.502   60.597   16.944
  148.300    0.350    0.510   60.596   17.263
  148.600    0.361    0.465   61.808   17.588
  148.900    0.352    0.461   62.413   18.259
  149.200    0.349    0.444   63.018   17.915
  149.500    0.351    0.451   65.445   17.250
  149.800    0.352    0.464   66.050   16.299
  150.100    0.354    0.483   63.619   15.993
  150.400    0.346    0.496   61.188   15.693
  150.700    0.346    0.500   61.187   15.398
  151.000    0.334    0.473   62.399   15.395
  151.300    0.309    0.470   66.040   15.392
  151.600    0.283    0.465   66.038   15.980
  151.900    0.270    0.422   64.822   18.226
  152.200    0.246    0.391   63.606   23.714
  152.500    0.008    0.314   57.532   56.337
  152.800    0.020    0.159   50.245   71.933
  153.100    0.060    0.159   49.028   71.921
  153.400    0.239    0.256   52.669   61.860
  153.700    0.291    0.299   55.096   42.451
  154.000    0.325    0.391   59.951   31.412
  154.300    0.351    0.449   62.378   21.966
  154.600    0.363    0.479   64.804   17.856
  154.900    0.357    0.487   64.802   16.250
  155.200    0.349    0.478   61.765   16.247
  155.500    0.348    0.448   56.905   16.868
  155.800    0.356    0.447   57.510   17.184
  156.100    0.356    0.469   59.938   17.508
  156.400    0.361    0.477   66.614   18.175
  156.700    0.344    0.478   67.219   18.517
  157.000    0.355    0.462   64.789   18.514
  157.300    0.357    0.459   58.108   18.166
  157.600    0.363    0.466   58.106   18.162
  157.900    0.358    0.472   61.139   18.159
  158.200    0.350    0.477   63.566   18.156
  158.500    0.343    0.479   67.207   18.496
  158.800    0.357    0.476   65.991   18.845
  159.100    0.372    0.470   64.774   18.489
  159.400    0.365    0.473   67.808   18.143
  159.700    0.340    0.485   69.021   17.801
  160.000    0.340    0.498   65.376   16.820
  160.300    0.352    0.500   62.338   16.197
  160.600    0.366    0.478   57.479   15.020
  160.900    0.369    0.464   59.905   14.462
  161.200    0.369    0.471   61.118   14.459
  161.500    0.340    0.479   60.509   14.732
  161.800    0.355    0.478   59.293   15.009
  162.100    0.366    0.483   58.683   16.179
  162.400    0.357    0.472   58.682   18.453
  162.700    0.357    0.454   60.501   19.892
  163.000    0.363    0.450   63.535   20.651
  163.300    0.359    0.464   67.176   16.788
  163.600    0.366    0.494   75.674    3.521
  163.900    0.340    0.506   88.422    2.417
  164.200    0.274    0.525  101.171    1.788
  164.500    0.239    0.563  110.883    1.374
  164.800    0.240    0.581  112.096    1.298
  165.100    0.270    0.596  111.487    1.481
  165.400    0.274    0.581  107.842    2.000
  165.700    0.265    0.568  104.804    2.859
  166.000    0.251    0.600  107.230    3.200
  166.300    0.285    0.613  109.050    3.140
  166.600    0.270    0.609  108.441    3.140
  166.900    0.265    0.611  106.010    3.321
  167.200    0.276    0.603  102.973    3.788
  167.500    0.255    0.578  104.185    4.240
  167.800    0.241    0.544  109.040    4.570
  168.100    0.235    0.524  112.074    4.485
  168.400    0.249    0.521  112.072    4.318
  168.700    0.241    0.510  111.463    3.785
  169.000    0.247    0.505  113.890    3.444
  169.300    0.240    0.511  113.281    3.134
  169.600    0.256    0.528  113.886    3.018
  169.900    0.278    0.561  112.063    2.906
  170.200    0.268    0.575  108.417    2.852
  170.500    0.270    0.581  107.201    2.851
  170.800    0.258    0.567  107.200    2.904
  171.100    0.253    0.559  107.198    2.959
  171.400    0.232    0.587  107.803    3.015
  171.700    0.256    0.598  107.801    3.072
  172.000    0.217    0.597  106.585    3.071
  172.300    0.191    0.598   95.046    3.129
  172.600    0.221    0.590   88.973    3.569
  172.900    0.287    0.532   96.257    4.070
  173.200    0.328    0.536   98.076    4.306
  173.500    0.319    0.552   96.252    4.069
  173.800    0.264    0.561   98.680    3.499
  174.100    0.240    0.567  101.713    3.245
  174.400    0.249    0.569  104.747    2.953
  174.700    0.268    0.558  105.959    2.791
  175.000    0.293    0.566  106.565    2.790
  175.300    0.280    0.576  106.563    2.843
  175.600    0.302    0.584  103.525    3.064
  175.900    0.326    0.558   96.237    3.366
  176.200    0.335    0.562   98.056    4.139
  176.500    0.313    0.580   94.412    4.902
  176.800    0.297    0.561   84.088    5.089
  177.100    0.313    0.505   82.264    4.993
  177.400    0.274    0.481   87.727    4.630
  177.700    0.295    0.535   98.047    4.459
  178.000    0.295    0.562   98.044    4.458
  178.300    0.280    0.579   94.400    4.897
  178.600    0.241    0.475   90.755    5.585
  178.900    0.246    0.466   88.324    6.020
  179.201    0.276    0.474   87.715    6.250
  179.501    0.273    0.478   84.070    6.367
  179.801    0.269    0.500   81.032    6.863
  180.101    0.286    0.482   83.459    7.126
  180.401    0.276    0.459   87.100    7.681
  180.701    0.281    0.470   82.241    7.974
  181.001    0.284    0.462   80.418    7.973
  181.301    0.275    0.457   83.451    7.823
  181.601    0.268    0.465   84.056    8.121
  181.901    0.290    0.475   82.840    8.274
