~VERSION INFORMATION
 VERS.                 2.0:   CWLS LOG ASCII STANDARD -VERSION 2.0
 WRAP.                  NO:   ONE LINE PER DEPTH STEP
~WELL INFORMATION BLOCK
#MNEM.UNIT           DATA                    DESCRIPTION OF MNEMONIC
#---------    -------------------            -------------------------------
# Generated from Intellog Unique Number	CX_WELLS/WELL/4078
WELL.         BANKENO                        : Well_name    - WELL
LOC .         00/05-33-081-12W4/0            : Location     - LOCATION
UWI .         00/05-33-081-12W400            : Uwi          - UNIQUE WELL ID
ENTR.         T                              : Entered      - ENTERED BY
SRVC.         SCHLUMBERGER                   : Scn          - SERVICE COMPANY
STRT.M        300                            : top_depth    - START DEPTH
STOP.M        535                            : bot_depth    - STOP DEPTH
STEP.M        0.25                           : increment    - STEP LENGTH
 NULL. -999.2500:NULL Value
~CURVE INFORMATION BLOCK
#MNEM UNIT       ERCB CURVE CODE    CURVE DESCRIPTION
#-----------   ------------------   ----------------------------------
DEPT.M        00 001 00 00         : DEPTH        - DEPTH
GR  .API      00 310 00 00         : GR           - GAMMA RAY
NPHI.V/V      00 330 00 00         : PHIN         - NEUTRON POROSITY (SANDSTONE)
DPHI.V/V      00 890 00 00         : PHID         - DENSITY POROSITY (SANDSTONE)
ILD .OHMM     00 120 00 00         : RESD         - DEEP RESISTIVITY (DIL)
~PARAMETER INFORMATION
#MNEM.UNIT           DATA             DESCRIPTION OF MNEMONIC
#---------         -----------     ------------------------------
GL  .M        744                  : gl           - GROUND LEVEL ELEVATION
EREF.M        748                  : kb           - ELEVATION OF DEPTH REFERENCE
DATM.M        748                  : datum        - DATUM ELEVATION
TDD .M        548                  : tdd          - TOTAL DEPTH DRILLER
RUN .         ONE                  : Run          - RUN NUMBER
ENG .         BILL                 : Engineer     - RECORDING ENGINEER
WIT .         JIM                  : Witness      - WITNESSED BY
MUD .         GEL                  : Mud_type     - MUD TYPE
MATR.         SANDSTONE            : Logunit      - NEUTRON MATRIX
TMAX.C        15                   : BHT          - MAXIMUM RECORDED TEMPERATURE
BHTD.M        548                  : BHTDEP       - MAXIMUM RECORDED TEMPERATURE
MATR.         1                    : LOGUNIT      - NEUTRON MATRIX
RMT .C        25                   : MDTP         - TEMPERATURE OF MUD
NEUT.         1                    : NEUTRON      - NEUTRON TYPE
RESI.         0                    : RESIST       - RESISTIVITY TYPE
RMC .OHMM     0.25                 : RMC          - RESISTIVITY OF MUD CAKE
RMF .OHMM     0.25                 : RMF          - RESISTIVITY OF MUD FILTRATE
SUFT.C        4                    : SUFT         - SURFACE TEMPERATURE
~A  DEPTH       GR     PHIN     PHID     RESD
# ...
  387.000   59.239    0.434    0.333    8.939
  387.250   59.277    0.430    0.333    8.949
  387.500   59.351    0.432    0.334    8.806
  387.750   59.999    0.433    0.338    8.669
  388.000   61.308    0.433    0.339    8.533
  388.250   61.345    0.432    0.337    8.539
  388.500   62.018    0.437    0.336    8.406
  388.750   62.690    0.442    0.331    8.272
  389.000   60.883    0.450    0.328    8.284
  389.250   60.309    0.456    0.325    8.296
  389.500   60.359    0.452    0.330    8.314
  389.750   61.655    0.450    0.333    8.323
  390.000   61.704    0.451    0.333    8.336
  390.250   61.779    0.451    0.332    8.348
  390.500   61.803    0.451    0.325    8.217
  390.750   62.489    0.451    0.318    8.226
  391.000   63.174    0.453    0.316    8.095
  391.250   62.576    0.449    0.323    7.963
  391.500   62.014    0.443    0.328    7.974
  391.750   63.934    0.438    0.325    7.847
  392.000   65.217    0.433    0.319    7.590
  392.250   68.383    0.426    0.296    7.468
  392.500   70.938    0.430    0.292    7.221
  392.750   72.234    0.433    0.288    6.981
  393.000   75.425    0.438    0.279    6.750
  393.250   76.708    0.438    0.278    6.412
  393.500   78.615    0.440    0.276    6.198
  393.750   79.313    0.444    0.276    5.888
  394.000   78.091    0.453    0.277    5.498
  394.250   75.648    0.460    0.279    5.223
  394.500   72.581    0.461    0.282    5.048
  394.750   70.761    0.460    0.289    4.886
  395.000   67.695    0.453    0.299    4.892
  395.250   65.887    0.450    0.309    4.897
  395.500   66.560    0.439    0.318    4.989
  395.750   69.713    0.431    0.316    5.365
  396.000   71.657    0.433    0.312    5.468
  396.250   69.189    0.438    0.316    5.476
  396.500   66.746    0.451    0.337    5.022
  396.750   64.938    0.457    0.340    4.686
  397.000   66.857    0.451    0.347    4.225
  397.250   68.764    0.447    0.345    4.159
  397.500   72.578    0.455    0.315    4.312
  397.750   73.849    0.479    0.305    4.473
  398.000   75.145    0.491    0.291    4.640
  398.250   71.468    0.486    0.294    4.730
  398.500   68.389    0.479    0.300    4.738
  398.750   65.322    0.473    0.321    4.659
  399.000   62.268    0.472    0.363    4.833
  399.250   59.825    0.463    0.370    5.285
  399.500   58.005    0.454    0.374    6.097
  399.750   57.444    0.458    0.374    6.434
  400.000   58.104    0.464    0.374    6.913
  400.250   58.777    0.471    0.372    7.428
  400.500   59.450    0.476    0.371    7.571
  400.750   60.122    0.472    0.370    7.585
  401.000   60.795    0.465    0.369    7.596
  401.250   61.480    0.455    0.366    7.607
  401.500   62.129    0.448    0.363    7.621
  401.750   62.814    0.443    0.361    7.627
  402.000   63.487    0.438    0.358    7.638
  402.250   64.172    0.435    0.358    7.652
  402.500   64.221    0.433    0.358    7.941
  402.750   64.283    0.439    0.361    8.090
  403.000   63.685    0.451    0.362    8.395
  403.250   61.266    0.458    0.363    8.709
  403.500   60.668    0.455    0.361    9.034
  403.750   58.225    0.452    0.360    9.371
  404.000   57.651    0.450    0.360    9.381
  404.250   58.947    0.450    0.360    9.565
  404.500   63.384    0.449    0.360    9.749
  404.750   64.655    0.446    0.360    9.760
  405.000   65.951    0.450    0.358    9.951
  405.250   69.154    0.462    0.355    9.970
  405.500   70.413    0.473    0.350    9.803
  405.750   75.461    0.478    0.347    9.821
  406.000   79.886    0.486    0.340    9.664
  406.250   82.416    0.510    0.333    9.344
  406.500   84.958    0.516    0.329    9.194
  406.750   88.772    0.518    0.307    8.893
  407.000   90.679    0.519    0.304    8.598
  407.250   91.963    0.521    0.294    8.168
  407.500   94.505    0.528    0.284    7.627
  407.750   96.462    0.533    0.282    7.241
  408.000   97.110    0.539    0.283    6.411
  408.250   97.159    0.556    0.284    5.290
  408.500   95.963    0.553    0.283    3.295
  408.750   95.389    0.536    0.281    2.919
  409.000   94.815    0.534    0.282    2.676
  409.250   93.631    0.561    0.289    2.248
  409.500   93.057    0.572    0.301    2.061
  409.750   92.484    0.566    0.310    2.337
  410.000   91.274    0.544    0.314    2.423
  410.250   88.831    0.519    0.309    2.602
  410.500   85.764    0.509    0.299    2.949
  410.750   85.814    0.497    0.290    3.167
  411.000   88.980    0.485    0.284    3.403
  411.250   93.392    0.480    0.280    3.857
  411.500   94.065    0.488    0.275    4.072
  411.750   90.375    0.498    0.269    4.377
  412.000   86.685    0.504    0.275    4.539
  412.250   82.397    0.502    0.281    4.878
  412.500   81.200    0.494    0.289    5.059
  412.750   80.602    0.484    0.296    5.247
  413.000   80.028    0.477    0.302    5.346
  413.250   80.078    0.455    0.296    5.749
  413.500   80.140    0.448    0.294    5.749
  413.750   80.189    0.444    0.297    5.284
  414.000   79.615    0.464    0.302    4.927
  414.250   79.653    0.487    0.303    5.022
  414.500   84.065    0.509    0.297    5.120
  414.750   91.618    0.510    0.292    5.126
  415.000   94.148    0.515    0.286    4.956
  415.250   91.082    0.518    0.281    4.546
  415.500   88.028    0.497    0.277    3.622
  415.750   86.831    0.490    0.277    2.885
  416.000   86.245    0.496    0.283    2.381
  416.250   84.449    0.500    0.285    2.071
  416.500   82.617    0.495    0.288    2.111
  416.750   80.174    0.479    0.289    2.434
  417.000   77.730    0.455    0.296    3.174
  417.250   75.898    0.451    0.298    3.996
  417.500   74.701    0.456    0.301    5.302
  417.750   73.516    0.460    0.300    6.223
  418.000   72.307    0.451    0.303    7.051
  418.250   71.110    0.448    0.305    7.710
  418.500   69.302    0.454    0.307    8.143
  418.750   68.106    0.458    0.310    8.296
  419.000   68.143    0.462    0.314    8.456
  419.250   67.569    0.462    0.318    8.616
  419.500   67.619    0.463    0.309    8.628
  419.750   67.668    0.467    0.298    8.644
  420.000   67.718    0.473    0.290    8.358
  420.250   67.768    0.474    0.285    8.087
  420.500   67.194    0.473    0.286    7.954
  420.750   67.879    0.468    0.288    7.688
  421.000   68.552    0.462    0.287    7.306
  421.250   69.212    0.454    0.283    6.941
  421.500   69.885    0.447    0.275    6.708
  421.750   70.558    0.444    0.268    6.380
  422.000   71.231    0.450    0.259    6.166
  422.250   71.281    0.454    0.251    6.065
  422.500   71.330    0.462    0.249    5.966
  422.750   71.392    0.463    0.255    5.873
  423.000   71.454    0.461    0.264    5.777
  423.250   71.479    0.455    0.272    5.691
  423.500   72.152    0.457    0.275    5.596
  423.750   72.849    0.463    0.275    5.604
  424.000   72.886    0.464    0.275    5.512
  424.250   72.313    0.460    0.274    5.426
  424.500   71.739    0.461    0.271    5.432
  424.750   72.424    0.471    0.270    5.347
  425.000   73.085    0.472    0.269    5.355
  425.250   73.758    0.470    0.270    5.361
  425.500   73.807    0.463    0.273    5.369
  425.750   73.869    0.457    0.277    5.285
  426.000   73.906    0.452    0.283    5.293
  426.250   75.215    0.457    0.287    5.301
  426.500   75.875    0.470    0.291    5.306
  426.750   77.795    0.475    0.295    5.314
  427.000   78.480    0.465    0.299    5.324
  427.250   78.517    0.458    0.299    5.239
  427.500   77.968    0.464    0.294    5.155
  427.750   77.382    0.475    0.270    5.076
  428.000   76.796    0.470    0.263    4.993
  428.250   78.716    0.464    0.259    5.001
  428.500   81.906    0.448    0.252    5.008
  428.750   83.202    0.440    0.252    5.103
  429.000   84.498    0.446    0.253    5.295
  429.250   87.053    0.452    0.253    5.395
  429.500   88.948    0.455    0.254    5.499
  429.750   92.113    0.463    0.258    5.607
  430.000   93.422    0.475    0.261    5.613
  430.250   92.225    0.481    0.261    5.431
