~VERSION INFORMATION
 VERS.                 2.0:   CWLS LOG ASCII STANDARD -VERSION 2.0
 WRAP.                  NO:   ONE LINE PER DEPTH STEP
~WELL INFORMATION BLOCK
#MNEM.UNIT           DATA                    DESCRIPTION OF MNEMONIC
#---------    -------------------            -------------------------------
# Generated from Intellog Unique Number	CS_69_70/WELL/852
WELL.         HUSKEY OIL OPERATIONS          : Well_name    - WELL
LOC .         00/07-04-069-05W4/0            : Location     - LOCATION
UWI .         00/07-04-069-05W4/0            : Uwi          - UNIQUE WELL ID
ENTR.         SP                             : Entered      - ENTERED BY
SRVC.         SCHLUMBERGER                   : Scn          - SERVICE COMPANY
STRT.M        315                            : top_depth    - START DEPTH
STOP.M        555                            : bot_depth    - STOP DEPTH
STEP.M        0.25                           : increment    - STEP LENGTH
 NULL. -999.2500:NULL Value
~CURVE INFORMATION BLOCK
#MNEM UNIT       ERCB CURVE CODE    CURVE DESCRIPTION
#-----------   ------------------   ----------------------------------
DEPT.M        00 001 00 00         : DEPTH        - DEPTH
ILD .OHMM     00 120 00 00         : RESD         - DEEP RESISTIVITY (DIL)
DPHI.V/V      00 890 00 00         : PHID         - DENSITY POROSITY (LIMESTONE)
NPHI.V/V      00 330 00 00         : PHIN         - NEUTRON POROSITY (LIMESTONE)
GR  .API      00 310 00 00         : GR           - GAMMA RAY
~PARAMETER INFORMATION
#MNEM.UNIT           DATA             DESCRIPTION OF MNEMONIC
#---------         -----------     ------------------------------
GL  .M        680.2                : gl           - GROUND LEVEL ELEVATION
EREF.M        683.8                : kb           - ELEVATION OF DEPTH REFERENCE
DATM.M        680.2                : datum        - DATUM ELEVATION
TDD .M        564                  : tdd          - TOTAL DEPTH DRILLER
RUN .         ONE                  : Run          - RUN NUMBER
ENG .         BILL                 : Engineer     - RECORDING ENGINEER
WIT .         JIM                  : Witness      - WITNESSED BY
MUD .         GEL                  : Mud_type     - MUD TYPE
MATR.         LIMESTONE            : Logunit      - NEUTRON MATRIX
TMAX.C        32                   : BHT          - MAXIMUM RECORDED TEMPERATURE
BHTD.M        564                  : BHTDEP       - MAXIMUM RECORDED TEMPERATURE
MATR.         1                    : LOGUNIT      - NEUTRON MATRIX
RMT .C        25                   : MDTP         - TEMPERATURE OF MUD
NEUT.         1                    : NEUTRON      - NEUTRON TYPE
RESI.         0                    : RESIST       - RESISTIVITY TYPE
RMC .OHMM     0.25                 : RMC          - RESISTIVITY OF MUD CAKE
RMF .OHMM     0.25                 : RMF          - RESISTIVITY OF MUD FILTRATE
SUFT.C        15                   : SUFT         - SURFACE TEMPERATURE
~A  DEPTH     RESD     PHID     PHIN       GR
# ...
  532.500   32.070    0.332    0.406   26.408
  532.750   38.125    0.352    0.402   29.500
  533.000   45.839    0.331    0.384   31.263
  533.250   51.606    0.316    0.368   30.427
  533.500   57.128    0.308    0.361   29.047
  533.750   52.122    0.302    0.370   29.057
  534.000   33.103    0.313    0.362   29.490
  534.250   22.578    0.320    0.357   29.503
  534.500   15.603    0.325    0.369   29.511
  534.750   11.008    0.329    0.360   28.976
  535.000    8.856    0.333    0.356   26.328
  535.250    7.724    0.344    0.363   25.007
  535.500    6.916    0.354    0.370   24.231
  535.750    6.275    0.349    0.366   24.606
  536.000    5.878    0.344    0.364   26.125
  536.250    5.485    0.340    0.366   25.893
  536.500    5.215    0.342    0.363   22.458
  536.750    5.034    0.336    0.356   20.958
  537.000    4.831    0.331    0.351   21.209
  537.250    4.603    0.326    0.349   24.906
  537.500    4.459    0.320    0.344   27.454
  537.750    4.320    0.316    0.334   27.887
  538.000    4.178    0.314    0.324   26.206
  538.250    4.094    0.329    0.328   24.343
  538.500    4.019    0.348    0.349   24.231
  538.750    3.946    0.354    0.357   25.511
  539.000    3.917    0.342    0.360   26.487
  539.250    3.903    0.347    0.365   26.679
  539.500    3.890    0.354    0.378   25.721
  539.750    3.869    0.359    0.378   23.494
  540.000    3.870    0.363    0.376   21.753
  540.250    3.864    0.356    0.379   22.488
  540.500    3.880    0.349    0.390   24.129
  540.750    3.902    0.357    0.385   24.744
  541.000    3.940    0.361    0.373   24.451
  541.250    3.927    0.355    0.367   23.675
  541.500    3.928    0.347    0.368   23.927
  541.750    3.951    0.337    0.370   24.845
  542.000    3.990    0.330    0.363   24.430
  542.250    4.013    0.326    0.357   20.814
  542.500    4.037    0.329    0.366   19.254
  542.750    4.061    0.338    0.375   21.923
  543.000    4.093    0.347    0.361   24.350
  543.250    4.109    0.346    0.349   25.508
  543.500    4.134    0.338    0.338   25.760
  543.750    4.150    0.333    0.328   25.952
  544.000    4.175    0.336    0.333   26.264
  544.250    4.199    0.342    0.340   26.878
  544.500    4.209    0.340    0.347   26.283
  544.750    4.226    0.334    0.355   23.997
  545.000    4.227    0.337    0.360   22.495
  545.250    4.228    0.350    0.379   22.626
  545.500    4.213    0.360    0.370   24.330
  545.750    4.207    0.364    0.365   24.339
  546.000    4.161    0.362    0.362   24.291
  546.250    4.131    0.354    0.358   24.964
  546.500    4.147    0.348    0.351   26.545
  546.750    4.180    0.350    0.346   28.307
  547.000    4.220    0.354    0.360   29.828
  547.250    4.342    0.352    0.369   28.508
  547.500    4.612    0.341    0.357   33.050
  547.750    5.173    0.334    0.348   55.059
  548.000    5.705    0.319    0.340   87.644
  548.250    6.399    0.280    0.341  100.890
  548.500    7.579    0.234    0.362  104.767
  548.750    9.320    0.149    0.391   96.075
  549.000   12.124    0.129    0.416   77.410
  549.250   15.479    0.141    0.185   47.988
  549.500   20.480    0.087    0.161   21.527
  549.750   26.494    0.011    0.151   17.911
  550.000   31.616   -0.006    0.151   24.510
  550.250   35.661   -0.009    0.152   28.628
  550.500   38.815   -0.004    0.162   33.353
  550.750   40.235    0.004    0.167   37.290
  551.000   40.021   -0.002    0.166   40.383
  551.250   40.035   -0.010    0.171   42.025
  551.500   40.879   -0.013    0.177   43.182
  551.750   42.138   -0.014    0.182   44.039
  552.000   40.978   -0.013    0.182   45.016
  552.250   38.311   -0.012    0.169   40.675
  552.500   33.416   -0.009    0.157   39.476
  552.750   30.545   -0.003    0.176   42.085
  553.000   28.503    0.004    0.190   46.265
  553.250   26.153    0.012    0.199   50.688
  553.500   24.314    0.017    0.211   52.569
  553.750   23.206    0.015    0.221   52.702
  554.000   22.737    0.018    0.229   53.316
  554.250   22.153    0.030    0.232   54.898
  554.500   21.666    0.035    0.229   56.055
  554.750   21.510    0.033    0.225   56.729
  555.000   22.173    0.029    0.221   56.195
