~VERSION INFORMATION
 VERS.                 2.0:   CWLS LOG ASCII STANDARD -VERSION 2.0
 WRAP.                  NO:   ONE LINE PER DEPTH STEP
~WELL INFORMATION BLOCK
#MNEM.UNIT           DATA                    DESCRIPTION OF MNEMONIC
#---------    -------------------            -------------------------------
# Generated from Intellog Unique Number	CW_73_75/WELL/502
WELL.         MANNVILLE ET AL MARTENH 05-36  : Well_name    - WELL
LOC .         00/05-36-074-23W4/0            : Location     - LOCATION
UWI .         00/05-36-074-23W4/0            : Uwi          - UNIQUE WELL ID
ENTR.         JAYE                           : Entered      - ENTERED BY
SRVC.         SCHLUMBERGER                   : Scn          - SERVICE COMPANY
DATE.         29 MAR 81                      : Date         - LOG DATE
STRT.M        455                            : top_depth    - START DEPTH
STOP.M        660                            : bot_depth    - STOP DEPTH
STEP.M        0.25                           : increment    - STEP LENGTH
 NULL. -999.2500:NULL Value
~CURVE INFORMATION BLOCK
#MNEM UNIT       ERCB CURVE CODE    CURVE DESCRIPTION
#-----------   ------------------   ----------------------------------
DEPT.M        00 001 00 00         : DEPTH        - DEPTH
ILD .OHMM     00 120 00 00         : RESD         - DEEP RESISTIVITY (DIL)
NPHI.V/V      00 330 00 00         : PHIN         - NEUTRON POROSITY (SANDSTONE)
DPHI.V/V      00 890 00 00         : PHID         - DENSITY POROSITY (SANDSTONE)
CALI.MM       00 280 01 00         : CAL          - CALIPER
GR  .API      00 310 00 00         : GR           - GAMMA RAY
~PARAMETER INFORMATION
#MNEM.UNIT           DATA             DESCRIPTION OF MNEMONIC
#---------         -----------     ------------------------------
GL  .M        723.3                : gl           - GROUND LEVEL ELEVATION
EREF.M        726.2                : kb           - ELEVATION OF DEPTH REFERENCE
DATM.M        723.3                : datum        - DATUM ELEVATION
TDD .M        691                  : tdd          - TOTAL DEPTH DRILLER
RUN .         ONE                  : Run          - RUN NUMBER
ENG .         ASHTON               : Engineer     - RECORDING ENGINEER
WIT .         SANOIA               : Witness      - WITNESSED BY
BASE.         EDM                  : Branch       - HOME BASE OF LOGGING UNIT
MUD .         GEL CHEM             : Mud_type     - MUD TYPE
MATR.         SANDSTONE            : Logunit      - NEUTRON MATRIX
TMAX.C        27.2                 : BHT          - MAXIMUM RECORDED TEMPERATURE
BHTD.M        691                  : BHTDEP       - MAXIMUM RECORDED TEMPERATURE
RMT .C        27.2                 : MDTP         - TEMPERATURE OF MUD
MUDD.KG/M     1095                 : MWT          - MUD DENSITY
NEUT.         1                    : NEUTRON      - NEUTRON TYPE
RESI.         0                    : RESIST       - RESISTIVITY TYPE
RM  .OHMM     2.784                : RM           - RESISTIVITY OF MUD
RMC .OHMM     0                    : RMC          - RESISTIVITY OF MUD CAKE
RMF .OHMM     4.4                  : RMF          - RESISTIVITY OF MUD FILTRATE
SUFT.C        0                    : SUFT         - SURFACE TEMPERATURE
~A  DEPTH     RESD     PHIN     PHID      CAL       GR
# ...
  528.000    5.007    0.445    0.244  160.861  106.876
  528.250    5.024    0.462    0.236  163.063  109.466
  528.500    5.051    0.460    0.228  163.796  112.684
  528.750    5.058    0.447    0.223  164.097  116.408
  529.000    5.056    0.459    0.219  164.188  117.983
  529.250    5.083    0.493    0.215  164.071  116.904
  529.500    5.072    0.500    0.215  163.855  117.968
  529.750    5.051    0.484    0.223  164.150  117.581
  530.000    5.049    0.471    0.225  164.037  114.161
  530.250    5.018    0.466    0.227  163.601  110.798
  530.500    5.007    0.487    0.231  162.635  107.689
  530.750    5.005    0.500    0.243  161.150  103.504
  531.000    4.974    0.495    0.268  159.027   97.487
  531.250    4.935    0.452    0.293  156.165   88.685
  531.500    4.868    0.461    0.292  154.372   85.958
  531.750    4.722    0.458    0.298  154.135   82.215
  532.000    4.545    0.445    0.312  154.020   78.982
  532.250    4.383    0.454    0.308  154.013   75.309
  532.500    4.250    0.447    0.303  153.895   72.385
  532.750    4.146    0.436    0.304  154.192   70.165
  533.000    4.066    0.429    0.308  154.407   70.343
  533.250    4.034    0.431    0.313  154.484   71.919
  533.500    4.040    0.467    0.318  154.582   70.202
  533.750    4.046    0.477    0.320  154.777   72.095
  534.000    4.075    0.487    0.320  155.081   75.693
  534.250    4.271    0.502    0.318  155.387   73.540
  534.500    4.746    0.513    0.290  156.216   69.985
  534.750    5.395    0.488    0.192  158.319   66.179
  535.000    6.052    0.265    0.068  159.994   62.630
  535.250    7.561    0.201    0.028  161.350   58.891
  535.500   11.476    0.178    0.024  161.757   57.300
  535.750   15.261    0.172    0.026  161.115   58.874
  536.000   15.753    0.170    0.036  160.149   58.550
  536.250   14.518    0.174    0.071  159.188   54.306
  536.500   12.546    0.188    0.143  157.705   57.902
  536.750   10.864    0.405    0.281  155.798   64.415
  537.000    6.544    0.462    0.316  154.622   67.255
  537.250    5.384    0.466    0.321  153.771   66.234
  537.500    4.447    0.448    0.319  153.328   61.614
  537.750    4.113    0.437    0.318  153.318   62.365
  538.000    4.012    0.452    0.317  153.309   64.885
  538.250    4.010    0.461    0.316  153.407   66.329
  538.500    3.964    0.456    0.312  153.505   64.998
  538.750    3.932    0.450    0.303  153.582   64.799
  539.000    3.828    0.440    0.313  153.895   64.917
  539.250    3.798    0.430    0.320  154.092   63.200
  539.500    3.825    0.431    0.315  154.606   62.181
  539.750    3.875    0.444    0.309  154.693   64.454
  540.000    3.902    0.448    0.309  154.786   67.293
  540.250    3.908    0.444    0.309  154.999   67.411
  540.500    3.929    0.442    0.306  154.984   66.708
  540.750    3.980    0.449    0.301  155.085   68.281
  541.000    4.031    0.457    0.290  155.056   73.336
  541.250    4.099    0.467    0.287  154.843   76.685
  541.500    4.144    0.468    0.294  154.615   77.753
  541.750    4.213    0.462    0.299  154.282   77.934
  542.000    4.252    0.445    0.295  153.949   76.154
  542.250    4.315    0.421    0.294  154.045   75.766
  542.500    4.370    0.424    0.295  154.157   75.760
  542.750    4.402    0.436    0.290  154.234   77.653
  543.000    4.451    0.440    0.277  154.011   81.820
  543.250    4.491    0.429    0.280  154.107   85.547
  543.500    4.515    0.438    0.273  153.992   84.905
  543.750    4.479    0.449    0.266  154.080   85.156
  544.000    4.444    0.461    0.280  154.176   86.408
  544.250    4.425    0.459    0.293  154.473   86.531
  544.500    4.398    0.445    0.291  154.890   85.321
  544.750    4.372    0.440    0.287  154.983   84.933
  545.000    4.337    0.446    0.288  155.704   84.924
  545.250    4.393    0.452    0.284  156.437   86.372
  545.500    4.326    0.458    0.287  157.158   91.808
  545.750    4.398    0.451    0.280  157.884   99.077
  546.000    4.540    0.441    0.266  158.722  104.386
  546.250    4.660    0.454    0.258  159.972  107.225
  546.500    4.720    0.460    0.246  161.328   99.559
  546.750    4.745    0.468    0.234  162.258  105.247
  547.000    4.743    0.468    0.221  163.094  109.165
  547.250    4.661    0.454    0.221  162.979  108.271
  547.500    4.564    0.460    0.242  163.070  107.440
  547.750    4.401    0.460    0.235  163.793  109.267
  548.000    4.204    0.461    0.214  168.314  120.460
  548.250    4.009    0.475    0.199  171.155  119.631
  548.500    3.837    0.482    0.203  169.976  116.714
  548.750    3.770    0.485    0.218  169.121  112.149
  549.000    3.762    0.501    0.236  165.628  104.549
  549.250    3.876    0.508    0.262  160.875   95.872
  549.500    4.039    0.480    0.272  160.549   94.347
  549.750    4.257    0.472    0.252  162.118  102.882
  550.000    4.572    0.477    0.233  164.844  111.354
  550.250    4.773    0.479    0.231  167.256  107.867
  550.500    5.021    0.491    0.229  167.247  104.569
  550.750    4.870    0.487    0.226  166.813  103.863
  551.000    4.547    0.497    0.224  164.906  103.478
  551.250    4.239    0.510    0.235  162.359   97.523
  551.500    4.064    0.476    0.291  160.977   90.681
  551.750    3.964    0.433    0.309  159.592   89.790
  552.000    4.023    0.419    0.286  158.629   92.567
  552.250    4.200    0.439    0.264  157.984   95.784
  552.500    4.385    0.465    0.264  158.289   96.978
  552.750    4.569    0.485    0.279  158.595   98.871
  553.000    4.744    0.458    0.241  159.208  103.800
  553.250    4.869    0.455    0.211  160.784  113.030
  553.500    4.969    0.455    0.193  162.361  115.110
  553.750    5.034    0.447    0.213  162.445  113.963
  554.000    5.013    0.462    0.220  160.751  112.248
  554.250    4.898    0.474    0.228  159.675  108.951
  554.500    4.769    0.487    0.229  159.038  107.555
  554.750    4.731    0.484    0.233  159.035  106.342
  555.000    4.738    0.466    0.239  159.234  104.246
  555.250    4.781    0.458    0.248  159.313  102.467
  555.500    4.815    0.481    0.265  159.624  100.055
  555.750    4.887    0.491    0.278  160.027  101.565
  556.000    4.950    0.445    0.261  161.493  104.976
  556.250    4.967    0.426    0.239  162.759  107.119
  556.500    4.965    0.433    0.222  162.836  108.381
  556.750    4.926    0.450    0.223  163.141  106.408
  557.000    4.768    0.472    0.237  161.864  103.047
  557.250    4.615    0.471    0.250  160.589  105.258
  557.500    4.493    0.462    0.260  160.263  106.702
  557.750    4.374    0.460    0.255  160.253  106.126
  558.000    4.340    0.474    0.245  160.763  110.042
  558.250    4.321    0.480    0.244  162.536  112.312
  558.500    4.344    0.449    0.234  164.323  113.951
  558.750    4.359    0.442    0.210  165.995  112.424
  559.000    4.357    0.464    0.209  167.037  107.860
  559.250    4.380    0.479    0.216  167.974  110.637
  559.500    4.420    0.459    0.217  168.072  110.124
  559.750    4.444    0.453    0.219  167.219  110.307
  560.000    4.442    0.466    0.227  164.888  112.260
  560.250    4.407    0.480    0.230  163.084  109.532
  560.500    4.347    0.478    0.233  161.493  114.271
  560.750    4.313    0.473    0.231  160.731  113.569
  561.000    4.262    0.476    0.240  160.089  110.904
  561.250    4.205    0.473    0.262  159.974  107.794
  561.500    4.156    0.465    0.284  159.641  102.408
  561.750    4.131    0.458    0.285  159.205   96.138
  562.000    4.083    0.477    0.282  158.790   91.259
  562.250    4.043    0.493    0.280  158.872   88.594
  562.500    4.026    0.501    0.286  158.958   88.334
  562.750    4.024    0.489    0.296  159.363   87.822
  563.000    4.030    0.477    0.307  159.456   86.737
  563.250    4.137    0.464    0.316  159.238   87.046
  563.500    4.623    0.460    0.314  159.125   86.973
  563.750    5.743    0.451    0.253  159.317   86.211
  564.000    7.812    0.354    0.154  159.729   83.036
  564.250   10.271    0.277    0.122  160.241   76.636
