~VERSION INFORMATION
 VERS.                 2.0:   CWLS LOG ASCII STANDARD -VERSION 2.0
 WRAP.                  NO:   ONE LINE PER DEPTH STEP
~WELL INFORMATION BLOCK
#MNEM.UNIT           DATA                    DESCRIPTION OF MNEMONIC
#---------    -------------------            -------------------------------
# Generated from Intellog Unique Number	CS_67_68/WELL/781
WELL.         SUNDANCE OIL CANADA LTD        : Well_name    - WELL
LOC .         00/07-29-068-16W4/0            : Location     - LOCATION
UWI .         00/07-29-068-16W4/0            : Uwi          - UNIQUE WELL ID
ENTR.         SP                             : Entered      - ENTERED BY
SRVC.         SCHLUMBERGER                   : Scn          - SERVICE COMPANY
STRT.M        292.608                        : top_depth    - START DEPTH
STOP.M        511.858                        : bot_depth    - STOP DEPTH
STEP.M        0.25                           : increment    - STEP LENGTH
 NULL. -999.2500:NULL Value
~CURVE INFORMATION BLOCK
#MNEM UNIT       ERCB CURVE CODE    CURVE DESCRIPTION
#-----------   ------------------   ----------------------------------
DEPT.M        00 001 00 00         : DEPTH        - DEPTH
GR  .API      00 310 00 00         : GR           - GAMMA RAY
DPHI.V/V      00 890 00 00         : PHID         - DENSITY POROSITY (SANDSTONE)
NPHI.V/V      00 330 00 00         : PHIN         - NEUTRON POROSITY (SANDSTONE)
ILD .OHMM     00 120 00 00         : RESD         - DEEP RESISTIVITY (DIL)
~PARAMETER INFORMATION
#MNEM.UNIT           DATA             DESCRIPTION OF MNEMONIC
#---------         -----------     ------------------------------
GL  .M        563.575              : gl           - GROUND LEVEL ELEVATION
EREF.M        567.111              : kb           - ELEVATION OF DEPTH REFERENCE
DATM.M        563.575              : datum        - DATUM ELEVATION
TDD .M        514.502              : tdd          - TOTAL DEPTH DRILLER
RUN .         ONE                  : Run          - RUN NUMBER
ENG .         BILL                 : Engineer     - RECORDING ENGINEER
WIT .         JIM                  : Witness      - WITNESSED BY
MUD .         GEL                  : Mud_type     - MUD TYPE
MATR.         SANDSTONE            : Logunit      - NEUTRON MATRIX
TMAX.C        23.8889              : BHT          - MAXIMUM RECORDED TEMPERATURE
BHTD.M        514.502              : BHTDEP       - MAXIMUM RECORDED TEMPERATURE
MATR.         1                    : LOGUNIT      - NEUTRON MATRIX
RMT .C        25                   : MDTP         - TEMPERATURE OF MUD
NEUT.         1                    : NEUTRON      - NEUTRON TYPE
RESI.         0                    : RESIST       - RESISTIVITY TYPE
RMC .OHMM     0.25                 : RMC          - RESISTIVITY OF MUD CAKE
RMF .OHMM     0.25                 : RMF          - RESISTIVITY OF MUD FILTRATE
SUFT.C        15                   : SUFT         - SURFACE TEMPERATURE
~A  DEPTH       GR     PHID     PHIN     RESD
# ...
  379.608   79.545    0.285    0.451    2.159
  379.858   78.584    0.292    0.448    2.099
  380.108   77.053    0.286    0.457    2.137
  380.358   75.260    0.279    0.465    2.231
  380.608   73.806    0.281    0.473    2.336
  380.858   73.255    0.285    0.449    2.486
  381.108   73.934    0.289    0.439    2.736
  381.358   78.376    0.270    0.423    2.929
  381.608   80.666    0.251    0.427    3.071
  381.858   83.739    0.239    0.433    3.202
  382.108   84.380    0.245    0.436    3.278
  382.358   85.013    0.224    0.411    3.345
  382.608   82.239    0.212    0.402    3.373
  382.858   84.087    0.214    0.412    3.294
  383.108   86.304    0.226    0.422    3.203
  383.358   87.545    0.220    0.426    3.206
  383.608   89.634    0.224    0.408    3.286
  383.858   92.394    0.225    0.407    3.429
  384.108   92.895    0.204    0.409    3.524
  384.358   91.220    0.175    0.411    3.572
  384.608   95.646    0.195    0.415    3.570
  384.858   98.205    0.195    0.425    3.607
  385.108   96.104    0.166    0.430    3.616
  385.358   94.085    0.154    0.442    3.600
  385.608   93.387    0.168    0.443    3.587
  385.858   95.008    0.192    0.435    3.586
  386.108   97.484    0.205    0.432    3.677
  386.358   99.947    0.202    0.436    3.761
  386.608  101.267    0.196    0.442    3.744
  386.858  102.296    0.185    0.449    3.706
  387.108  103.197    0.174    0.444    3.684
  387.358  102.686    0.164    0.434    3.672
  387.608  101.067    0.173    0.429    3.685
  387.858  100.286    0.195    0.436    3.729
  388.108  101.620    0.195    0.439    3.733
  388.358  102.893    0.183    0.442    3.755
  388.608  104.086    0.180    0.450    3.774
  388.858  103.178    0.180    0.457    3.804
  389.108   98.851    0.186    0.452    3.844
  389.358   98.437    0.177    0.440    3.862
  389.608  100.011    0.186    0.433    3.886
  389.858  100.130    0.189    0.443    3.901
  390.108   99.448    0.182    0.445    3.898
  390.358  101.366    0.184    0.429    3.887
  390.608  103.447    0.191    0.419    3.868
  390.858   99.571    0.178    0.407    3.849
  391.108  102.065    0.171    0.405    3.811
  391.358  105.713    0.182    0.413    3.723
  391.608  108.608    0.183    0.426    3.616
  391.858  109.069    0.175    0.439    3.433
  392.108  105.442    0.180    0.450    3.282
  392.358  100.234    0.185    0.457    3.044
  392.608   95.518    0.187    0.446    2.715
  392.858   92.318    0.182    0.437    2.380
  393.108   89.635    0.202    0.429    2.125
  393.358   88.687    0.221    0.438    1.989
  393.608   93.165    0.244    0.476    1.883
  393.858   95.475    0.264    0.511    2.015
  394.108   97.793    0.249    0.540    2.246
  394.358   98.064    0.237    0.556    2.511
  394.608  100.259    0.302    0.520    2.714
  394.858  103.799    0.274    0.503    2.888
  395.108  101.014    0.248    0.470    3.062
  395.358   97.811    0.223    0.442    3.213
  395.608   96.732    0.176    0.442    3.264
  395.858   98.597    0.167    0.434    3.192
  396.108  100.919    0.170    0.425    3.105
  396.358  102.468    0.179    0.417    3.025
  396.608  103.031    0.191    0.432    2.967
  396.858  101.825    0.178    0.448    2.992
  397.108   99.721    0.170    0.459    3.050
  397.358   95.180    0.215    0.464    3.109
  397.608   96.647    0.232    0.440    3.163
  397.858   95.727    0.233    0.423    3.160
  398.108   91.026    0.221    0.420    3.073
  398.358   88.346    0.224    0.423    2.910
  398.608   85.399    0.221    0.413    2.768
  398.858   82.228    0.223    0.407    2.666
  399.108   78.607    0.228    0.416    2.568
  399.358   75.761    0.230    0.429    2.531
  399.608   73.867    0.229    0.441    2.673
  399.858   72.481    0.220    0.450    2.807
  400.108   72.663    0.237    0.435    2.940
  400.358   72.559    0.273    0.436    3.028
  400.608   71.445    0.272    0.422    3.094
  400.858   70.176    0.254    0.400    2.852
  401.108   72.264    0.146    0.399    2.640
  401.358   79.441    0.116    0.406    2.519
  401.608   85.678    0.119    0.411    2.473
  401.858   82.688    0.191    0.413    2.434
  402.108   73.384    0.246    0.421    2.387
  402.358   72.798    0.270    0.433    2.299
  402.608   71.503    0.281    0.450    2.173
  402.858   69.038    0.270    0.456    2.043
  403.108   66.707    0.286    0.440    1.906
  403.358   63.727    0.293    0.435    1.847
  403.608   61.540    0.298    0.441    1.838
  403.858   59.439    0.303    0.427    1.874
  404.108   58.788    0.311    0.405    1.982
  404.358   63.498    0.316    0.389    2.304
  404.608   64.413    0.298    0.397    3.131
  404.858   60.060    0.248    0.319    4.149
  405.108   52.158    0.069    0.260    4.677
  405.358   48.092    0.052    0.219    4.400
  405.608   49.459    0.041    0.200    2.338
  405.858   52.992    0.050    0.262    1.923
  406.108   56.542    0.162    0.351    1.709
  406.358   55.629    0.264    0.392    1.596
  406.608   52.795    0.296    0.400    1.553
  406.858   54.449    0.307    0.397    1.603
  407.108   56.830    0.300    0.403    1.661
  407.358   56.006    0.297    0.404    1.730
  407.608   55.848    0.291    0.401    1.776
  407.858   56.757    0.284    0.402    1.808
  408.108   57.661    0.276    0.394    1.842
  408.358   57.945    0.271    0.390    1.864
  408.608   57.780    0.275    0.400    1.849
  408.858   56.228    0.283    0.409    1.819
  409.108   57.625    0.284    0.398    1.801
  409.358   59.728    0.263    0.389    1.795
  409.608   61.552    0.266    0.383    1.801
  409.858   62.567    0.282    0.397    1.814
  410.108   63.010    0.270    0.412    1.820
  410.358   62.944    0.256    0.415    1.822
  410.608   62.926    0.249    0.418    1.756
  410.858   63.141    0.259    0.420    1.763
  411.108   64.198    0.267    0.411    1.766
  411.358   66.549    0.281    0.403    1.760
  411.608   68.391    0.292    0.412    1.756
  411.858   69.003    0.310    0.418    1.755
  412.108   68.467    0.303    0.423    1.750
  412.358   68.667    0.301    0.428    1.775
  412.608   69.348    0.306    0.428    1.802
  412.858   69.695    0.300    0.425    1.869
  413.108   69.487    0.291    0.421    1.981
  413.358   71.091    0.287    0.420    2.109
  413.608   73.849    0.293    0.427    2.241
  413.858   78.000    0.293    0.433    2.362
  414.108   80.784    0.282    0.428    2.595
  414.358   83.647    0.264    0.419    2.780
  414.608   86.212    0.240    0.410    2.950
  414.858   87.929    0.211    0.400    3.030
  415.108   87.890    0.197    0.403    3.034
  415.358   89.367    0.198    0.415    3.059
  415.608   92.238    0.190    0.418    3.212
  415.858   93.776    0.174    0.420    3.375
  416.108   93.057    0.165    0.426    3.512
  416.358   92.693    0.166    0.423    3.595
  416.608   93.018    0.178    0.429    3.751
  416.858   94.835    0.191    0.430    3.821
  417.108   97.356    0.168    0.424    3.789
  417.358   99.751    0.152    0.430    3.551
  417.608  102.492    0.140    0.424    2.971
  417.858  104.539    0.171    0.423    2.513
  418.108  105.592    0.179    0.432    2.379
  418.358  104.543    0.180    0.429    2.430
  418.608  102.641    0.178    0.433    2.526
  418.858  101.108    0.178    0.444    2.598
  419.108   99.254    0.196    0.458    2.629
  419.358  100.807    0.205    0.444    2.643
  419.608  106.796    0.217    0.433    2.550
  419.858  109.838    0.231    0.460    2.372
  420.108  112.191    0.243    0.480    2.265
  420.358  111.535    0.228    0.506    2.263
  420.608  107.440    0.207    0.477    2.282
  420.858  104.332    0.187    0.483    2.290
  421.108  102.832    0.211    0.505    2.269
  421.358  102.125    0.229    0.513    2.177
  421.608  102.420    0.241    0.533    2.130
  421.858  103.140    0.246    0.529    2.159
  422.108  103.597    0.253    0.515    2.215
  422.358  103.761    0.243    0.507    2.337
  422.608  102.301    0.229    0.489    2.454
  422.858  100.733    0.206    0.466    2.568
