~VERSION INFORMATION
 VERS.                 2.0:   CWLS LOG ASCII STANDARD -VERSION 2.0
 WRAP.                  NO:   ONE LINE PER DEPTH STEP
~WELL INFORMATION BLOCK
#MNEM.UNIT           DATA                    DESCRIPTION OF MNEMONIC
#---------    -------------------            -------------------------------
# Generated from Intellog Unique Number	CW_70_72/WELL/993
NULL.         -999.25                        : NULL_VALUE
WELL.         NORCEN ET AL VICTOR 08-01      : Well_name    - WELL              
LOC .         08-01-071-02W5                 : Location     - LOCATION          
UWI .         00/08-01-071-02W5/0            : Uwi          - UNIQUE WELL ID    
ENTR.         JAYE                           : Entered      - ENTERED BY        
SRVC.         COMPUTALOG                     : Scn          - SERVICE COMPANY   
DATE.         7 JUNE 82                      : Date         - LOG DATE          
STRT.M        375                            : top_depth    - START DEPTH       
STOP.M        625                            : bot_depth    - STOP DEPTH        
STEP.M        0.25                           : increment    - STEP LENGTH       
~CURVE INFORMATION BLOCK
#MNEM UNIT       ERCB CURVE CODE    CURVE DESCRIPTION
#-----------   ------------------   ----------------------------------
DEPT.M        00 001 00 00         : DEPTH        - DEPTH                       
DPHI.V/V      00 890 00 00         : PHID         - DENSITY POROSITY (SANDSTONE)
NPHI.V/V      00 330 00 00         : PHIN         - NEUTRON POROSITY (SANDSTONE)
GR  .API      00 310 00 00         : GR           - GAMMA RAY                   
CALI.MM       00 280 01 00         : CAL          - CALIPER                     
ILD .OHMM     00 120 00 00         : RESD         - DEEP RESISTIVITY (DIL)      
~PARAMETER INFORMATION       
#MNEM.UNIT           DATA             DESCRIPTION OF MNEMONIC
#---------         -----------     ------------------------------
GL  .M        593.49               : gl           - GROUND LEVEL ELEVATION      
EREF.M        597.61               : kb           - ELEVATION OF DEPTH REFERENCE
DATM.M        593.49               : datum        - DATUM ELEVATION             
TDD .M        655                  : tdd          - TOTAL DEPTH DRILLER         
RUN .         ONE                  : Run          - RUN NUMBER                  
ENG .         SVRCEK               : Engineer     - RECORDING ENGINEER          
WIT .         BOGNER/MOORE         : Witness      - WITNESSED BY                
BASE.         EDM                  : Branch       - HOME BASE OF LOGGING UNIT   
MUD .         GEL CHEM             : Mud_type     - MUD TYPE                    
MATR.         SANDSTONE            : Logunit      - NEUTRON MATRIX              
TMAX.C        31                   : BHT          - MAXIMUM RECORDED TEMPERATURE
BHTD.M        654.7                : BHTDEP       - MAXIMUM RECORDED TEMPERATURE
RMT .C        15.5                 : MDTP         - TEMPERATURE OF MUD          
MUDD.KG/M     1130                 : MWT          - MUD DENSITY                 
NEUT.         1                    : NEUTRON      - NEUTRON TYPE                
RESI.         0                    : RESIST       - RESISTIVITY TYPE            
RM  .OHMM     2.4                  : RM           - RESISTIVITY OF MUD          
RMC .OHMM     2.1                  : RMC          - RESISTIVITY OF MUD CAKE     
RMF .OHMM     2.05                 : RMF          - RESISTIVITY OF MUD FILTRATE 
SUFT.C        0                    : SUFT         - SURFACE TEMPERATURE         
~A  DEPTH     PHID     PHIN       GR      CAL     RESD
# ...
  484.500    0.319    0.441   64.003  201.045    1.796
  484.750    0.325    0.426   67.116  201.476    1.805
  485.000    0.326    0.430   69.303  201.599    1.827
  485.250    0.325    0.456   70.435  202.101    1.836
  485.500    0.320    0.430   70.010  202.316    1.834
  485.750    0.312    0.400   69.021  202.546    1.837
  486.000    0.304    0.388   68.156  202.673    1.866
  486.250    0.300    0.378   70.089  202.989    1.890
  486.500    0.292    0.390   70.908  203.218    1.920
  486.750    0.281    0.405   66.560  203.236    1.937
  487.000    0.292    0.401   64.441  203.435    1.961
  487.250    0.303    0.395   65.015  203.573    1.981
  487.500    0.307    0.393   67.132  203.674    1.995
  487.750    0.303    0.396   68.141  203.903    2.023
  488.000    0.296    0.395   67.839  204.442    2.021
  488.250    0.299    0.408   67.401  206.932    2.016
  488.500    0.317    0.416   67.169  209.237    1.992
  488.750    0.326    0.403   67.177  211.526    1.971
  489.000    0.316    0.420   67.246  212.472    1.947
  489.250    0.307    0.432   65.386  212.698    1.917
  489.500    0.321    0.441   62.525  212.912    1.883
  489.750    0.320    0.467   60.165  213.440    1.853
  490.000    0.310    0.476   61.919  214.900    1.834
  490.250    0.312    0.467   64.099  216.068    1.812
  490.500    0.327    0.447   63.740  217.412    1.776
  490.750    0.331    0.421   63.745  216.816    1.765
  491.000    0.301    0.442   60.575  213.496    1.757
  491.250    0.309    0.456   54.982  210.712    1.759
  491.500    0.315    0.424   55.049  209.172    1.770
  491.750    0.309    0.365   58.600  207.215    1.775
  492.000    0.296    0.380   60.291  205.975    1.774
  492.250    0.302    0.415   61.043  204.945    1.783
  492.500    0.309    0.433   62.738  204.244    1.778
  492.750    0.306    0.423   65.048  203.525    1.779
  493.000    0.299    0.404   65.993  202.916    1.774
  493.250    0.290    0.382   63.444  202.290    1.776
  493.500    0.288    0.459   64.943  202.096    1.775
  493.750    0.297    0.508   66.197  202.202    1.784
  494.000    0.305    0.483   62.970  202.235    1.799
  494.250    0.310    0.431   59.234  202.246    1.798
  494.500    0.317    0.403   59.117  202.680    1.837
  494.750    0.318    0.393   59.374  204.333    1.881
  495.000    0.309    0.387   60.384  204.775    2.000
  495.250    0.299    0.378   63.940  204.266    2.276
  495.500    0.294    0.418   64.257  203.766    2.630
  495.750    0.292    0.414   63.893  203.669    2.894
  496.000    0.287    0.356   65.394  203.266    2.957
  496.250    0.277    0.289   63.160  202.752    2.916
  496.500    0.262    0.267   61.171  202.153    2.707
  496.750    0.253    0.290   60.741  202.061    2.512
  497.000    0.268    0.324   60.623  201.544    2.328
  497.250    0.285    0.374   60.256  204.260    1.966
  497.500    0.288    0.417   60.572  209.567    1.881
  497.750    0.285    0.399   61.953  216.734    1.905
  498.000    0.285    0.407   62.082  222.563    1.954
  498.250    0.287    0.383   56.551  229.942    2.031
  498.500    0.294    0.335   52.263  238.045    2.123
  498.750    0.304    0.346   53.324  245.427    2.254
  499.000    0.336    0.372   55.331  250.634    2.351
  499.250    0.327    0.360   58.258  248.255    2.408
  499.500    0.305    0.329   60.442  243.182    2.429
  499.750    0.282    0.344   61.691  237.594    2.440
  500.000    0.262    0.343   62.393  228.991    2.466
  500.250    0.269    0.314   64.073  219.976    2.583
  500.500    0.278    0.342   65.958  220.292    2.721
  500.750    0.280    0.377   68.085  223.934    2.861
  501.000    0.266    0.412   71.140  232.982    3.112
  501.250    0.242    0.365   76.378  215.562    3.410
  501.500    0.218    0.348   80.990  206.648    3.654
  501.750    0.188    0.325   83.114  205.509    3.841
  502.000    0.167    0.338   87.109  206.358    3.933
  502.250    0.150    0.373   91.598  207.181    3.982
  502.500    0.159    0.385   96.898  207.508    4.001
  502.750    0.155    0.365  101.952  206.888    3.998
  503.000    0.162    0.377  104.015  206.264    3.995
  503.250    0.182    0.403  100.597  206.100    3.984
  503.500    0.203    0.389   94.066  206.084    3.966
  503.750    0.224    0.370   91.083  206.130    3.947
  504.000    0.225    0.384   89.344  205.829    3.959
  504.250    0.237    0.431   86.676  205.213    3.947
  504.500    0.249    0.460   83.067  205.117    3.952
  504.750    0.261    0.369   82.959  206.991    3.949
  505.000    0.265    0.317   85.270  210.130    3.923
  505.250    0.260    0.328   90.627  217.207    3.919
  505.500    0.246    0.360   93.996  208.393    3.916
  505.750    0.233    0.380   95.378  206.532    3.920
  506.000    0.217    0.374   94.885  206.019    3.939
  506.250    0.221    0.381   91.468  205.931    3.966
  506.500    0.223    0.377   92.782  206.240    4.030
  506.750    0.214    0.377   94.099  206.277    4.103
  507.000    0.206    0.357   94.043  206.464    4.162
  507.250    0.198    0.340   94.358  206.685    4.229
  507.500    0.191    0.335   96.113  207.107    4.267
  507.750    0.181    0.353   99.358  207.257    4.279
  508.000    0.182    0.366  102.356  207.682    4.235
  508.250    0.188    0.367   97.626  207.903    4.223
  508.500    0.190    0.351   97.688  208.023    4.197
  508.750    0.176    0.326  100.260  207.396    4.130
  509.000    0.165    0.349  106.058  207.209    4.072
  509.250    0.153    0.380  108.184  207.018    3.978
  509.500    0.143    0.429   99.656  206.696    3.820
  509.750    0.195    0.433   94.621  206.719    3.460
  510.000    0.209    0.388   97.360  206.530    3.163
  510.250    0.192    0.370  102.914  206.648    3.096
  510.500    0.208    0.351  102.179  206.553    3.093
  510.750    0.226    0.360   91.165  206.263    3.197
  511.000    0.240    0.366   84.445  206.058    3.381
  511.250    0.252    0.371   81.772  205.659    3.501
  511.500    0.269    0.396   81.345  205.154    3.544
  511.750    0.253    0.356   76.062  204.438    3.529
  512.000    0.209    0.304   75.820  204.041    3.446
  512.250    0.163    0.291   78.065  202.386    3.329
  512.500    0.187    0.303   80.117  201.457    3.166
  512.750    0.207    0.347   80.945  200.741    3.006
  513.000    0.226    0.365   78.708  200.141    2.871
  513.250    0.247    0.367   75.350  199.621    2.841
  513.500    0.252    0.386   74.548  199.217    2.866
  513.750    0.253    0.414   75.621  199.118    2.934
  514.000    0.244    0.414   78.237  199.042    3.034
  514.250    0.237    0.379   81.729  199.043    3.184
  514.500    0.230    0.366   84.606  199.179    3.463
  514.750    0.223    0.401   86.855  199.377    3.911
  515.000    0.223    0.438   89.729  199.605    4.476
  515.250    0.223    0.399   89.050  200.438    4.971
  515.500    0.202    0.315   83.450  201.812    5.658
  515.750    0.169    0.242   79.665  204.011    6.236
  516.000    0.127    0.252   74.814  207.229    6.808
  516.250    0.071    0.275   68.095  209.327    7.349
  516.500    0.050    0.303   61.377  210.576    7.889
  516.750    0.042    0.329   55.097  210.602    8.232
  517.000    0.054    0.314   57.902  209.465    8.026
  517.250    0.053    0.251   60.152  208.532    6.528
  517.500    0.049    0.181   58.854  208.249    5.619
  517.750    0.044    0.158   59.856  208.359    4.782
  518.000    0.075    0.184   63.350  208.378    4.063
  518.250    0.112    0.248   68.275  208.180    3.571
  518.500    0.211    0.341   72.580  207.873    3.390
  518.750    0.211    0.345   77.508  207.687    3.318
  519.000    0.200    0.324   85.049  207.283    3.253
  519.250    0.189    0.322   90.847  207.065    3.201
  519.500    0.181    0.345   90.156  206.982    3.205
  519.750    0.197    0.353   88.057  206.899    3.238
  520.000    0.227    0.368   84.014  206.899    3.291
  520.250    0.241    0.376   79.981  206.715    3.415
  520.500    0.239    0.387   74.129  206.411    3.516
  520.750    0.226    0.389   69.971  206.314    3.581
