~VERSION INFORMATION
 VERS.                 2.0:   CWLS LOG ASCII STANDARD -VERSION 2.0
 WRAP.                  NO:   ONE LINE PER DEPTH STEP
~WELL INFORMATION BLOCK
#MNEM.UNIT           DATA                    DESCRIPTION OF MNEMONIC
#---------    -------------------            -------------------------------
# Generated from Intellog Unique Number	CX_WELLS/WELL/2574
WELL.         CHARD                          : Well_name    - WELL
LOC .         00/06-02-080-07W4/0            : Location     - LOCATION
UWI .         00/06-02-080-07W400            : Uwi          - UNIQUE WELL ID
ENTR.         T                              : Entered      - ENTERED BY
SRVC.         SCHLUMBERGER                   : Scn          - SERVICE COMPANY
STRT.M        140                            : top_depth    - START DEPTH
STOP.M        380                            : bot_depth    - STOP DEPTH
STEP.M        0.25                           : increment    - STEP LENGTH
 NULL. -999.2500:NULL Value
~CURVE INFORMATION BLOCK
#MNEM UNIT       ERCB CURVE CODE    CURVE DESCRIPTION
#-----------   ------------------   ----------------------------------
DEPT.M        00 001 00 00         : DEPTH        - DEPTH
GR  .API      00 310 00 00         : GR           - GAMMA RAY
NPHI.V/V      00 330 00 00         : PHIN         - NEUTRON POROSITY (SANDSTONE)
DPHI.V/V      00 890 00 00         : PHID         - DENSITY POROSITY (SANDSTONE)
ILD .OHMM     00 120 00 00         : RESD         - DEEP RESISTIVITY (DIL)
~PARAMETER INFORMATION
#MNEM.UNIT           DATA             DESCRIPTION OF MNEMONIC
#---------         -----------     ------------------------------
GL  .M        559.1                : gl           - GROUND LEVEL ELEVATION
EREF.M        562.7                : kb           - ELEVATION OF DEPTH REFERENCE
DATM.M        562.7                : datum        - DATUM ELEVATION
TDD .M        393.7                : tdd          - TOTAL DEPTH DRILLER
RUN .         ONE                  : Run          - RUN NUMBER
ENG .         BILL                 : Engineer     - RECORDING ENGINEER
WIT .         JIM                  : Witness      - WITNESSED BY
MUD .         GEL                  : Mud_type     - MUD TYPE
MATR.         SANDSTONE            : Logunit      - NEUTRON MATRIX
TMAX.C        20                   : BHT          - MAXIMUM RECORDED TEMPERATURE
BHTD.M        393                  : BHTDEP       - MAXIMUM RECORDED TEMPERATURE
MATR.         1                    : LOGUNIT      - NEUTRON MATRIX
RMT .C        20                   : MDTP         - TEMPERATURE OF MUD
NEUT.         1                    : NEUTRON      - NEUTRON TYPE
RESI.         5.65                 : RESIST       - RESISTIVITY TYPE
RMC .OHMM     6.4                  : RMC          - RESISTIVITY OF MUD CAKE
RMF .OHMM     5.2                  : RMF          - RESISTIVITY OF MUD FILTRATE
SUFT.C        3                    : SUFT         - SURFACE TEMPERATURE
~A  DEPTH       GR     PHIN     PHID     RESD
# ...
  270.500   88.264    0.467    0.316    9.908
  270.750   88.317    0.490    0.300    9.363
  271.000   87.745    0.503    0.287    8.852
  271.250   86.587    0.504    0.278    8.369
  271.500   86.627    0.496    0.277    8.377
  271.750   86.081    0.446    0.277    8.398
  272.000   86.120    0.440    0.278    8.574
  272.250   85.588    0.432    0.278    8.754
  272.500   85.627    0.427    0.277    9.117
  272.750   85.055    0.434    0.270    9.494
  273.000   85.121    0.447    0.257    9.519
  273.250   85.174    0.452    0.250    9.348
  273.500   87.075    0.443    0.240    9.361
  273.750   87.727    0.411    0.221    9.381
  274.000   88.378    0.401    0.196    9.393
  274.250   89.069    0.445    0.231    8.881
  274.500   88.497    0.481    0.256    8.553
  274.750   87.938    0.495    0.262    8.087
  275.000   87.978    0.490    0.254    7.789
  275.250   91.728    0.486    0.256    7.364
  275.500   92.978    0.490    0.262    7.231
  275.750   95.479    0.491    0.265    7.244
  276.000   97.368    0.493    0.264    7.257
  276.250   95.585    0.494    0.260    7.412
  276.500   93.203    0.490    0.258    7.722
  276.750   92.644    0.462    0.255    8.200
  277.000   90.861    0.453    0.283    8.540
  277.250   88.466    0.444    0.287    8.562
  277.500   87.308    0.446    0.292    8.566
  277.750   86.110    0.455    0.293    8.585
  278.000   84.953    0.457    0.294    8.600
  278.250   85.019    0.452    0.288    8.449
  278.500   85.657    0.455    0.280    8.297
  278.750   88.171    0.460    0.272    7.998
  279.000   89.434    0.503    0.269    7.416
  279.250   91.349    0.509    0.273    6.736
  279.500   92.612    0.498    0.279    5.779
  279.750   93.264    0.469    0.281    5.255
  280.000   93.343    0.468    0.285    5.159
  280.250   93.383    0.470    0.282    4.971
  280.500   93.422    0.479    0.273    4.981
  280.750   94.738    0.505    0.266    4.990
  281.000   95.377    0.512    0.261    5.001
  281.250   95.443    0.531    0.290    5.106
  281.500   92.436    0.533    0.314    5.112
  281.750   88.791    0.537    0.325    5.023
  282.000   83.349    0.524    0.324    4.935
  282.250   80.329    0.508    0.315    5.557
  282.500   77.322    0.482    0.310    6.252
  282.750   76.165    0.470    0.306    7.037
  283.000   76.842    0.458    0.305    7.772
  283.250   77.494    0.454    0.302    8.094
  283.500   78.145    0.471    0.296    8.264
  283.750   81.271    0.468    0.292    7.229
  284.000   82.534    0.462    0.286    6.196
  284.250   85.647    0.475    0.282    5.524
  284.500   88.147    0.508    0.283    4.739
  284.750   89.437    0.513    0.289    4.391
  285.000   88.891    0.506    0.301    3.916
  285.250   87.707    0.489    0.315    3.846
  285.500   85.312    0.482    0.309    4.329
  285.750   81.680    0.363    0.304    5.065
  286.000   73.778    0.295    0.222    6.283
  286.250   68.323    0.253    0.150    7.211
  286.500   70.212    0.332    0.200    8.608
  286.750   75.772    0.464    0.284    9.506
  287.000   79.496    0.466    0.281    9.160
  287.250   82.010    0.469    0.268    8.822
  287.500   82.050    0.471    0.253    7.865
  287.750   83.353    0.470    0.264    7.150
  288.000   83.379    0.468    0.278    6.627
  288.250   85.906    0.476    0.290    6.024
  288.500   86.557    0.488    0.291    5.583
  288.750   87.847    0.497    0.292    5.077
  289.000   87.900    0.505    0.292    4.796
  289.250   89.177    0.506    0.287    4.445
  289.500   89.828    0.502    0.285    4.367
  289.750   90.519    0.499    0.281    4.548
  290.000   90.559    0.492    0.277    4.643
  290.250   91.237    0.488    0.270    5.229
  290.500   91.263    0.487    0.264    5.550
  290.750   91.316    0.486    0.258    6.250
  291.000   91.994    0.483    0.254    6.636
  291.250   92.047    0.481    0.248    7.050
  291.500   92.711    0.477    0.244    7.204
  291.750   93.363    0.473    0.245    7.210
  292.000   93.416    0.467    0.247    6.951
  292.250   94.080    0.463    0.253    6.826
  292.500   94.146    0.454    0.257    6.453
  292.750   94.798    0.455    0.264    5.981
  293.000   94.239    0.461    0.273    5.871
  293.250   91.232    0.469    0.287    5.442
  293.500   88.225    0.477    0.295    5.044
  293.750   84.606    0.506    0.315    4.675
  294.000   82.211    0.534    0.332    4.249
  294.250   79.843    0.573    0.339    3.790
  294.500   79.257    0.595    0.326    3.249
  294.750   79.310    0.601    0.332    3.011
  295.000   79.975    0.602    0.337    2.582
  295.250   80.639    0.602    0.346    2.488
  295.500   81.929    0.602    0.344    2.492
  295.750   82.581    0.602    0.314    2.547
  296.000   85.081    0.602    0.302    2.704
  296.250   85.134    0.599    0.269    2.985
  296.500   83.364    0.597    0.267    3.169
  296.750   80.969    0.587    0.258    3.640
  297.000   80.410    0.482    0.250    3.862
  297.250   81.075    0.481    0.253    4.263
  297.500   81.127    0.480    0.255    4.706
  297.750   79.358    0.484    0.255    5.100
  298.000   77.561    0.467    0.252    5.635
  298.250   76.377    0.449    0.246    5.863
  298.500   76.430    0.435    0.242    6.103
  298.750   78.930    0.416    0.232    6.237
  299.000   83.892    0.439    0.254    5.780
  299.250   86.991    0.466    0.264    5.572
  299.500   88.294    0.478    0.268    5.470
  299.750   87.097    0.491    0.263    5.374
  300.000   85.952    0.498    0.266    5.078
  300.250   86.604    0.505    0.263    4.707
  300.500   86.643    0.513    0.256    4.364
  300.750   87.308    0.514    0.255    4.123
  301.000   87.374    0.513    0.265    3.972
  301.250   87.413    0.512    0.276    3.981
  301.500   87.479    0.512    0.278    3.913
  301.750   87.519    0.515    0.281    3.916
  302.000   87.585    0.516    0.279    3.923
  302.250   87.624    0.510    0.272    4.088
  302.500   87.092    0.493    0.268    4.340
  302.750   87.131    0.494    0.270    4.520
  303.000   86.559    0.499    0.273    4.619
  303.250   84.191    0.493    0.279    4.623
  303.500   83.006    0.483    0.284    4.722
  303.750   81.223    0.459    0.286    5.016
  304.000   80.052    0.453    0.293    5.222
  304.250   82.553    0.453    0.286    5.545
  304.500   83.829    0.461    0.261    5.888
  304.750   82.059    0.474    0.256    6.378
  305.000   80.875    0.487    0.251    6.905
  305.250   79.079    0.477    0.236    7.053
  305.500   76.085    0.427    0.168    7.204
  305.750   72.466    0.407    0.243    7.649
  306.000   69.460    0.359    0.284    8.282
  306.250   67.663    0.345    0.305    9.330
  306.500   66.492    0.355    0.277    9.708
  306.750   67.769    0.364    0.269   10.313
  307.000   69.684    0.377    0.265   10.534
  307.250   70.322    0.388    0.268   10.354
  307.500   70.987    0.393    0.272    9.972
  307.750   71.665    0.393    0.274    9.428
  308.000   71.119    0.393    0.280    9.081
  308.250   69.935    0.392    0.287    8.750
  308.500   68.165    0.392    0.298    8.933
  308.750   66.981    0.392    0.314    9.866
  309.000   65.809    0.391    0.321   11.110
  309.250   64.040    0.391    0.320   11.787
  309.500   62.842    0.391    0.320   23.774
  309.750   61.072    0.391    0.320   38.725
  310.000   59.888    0.389    0.320   66.864
  310.250   57.480    0.388    0.321   69.665
  310.500   53.861    0.388    0.322   69.725
  310.750   53.302    0.388    0.323   71.248
  311.000   56.414    0.388    0.324   71.372
  311.250   62.613    0.387    0.328   72.931
  311.500   63.890    0.387    0.328   72.995
  311.750   63.929    0.387    0.327   73.154
  312.000   62.771    0.388    0.325   73.281
  312.250   60.376    0.388    0.321   72.028
  312.500   59.205    0.389    0.318   70.703
  312.750   59.870    0.389    0.313   66.846
  313.000   61.133    0.388    0.307   59.568
  313.250   64.259    0.388    0.301   50.099
  313.500   67.371    0.393    0.292   36.070
  313.750   71.096    0.403    0.292   26.468
