~VERSION INFORMATION
 VERS.                 2.0:   CWLS LOG ASCII STANDARD -VERSION 2.0
 WRAP.                  NO:   ONE LINE PER DEPTH STEP
~WELL INFORMATION BLOCK
#MNEM.UNIT           DATA                    DESCRIPTION OF MNEMONIC
#---------    -------------------            -------------------------------
# Generated from Intellog Unique Number	CS_67_68/WELL/689
WELL.         DOME PETROLEUM LIMITED         : Well_name    - WELL
LOC .         00/06-26-068-02W4/0            : Location     - LOCATION
UWI .         00/06-26-068-02W4/0            : Uwi          - UNIQUE WELL ID
ENTR.         SP                             : Entered      - ENTERED BY
SRVC.         SCHLUMBERGER                   : Scn          - SERVICE COMPANY
STRT.M        385                            : top_depth    - START DEPTH
STOP.M        630                            : bot_depth    - STOP DEPTH
STEP.M        0.25                           : increment    - STEP LENGTH
 NULL. -999.2500:NULL Value
~CURVE INFORMATION BLOCK
#MNEM UNIT       ERCB CURVE CODE    CURVE DESCRIPTION
#-----------   ------------------   ----------------------------------
DEPT.M        00 001 00 00         : DEPTH        - DEPTH
ILD .OHMM     00 120 00 00         : RESD         - DEEP RESISTIVITY (DIL)
DPHI.V/V      00 890 00 00         : PHID         - DENSITY POROSITY (LIMESTONE)
NPHI.V/V      00 330 00 00         : PHIN         - NEUTRON POROSITY (LIMESTONE)
GR  .API      00 310 00 00         : GR           - GAMMA RAY
~PARAMETER INFORMATION
#MNEM.UNIT           DATA             DESCRIPTION OF MNEMONIC
#---------         -----------     ------------------------------
GL  .M        709.94               : gl           - GROUND LEVEL ELEVATION
EREF.M        713.29               : kb           - ELEVATION OF DEPTH REFERENCE
DATM.M        709.94               : datum        - DATUM ELEVATION
TDD .M        640                  : tdd          - TOTAL DEPTH DRILLER
RUN .         ONE                  : Run          - RUN NUMBER
ENG .         BILL                 : Engineer     - RECORDING ENGINEER
WIT .         JIM                  : Witness      - WITNESSED BY
MUD .         GEL                  : Mud_type     - MUD TYPE
MATR.         LIMESTONE            : Logunit      - NEUTRON MATRIX
TMAX.C        29                   : BHT          - MAXIMUM RECORDED TEMPERATURE
BHTD.M        640                  : BHTDEP       - MAXIMUM RECORDED TEMPERATURE
MATR.         1                    : LOGUNIT      - NEUTRON MATRIX
RMT .C        25                   : MDTP         - TEMPERATURE OF MUD
NEUT.         1                    : NEUTRON      - NEUTRON TYPE
RESI.         0                    : RESIST       - RESISTIVITY TYPE
RMC .OHMM     0.25                 : RMC          - RESISTIVITY OF MUD CAKE
RMF .OHMM     0.25                 : RMF          - RESISTIVITY OF MUD FILTRATE
SUFT.C        15                   : SUFT         - SURFACE TEMPERATURE
~A  DEPTH     RESD     PHID     PHIN       GR
  385.000    2.639    0.266    0.459  107.812
  385.250    2.801    0.263    0.455  107.187
  385.500    2.785    0.265    0.450  109.064
  385.750    2.764    0.271    0.448  108.869
  386.000    2.738    0.269    0.469  105.742
  386.250    2.692    0.270    0.506  103.041
  386.500    2.667    0.276    0.521  106.690
  386.750    2.622    0.281    0.523  108.570
  387.000    2.569    0.274    0.504  110.145
  387.250    2.569    0.268    0.487  110.557
  387.500    2.612    0.262    0.494  110.788
  387.750    2.675    0.250    0.505  106.499
  388.000    2.761    0.221    0.478  104.106
  388.250    2.855    0.212    0.454  101.711
  388.500    2.969    0.221    0.462  102.674
  388.750    3.110    0.250    0.476  108.889
  389.000    3.204    0.275    0.483   99.960
  389.250    3.300    0.278    0.491   90.363
  389.500    3.387    0.265    0.495   94.500
  389.750    3.450    0.260    0.486  105.659
  390.000    3.502    0.261    0.485  106.866
  390.250    3.574    0.262    0.475  110.394
  390.500    3.600    0.255    0.461  110.501
  390.750    3.335    0.251    0.453  106.520
  391.000    3.067    0.248    0.459  106.199
  391.250    2.884    0.249    0.492  108.445
  391.500    2.742    0.249    0.507  108.430
  391.750    2.651    0.253    0.523  109.030
  392.000    2.626    0.256    0.525  110.969
  392.250    2.686    0.257    0.494  112.357
  392.500    2.792    0.257    0.482  111.918
  392.750    2.829    0.247    0.495  111.476
  393.000    2.834    0.241    0.505  111.891
  393.250    2.871    0.248    0.490  113.831
  393.500    2.963    0.252    0.487  115.587
  393.750    3.058    0.249    0.495  116.062
  394.000    3.150    0.243    0.502  116.232
  394.250    3.233    0.233    0.510  115.425
  394.500    3.386    0.218    0.492  109.794
  394.750    3.508    0.206    0.437  101.232
  395.000    3.521    0.192    0.411   93.528
  395.250    3.385    0.129    0.408  106.274
  395.500    3.195    0.214    0.427  118.409
  395.750    3.044    0.245    0.429  125.599
  396.000    2.916    0.256    0.428  116.000
  396.250    2.793    0.259    0.450  109.514
  396.500    2.736    0.258    0.468  109.746
  396.750    2.883    0.255    0.482  111.075
  397.000    3.284    0.254    0.488  109.902
  397.250    3.825    0.253    0.486  110.376
  397.500    4.523    0.255    0.457  113.781
  397.750    5.448    0.259    0.413  106.320
  398.000    6.661    0.279    0.398   96.600
  398.250    8.069    0.291    0.385   89.383
  398.500    9.089    0.301    0.381   81.310
  398.750    9.628    0.316    0.382   76.168
  399.000    9.415    0.324    0.384   74.506
  399.250    9.274    0.328    0.386   75.163
  399.500    9.273    0.330    0.384   76.554
  399.750    9.359    0.330    0.383   77.210
  400.000    9.534    0.330    0.383   77.809
  400.250    9.895    0.327    0.384   79.567
  400.500   10.270    0.320    0.388   85.838
  400.750   10.501    0.311    0.391   88.818
  401.000   10.248    0.307    0.381   86.790
  401.250   10.096    0.309    0.367   83.845
  401.500    9.853    0.304    0.360   83.100
  401.750    9.743    0.304    0.373   84.429
  402.000    9.634    0.309    0.387   86.979
  402.250    9.615    0.310    0.399   89.345
  402.500    9.776    0.294    0.401   92.446
  402.750   10.052    0.284    0.406   95.912
  403.000    9.958    0.276    0.393   97.791
  403.250    9.629    0.272    0.382   88.864
  403.500    9.207    0.284    0.375   82.378
  403.750    8.690    0.292    0.365   79.008
  404.000    8.263    0.295    0.384   84.610
  404.250    7.901    0.288    0.403   90.212
  404.500    7.711    0.282    0.404   94.352
  404.750    7.667    0.278    0.400   98.304
  405.000    8.017    0.422    0.457   91.149
  405.250    8.749    0.466    0.470   83.138
  405.500    9.425    0.388    0.441   75.249
  405.750    9.619    0.343    0.419   70.047
  406.000    9.146    0.314    0.407   75.953
  406.250    8.893    0.297    0.413   81.496
  406.500    8.616    0.233    0.414   86.976
  406.750    8.331    0.204    0.412   90.565
  407.000    8.100    0.189    0.411   93.238
  407.250    7.832    0.178    0.418   93.041
  407.500    7.559    0.257    0.430   94.614
  407.750    7.433    0.264    0.423   98.325
  408.000    7.377    0.267    0.433  102.155
  408.250    7.335    0.271    0.445  103.609
  408.500    7.431    0.278    0.456  101.520
  408.750    7.499    0.281    0.427  104.069
  409.000    7.429    0.280    0.401  106.071
  409.250    7.157    0.271    0.390  102.515
  409.500    6.767    0.258    0.388   98.778
  409.750    6.495    0.240    0.393  100.718
  410.000    6.280    0.217    0.401  104.122
  410.250    6.129    0.187    0.411  106.185
  410.500    6.049    0.196    0.421  107.453
  410.750    6.243    0.229    0.435  108.111
  411.000    6.552    0.251    0.470  107.304
  411.250    6.762    0.266    0.456  101.003
  411.500    6.800    0.265    0.422   97.142
  411.750    6.761    0.238    0.415  101.524
  412.000    6.660    0.229    0.425  107.310
  412.250    6.672    0.222    0.424  109.434
  412.500    6.696    0.225    0.417  100.933
  412.750    6.721    0.227    0.410   97.074
  413.000    6.758    0.225    0.400   99.014
  413.250    6.620    0.218    0.395  103.396
  413.500    6.473    0.214    0.401  108.572
  413.750    6.317    0.211    0.416  112.893
  414.000    6.293    0.207    0.431  114.222
  414.250    6.375    0.208    0.429  106.207
  414.500    6.543    0.219    0.411  103.388
  414.750    6.703    0.228    0.403  100.017
  415.000    6.790    0.237    0.394   97.379
  415.250    6.840    0.245    0.400   94.923
  415.500    6.865    0.237    0.424  100.403
  415.750    7.006    0.229    0.439  105.639
  416.000    7.111    0.226    0.457  109.228
  416.250    7.230    0.226    0.432  108.971
  416.500    7.352    0.234    0.413   99.250
  416.750    7.503    0.236    0.411   97.098
  417.000    7.658    0.233    0.413   99.284
  417.250    7.859    0.235    0.412   98.720
  417.500    8.141    0.239    0.408   95.777
  417.750    8.528    0.243    0.406   92.161
  418.000    8.901    0.246    0.420   89.584
  418.250    9.255    0.246    0.441   91.096
  418.500    9.641    0.239    0.457   94.805
  418.750   10.024    0.237    0.437   96.563
  419.000   10.308    0.256    0.436   96.915
  419.250   10.698    0.268    0.437   94.765
  419.500   10.959    0.275    0.418   94.568
  419.750   10.896    0.284    0.413   95.530
  420.000   10.734    0.260    0.431   96.982
  420.250   10.399    0.237    0.452   98.129
  420.500   10.244    0.252    0.466   94.209
  420.750   10.186    0.285    0.404   82.473
  421.000   11.158    0.302    0.386   69.518
  421.250   12.110    0.313    0.370   57.293
  421.500   12.199    0.326    0.351   45.498
  421.750   11.818    0.325    0.330   39.562
  422.000   11.300    0.314    0.314   53.285
  422.250   11.111    0.306    0.386   68.044
  422.500   10.986    0.318    0.391   66.871
  422.750   10.944    0.342    0.377   65.025
  423.000   11.005    0.357    0.372   67.393
  423.250   11.148    0.349    0.379   69.699
  423.500   11.230    0.341    0.397   69.076
  423.750   11.292    0.335    0.401   68.939
  424.000   11.354    0.330    0.385   71.546
  424.250   11.438    0.321    0.377   73.793
  424.500   11.415    0.319    0.376   75.675
  424.750   11.224    0.329    0.381   74.256
  425.000   10.914    0.337    0.377   71.374
  425.250   10.692    0.323    0.373   76.854
  425.500   10.377    0.305    0.383   84.166
  425.750   10.071    0.284    0.394   93.920
  426.000    9.793    0.271    0.396   97.874
  426.250    9.557    0.258    0.404   98.106
  426.500    9.503    0.244    0.413   94.613
  426.750    9.699    0.249    0.422   92.035
  427.000   10.141    0.267    0.431   90.922
  427.250   10.584    0.281    0.435   93.350
  427.500   10.782    0.290    0.441   96.694
  427.750   10.902    0.279    0.452   97.717
  428.000   10.739    0.269    0.461   97.827
  428.250   10.462    0.259    0.464   96.654
