~VERSION INFORMATION
 VERS.                 2.0:   CWLS LOG ASCII STANDARD -VERSION 2.0
 WRAP.                  NO:   ONE LINE PER DEPTH STEP
~WELL INFORMATION BLOCK
#MNEM.UNIT           DATA                    DESCRIPTION OF MNEMONIC
#---------    -------------------            -------------------------------
# Generated from Intellog Unique Number	CW_79_81/WELL/2453
WELL.         06-24-081-23W4                 : Well_name    - WELL
LOC .         00/06-24-081-23W4/0            : Location     - LOCATION
UWI .         00/06-24-081-23W4/0            : Uwi          - UNIQUE WELL ID
ENTR.         MAX                            : Entered      - ENTERED BY
SRVC.         WESTERN ATLAS                  : Scn          - SERVICE COMPANY
STRT.M        200                            : top_depth    - START DEPTH
STOP.M        452                            : bot_depth    - STOP DEPTH
STEP.M        0.25                           : increment    - STEP LENGTH
 NULL. -999.2500:NULL Value
~CURVE INFORMATION BLOCK
#MNEM UNIT       ERCB CURVE CODE    CURVE DESCRIPTION
#-----------   ------------------   ----------------------------------
DEPT.M        00 001 00 00         : DEPTH        - DEPTH
ILD .OHMM     00 120 00 00         : RESD         - DEEP RESISTIVITY (DIL)
NPHI.V/V      00 330 00 00         : PHIN         - NEUTRON POROSITY (SANDSTONE)
DPHI.V/V      00 890 00 00         : PHID         - DENSITY POROSITY (SANDSTONE)
GR  .API      00 310 00 00         : GR           - GAMMA RAY
CALI.MM       00 280 01 00         : CAL          - CALIPER
~PARAMETER INFORMATION
#MNEM.UNIT           DATA             DESCRIPTION OF MNEMONIC
#---------         -----------     ------------------------------
GL  .M        610                  : gl           - GROUND LEVEL ELEVATION
EREF.M        614.3                : kb           - ELEVATION OF DEPTH REFERENCE
DATM.M        610                  : datum        - DATUM ELEVATION
TDD .M        458.5                : tdd          - TOTAL DEPTH DRILLER
RUN .         ONE                  : Run          - RUN NUMBER
ENG .         BILL                 : Engineer     - RECORDING ENGINEER
WIT .         JIM                  : Witness      - WITNESSED BY
MUD .         GEL                  : Mud_type     - MUD TYPE
MATR.         SANDSTONE            : Logunit      - NEUTRON MATRIX
TMAX.C        28                   : BHT          - MAXIMUM RECORDED TEMPERATURE
BHTD.M        458.5                : BHTDEP       - MAXIMUM RECORDED TEMPERATURE
MATR.         1                    : LOGUNIT      - NEUTRON MATRIX
RMT .C        15                   : MDTP         - TEMPERATURE OF MUD
NEUT.         1                    : NEUTRON      - NEUTRON TYPE
RESI.         0                    : RESIST       - RESISTIVITY TYPE
RMC .OHMM     5.6                  : RMC          - RESISTIVITY OF MUD CAKE
RMF .OHMM     5                    : RMF          - RESISTIVITY OF MUD FILTRATE
SUFT.C        -20                  : SUFT         - SURFACE TEMPERATURE
~A  DEPTH     RESD     PHIN     PHID       GR      CAL
# ...
  346.000    8.083    0.365    0.207   88.038  205.677
  346.250    8.141    0.360    0.205   88.386  204.644
  346.500    8.062    0.355    0.211   89.639  204.516
  346.750    7.641    0.365    0.232   90.615  205.459
  347.000    7.072    0.383    0.247   88.334  206.273
  347.250    6.607    0.392    0.245   90.979  206.653
  347.500    6.391    0.400    0.243   95.615  207.333
  347.750    6.295    0.404    0.244   98.619  207.710
  348.000    6.293    0.405    0.247   98.544  207.684
  348.250    6.501    0.396    0.247   95.458  207.571
  348.500    6.864    0.373    0.243   92.169  207.122
  348.750    7.121    0.356    0.244   92.637  206.293
  349.000    7.308    0.359    0.243   89.660  206.067
  349.250    7.443    0.373    0.237   86.987  206.041
  349.500    7.525    0.384    0.226   87.033  206.116
  349.750    7.498    0.372    0.214   91.083  206.488
  350.000    7.381    0.373    0.205   92.072  206.464
  350.250    7.215    0.382    0.202   93.748  206.435
  350.500    7.093    0.393    0.204   96.152  206.109
  350.750    7.038    0.395    0.207   97.829  205.479
  351.000    7.049    0.385    0.210   97.752  204.848
  351.250    7.110    0.369    0.208   95.216  204.905
  351.500    7.163    0.377    0.201   94.698  205.295
  351.750    7.322    0.399    0.197   96.859  206.080
  352.000    7.403    0.397    0.196   97.749  206.857
  352.250    7.401    0.393    0.195   97.491  207.233
  352.500    7.316    0.399    0.196   97.294  207.108
  352.750    7.129    0.410    0.204   99.250  206.675
  353.000    7.018    0.396    0.212   98.226  206.654
  353.250    7.016    0.377    0.230   97.489  206.220
  353.500    7.053    0.370    0.238  100.010  205.790
  353.750    7.129    0.357    0.238  103.862  205.363
  354.000    7.261    0.337    0.233  106.325  205.038
  354.250    7.547    0.334    0.224  103.487  204.925
  354.500    7.906    0.341    0.220  101.455  204.479
  354.750    8.263    0.353    0.222  101.200  203.650
  355.000    8.637    0.347    0.218   99.312  202.819
  355.250    9.159    0.349    0.215   96.034  202.191
  355.500    9.764    0.363    0.213   92.274  201.864
  355.750   10.088    0.372    0.205   89.447  201.830
  356.000   10.242    0.363    0.199   88.674  201.803
  356.250   10.548    0.377    0.200   89.625  200.972
  356.500   11.345    0.386    0.194   91.846  200.745
  356.750   13.203    0.387    0.183   94.973  200.519
  357.000   16.355    0.377    0.168   96.891  200.092
  357.250   18.852    0.343    0.145   92.424  199.572
  357.500   19.442    0.304    0.135   85.863  199.128
  357.750   18.027    0.291    0.166   84.157  198.702
  358.000   16.721    0.300    0.192   84.444  198.574
  358.250   15.332    0.325    0.216   86.241  198.550
  358.500   13.805    0.355    0.237   88.581  198.629
  358.750   11.927    0.380    0.249   89.256  199.087
  359.000   10.789    0.404    0.251   85.466  199.480
  359.250   10.157    0.396    0.244   86.417  201.060
  359.500    9.290    0.375    0.229   89.000  202.341
  359.750    8.731    0.355    0.214   90.919  203.324
  360.000    8.521    0.343    0.203   91.630  204.005
  360.250    8.494    0.344    0.203   92.739  204.293
  360.500    8.692    0.338    0.211   94.736  203.849
  360.750    9.017    0.336    0.222   94.476  203.018
  361.000    9.202    0.343    0.228   93.678  202.190
  361.250    9.269    0.352    0.229   91.611  201.762
  361.500    9.266    0.355    0.223   88.998  201.934
  361.750    9.248    0.349    0.211   88.767  203.130
  362.000    9.174    0.350    0.204   92.527  205.201
  362.250    9.034    0.359    0.201   97.344  206.383
  362.500    8.999    0.360    0.199   97.267  206.966
  362.750    8.996    0.358    0.196   95.681  207.143
  363.000    8.976    0.357    0.195   94.580  207.014
  363.250    8.878    0.358    0.194   94.764  206.329
  363.500    8.739    0.361    0.194   95.757  205.046
  363.750    8.607    0.360    0.193   96.948  204.215
  364.000    8.429    0.362    0.195   98.685  204.290
  364.250    8.240    0.363    0.197   99.758  204.871
  364.500    8.040    0.360    0.196   99.078  205.653
  364.750    7.765    0.349    0.193   95.225  206.593
  365.000    7.585    0.336    0.191   92.941  207.405
  365.250    7.359    0.328    0.190   97.518  208.185
  365.500    7.181    0.336    0.190  100.102  208.966
  365.750    7.073    0.348    0.192  102.142  209.546
  366.000    7.031    0.357    0.196  104.481  209.722
  366.250    7.071    0.356    0.201  107.713  209.120
  366.500    7.293    0.351    0.207  109.463  208.257
  366.750    7.679    0.358    0.214  110.414  206.623
  367.000    8.174    0.370    0.220  109.551  204.985
  367.250    8.954    0.377    0.223  107.722  204.153
  367.500   10.143    0.373    0.219  105.413  204.330
  367.750   11.870    0.356    0.205  101.129  205.184
  368.000   12.731    0.341    0.190   93.057  205.585
  368.250   12.538    0.332    0.168   87.966  205.559
  368.500   12.909    0.325    0.165   85.231  206.133
  368.750   13.976    0.322    0.175   83.767  207.113
  369.000   15.543    0.319    0.184   82.967  208.097
  369.250   16.473    0.295    0.159   82.856  208.473
  369.500   16.339    0.263    0.112   83.599  208.441
  369.750   15.037    0.246    0.073   82.133  207.212
  370.000   13.443    0.253    0.069   74.869  206.583
  370.250   11.830    0.277    0.108   72.557  206.961
  370.500   10.353    0.307    0.166   77.737  208.246
  370.750    8.911    0.329    0.196   85.030  209.991
  371.000    8.184    0.334    0.211   86.524  210.803
  371.250    8.122    0.352    0.210   90.133  210.780
  371.500    8.240    0.343    0.206   93.019  210.754
  371.750    8.424    0.336    0.200   93.245  210.326
  372.000    8.627    0.343    0.194   90.993  209.697
  372.250    8.900    0.363    0.194   88.407  209.585
  372.500    8.967    0.372    0.201   87.636  209.141
  372.750    8.831    0.368    0.207   86.897  208.707
  373.000    8.551    0.356    0.208   85.251  208.281
  373.250    8.361    0.346    0.206   84.390  208.255
  373.500    8.328    0.343    0.202   84.738  208.529
  373.750    8.438    0.353    0.198   85.193  208.503
  374.000    8.702    0.367    0.198   83.920  208.479
  374.250    8.962    0.363    0.195   83.178  207.240
  374.500    9.281    0.367    0.190   85.338  206.915
  374.750    9.735    0.363    0.177   87.739  207.094
  375.000   10.439    0.346    0.157   88.569  207.573
  375.250   11.789    0.316    0.134   86.507  208.429
  375.500   12.845    0.293    0.105   84.729  208.821
  375.750   12.937    0.294    0.106   83.506  209.201
  376.000   12.885    0.303    0.116   82.643  209.882
  376.250   12.593    0.316    0.137   82.265  210.865
  376.500   12.082    0.330    0.158   82.916  212.248
  376.750   11.285    0.339    0.154   86.716  214.314
  377.000   10.445    0.345    0.147   92.490  214.704
  377.250    9.982    0.364    0.151   99.483  215.086
  377.500    9.760    0.357    0.163  103.394  216.369
  377.750    9.685    0.348    0.177  103.378  217.348
  378.000    9.771    0.343    0.185  101.007  217.121
  378.250   10.187    0.337    0.175  100.214  214.405
  378.500   10.424    0.331    0.173   99.948  211.022
  378.750   10.577    0.324    0.169   98.241  209.390
  379.000   10.733    0.321    0.165   96.532  208.959
  379.250   10.970    0.323    0.159   96.759  208.732
  379.500   11.320    0.332    0.152   98.136  208.307
  379.750   11.959    0.344    0.143   96.346  207.873
  380.000   13.133    0.323    0.137   92.302  207.846
  380.250   14.764    0.324    0.137   88.420  207.420
  380.500   16.094    0.320    0.150   87.982  207.899
  380.750   16.965    0.320    0.170   90.383  209.081
  381.000   17.115    0.323    0.191   93.871  210.363
  381.250   15.957    0.323    0.208   95.846  210.650
  381.500   14.658    0.325    0.219   97.340  210.209
  381.750   12.786    0.345    0.215   96.603  209.380
  382.000   11.499    0.357    0.213   97.312  208.247
  382.250   10.724    0.363    0.213   98.988  207.416
