~VERSION INFORMATION
 VERS.                 2.0:   CWLS LOG ASCII STANDARD -VERSION 2.0
 WRAP.                  NO:   ONE LINE PER DEPTH STEP
~WELL INFORMATION BLOCK
#MNEM.UNIT           DATA                    DESCRIPTION OF MNEMONIC
#---------    -------------------            -------------------------------
# Generated from Intellog Unique Number	CW_73_75/WELL/879
WELL.         CHEVRON ET AL DROWNED 07-36    : Well_name    - WELL
LOC .         00/07-36-075-23W4/0            : Location     - LOCATION
UWI .         00/07-36-075-23W4/0            : Uwi          - UNIQUE WELL ID
ENTR.         JAYE                           : Entered      - ENTERED BY
SRVC.         SCHLUMBERGER                   : Scn          - SERVICE COMPANY
DATE.         22 JAN 85                      : Date         - LOG DATE
STRT.M        411.48                         : top_depth    - START DEPTH
STOP.M        618.73                         : bot_depth    - STOP DEPTH
STEP.M        0.25                           : increment    - STEP LENGTH
 NULL. -999.2500:NULL Value
~CURVE INFORMATION BLOCK
#MNEM UNIT       ERCB CURVE CODE    CURVE DESCRIPTION
#-----------   ------------------   ----------------------------------
DEPT.M        00 001 00 00         : DEPTH        - DEPTH
ILD .OHMM     00 120 00 00         : RESD         - DEEP RESISTIVITY (DIL)
DPHI.V/V      00 890 00 00         : PHID         - DENSITY POROSITY (SANDSTONE)
NPHI.V/V      00 330 00 00         : PHIN         - NEUTRON POROSITY (SANDSTONE)
GR  .API      00 310 00 00         : GR           - GAMMA RAY
CALI.MM       00 280 01 00         : CAL          - CALIPER
~PARAMETER INFORMATION
#MNEM.UNIT           DATA             DESCRIPTION OF MNEMONIC
#---------         -----------     ------------------------------
GL  .M        678.058              : gl           - GROUND LEVEL ELEVATION
EREF.M        681.106              : kb           - ELEVATION OF DEPTH REFERENCE
DATM.M        678.058              : datum        - DATUM ELEVATION
TDD .M        626.974              : tdd          - TOTAL DEPTH DRILLER
RUN .         ONE                  : Run          - RUN NUMBER
MATR.         SANDSTONE            : Logunit      - NEUTRON MATRIX
TMAX.C        60                   : BHT          - MAXIMUM RECORDED TEMPERATURE
BHTD.M        627.583              : BHTDEP       - MAXIMUM RECORDED TEMPERATURE
RMT .C        11.1111              : MDTP         - TEMPERATURE OF MUD
MUDD.KG/M     0                    : MWT          - MUD DENSITY
NEUT.         1                    : NEUTRON      - NEUTRON TYPE
RESI.         0                    : RESIST       - RESISTIVITY TYPE
RM  .OHMM     0                    : RM           - RESISTIVITY OF MUD
RMC .OHMM     0                    : RMC          - RESISTIVITY OF MUD CAKE
RMF .OHMM     9.02                 : RMF          - RESISTIVITY OF MUD FILTRATE
SUFT.C        -17.7778             : SUFT         - SURFACE TEMPERATURE
~A  DEPTH     RESD     PHID     PHIN       GR      CAL
# ...
  484.480   25.978    0.008    0.102   45.499  202.749
  484.730   20.271    0.018    0.104   43.716  202.631
  484.980   15.447    0.020    0.111   44.288  203.004
  485.230   12.075    0.022    0.117   46.214  203.271
  485.480    9.235    0.028    0.125   48.788  203.244
  485.730    8.128    0.049    0.139   50.952  203.006
  485.980    7.824    0.086    0.219   53.053  201.980
  486.230    8.465    0.179    0.291   55.862  200.966
  486.480    9.887    0.223    0.325   57.847  201.330
  486.730   14.247    0.168    0.305   57.186  202.703
  486.980   16.794    0.110    0.248   56.164  203.967
  487.230   18.302    0.079    0.171   54.146  205.031
  487.480   18.406    0.053    0.140   50.596  205.499
  487.730   17.589    0.037    0.133   48.874  205.279
  487.980   16.654    0.027    0.127   48.738  204.856
  488.230   14.821    0.027    0.121   49.490  204.720
  488.480   12.763    0.034    0.130   50.472  204.401
  488.730   10.970    0.044    0.144   52.572  204.476
  488.980    9.125    0.076    0.160   55.089  204.938
  489.230    7.901    0.094    0.178   56.779  205.408
  489.480    6.879    0.113    0.215   58.648  205.671
  489.730    6.088    0.125    0.244   60.163  204.746
  489.980    5.733    0.139    0.281   61.561  203.126
  490.230    5.559    0.188    0.316   63.481  202.105
  490.480    5.489    0.256    0.350   68.058  201.670
  490.730    5.460    0.276    0.376   64.449  201.341
  490.980    5.392    0.276    0.378   63.962  200.829
  491.230    5.335    0.280    0.369   66.304  200.798
  491.480    5.258    0.270    0.360   68.878  200.676
  491.730    5.052    0.250    0.351   71.505  200.634
  491.980    4.819    0.256    0.347   74.904  200.416
  492.230    4.638    0.272    0.379   74.770  200.493
  492.480    4.572    0.288    0.403   75.169  200.369
  492.730    4.709    0.296    0.429   76.089  200.539
  492.980    4.966    0.303    0.429   73.011  200.686
  493.230    5.421    0.286    0.410   73.056  200.468
  493.480    6.309    0.274    0.396   73.922  200.232
  493.730    7.158    0.280    0.398   75.022  200.210
  493.980    7.729    0.257    0.413   71.651  199.984
  494.230    7.802    0.240    0.396   67.102  200.049
  494.480    7.254    0.224    0.362   63.727  199.819
  494.730    6.794    0.205    0.325   64.652  199.989
  494.980    6.270    0.178    0.317   67.936  199.984
  495.230    5.714    0.209    0.336   73.628  200.536
  495.480    5.313    0.233    0.365   81.796  201.311
  495.730    5.049    0.229    0.381   87.488  201.785
  495.980    5.032    0.217    0.393   88.415  201.941
  496.230    5.069    0.238    0.404   85.689  202.711
  496.480    5.145    0.242    0.411   83.317  203.180
  496.730    5.260    0.249    0.409   81.770  203.752
  496.980    5.377    0.232    0.398   84.813  204.030
  497.230    5.538    0.205    0.385   87.860  204.502
  497.480    5.641    0.223    0.382   89.489  204.766
  497.730    5.799    0.231    0.399   89.298  205.331
  497.980    6.037    0.220    0.383   87.924  205.701
  498.230    6.263    0.203    0.372   90.855  205.988
  498.480    6.427    0.202    0.361   92.719  206.247
  498.730    6.451    0.209    0.385   91.410  206.820
  498.980    6.347    0.203    0.383   92.864  206.899
  499.230    6.200    0.189    0.371   94.792  207.071
  499.480    6.011    0.191    0.360   94.476  206.930
  499.730    5.871    0.197    0.363   94.294  206.898
  499.980    5.756    0.203    0.379   94.386  206.789
  500.230    5.622    0.208    0.391   94.193  206.868
  500.480    5.541    0.219    0.409   94.531  206.724
  500.730    5.462    0.217    0.392   95.688  206.298
  500.980    5.463    0.216    0.375   93.968  206.066
  501.230    5.464    0.223    0.375   92.654  205.837
  501.480    5.515    0.220    0.403   93.753  205.807
  501.730    5.608    0.203    0.417   95.621  206.488
  501.980    5.702    0.195    0.387   96.606  206.848
  502.230    5.776    0.187    0.367   97.471  207.315
  502.480    5.746    0.191    0.384   97.927  207.693
  502.730    5.715    0.178    0.399   99.382  207.765
  502.980    5.717    0.177    0.410  101.603  207.825
  503.230    5.770    0.187    0.415  103.472  207.902
  503.480    5.792    0.188    0.423  104.393  208.277
  503.730    5.847    0.185    0.419  100.258  208.558
  503.980    5.816    0.179    0.399  101.715  208.817
  504.230    5.806    0.174    0.378  103.109  208.891
  504.480    5.786    0.169    0.397  101.206  208.764
  504.730    5.808    0.165    0.431  100.367  208.745
  504.980    5.852    0.169    0.422  105.705  208.897
  505.230    5.896    0.164    0.401  105.512  208.885
  505.480    6.028    0.174    0.382  100.726  208.252
  505.730    6.185    0.196    0.409   97.413  206.828
  505.980    6.300    0.215    0.414   95.983  205.294
  506.230    6.453    0.207    0.405   97.498  204.169
  506.480    6.513    0.199    0.381   96.719  203.945
  506.730    6.574    0.215    0.370   94.935  204.010
  506.980    6.551    0.199    0.366   90.853  204.288
  507.230    6.505    0.185    0.360   88.424  204.470
  507.480    6.447    0.172    0.355   83.873  204.528
  507.730    6.355    0.182    0.367   88.805  204.693
  507.980    6.229    0.209    0.377   95.088  204.977
  508.230    6.096    0.209    0.371   97.129  205.437
  508.480    6.053    0.189    0.371   95.173  205.711
  508.730    5.988    0.170    0.386   94.212  206.185
  508.980    5.978    0.190    0.390   96.311  206.558
  509.230    5.957    0.205    0.382   98.770  206.625
  509.480    5.980    0.223    0.375   99.165  206.692
  509.730    5.981    0.210    0.379  100.855  206.680
  509.980    6.026    0.201    0.386  103.957  206.545
  510.230    6.071    0.199    0.386  101.234  206.413
  510.480    6.106    0.197    0.383  102.983  206.084
  510.730    6.130    0.193    0.376  103.441  206.153
  510.980    6.153    0.189    0.370  100.888  205.933
  511.230    6.154    0.202    0.372   99.754  206.111
  511.480    6.189    0.204    0.394  100.209  206.068
  511.730    6.225    0.201    0.390  101.136  206.439
  511.980    6.248    0.184    0.397  101.823  207.406
  512.230    6.365    0.192    0.402  101.337  207.773
  512.480    6.448    0.200    0.398   99.374  208.060
  512.730    6.496    0.196    0.391   98.361  207.913
  512.980    6.509    0.200    0.387   99.459  207.797
  513.230    6.510    0.192    0.383  100.445  207.659
  513.480    6.535    0.184    0.380  100.015  207.633
  513.730    6.537    0.187    0.370   98.760  207.609
  513.980    6.526    0.189    0.363  100.040  207.577
  514.230    6.492    0.182    0.362  102.615  207.345
  514.480    6.469    0.196    0.377  104.718  207.216
  514.730    6.330    0.196    0.403  106.228  207.300
  514.980    6.172    0.187    0.398  104.214  207.265
  515.230    6.017    0.188    0.374  100.838  207.031
  515.480    5.975    0.198    0.359   99.942  206.224
  515.730    5.954    0.205    0.371   99.687  205.887
  515.980    5.977    0.197    0.393  100.081  206.548
  516.230    6.000    0.184    0.405  106.422  208.830
  516.480    6.045    0.184    0.415  106.759  211.383
  516.730    6.101    0.195    0.419  104.390  213.546
  516.980    6.295    0.176    0.395  103.784  210.025
  517.230    6.974    0.183    0.410  102.711  205.115
  517.480    8.747    0.194    0.412  102.514  203.797
  517.730   11.173    0.192    0.399  101.732  203.072
  517.980   17.131    0.212    0.380   97.300  203.034
  518.230   28.100    0.230    0.360   92.573  202.913
  518.480   37.846    0.226    0.340   87.202  203.384
  518.730   51.911    0.211    0.297   82.472  203.847
  518.980   47.392    0.180    0.227   74.859  205.112
  519.230   36.844    0.090    0.218   68.132  205.401
  519.480   25.579    0.099    0.214   66.057  205.254
  519.730   20.664    0.111    0.216   68.217  205.137
  519.980   14.907    0.136    0.229   71.847  204.908
  520.230   12.020    0.157    0.243   74.775  204.582
  520.480   10.238    0.160    0.263   77.468  204.262
  520.730    8.963    0.192    0.282   80.923  204.017
