~VERSION INFORMATION
 VERS.                 2.0:   CWLS LOG ASCII STANDARD -VERSION 2.0
 WRAP.                  NO:   ONE LINE PER DEPTH STEP
~WELL INFORMATION BLOCK
#MNEM.UNIT           DATA                    DESCRIPTION OF MNEMONIC
#---------    -------------------            -------------------------------
# Generated from Intellog Unique Number	CW_79_81/WELL/502
WELL.         06-16-079-21W4                 : Well_name    - WELL
LOC .         00/06-16-079-21W4/0            : Location     - LOCATION
UWI .         00/06-16-079-21W4/0            : Uwi          - UNIQUE WELL ID
ENTR.         MAX                            : Entered      - ENTERED BY
SRVC.         SCHLUMBERGER                   : Scn          - SERVICE COMPANY
STRT.M        195                            : top_depth    - START DEPTH
STOP.M        425                            : bot_depth    - STOP DEPTH
STEP.M        0.25                           : increment    - STEP LENGTH
 NULL. -999.2500:NULL Value
~CURVE INFORMATION BLOCK
#MNEM UNIT       ERCB CURVE CODE    CURVE DESCRIPTION
#-----------   ------------------   ----------------------------------
DEPT.M        00 001 00 00         : DEPTH        - DEPTH
ILD .OHMM     00 120 00 00         : RESD         - DEEP RESISTIVITY (DIL)
NPHI.V/V      00 330 00 00         : PHIN         - NEUTRON POROSITY (SANDSTONE)
DPHI.V/V      00 890 00 00         : PHID         - DENSITY POROSITY (SANDSTONE)
CALI.MM       00 280 01 00         : CAL          - CALIPER
GR  .API      00 310 00 00         : GR           - GAMMA RAY
~PARAMETER INFORMATION
#MNEM.UNIT           DATA             DESCRIPTION OF MNEMONIC
#---------         -----------     ------------------------------
GL  .M        563.5                : gl           - GROUND LEVEL ELEVATION
EREF.M        566.8                : kb           - ELEVATION OF DEPTH REFERENCE
DATM.M        563.5                : datum        - DATUM ELEVATION
TDD .M        435                  : tdd          - TOTAL DEPTH DRILLER
RUN .         ONE                  : Run          - RUN NUMBER
ENG .         BILL                 : Engineer     - RECORDING ENGINEER
WIT .         JIM                  : Witness      - WITNESSED BY
MUD .         GEL                  : Mud_type     - MUD TYPE
MATR.         SANDSTONE            : Logunit      - NEUTRON MATRIX
TMAX.C        27.2                 : BHT          - MAXIMUM RECORDED TEMPERATURE
BHTD.M        435                  : BHTDEP       - MAXIMUM RECORDED TEMPERATURE
RMT .C        15.6                 : MDTP         - TEMPERATURE OF MUD
MUDD.KG/M     1130                 : MWT          - MUD DENSITY
NEUT.         1                    : NEUTRON      - NEUTRON TYPE
RESI.         0                    : RESIST       - RESISTIVITY TYPE
RM  .OHMM     5.35                 : RM           - RESISTIVITY OF MUD
RMC .OHMM     0.25                 : RMC          - RESISTIVITY OF MUD CAKE
RMF .OHMM     6                    : RMF          - RESISTIVITY OF MUD FILTRATE
SUFT.C        -5                   : SUFT         - SURFACE TEMPERATURE
~A  DEPTH     RESD     PHIN     PHID      CAL       GR
# ...
  268.000   18.046    0.448    0.371  166.431   54.064
  268.250   17.909    0.464    0.370  168.012   54.709
  268.500   17.770    0.477    0.368  165.096   55.646
  268.750   17.790    0.466    0.363  162.694   55.988
  269.000   17.646    0.449    0.362  163.742   55.733
  269.250   17.671    0.438    0.359  164.311   54.883
  269.500   17.693    0.445    0.360  161.404   56.124
  269.750   17.550    0.444    0.364  161.982   57.657
  270.000   17.572    0.445    0.366  163.562   60.084
  270.250   17.597    0.449    0.364  164.122   59.835
  270.500   17.621    0.456    0.361  165.685   56.899
  270.750   17.643    0.451    0.360  166.750   55.155
  271.000   17.665    0.454    0.361  167.328   56.092
  271.250   17.363    0.460    0.361  166.390   56.136
  271.500   16.915    0.455    0.364  164.494   57.078
  271.750   16.625    0.440    0.372  164.585   58.016
  272.000   16.343    0.451    0.378  164.630   57.166
  272.250   15.924    0.478    0.379  164.711   55.129
  272.500   15.941    0.466    0.375  164.287   54.565
  272.750   15.961    0.447    0.371  163.872   53.726
  273.000   15.981    0.441    0.366  163.430   52.572
  273.250   16.003    0.430    0.356  163.015   52.312
  273.500   16.026    0.426    0.353  163.087   53.851
  273.750   16.041    0.433    0.356  162.663   56.278
  274.000   16.065    0.434    0.348  162.239   58.109
  274.250   16.083    0.437    0.336  162.321   56.967
  274.500   16.105    0.439    0.350  162.402   57.005
  274.750   15.832    0.427    0.361  162.466   58.538
  275.000   15.419    0.426    0.367  162.538   58.289
  275.250   14.882    0.429    0.366  162.620   56.247
  275.500   14.365    0.438    0.363  162.692   53.316
  275.750   13.612    0.455    0.364  163.252   51.864
  276.000   12.779    0.478    0.403  164.318   53.696
  276.250    9.625    0.515    0.457  165.880   59.400
  276.500    7.948    0.601    0.561  166.955   66.302
  276.750    6.443    0.593    0.525  169.023   84.526
  277.000    5.272    0.547    0.343  171.588   94.408
  277.250    4.643    0.511    0.288  172.635   97.734
  277.500    4.440    0.505    0.273  173.204   98.368
  277.750    4.404    0.522    0.268  172.780   97.822
  278.000    4.414    0.514    0.268  172.365   98.163
  278.250    4.457    0.518    0.259  172.447   98.510
  278.500    4.586    0.528    0.264  172.519   99.447
  278.750    4.807    0.523    0.265  172.601  101.278
  279.000    4.903    0.510    0.253  172.664   99.529
  279.250    4.909    0.503    0.250  173.233   99.274
  279.500    4.827    0.510    0.246  173.306  100.521
  279.750    4.744    0.531    0.248  173.369  102.942
  280.000    4.750    0.528    0.255  173.956  101.501
  280.250    4.757    0.512    0.252  174.029  100.954
  280.500    4.762    0.498    0.248  174.598  100.689
  280.750    4.769    0.483    0.244  174.671  100.743
  281.000    4.731    0.483    0.240  174.743  100.186
  281.250    4.567    0.484    0.244  174.816   99.043
  281.500    4.531    0.491    0.239  175.376   99.384
  281.750    4.578    0.513    0.239  175.457  100.024
  282.000    4.584    0.543    0.248  175.530   99.179
  282.250    4.590    0.531    0.256  175.611  101.600
  282.500    4.595    0.520    0.250  175.684  104.325
  282.750    4.687    0.514    0.250  175.756  101.091
  283.000    4.779    0.526    0.241  175.838   99.948
  283.250    4.965    0.512    0.233  175.901  102.083
  283.500    5.063    0.497    0.235  175.495  103.308
  283.750    5.116    0.484    0.229  175.550  103.655
  284.000    5.168    0.480    0.229  175.640  103.693
  284.250    5.176    0.480    0.237  175.704  103.752
  284.500    5.181    0.480    0.245  175.279  103.189
  284.750    5.095    0.481    0.247  175.343  101.445
  285.000    4.873    0.490    0.254  175.415   97.322
  285.250    4.575    0.511    0.255  174.531   97.962
  285.500    4.141    0.515    0.249  174.576   98.303
  285.750    3.960    0.513    0.250  175.651   94.766
  286.000    3.892    0.512    0.247  174.234   90.047
  286.250    4.043    0.519    0.248  170.830   85.621
  286.500    4.865    0.507    0.259  166.930   81.185
  286.750    5.194    0.483    0.274  166.993   71.396
  287.000    6.306    0.462    0.279  167.084   63.990
  287.250    6.984    0.442    0.286  167.138   58.968
  287.500    8.479    0.423    0.295  167.734   54.835
  287.750   12.371    0.413    0.294  168.285   54.586
  288.000   13.330    0.415    0.312  166.381   54.034
  288.250   14.498    0.417    0.317  164.476   51.997
  288.500   14.514    0.423    0.313  163.546   51.147
  288.750   14.399    0.431    0.334  163.122   53.574
  289.000   13.774    0.431    0.342  162.698   57.783
  289.250   13.053    0.435    0.316  162.274   60.812
  289.500   12.369    0.436    0.312  161.859   62.345
  289.750   12.282    0.439    0.301  161.931   62.388
  290.000   12.399    0.438    0.302  161.498   64.225
  290.250   12.761    0.434    0.311  161.074   65.758
  290.500   13.132    0.445    0.319  160.677   68.191
  290.750   13.394    0.449    0.314  160.731   68.830
  291.000   13.785    0.432    0.317  160.795   67.975
  291.250   14.318    0.430    0.315  160.867   67.422
  291.500   15.009    0.444    0.306  160.949   67.477
  291.750   16.030    0.463    0.288  161.527   68.116
  292.000   16.192    0.456    0.278  161.600   68.452
  292.250   15.772    0.452    0.275  162.656   69.985
  292.500   14.540    0.464    0.284  163.225   75.392
  292.750   12.803    0.451    0.289  163.298   77.825
  293.000   10.573    0.450    0.286  163.894   79.959
  293.250    9.746    0.449    0.285  164.942   82.982
  293.500    8.581    0.452    0.266  167.506   87.197
  293.750    7.283    0.470    0.218  174.034   90.816
  294.000    5.905    0.486    0.214  173.628   92.945
  294.250    5.057    0.466    0.222  173.195   96.570
  294.500    4.748    0.450    0.219  172.771   98.406
  294.750    4.980    0.450    0.222  172.835   96.364
  295.000    5.315    0.451    0.223  171.923   99.090
  295.250    5.942    0.463    0.220  170.515  100.027
  295.500    6.765    0.447    0.222  169.576   96.500
  295.750    7.703    0.443    0.240  167.671   93.553
  296.000    8.149    0.454    0.270  165.261   89.127
  296.250    7.940    0.451    0.257  163.843   88.581
  296.500    7.733    0.449    0.247  165.406   91.614
  296.750    7.462    0.454    0.237  166.489   92.546
  297.000    7.271    0.467    0.238  167.546   91.989
  297.250    7.413    0.460    0.238  167.618   90.846
  297.500    7.491    0.457    0.241  167.194   88.505
  297.750    7.297    0.463    0.254  166.761   87.054
  298.000    7.042    0.469    0.248  167.339   86.507
  298.250    7.051    0.473    0.250  166.915   85.055
  298.500    7.530    0.480    0.245  166.500   77.352
  298.750    8.038    0.443    0.234  165.580   75.309
  299.000    8.823    0.430    0.232  164.668   75.656
  299.250    9.510    0.448    0.274  164.731   76.886
  299.500    9.433    0.444    0.287  164.795   78.723
  299.750    8.939    0.432    0.284  164.380   82.640
  300.000    8.164    0.440    0.261  164.461   88.946
  300.250    7.323    0.444    0.244  164.534   93.762
  300.500    7.132    0.460    0.231  166.105   95.290
  300.750    7.275    0.469    0.235  168.642   96.525
  301.000    7.150    0.459    0.241  170.232   95.090
  301.250    6.651    0.460    0.234  170.286   92.446
  301.500    6.303    0.475    0.235  170.359   90.707
  301.750    6.140    0.475    0.239  170.937   86.271
  302.000    6.321    0.483    0.248  168.526   83.936
  302.250    6.872    0.486    0.262  166.116   83.080
  302.500    7.684    0.472    0.275  165.186   79.846
  302.750    8.511    0.472    0.281  164.275   77.208
  303.000    9.087    0.467    0.281  164.356   77.864
  303.250    9.017    0.457    0.264  164.429   78.200
  303.500    8.780    0.450    0.261  163.508   76.456
  303.750    8.631    0.473    0.270  163.571   75.903
  304.000    8.803    0.481    0.263  163.653   75.053
  304.250    9.142    0.482    0.261  163.735   73.606
