~VERSION INFORMATION
 VERS.                 2.0:   CWLS LOG ASCII STANDARD -VERSION 2.0
 WRAP.                  NO:   ONE LINE PER DEPTH STEP
~WELL INFORMATION BLOCK
#MNEM.UNIT           DATA                    DESCRIPTION OF MNEMONIC
#---------    -------------------            -------------------------------
# Generated from Intellog Unique Number	CC_80_83/WELL/2306
NULL.         -999.25                        : NULL_VALUE
WELL.         GULF RESDELN                   : Well_name    - WELL              
LOC .         07-33-083-07W4                 : Location     - LOCATION          
UWI .         00/07-33-083-07W4/0            : Uwi          - UNIQUE WELL ID    
ENTR.         DW                             : Entered      - ENTERED BY        
SRVC.         SCHLUMBERGER                   : Scn          - SERVICE COMPANY   
DATE.         25 JAN 79                      : Date         - LOG DATE
STRT.M        130                            : top_depth    - START DEPTH       
STOP.M        405.095                        : bot_depth    - STOP DEPTH        
STEP.M        0.3                            : increment    - STEP LENGTH       
~CURVE INFORMATION BLOCK
#MNEM UNIT       ERCB CURVE CODE    CURVE DESCRIPTION
#-----------   ------------------   ----------------------------------
DEPT.M        00 001 00 00         : DEPTH        - DEPTH                       
DPHI.V/V      00 890 00 00         : PHID         - DENSITY POROSITY (LIMESTONE)
NPHI.V/V      00 330 00 00         : PHIN         - NEUTRON POROSITY (LIMESTONE)
GR  .API      00 310 00 00         : GR           - GAMMA RAY                   
ILD .OHMM     00 120 00 00         : RESD         - DEEP RESISTIVITY (DIL)      
~PARAMETER INFORMATION       
#MNEM.UNIT           DATA             DESCRIPTION OF MNEMONIC
#---------         -----------     ------------------------------
GL  .M        613.79               : gl           - GROUND LEVEL ELEVATION      
EREF.M        617.06               : kb           - ELEVATION OF DEPTH REFERENCE
DATM.M        617.06               : datum        - DATUM ELEVATION             
TDD .M        407                  : tdd          - TOTAL DEPTH DRILLER         
RUN .         ONE                  : Run          - RUN NUMBER                  
ENG .         BILL                 : Engineer     - RECORDING ENGINEER          
WIT .         JIM                  : Witness      - WITNESSED BY                
MUD .         GEL                  : Mud_type     - MUD TYPE                    
MATR.         LIMESTONE            : Logunit      - NEUTRON MATRIX              
TMAX.C        0                    : BHT          - MAXIMUM RECORDED TEMPERATURE
BHTD.M        407                  : BHTDEP       - MAXIMUM RECORDED TEMPERATURE
MATR.         1                    : LOGUNIT      - NEUTRON MATRIX              
RMT .C        25                   : MDTP         - TEMPERATURE OF MUD          
NEUT.         1                    : NEUTRON      - NEUTRON TYPE                
RESI.         0                    : RESIST       - RESISTIVITY TYPE            
RMC .OHMM     0.25                 : RMC          - RESISTIVITY OF MUD CAKE     
RMF .OHMM     0.25                 : RMF          - RESISTIVITY OF MUD FILTRATE 
SUFT.C        4                    : SUFT         - SURFACE TEMPERATURE         
~A  DEPTH     PHID     PHIN       GR     RESD
# ...
  234.401    0.348    0.417   45.884   25.964
  234.701    0.339    0.412   48.939   25.946
  235.001    0.347    0.411   48.299   25.433
  235.301    0.354    0.417   47.659   25.908
  235.601    0.350    0.414   48.865   25.885
  235.901    0.349    0.414   49.458   25.381
  236.201    0.342    0.433   47.585   25.354
  236.501    0.336    0.411   47.563   24.866
  236.801    0.352    0.416   48.773   24.848
  237.101    0.335    0.435   49.977   24.367
  237.401    0.348    0.434   48.726   23.888
  237.701    0.341    0.434   51.154   23.421
  238.001    0.339    0.439   52.980   23.401
  238.301    0.342    0.459   54.184   23.389
  238.601    0.345    0.447   54.771   23.368
  238.901    0.349    0.438   54.754   23.789
  239.201    0.356    0.446   54.728   24.235
  239.501    0.347    0.430   54.705   24.215
  239.801    0.343    0.435   54.064   24.198
  240.101    0.344    0.443   53.431   23.726
  240.401    0.357    0.453   52.174   23.258
  240.701    0.350    0.452   52.766   21.550
  241.001    0.338    0.442   56.433   18.862
  241.301    0.331    0.413   63.171   12.664
  241.601    0.312    0.414   74.210    8.033
  241.901    0.271    0.428   94.465    6.276
  242.201    0.245    0.465   92.595    5.812
  242.501    0.245    0.486   91.961    5.920
  242.801    0.249    0.505   92.554    6.380
  243.101    0.270    0.491   88.229    6.877
  243.401    0.266    0.466   86.977    7.137
  243.701    0.283    0.443   93.100    7.268
  244.001    0.240    0.448   97.992    7.126
  244.301    0.246    0.466   95.511    6.857
  244.601    0.246    0.477   94.871    6.723
  244.901    0.258    0.468   99.763    6.348
  245.201    0.239    0.479   99.740    5.150
  245.501    0.247    0.497  100.335    4.681
  245.801    0.247    0.512  107.686    4.857
  246.101    0.245    0.529  110.119    5.138
  246.401    0.257    0.514  100.877    5.435
  246.701    0.222    0.486   99.011    6.945
  247.001    0.228    0.474  103.287    7.924
  247.301    0.226    0.467  105.721    8.223
  247.601    0.217    0.459  105.700    7.334
  247.901    0.211    0.477  106.902    5.951
  248.201    0.236    0.526  108.727    2.352
  248.501    0.207    0.510  113.006    1.189
  248.801    0.213    0.510  120.973    0.798
  249.101    0.235    0.504  124.635    0.712
  249.401    0.236    0.501  120.919    0.843
  249.701    0.215    0.510  120.898    2.996
  250.001    0.204    0.502  111.656    3.830
  250.301    0.233    0.510  114.094    3.827
  250.601    0.235    0.530  114.685    3.348
  250.901    0.240    0.554  112.814    3.162
  251.201    0.249    0.575  110.335    3.159
  251.501    0.261    0.584  109.080    3.279
  251.801    0.264    0.564  104.139    3.741
  252.101    0.280    0.565   99.198    4.517
  252.401    0.258    0.556   93.644    5.454
  252.701    0.258    0.481   93.004    5.991
  253.001    0.268    0.486   94.828    6.706
  253.301    0.291    0.502   91.724    6.831
  253.601    0.286    0.485   91.093    6.208
  253.901    0.302    0.500   92.914    4.943
  254.201    0.238    0.497  103.339    3.649
  254.501    0.257    0.507  110.690    2.905
  254.801    0.262    0.545  111.890    2.691
  255.101    0.268    0.588  108.179    2.588
  255.401    0.284    0.556  103.859    2.636
  255.701    0.296    0.563   99.528    2.841
  256.001    0.298    0.581   97.048    3.005
  256.301    0.304    0.546   93.339    3.301
  256.601    0.306    0.535   93.316    3.766
  256.901    0.309    0.530  100.665    4.296
  257.201    0.327    0.530   94.495    4.631
  257.501    0.298    0.510   85.868    5.919
  257.801    0.311    0.450   75.397    7.424
  258.101    0.330    0.408   66.153   14.666
  258.401    0.277    0.406   58.755   17.050
  258.701    0.297    0.442   60.572   17.360
  259.001    0.320    0.461   64.853   16.703
  259.301    0.342    0.474   66.059   16.070
  259.601    0.345    0.472   63.577   15.463
  259.901    0.344    0.461   62.935   14.878
  260.201    0.347    0.482   61.685   15.149
  260.501    0.347    0.491   57.975   15.721
  260.801    0.354    0.474   56.109   16.626
  261.101    0.359    0.470   59.772   16.930
  261.401    0.355    0.469   63.434   16.922
  261.701    0.348    0.458   64.027   15.971
  262.001    0.355    0.467   59.080   16.269
  262.301    0.353    0.462   58.449   16.564
  262.601    0.333    0.462   59.037   16.865
  262.901    0.342    0.453   57.161   16.852
  263.201    0.327    0.455   57.149   16.839
  263.501    0.325    0.474   59.578   16.514
  263.801    0.341    0.476   62.626   16.189
  264.101    0.354    0.461   63.839   16.182
  264.401    0.352    0.450   64.429   16.477
  264.701    0.351    0.448   61.330   16.457
  265.001    0.364    0.448   62.534   16.450
  265.301    0.351    0.453   64.355   16.128
  265.601    0.342    0.454   63.107   16.117
  265.901    0.336    0.450   60.625   16.727
  266.201    0.340    0.456   61.824   16.715
  266.501    0.342    0.458   63.033   17.023
  266.801    0.351    0.455   63.011   17.011
  267.101    0.352    0.460   58.684   16.674
  267.401    0.349    0.466   56.820   16.666
  267.701    0.336    0.474   58.020   16.966
  268.001    0.335    0.451   60.460   16.953
  268.301    0.336    0.456   65.965   16.628
  268.601    0.340    0.448   67.786   16.615
  268.901    0.339    0.456   68.374   16.603
  269.201    0.339    0.457   68.353   16.590
  269.501    0.338    0.446   67.103   17.878
  269.801    0.320    0.442   62.776   18.912
  270.101    0.285    0.442   54.148   21.577
  270.401    0.100    0.419   51.050   21.152
  270.701    0.187    0.271   52.873   19.595
  271.001    0.278    0.314   57.766   17.811
  271.301    0.339    0.408   63.889   16.190
  271.601    0.339    0.444   70.005   15.283
  271.901    0.326    0.449   66.911   15.276
  272.201    0.306    0.450   67.504   15.262
  272.501    0.316    0.461   72.398   15.538
  272.801    0.330    0.458   72.990   15.827
  273.101    0.324    0.466   68.665   15.812
  273.401    0.330    0.471   68.022   15.804
  273.701    0.334    0.461   68.000   15.790
  274.001    0.326    0.450   67.977   16.385
  274.301    0.337    0.441   69.799   16.689
  274.601    0.340    0.436   69.772   17.647
  274.901    0.329    0.458   68.524   17.975
  275.201    0.314    0.469   68.498   18.306
  275.500    0.311    0.452   69.090   17.946
  275.800    0.314    0.431   69.062   17.263
  276.100    0.316    0.431   70.886   16.930
  276.400    0.319    0.427   73.933   16.287
  276.700    0.319    0.432   75.757   15.973
  277.000    0.317    0.433   76.960   15.658
  277.300    0.307    0.425   74.480   15.948
  277.600    0.307    0.425   77.528   16.239
  277.900    0.311    0.436   76.277   16.227
  278.200    0.315    0.444   72.566   16.520
  278.500    0.319    0.455   74.381   16.828
  278.800    0.314    0.460   73.131   16.498
  279.100    0.310    0.444   71.265   16.485
  279.400    0.304    0.435   71.243   16.466
  279.700    0.288    0.435   68.140   16.455
  280.000    0.249    0.424   69.963   16.445
  280.300    0.283    0.423   72.398   16.434
  280.600    0.302    0.428   69.909   16.420
  280.900    0.303    0.432   68.043   15.801
  281.200    0.293    0.432   69.870   15.492
  281.500    0.283    0.433   74.149   15.778
  281.800    0.297    0.433   71.668   16.371
  282.100    0.302    0.435   69.183   16.362
  282.400    0.301    0.435   71.618   16.350
  282.700    0.298    0.449   70.982   15.433
  283.000    0.302    0.453   74.644   14.570
  283.300    0.297    0.452   72.777   13.753
  283.600    0.290    0.414   70.298   13.233
  283.900    0.292    0.423   69.660   13.227
  284.200    0.288    0.440   70.250   13.726
  284.500    0.256    0.450   69.612   14.243
  284.800    0.263    0.457   72.658   14.506
  285.100    0.307    0.462   72.023   14.223
  285.400    0.312    0.449   71.382   13.685
  285.700    0.305    0.420   75.050   13.418
  286.000    0.285    0.433   79.326   12.665
  286.300    0.268    0.439   80.535   11.515
