~VERSION INFORMATION
 VERS.                 2.0:   CWLS LOG ASCII STANDARD -VERSION 2.0
 WRAP.                  NO:   ONE LINE PER DEPTH STEP
~WELL INFORMATION BLOCK
#MNEM.UNIT           DATA                    DESCRIPTION OF MNEMONIC
#---------    -------------------            -------------------------------
# Generated from Intellog Unique Number	CS_73_76/WELL/2107
WELL.         W.W. BECKER OIL & GAS LTD      : Well_name    - WELL
LOC .         00/07-12-075-13W4/0            : Location     - LOCATION
UWI .         00/07-12-075-13W4/0            : Uwi          - UNIQUE WELL ID
ENTR.         SP                             : Entered      - ENTERED BY
SRVC.         SCHLUMBERGER                   : Scn          - SERVICE COMPANY
STRT.M        313.944                        : top_depth    - START DEPTH
STOP.M        530.194                        : bot_depth    - STOP DEPTH
STEP.M        0.25                           : increment    - STEP LENGTH
 NULL. -999.2500:NULL Value
~CURVE INFORMATION BLOCK
#MNEM UNIT       ERCB CURVE CODE    CURVE DESCRIPTION
#-----------   ------------------   ----------------------------------
DEPT.M        00 001 00 00         : DEPTH        - DEPTH
GR  .API      00 310 00 00         : GR           - GAMMA RAY
DPHI.V/V      00 890 00 00         : PHID         - DENSITY POROSITY (SANDSTONE)
NPHI.V/V      00 330 00 00         : PHIN         - NEUTRON POROSITY (SANDSTONE)
ILD .OHMM     00 120 00 00         : RESD         - DEEP RESISTIVITY (DIL)
~PARAMETER INFORMATION
#MNEM.UNIT           DATA             DESCRIPTION OF MNEMONIC
#---------         -----------     ------------------------------
GL  .M        682.021              : gl           - GROUND LEVEL ELEVATION
EREF.M        685.19               : kb           - ELEVATION OF DEPTH REFERENCE
DATM.M        682.021              : datum        - DATUM ELEVATION
TDD .M        533.4                : tdd          - TOTAL DEPTH DRILLER
RUN .         ONE                  : Run          - RUN NUMBER
ENG .         BILL                 : Engineer     - RECORDING ENGINEER
WIT .         JIM                  : Witness      - WITNESSED BY
MUD .         GEL                  : Mud_type     - MUD TYPE
MATR.         SANDSTONE            : Logunit      - NEUTRON MATRIX
TMAX.C        18.8889              : BHT          - MAXIMUM RECORDED TEMPERATURE
BHTD.M        554.126              : BHTDEP       - MAXIMUM RECORDED TEMPERATURE
MATR.         1                    : LOGUNIT      - NEUTRON MATRIX
RMT .C        25                   : MDTP         - TEMPERATURE OF MUD
NEUT.         1                    : NEUTRON      - NEUTRON TYPE
RESI.         0                    : RESIST       - RESISTIVITY TYPE
RMC .OHMM     0.25                 : RMC          - RESISTIVITY OF MUD CAKE
RMF .OHMM     0.25                 : RMF          - RESISTIVITY OF MUD FILTRATE
SUFT.C        15                   : SUFT         - SURFACE TEMPERATURE
~A  DEPTH       GR     PHID     PHIN     RESD
  313.944   61.341    0.220    0.527    3.365
  314.194   60.290    0.214    0.538    3.239
  314.444   60.130    0.219    0.544    3.244
  314.694   60.680    0.227    0.538    3.247
  314.944   62.753    0.233    0.542    3.283
  315.194   63.082    0.225    0.546    3.312
  315.444   62.548    0.229    0.562    3.258
  315.694   63.549    0.237    0.571    3.230
  315.944   63.762    0.224    0.583    3.128
  316.194   63.243    0.230    0.572    3.028
  316.444   62.321    0.234    0.544    2.998
  316.694   62.031    0.223    0.537    3.027
  316.944   62.405    0.232    0.538    3.121
  317.194   63.302    0.234    0.529    3.220
  317.444   63.273    0.226    0.534    3.322
  317.694   61.924    0.230    0.532    3.431
  317.944   60.822    0.237    0.523    3.441
  318.194   60.874    0.233    0.515    3.336
  318.444   59.299    0.233    0.507    3.267
  318.694   56.872    0.247    0.502    3.283
  318.944   51.283    0.260    0.525    3.534
  319.194   45.778    0.270    0.554    4.142
  319.444   38.148    0.461    0.588    5.088
  319.694   34.224    0.528    0.668    6.167
  319.944   34.555    0.554    0.670    7.755
  320.194   34.810    0.538    0.640    8.823
  320.444   34.461    0.340    0.509    9.484
  320.694   33.444    0.324    0.437    9.553
  320.944   32.439    0.306    0.430    9.705
  321.194   33.032    0.305    0.434    9.506
  321.444   35.095    0.314    0.454    9.526
  321.694   37.136    0.320    0.470    9.516
  321.944   38.129    0.332    0.477    9.730
  322.194   39.854    0.339    0.487    9.713
  322.444   40.748    0.318    0.495    9.868
  322.694   42.480    0.320    0.486    9.887
  322.944   43.412    0.334    0.481   10.106
  323.194   43.444    0.334    0.491   10.108
  323.444   42.580    0.321    0.483   10.167
  323.694   41.624    0.306    0.472   10.306
  323.944   41.761    0.299    0.448   10.310
  324.194   42.422    0.311    0.455   10.315
  324.444   44.023    0.313    0.454   10.319
  324.694   45.688    0.309    0.451   10.320
  324.944   47.349    0.292    0.446   10.305
  325.194   49.863    0.280    0.438   10.000
  325.444   53.481    0.264    0.426    9.441
  325.694   57.161    0.242    0.414    8.698
  325.944   60.718    0.224    0.419    8.333
  326.194   63.761    0.224    0.419    7.682
  326.444   64.176    0.218    0.417    7.397
  326.694   65.756    0.208    0.428    6.956
  326.944   67.526    0.211    0.437    6.540
  327.194   67.248    0.210    0.444    6.273
  327.444   65.614    0.209    0.444    6.271
  327.694   63.441    0.214    0.461    6.528
  327.944   61.984    0.235    0.472    6.841
  328.194   59.026    0.253    0.483    7.452
  328.444   56.006    0.290    0.476    7.747
  328.694   54.846    0.304    0.468    8.121
  328.944   56.781    0.298    0.456    8.611
  329.194   59.463    0.294    0.451    9.158
  329.444   60.340    0.285    0.454    9.620
  329.694   62.097    0.277    0.457    9.929
  329.944   63.032    0.267    0.465   10.039
  330.194   63.753    0.252    0.461   10.255
  330.444   62.911    0.240    0.439   10.273
  330.694   61.410    0.233    0.434   10.624
  330.944   58.780    0.249    0.440   10.647
  331.194   56.134    0.232    0.420   10.388
  331.444   54.168    0.226    0.404    9.621
  331.694   53.227    0.232    0.391    8.831
  331.944   54.659    0.204    0.403    8.313
  332.194   55.073    0.197    0.417    7.784
  332.444   55.245    0.202    0.429    7.555
  332.694   54.610    0.218    0.426    7.485
  332.944   54.012    0.233    0.431    7.575
  333.194   54.183    0.226    0.429    7.829
  333.444   54.693    0.218    0.420    7.928
  333.694   53.105    0.207    0.433    7.929
  333.944   51.510    0.222    0.438    7.917
  334.194   52.123    0.230    0.429    7.545
  334.444   53.951    0.220    0.422    7.115
  334.694   58.200    0.208    0.421    6.565
  334.944   61.019    0.210    0.420    6.183
  335.194   63.968    0.184    0.440    5.872
  335.444   65.141    0.193    0.450    5.563
  335.694   67.167    0.205    0.465    5.275
  335.944   68.275    0.189    0.479    5.005
  336.194   69.312    0.167    0.489    4.813
  336.444   69.941    0.161    0.484    4.440
  336.694   72.793    0.174    0.484    4.201
  336.944   74.113    0.179    0.503    4.013
  337.194   75.520    0.179    0.514    3.784
  337.444   75.434    0.190    0.529    3.491
  337.694   75.410    0.202    0.543    3.346
  337.944   76.678    0.216    0.555    3.165
  338.194   77.247    0.231    0.549    3.147
  338.444   77.338    0.241    0.543    3.333
  338.694   76.558    0.249    0.546    3.925
  338.944   73.560    0.259    0.551    4.777
  339.194   70.511    0.269    0.530    6.266
  339.444   67.864    0.275    0.512    7.655
  339.694   62.750    0.256    0.470    8.462
  339.944   64.034    0.253    0.469    8.925
  340.194   64.637    0.254    0.474    8.964
  340.444   64.618    0.254    0.453    9.135
  340.694   63.914    0.255    0.438    9.201
  340.944   63.942    0.263    0.438    9.704
  341.194   62.469    0.275    0.457    9.825
  341.444   59.501    0.287    0.469   10.142
  341.694   57.228    0.273    0.482   10.460
  341.944   53.702    0.267    0.483   10.310
  342.194   51.718    0.254    0.478    9.864
  342.444   53.715    0.230    0.485    8.682
  342.694   56.969    0.068    0.486    7.800
  342.944   59.847    0.038    0.469    6.983
  343.194   63.894    0.131    0.445    6.438
  343.444   66.941    0.174    0.435    7.126
  343.694   69.083    0.194    0.448    7.762
  343.944   70.106    0.203    0.466    8.487
  344.194   68.643    0.211    0.480    9.154
  344.444   67.037    0.225    0.457    9.406
  344.694   64.951    0.232    0.435    9.872
  344.944   63.947    0.243    0.445    9.985
  345.194   61.579    0.257    0.457   10.325
  345.444   58.424    0.268    0.445   10.346
  345.694   55.677    0.253    0.430   10.132
  345.944   55.611    0.242    0.430    9.962
  346.194   58.020    0.235    0.440    9.445
  346.444   60.429    0.232    0.443    9.023
  346.694   63.994    0.240    0.454    8.322
  346.944   67.347    0.240    0.468    7.917
  347.194   69.843    0.233    0.451    7.362
  347.444   71.468    0.247    0.442    7.044
  347.694   70.542    0.236    0.438    7.040
  347.944   66.460    0.218    0.448    7.591
  348.194   63.406    0.228    0.456    8.436
  348.444   57.837    0.239    0.468    9.189
  348.694   52.646    0.258    0.468    9.645
  348.944   48.123    0.272    0.448   10.145
  349.194   50.321    0.280    0.437   10.463
  349.444   52.105    0.286    0.434   10.600
  349.694   52.655    0.268    0.430   10.614
  349.944   55.457    0.250    0.424   10.335
  350.194   57.455    0.244    0.421    9.743
  350.444   58.572    0.240    0.413    8.806
  350.694   58.920    0.235    0.409    7.965
  350.944   60.952    0.230    0.423    6.951
  351.194   63.668    0.235    0.438    6.240
  351.444   65.600    0.229    0.449    5.620
  351.694   67.232    0.207    0.462    5.370
  351.944   67.064    0.197    0.474    5.680
  352.194   64.969    0.213    0.480    5.966
  352.444   63.598    0.238    0.472    6.099
  352.694   62.444    0.250    0.465    5.942
  352.944   63.637    0.260    0.457    5.866
  353.194   64.655    0.244    0.463    5.822
  353.444   65.565    0.247    0.481    5.648
  353.694   64.445    0.246    0.497    5.754
  353.944   64.344    0.234    0.505    5.809
  354.194   65.031    0.217    0.494    6.004
  354.444   65.463    0.223    0.488    6.602
  354.694   65.425    0.230    0.474    6.922
  354.944   64.409    0.221    0.456    7.234
  355.194   61.985    0.232    0.440    7.459
  355.444   59.797    0.247    0.434    7.659
  355.694   58.425    0.233    0.429    7.798
  355.944   56.752    0.233    0.440    7.805
  356.194   55.790    0.243    0.447    7.824
  356.444   55.394    0.255    0.443    8.230
  356.694   54.775    0.241    0.457    8.582
  356.944   54.188    0.253    0.469    8.937
  357.194   54.770    0.264    0.481    9.091
