~VERSION INFORMATION
 VERS.                 2.0:   CWLS LOG ASCII STANDARD -VERSION 2.0
 WRAP.                  NO:   ONE LINE PER DEPTH STEP
~WELL INFORMATION BLOCK
#MNEM.UNIT           DATA                    DESCRIPTION OF MNEMONIC
#---------    -------------------            -------------------------------
# Generated from Intellog Unique Number	CW_76_78/WELL/2795
NULL.         -999.25                        : NULL_VALUE
WELL.         PAN AM A1 SANDY LAKE           : Well_name    - WELL              
LOC .         07-06-078-22W4                 : Location     - LOCATION          
UWI .         00/07-06-078-22W4/0            : Uwi          - UNIQUE WELL ID    
ENTR.         JJ                             : Entered      - ENTERED BY        
SRVC.         SCHLUMBERGER                   : Scn          - SERVICE COMPANY   
DATE.         13 MAR 66                      : Date         - LOG DATE          
STRT.M        381                            : top_depth    - START DEPTH       
STOP.M        509                            : bot_depth    - STOP DEPTH        
STEP.M        0.25                           : increment    - STEP LENGTH       
~CURVE INFORMATION BLOCK
#MNEM UNIT       ERCB CURVE CODE    CURVE DESCRIPTION
#-----------   ------------------   ----------------------------------
DEPT.M        00 001 00 00         : DEPTH        - DEPTH                       
CALI.MM       00 280 01 00         : CAL          - CALIPER                     
DELT.US/F     00 520 00 00         : DELT         - SONIC TRAVEL TIME           
GR  .API      00 310 00 00         : GR           - GAMMA RAY                   
ILD .OHMM     00 120 00 00         : RESD         - DEEP RESISTIVITY (DIL)      
~PARAMETER INFORMATION       
#MNEM.UNIT           DATA             DESCRIPTION OF MNEMONIC
#---------         -----------     ------------------------------
GL  .M        598.902              : gl           - GROUND LEVEL ELEVATION      
EREF.M        602.346              : kb           - ELEVATION OF DEPTH REFERENCE
DATM.M        598.902              : datum        - DATUM ELEVATION             
TDD .M        509.016              : tdd          - TOTAL DEPTH DRILLER         
RUN .         ONE                  : Run          - RUN NUMBER                  
ENG .         PICKFORD             : Engineer     - RECORDING ENGINEER          
WIT .         SANDERSON            : Witness      - WITNESSED BY                
BASE.         SL                   : Branch       - HOME BASE OF LOGGING UNIT   
MUD .         GEL                  : Mud_type     - MUD TYPE                    
MATR.         SANDSTONE            : Logunit      - NEUTRON MATRIX              
TMAX.C        23.3333              : BHT          - MAXIMUM RECORDED TEMPERATURE
BHTD.M        508.711              : BHTDEP       - MAXIMUM RECORDED TEMPERATURE
RMT .C        18.3333              : MDTP         - TEMPERATURE OF MUD          
MUDD.KG/M     1092                 : MWT          - MUD DENSITY                 
NEUT.         1                    : NEUTRON      - NEUTRON TYPE                
RESI.         0                    : RESIST       - RESISTIVITY TYPE            
RM  .OHMM     2.68                 : RM           - RESISTIVITY OF MUD          
RMC .OHMM     3.44                 : RMC          - RESISTIVITY OF MUD CAKE     
RMF .OHMM     2.74                 : RMF          - RESISTIVITY OF MUD FILTRATE 
SUFT.C        5                    : SUFT         - SURFACE TEMPERATURE         
~A  DEPTH      CAL     DELT       GR     RESD
  381.000  236.367  394.160   82.216    6.792
  381.250  239.429  391.152   81.135    6.862
  381.500  237.174  387.391   80.113    7.026
  381.750  227.356  383.376   79.618    7.277
  382.000  220.492  378.774   79.524    7.624
  382.250  219.818  379.530   76.789    7.819
  382.500  220.254  380.757   76.020    7.949
  382.750  220.550  383.596   80.443    7.983
  383.000  220.862  388.522   84.669    8.116
  383.250  224.061  374.523   85.799    8.885
  383.500  227.932  350.431   75.788   10.633
  383.750  230.769  313.813   68.032   13.414
  384.000  228.640  284.653   61.540   21.791
  384.250  227.905  223.110   55.704   34.599
  384.500  227.298  201.426   52.023   43.843
  384.750  226.875  201.535   49.710   41.750
  385.000  226.532  204.079   46.801   33.644
  385.250  226.950  210.363   49.738   26.340
  385.500  227.440  223.909   55.557   20.454
  385.750  228.099  246.710   63.687   16.453
  386.000  228.961  272.136   70.546   13.683
  386.250  232.218  313.492   76.615   11.688
  386.500  234.957  336.779   77.764   10.156
  386.750  234.903  350.231   76.641    9.080
  387.000  232.199  360.087   79.561    8.611
  387.250  229.807  369.222   82.347    8.232
  387.500  232.604  377.949   82.151    8.044
  387.750  233.415  380.851   82.747    8.015
  388.000  232.836  384.163   85.700    7.945
  388.250  236.998  387.646   85.362    8.005
  388.500  240.750  384.312   82.751    8.072
  388.750  241.336  379.660   81.991    8.131
  389.000  234.126  374.408   83.813    8.332
  389.250  228.657  369.363   85.113    8.352
  389.500  225.548  372.855   83.547    8.255
  389.750  223.869  377.654   82.522    8.364
  390.000  224.896  381.505   83.848    8.408
  390.250  227.004  384.713   82.227    8.416
  390.500  227.322  383.190   78.177    8.357
  390.750  226.112  385.564   75.666    8.375
  391.000  229.127  384.096   77.006    8.713
  391.250  230.127  386.030   80.182    8.652
  391.500  228.545  389.514   78.000    8.475
  391.750  231.136  389.652   77.598    8.115
  392.000  234.335  396.691   81.238    7.570
  392.250  237.433  396.986   86.055    6.994
  392.500  237.138  401.049   87.852    6.383
  392.750  235.299  406.988   84.705    5.957
  393.000  232.960  413.820   84.670    5.491
  393.250  229.567  420.313   90.184    5.363
  393.500  226.210  415.114   94.109    5.521
  393.750  223.682  385.923   93.457    5.997
  394.000  221.207  373.939   90.043    6.847
  394.250  219.930  361.800   82.395    7.823
  394.500  219.692  362.600   74.984    8.674
  394.750  220.120  367.946   73.150    9.467
  395.000  221.014  376.436   77.379   10.254
  395.250  222.814  365.169   81.595   10.967
  395.500  227.801  338.341   79.217   11.749
  395.750  228.016  318.028   73.168   12.317
  396.000  227.571  312.061   67.361   12.401
  396.250  231.175  318.102   67.770   12.186
  396.500  232.235  352.296   72.957   11.380
  396.750  228.071  363.951   79.001   10.079
  397.000  224.238  372.848   83.758    9.261
  397.250  223.602  380.285   85.385    8.907
  397.500  230.339  384.176   83.300    8.879
  397.750  236.125  384.045   82.908    9.096
  398.000  234.892  378.239   83.913    9.032
  398.250  231.308  374.007   83.454    8.820
  398.500  230.252  374.613   78.699    8.891
  398.750  230.905  374.119   76.509    9.444
  399.000  228.084  368.782   79.597    9.759
  399.250  228.072  354.131   81.489    9.626
  399.500  226.683  349.303   78.572    9.716
  399.750  223.713  354.249   76.709    9.864
  400.000  222.457  366.392   78.641    9.757
  400.250  220.638  377.532   80.517    9.393
  400.500  217.846  376.383   81.951    9.178
  400.750  216.331  377.670   82.890    9.172
  401.000  218.862  379.878   83.202    9.204
  401.250  219.697  376.708   82.741    9.247
  401.500  219.133  379.527   81.052    9.331
  401.750  219.825  382.608   75.362    9.292
  402.000  221.918  380.980   71.444    9.277
  402.250  220.570  380.689   76.928    9.299
  402.500  220.675  378.083   82.198    9.371
  402.750  220.360  376.472   79.108    9.386
  403.000  220.595  377.303   80.015    9.375
  403.250  221.268  380.004   84.088    9.398
  403.500  222.788  383.549   86.715    9.400
  403.750  225.004  383.139   85.752    9.387
  404.000  227.144  383.531   83.938    9.393
  404.250  228.142  382.228   84.310    9.391
  404.500  225.548  380.544   81.361    9.377
  404.750  223.398  380.018   77.053    9.374
  405.000  222.272  380.818   79.963    9.346
  405.250  224.183  382.208   85.054    9.417
  405.500  225.427  382.477   86.847    9.442
  405.750  225.443  380.204   85.353    9.376
  406.000  222.397  381.243   84.218    9.422
  406.250  224.728  379.109   82.648    9.444
  406.500  228.646  376.916   82.957    9.433
  406.750  225.773  379.357   81.166    9.379
  407.000  231.228  381.878   80.707    9.345
  407.250  234.186  384.602   83.303    9.308
  407.500  234.594  383.668   87.023    9.299
  407.750  233.154  380.851   86.008    9.178
  408.000  230.576  376.525   81.890    9.159
  408.250  227.141  371.393   82.313    9.321
  408.500  222.930  366.514   84.431    9.610
  408.750  220.912  362.742   82.412    9.905
  409.000  221.967  364.188   81.194   10.167
  409.250  224.487  366.142   84.120   10.366
  409.500  226.939  366.860   86.273   10.465
  409.750  226.904  363.423   83.352   10.352
  410.000  226.684  362.914   79.342    9.983
  410.250  226.856  372.093   82.285    9.521
  410.500  230.615  384.113   87.198    8.980
  410.750  235.848  392.601   92.074    8.472
  411.000  235.622  390.866   92.692    8.010
  411.250  232.533  388.088   87.786    7.754
  411.500  232.660  373.181   83.673    7.933
  411.750  229.053  366.557   80.612    8.229
  412.000  227.290  369.073   78.378    8.570
  412.250  231.208  371.636   77.732    8.758
  412.500  231.746  371.994   80.746    8.883
  412.750  231.121  357.911   82.340    8.921
  413.000  229.913  357.734   81.279    9.671
  413.250  228.446  347.438   82.171   10.939
  413.500  227.725  310.280   78.459   12.365
  413.750  227.020  278.080   70.403   13.693
  414.000  226.766  254.481   63.435   14.651
  414.250  226.063  274.084   61.240   14.810
  414.500  223.773  308.199   68.271   14.047
  414.750  222.073  339.270   74.715   13.003
  415.000  221.408  339.802   74.980   13.424
  415.250  221.988  299.187   69.687   14.173
  415.500  223.773  274.980   61.688   14.452
  415.750  225.608  273.324   54.359   14.369
  416.000  225.206  308.665   55.323   13.767
  416.250  223.889  351.691   60.402   12.333
  416.500  221.876  383.966   66.242   10.827
  416.750  220.149  395.583   72.230    9.603
  417.000  219.661  400.329   72.969    9.062
  417.250  220.529  404.482   68.600    8.795
  417.500  221.092  408.654   67.757    8.701
  417.750  221.365  407.002   66.843    8.783
  418.000  221.202  406.634   66.151    8.916
  418.250  220.943  401.428   67.546    8.992
  418.500  220.994  400.865   68.316    8.987
  418.750  221.699  403.669   68.287    9.015
  419.000  222.941  407.208   69.825    9.219
  419.250  224.293  407.806   70.911    9.587
  419.500  224.576  411.156   72.132   10.661
  419.750  225.170  385.027   68.794   12.607
  420.000  224.080  306.598   56.095   14.616
  420.250  225.186  237.981   49.021   16.496
  420.500  227.171  224.843   45.571   18.239
  420.750  223.528  258.878   50.595   18.081
  421.000  220.168  314.245   60.074   16.611
  421.250  220.295  353.621   65.654   15.237
  421.500  223.498  344.609   64.159   14.815
  421.750  227.381  319.963   61.756   14.582
  422.000  228.000  300.867   60.817   14.092
  422.250  227.795  297.150   62.628   13.393
  422.500  225.595  334.525   70.439   12.460
  422.750  224.615  357.003   78.875   11.335
  423.000  226.109  372.577   80.251   10.294
  423.250  225.884  373.788   77.506    9.775
  423.500  224.511  370.878   80.499    9.704
  423.750  223.593  371.431   81.699    9.645
  424.000  225.291  370.112   82.440    9.568
  424.250  225.982  370.130   84.785    9.502
