~VERSION INFORMATION
 VERS.                 2.0:   CWLS LOG ASCII STANDARD -VERSION 2.0
 WRAP.                  NO:   ONE LINE PER DEPTH STEP
~WELL INFORMATION BLOCK
#MNEM.UNIT           DATA                    DESCRIPTION OF MNEMONIC
#---------    -------------------            -------------------------------
# Generated from Intellog Unique Number	CS_73_76/WELL/800
WELL.         SULPETRO LIMITED               : Well_name    - WELL
LOC .         00/09-32-073-10W4/0            : Location     - LOCATION
UWI .         00/09-32-073-10W4/0            : Uwi          - UNIQUE WELL ID
ENTR.         SP                             : Entered      - ENTERED BY
SRVC.         SCHLUMBERGER                   : Scn          - SERVICE COMPANY
STRT.M        295                            : top_depth    - START DEPTH
STOP.M        515                            : bot_depth    - STOP DEPTH
STEP.M        0.25                           : increment    - STEP LENGTH
 NULL. -999.2500:NULL Value
~CURVE INFORMATION BLOCK
#MNEM UNIT       ERCB CURVE CODE    CURVE DESCRIPTION
#-----------   ------------------   ----------------------------------
DEPT.M        00 001 00 00         : DEPTH        - DEPTH
ILD .OHMM     00 120 00 00         : RESD         - DEEP RESISTIVITY (DIL)
DPHI.V/V      00 890 00 00         : PHID         - DENSITY POROSITY (LIMESTONE)
NPHI.V/V      00 330 00 00         : PHIN         - NEUTRON POROSITY (LIMESTONE)
GR  .API      00 310 00 00         : GR           - GAMMA RAY
~PARAMETER INFORMATION
#MNEM.UNIT           DATA             DESCRIPTION OF MNEMONIC
#---------         -----------     ------------------------------
GL  .M        659.06               : gl           - GROUND LEVEL ELEVATION
EREF.M        662.2                : kb           - ELEVATION OF DEPTH REFERENCE
DATM.M        659.06               : datum        - DATUM ELEVATION
TDD .M        526                  : tdd          - TOTAL DEPTH DRILLER
RUN .         ONE                  : Run          - RUN NUMBER
ENG .         BILL                 : Engineer     - RECORDING ENGINEER
WIT .         JIM                  : Witness      - WITNESSED BY
MUD .         GEL                  : Mud_type     - MUD TYPE
MATR.         LIMESTONE            : Logunit      - NEUTRON MATRIX
TMAX.C        24                   : BHT          - MAXIMUM RECORDED TEMPERATURE
BHTD.M        526                  : BHTDEP       - MAXIMUM RECORDED TEMPERATURE
MATR.         1                    : LOGUNIT      - NEUTRON MATRIX
RMT .C        25                   : MDTP         - TEMPERATURE OF MUD
NEUT.         1                    : NEUTRON      - NEUTRON TYPE
RESI.         0                    : RESIST       - RESISTIVITY TYPE
RMC .OHMM     0.25                 : RMC          - RESISTIVITY OF MUD CAKE
RMF .OHMM     0.25                 : RMF          - RESISTIVITY OF MUD FILTRATE
SUFT.C        15                   : SUFT         - SURFACE TEMPERATURE
~A  DEPTH     RESD     PHID     PHIN       GR
# ...
  469.000   17.477    0.234    0.343   83.522
  469.250   16.516    0.243    0.362   81.684
  469.500   15.905    0.248    0.365   79.846
  469.750   15.316    0.240    0.359   79.233
  470.000   14.473    0.220    0.349   82.292
  470.250   13.422    0.204    0.314   84.127
  470.500   12.925    0.183    0.297   85.351
  470.750   12.214    0.190    0.303   85.349
  471.000   11.762    0.197    0.319   79.225
  471.250   11.327    0.202    0.335   76.775
  471.500   10.908    0.200    0.298   76.161
  471.750   10.504    0.194    0.287   79.834
  472.000   10.504    0.180    0.291   88.403
  472.250   10.505    0.167    0.290   94.525
  472.500   10.506    0.158    0.312   98.809
  472.750   10.309    0.173    0.313  101.257
  473.000   10.117    0.183    0.298   99.418
  473.250   10.118    0.189    0.289   93.294
  473.500   10.311    0.188    0.282   88.395
  473.750   10.118    0.152    0.273   83.496
  474.000    9.930    0.029    0.266   89.616
  474.250    9.930    0.046    0.338   98.187
  474.500    9.930    0.112    0.372  104.308
  474.750   10.313    0.146    0.353   98.184
  475.000   11.122    0.167    0.318   82.877
  475.250   12.223    0.193    0.290   81.650
  475.500   13.434    0.210    0.398   90.833
  475.750   15.332    0.200    0.436   98.179
  476.000   15.624    0.226    0.388   82.259
  476.250   14.218    0.243    0.361   73.686
  476.500   12.459    0.259    0.327   65.113
  476.750   11.126    0.264    0.369   60.214
  477.000   10.124    0.268    0.406   57.764
  477.250    8.706    0.270    0.356   54.089
  477.500    7.774    0.273    0.331   47.965
  477.750    7.209    0.275    0.322   50.412
  478.000    6.685    0.279    0.326   51.023
  478.250    6.083    0.281    0.348   51.022
  478.500    5.858    0.284    0.359   53.469
  478.750    5.749    0.286    0.368   56.529
  479.000    5.642    0.294    0.350   58.364
  479.250    5.642    0.297    0.342   60.200
  479.500    5.750    0.294    0.324   61.423
  479.750    6.085    0.285    0.322   60.809
  480.000    6.319    0.280    0.316   62.032
  480.250    6.563    0.271    0.311   63.255
  480.500    6.563    0.258    0.302   65.703
  480.750    6.086    0.241    0.296   69.375
  481.000    5.861    0.235    0.306   72.435
  481.250    5.333    0.259    0.299   76.719
  481.500    5.136    0.265    0.354   79.779
  481.750    5.040    0.274    0.371   83.451
  482.000    5.040    0.269    0.364   91.409
  482.250    5.334    0.251    0.348  103.040
  482.500    5.645    0.242    0.341   90.794
  482.750    5.862    0.228    0.333   84.058
  483.000    6.204    0.222    0.331   81.608
  483.250    6.819    0.222    0.325   82.219
  483.500    7.081    0.221    0.309   84.666
  483.750    7.354    0.215    0.288   92.624
  484.000    7.637    0.196    0.280  102.418
  484.250    7.783    0.175    0.274  107.927
  484.500    7.783    0.151    0.265  114.048
  484.750    7.932    0.142    0.299  117.720
  485.000    8.717    0.147    0.347  123.841
  485.250    9.401    0.163    0.401  124.452
  485.500   10.139    0.183    0.403  106.696
  485.750   10.529    0.199    0.300   94.450
  486.000   10.530    0.205    0.236   83.428
  486.250   10.333    0.160    0.192   81.590
  486.500    9.582    0.126    0.230   89.547
  486.750    9.055    0.119    0.258   93.220
  487.000    8.886    0.131    0.289   98.728
  487.250    9.056    0.141    0.272   98.726
  487.500    9.405    0.148    0.284   98.113
  487.750    9.767    0.174    0.307   97.500
  488.000    9.768    0.189    0.317  103.620
  488.250    9.954    0.173    0.293  109.741
  488.500    9.954    0.137    0.273  111.577
  488.750    9.955    0.155    0.402   98.719
  489.000    9.407    0.216    0.453   61.370
  489.250    8.890    0.268    0.323   33.818
  489.500    8.561    0.278    0.295   40.551
  489.750    7.939    0.269    0.286   46.060
  490.000    7.645    0.269    0.322   48.508
  490.250    7.362    0.273    0.352   52.180
  490.500    7.646    0.279    0.381   57.076
  490.750    7.792    0.273    0.370   61.361
  491.000    8.092    0.253    0.356   66.257
  491.250    8.403    0.234    0.319   72.990
  491.500    8.564    0.213    0.278   77.275
  491.750    8.564    0.204    0.257   87.069
  492.000    8.404    0.182    0.258   93.803
  492.250    8.093    0.153    0.289   98.087
  492.500    7.365    0.176    0.316   93.188
  492.750    6.577    0.192    0.330   85.227
  493.000    6.215    0.208    0.342   79.716
  493.250    5.550    0.220    0.356   76.653
  493.500    5.050    0.235    0.319   76.651
  493.750    4.596    0.232    0.303   77.262
  494.000    4.343    0.229    0.292   77.873
  494.250    4.262    0.237    0.325   78.484
  494.500    4.182    0.250    0.345   75.421
  494.750    4.182    0.261    0.362   73.583
  495.000    4.028    0.243    0.341   80.317
  495.250    3.735    0.226    0.343   88.274
  495.500    3.530    0.247    0.383   86.436
  495.750    3.335    0.280    0.369   68.680
  496.000    3.093    0.308    0.364   55.209
  496.250    2.868    0.305    0.377   47.248
  496.500    2.762    0.298    0.393   39.900
  496.750    2.711    0.294    0.395   34.388
  497.000    2.610    0.293    0.385   31.326
  497.250    2.610    0.299    0.380   27.651
  497.500    2.610    0.305    0.375   23.976
  497.750    2.611    0.308    0.384   22.138
  498.000    2.562    0.313    0.388   23.972
  498.250    2.562    0.316    0.388   25.196
  498.500    2.562    0.319    0.368   26.419
  498.750    2.562    0.320    0.346   23.969
  499.000    2.562    0.315    0.337   21.519
  499.250    2.562    0.309    0.343   23.966
  499.500    2.515    0.303    0.350   24.577
  499.750    2.515    0.308    0.348   24.576
  500.000    2.563    0.315    0.336   22.738
  500.250    2.563    0.315    0.331   25.185
  500.500    2.563    0.309    0.353   27.021
  500.750    2.563    0.304    0.366   27.631
  501.000    2.563    0.303    0.372   27.630
  501.250    2.515    0.306    0.400   26.404
  501.500    2.516    0.316    0.384   25.791
  501.750    2.516    0.319    0.375   24.565
  502.000    2.469    0.313    0.372   25.788
  502.250    2.469    0.308    0.366   27.011
  502.500    2.469    0.303    0.378   27.009
  502.750    2.469    0.305    0.377   25.171
  503.000    2.469    0.307    0.366   22.721
  503.250    2.516    0.311    0.361   20.883
  503.500    2.516    0.311    0.356   20.269
  503.750    2.516    0.309    0.369   23.941
  504.000    2.517    0.308    0.374   25.164
  504.250    2.517    0.310    0.376   25.775
  504.500    2.517    0.305    0.366   25.162
  504.750    2.517    0.304    0.361   23.936
  505.000    2.517    0.303    0.353   22.098
  505.250    2.517    0.313    0.369   20.872
  505.500    2.517    0.319    0.379   20.258
  505.750    2.470    0.329    0.392   22.706
  506.000    2.424    0.325    0.399   23.928
  506.250    2.424    0.318    0.379   25.152
  506.500    2.424    0.319    0.372   25.763
  506.750    2.335    0.321    0.358   26.986
  507.000    2.379    0.319    0.368   25.760
  507.250    2.379    0.315    0.363   25.758
  507.500    2.425    0.312    0.392   25.145
  507.750    2.425    0.305    0.405   23.307
  508.000    2.425    0.304    0.392   22.081
  508.250    2.425    0.307    0.382   22.079
  508.500    2.425    0.310    0.372   21.466
  508.750    2.425    0.313    0.372   22.076
  509.000    2.425    0.316    0.368   22.687
  509.250    2.472    0.320    0.367   22.686
  509.500    2.472    0.321    0.386   21.460
  509.750    2.472    0.321    0.395   20.234
  510.000    2.472    0.319    0.387   20.233
  510.250    2.472    0.314    0.321   20.844
  510.500    2.519    0.313    0.321   23.291
  510.750    2.520    0.317    0.353   26.351
  511.000    2.568    0.321    0.376   27.574
  511.250    2.473    0.321    0.392   28.185
  511.500    2.473    0.317    0.424   28.184
  511.750    2.473    0.315    0.420   26.345
  512.000    2.473    0.314    0.395   24.508
  512.250    2.520    0.317    0.373   20.833
