~VERSION INFORMATION
 VERS.                 2.0:   CWLS LOG ASCII STANDARD -VERSION 2.0
 WRAP.                  NO:   ONE LINE PER DEPTH STEP
~WELL INFORMATION BLOCK
#MNEM.UNIT           DATA                    DESCRIPTION OF MNEMONIC
#---------    -------------------            -------------------------------
# Generated from Intellog Unique Number	CX_WELLS/WELL/3268
WELL.         DA/OIL ET AL GRANOR            : Well_name    - WELL
LOC .         00/06-27-083-18W4/0            : Location     - LOCATION
UWI .         00/06-27-083-18W400            : Uwi          - UNIQUE WELL ID
ENTR.         T                              : Entered      - ENTERED BY
SRVC.         SCHLUMBERGER                   : Scn          - SERVICE COMPANY
DATE.         03/04/92                       : Date         - LOG DATE
STRT.F        600                            : top_depth    - START DEPTH
STOP.F        1029.79                        : bot_depth    - STOP DEPTH
STEP.F        0.82                           : increment    - STEP LENGTH
 NULL. -999.2500:NULL Value
~CURVE INFORMATION BLOCK
#MNEM UNIT       ERCB CURVE CODE    CURVE DESCRIPTION
#-----------   ------------------   ----------------------------------
DEPT.F        00 001 00 00         : DEPTH        - DEPTH
GR  .API      00 310 00 00         : GR           - GAMMA RAY
NPHI.V/V      00 330 00 00         : PHIN         - NEUTRON POROSITY (SANDSTONE)
DPHI.V/V      00 890 00 00         : PHID         - DENSITY POROSITY (SANDSTONE)
ILD .OHMM     00 120 00 00         : RESD         - DEEP RESISTIVITY (DIL)
~PARAMETER INFORMATION
#MNEM.UNIT           DATA             DESCRIPTION OF MNEMONIC
#---------         -----------     ------------------------------
GL  .F        1831                 : gl           - GROUND LEVEL ELEVATION
EREF.F        1838                 : kb           - ELEVATION OF DEPTH REFERENCE
DATM.F        1838                 : datum        - DATUM ELEVATION
TDD .F        1058                 : tdd          - TOTAL DEPTH DRILLER
RUN .         ONE                  : Run          - RUN NUMBER
ENG .         JO                   : Engineer     - RECORDING ENGINEER
WIT .         TIM                  : Witness      - WITNESSED BY
MUD .         GEL                  : Mud_type     - MUD TYPE
MATR.         SANDSTONE            : Logunit      - NEUTRON MATRIX
TMAX.F        72                   : BHT          - MAXIMUM RECORDED TEMPERATURE
BHTD.F        1058                 : BHTDEP       - MAXIMUM RECORDED TEMPERATURE
RMT .F        72                   : MDTP         - TEMPERATURE OF MUD
MUDD.LB/G     1                    : MWT          - MUD DENSITY
NEUT.         1                    : NEUTRON      - NEUTRON TYPE
RESI.         4.4                  : RESIST       - RESISTIVITY TYPE
RM  .OHMM     4.4                  : RM           - RESISTIVITY OF MUD
RMC .OHMM     4.4                  : RMC          - RESISTIVITY OF MUD CAKE
RMF .OHMM     4.4                  : RMF          - RESISTIVITY OF MUD FILTRATE
SUFT.F        32                   : SUFT         - SURFACE TEMPERATURE
~A  DEPTH       GR     PHIN     PHID     RESD
  600.000   40.387    0.557    0.421    6.347
  600.820   40.382    0.560    0.417    5.941
  601.640   40.375    0.567    0.410    5.537
  602.461   40.370    0.573    0.400    4.087
  603.281   40.969    0.579    0.385    3.924
  604.101   42.767    0.585    0.360    4.002
  604.921   43.970    0.590    0.341    4.642
  605.741   45.171    0.599    0.315    6.407
  606.562   48.178    0.603    0.347   11.466
  607.382   49.982    0.595    0.357   14.515
  608.202   52.987    0.563    0.388   14.752
  609.022   54.188    0.552    0.387   14.429
  609.843   57.194    0.547    0.337   13.863
  610.663   58.395    0.526    0.324   13.780
  611.483   60.196    0.508    0.325   13.778
  612.303   60.796    0.506    0.329   13.775
  613.123   61.390    0.504    0.326   13.771
  613.944   61.387    0.495    0.326   13.768
  614.764   61.379    0.485    0.329   13.685
  615.584   60.770    0.481    0.331   13.682
  616.404   60.766    0.478    0.325   13.680
  617.224   60.760    0.477    0.321   13.676
  618.045   60.151    0.477    0.324   13.674
  618.865   59.541    0.478    0.326   13.669
  619.685   59.535    0.478    0.327   13.667
  620.505   58.926    0.481    0.330   13.583
  621.325   58.318    0.484    0.330   13.582
  622.146   58.310    0.486    0.329   13.578
  622.966   57.703    0.483    0.331   13.494
  623.786   57.697    0.468    0.336   13.491
  624.606   57.090    0.455    0.339   13.490
  625.427   57.084    0.451    0.338   13.406
  626.247   57.078    0.451    0.319   13.403
  627.067   56.469    0.446    0.263   13.722
  627.887   55.258    0.410    0.171   14.041
  628.707   53.443    0.380    0.192   14.680
  629.528   51.629    0.355    0.302   14.998
  630.348   49.814    0.410    0.336   14.594
  631.168   48.000    0.466    0.339   14.109
  631.988   48.596    0.482    0.335   13.462
  632.808   53.414    0.481    0.329   13.300
  633.629   57.025    0.483    0.329   13.137
  634.449   58.827    0.487    0.332   13.133
  635.269   58.821    0.488    0.330   13.050
  636.089   58.814    0.485    0.328   12.967
  636.909   59.411    0.481    0.327   12.803
  637.730   59.405    0.475    0.324   12.639
  638.550   60.003    0.476    0.322   12.556
  639.370   60.599    0.480    0.319   12.473
  640.190   61.798    0.489    0.317   12.390
  641.010   63.000    0.497    0.312   12.306
  641.831   64.198    0.491    0.311   12.383
  642.651   65.398    0.482    0.310   12.381
  643.471   65.392    0.478    0.308   12.458
  644.291   65.387    0.474    0.311   12.536
  645.112   64.176    0.479    0.315   12.613
  645.932   62.963    0.491    0.322   12.689
  646.752   62.351    0.497    0.324   12.768
  647.572   62.347    0.496    0.324   12.925
  648.392   61.739    0.490    0.322   13.003
  649.213   60.528    0.484    0.321   13.322
  650.033   59.316    0.486    0.320   13.640
  650.853   57.497    0.478    0.320   14.119
  651.673   56.287    0.470    0.318   17.973
  652.493   55.077    0.463    0.317   19.254
  653.314   53.264    0.457    0.315   19.654
  654.134   50.243    0.456    0.312   19.972
  654.954   46.621    0.460    0.307   20.049
  655.774   41.791    0.468    0.305   20.047
  656.594   39.374    0.479    0.304   19.963
  657.415   38.767    0.480    0.307   19.719
  658.235   38.158    0.478    0.310   19.474
  659.055   38.150    0.477    0.311   19.312
  659.875   38.145    0.475    0.312   19.067
  660.696   38.741    0.475    0.312   18.905
  661.516   38.736    0.475    0.316   18.822
  662.336   38.728    0.475    0.317   18.738
  663.156   38.724    0.473    0.309   18.735
  663.976   38.719    0.472    0.299   18.733
  664.797   38.712    0.471    0.294   18.809
  665.617   38.704    0.469    0.296   18.806
  666.437   38.701    0.467    0.301   18.724
  667.257   39.298    0.468    0.304   18.399
  668.077   39.895    0.466    0.295   17.995
  668.898   41.095    0.461    0.277   15.581
  669.718   42.295    0.458    0.264   13.972
  670.538   44.097    0.468    0.263   12.362
  671.358   45.900    0.478    0.266   10.351
  672.178   48.304    0.497    0.261    8.258
  672.999   51.915    0.513    0.252    7.693
  673.819   56.130    0.519    0.244    6.967
  674.639   68.180    0.519    0.230    6.161
  675.459   72.395    0.522    0.215    5.676
  676.280   85.651    0.529    0.210    5.111
  677.100   90.468    0.538    0.239    4.625
  677.920   95.283    0.543    0.241    4.703
  678.740   98.293    0.548    0.214    4.700
  679.560  100.695    0.550    0.209    4.857
  680.381  101.295    0.553    0.210    5.015
  681.201  102.494    0.554    0.217    5.093
  682.021  103.092    0.556    0.222    5.410
  682.841  103.689    0.564    0.220    5.489
  683.661  104.286    0.571    0.217    5.647
  684.482  105.485    0.561    0.215    5.885
  685.302  106.082    0.559    0.222    6.042
  686.122  106.676    0.561    0.227    6.280
  686.942  106.673    0.563    0.227    6.519
  687.762  105.459    0.560    0.223    6.837
  688.583  104.249    0.543    0.257    7.156
  689.403  103.039    0.553    0.270    8.117
  690.223  101.223    0.561    0.270    9.078
  691.043   97.598    0.556    0.265    9.476
  691.864   93.977    0.529    0.249    9.474
  692.684   91.558    0.511    0.227    9.391
  693.504   90.951    0.486    0.230    9.227
  694.324   89.135    0.500    0.232    9.385
  695.144   86.115    0.512    0.206    9.864
  695.965   82.493    0.510    0.209   10.504
  696.785   80.075    0.494    0.232   11.143
  697.605   83.085    0.491    0.235   11.543
  698.425   87.297    0.491    0.232   11.941
  699.245   89.704    0.486    0.224   12.099
  700.066   89.698    0.484    0.216   12.175
  700.886   89.089    0.481    0.208   12.173
  701.706   88.477    0.475    0.206   12.091
  702.526   88.473    0.472    0.206   11.766
  703.346   89.071    0.469    0.205   11.521
  704.167   90.271    0.465    0.207   11.277
  704.987   92.672    0.462    0.222   11.033
  705.807   93.875    0.460    0.232   10.869
  706.627   94.473    0.459    0.232   10.787
  707.448   96.276    0.464    0.232   10.704
  708.268   96.873    0.475    0.232   10.700
  709.088   96.867    0.477    0.233   10.697
  709.908   96.859    0.467    0.241   10.775
  710.728   94.441    0.462    0.243   10.772
  711.549   90.819    0.461    0.248   10.930
  712.369   87.801    0.458    0.242   11.008
  713.189   86.589    0.454    0.216   11.325
  714.009   87.787    0.458    0.212   11.403
  714.829   87.783    0.467    0.210   11.561
  715.650   88.380    0.476    0.209   11.397
  716.470   87.167    0.473    0.201   11.315
  717.290   84.751    0.459    0.191   10.909
  718.110   81.729    0.435    0.219   10.586
  718.930   78.106    0.460    0.266   10.181
  719.751   75.689    0.489    0.259    9.696
  720.571   77.492    0.519    0.262    9.049
  721.391   78.693    0.515    0.263    8.726
  722.211   82.302    0.491    0.260    8.321
  723.031   82.298    0.487    0.253    8.157
  723.852   81.686    0.482    0.257    7.914
  724.672   81.682    0.487    0.261    7.590
  725.492   82.277    0.510    0.265    6.943
  726.312   82.876    0.514    0.268    6.459
  727.133   83.473    0.536    0.271    5.894
  727.953   85.274    0.539    0.270    5.649
  728.773   86.475    0.543    0.268    5.968
  729.593   87.673    0.541    0.268    8.456
  730.413   87.064    0.498    0.268   14.639
  731.234   85.854    0.465    0.263   17.930
  732.054   81.629    0.431    0.252   18.972
  732.874   77.401    0.408    0.095   19.290
  733.694   74.383    0.341    0.036   18.483
  734.514   70.760    0.302    0.062   16.712
  735.335   67.740    0.246    0.104   15.425
  736.155   63.514    0.256    0.152   14.939
  736.975   60.494    0.287    0.197   13.570
  737.795   58.680    0.333    0.241   13.086
  738.615   63.496    0.399    0.271   12.039
  739.436   70.120    0.460    0.281   11.795
  740.256   71.924    0.487    0.277   11.712
  741.076   71.314    0.490    0.274   11.629
  741.896   71.308    0.487    0.269   11.545
