~VERSION INFORMATION
 VERS.                 2.0:   CWLS LOG ASCII STANDARD -VERSION 2.0
 WRAP.                  NO:   ONE LINE PER DEPTH STEP
~WELL INFORMATION BLOCK
#MNEM.UNIT           DATA                    DESCRIPTION OF MNEMONIC
#---------    -------------------            -------------------------------
# Generated from Intellog Unique Number	CS_77_79/WELL/873
WELL.         CDN-SUP PORTAGE                : Well_name    - WELL
LOC .         00/06-12-078-15W4/0            : Location     - LOCATION
UWI .         00/06-12-078-15W4/0            : Uwi          - UNIQUE WELL ID
ENTR.         JHS                            : Entered      - ENTERED BY
SRVC.         SCHLUMBERGER                   : Scn          - SERVICE COMPANY
STRT.M        220                            : top_depth    - START DEPTH
STOP.M        459                            : bot_depth    - STOP DEPTH
STEP.M        0.25                           : increment    - STEP LENGTH
 NULL. -999.2500:NULL Value
~CURVE INFORMATION BLOCK
#MNEM UNIT       ERCB CURVE CODE    CURVE DESCRIPTION
#-----------   ------------------   ----------------------------------
DEPT.M        00 001 00 00         : DEPTH        - DEPTH
DPHI.V/V      00 890 00 00         : PHID         - DENSITY POROSITY (LIMESTONE)
NPHI.V/V      00 330 00 00         : PHIN         - NEUTRON POROSITY (LIMESTONE)
GR  .API      00 310 00 00         : GR           - GAMMA RAY
ILD .OHMM     00 120 00 00         : RESD         - DEEP RESISTIVITY (DIL)
~PARAMETER INFORMATION
#MNEM.UNIT           DATA             DESCRIPTION OF MNEMONIC
#---------         -----------     ------------------------------
GL  .M        620.5                : gl           - GROUND LEVEL ELEVATION
EREF.M        624.85               : kb           - ELEVATION OF DEPTH REFERENCE
DATM.M        624.85               : datum        - DATUM ELEVATION
TDD .M        506                  : tdd          - TOTAL DEPTH DRILLER
RUN .         ONE                  : Run          - RUN NUMBER
ENG .         BILL                 : Engineer     - RECORDING ENGINEER
WIT .         JIM                  : Witness      - WITNESSED BY
MUD .         GEL                  : Mud_type     - MUD TYPE
MATR.         LIMESTONE            : Logunit      - NEUTRON MATRIX
TMAX.C        23                   : BHT          - MAXIMUM RECORDED TEMPERATURE
BHTD.M        506                  : BHTDEP       - MAXIMUM RECORDED TEMPERATURE
MATR.         1                    : LOGUNIT      - NEUTRON MATRIX
RMT .C        25                   : MDTP         - TEMPERATURE OF MUD
NEUT.         1                    : NEUTRON      - NEUTRON TYPE
RESI.         0                    : RESIST       - RESISTIVITY TYPE
RMC .OHMM     0.25                 : RMC          - RESISTIVITY OF MUD CAKE
RMF .OHMM     0.25                 : RMF          - RESISTIVITY OF MUD FILTRATE
SUFT.C        15                   : SUFT         - SURFACE TEMPERATURE
~A  DEPTH     PHID     PHIN       GR     RESD
# ...
  263.500    0.211    0.429  104.313   11.131
  263.750    0.206    0.451  110.473   11.138
  264.000    0.203    0.432  111.102   11.358
  264.250    0.208    0.411  107.424   11.802
  264.500    0.205    0.411   98.829   12.498
  264.750    0.210    0.405   84.087   12.743
  265.000    0.233    0.395   71.804   12.995
  265.250    0.247    0.406   63.826   12.521
  265.500    0.246    0.389   61.995   12.067
  265.750    0.189    0.382   68.155   11.847
  266.000    0.172    0.395   74.931   12.081
  266.250    0.221    0.425   72.484   12.318
  266.500    0.254    0.427   63.890   13.043
  266.750    0.275    0.444   56.531   14.075
  267.000    0.283    0.441   55.310   14.904
  267.250    0.276    0.432   54.093   15.196
  267.500    0.269    0.421   54.721   14.921
  267.750    0.265    0.422   63.341   14.110
  268.000    0.265    0.428   60.897   13.341
  268.250    0.264    0.440   56.605   12.614
  268.500    0.261    0.450   62.151   11.927
  268.750    0.258    0.451   66.466   11.068
  269.000    0.253    0.448   66.484   10.463
  269.250    0.250    0.445   67.727    9.709
  269.500    0.244    0.446   72.042    9.180
  269.750    0.232    0.429   76.355    8.679
  270.000    0.222    0.413   82.515    8.208
  270.250    0.217    0.450   83.757    7.908
  270.500    0.225    0.434   79.470    7.620
  270.750    0.221    0.422   80.710    7.341
  271.000    0.207    0.441   83.798    7.209
  271.250    0.192    0.439   81.352    7.080
  271.500    0.185    0.427   79.526    6.951
  271.750    0.195    0.418   79.536    6.956
  272.000    0.196    0.425   80.162    6.960
  272.250    0.186    0.424   81.404    6.964
  272.500    0.186    0.441   81.418    7.236
  272.750    0.201    0.469   82.044    7.520
  273.000    0.204    0.448   82.672    7.384
  273.250    0.197    0.419   83.918    7.114
  273.500    0.187    0.429   83.313    6.854
  273.750    0.186    0.428   81.481    6.481
  274.000    0.194    0.412   83.339    6.128
  274.250    0.202    0.419   82.738    5.905
  274.500    0.200    0.456   79.675    5.908
  274.750    0.196    0.486   81.532    6.025
  275.000    0.192    0.492   85.849    6.261
  275.250    0.186    0.484   85.247    6.505
  275.500    0.204    0.495   81.571    7.019
  275.750    0.258    0.487   77.895    7.719
  276.000    0.247    0.490   80.370    8.174
  276.250    0.230    0.505   79.766    8.026
  276.500    0.225    0.446   74.860    7.881
  276.750    0.219    0.422   79.792    7.595
  277.000    0.210    0.426   85.955    7.457
  277.250    0.205    0.487   89.655    7.461
  277.500    0.209    0.517   89.667    7.900
  277.750    0.217    0.485   82.918    9.194
  278.000    0.217    0.457   74.939   12.210
  278.250    0.248    0.461   66.345   15.322
  278.500    0.280    0.475   55.292   21.132
  278.750    0.304    0.444   49.774   26.022
  279.000    0.313    0.433   49.170   30.857
  279.250    0.315    0.439   49.184   33.934
  279.500    0.326    0.458   49.810   32.700
  279.750    0.335    0.503   52.898   30.915
  280.000    0.335    0.507   57.213   28.148
  280.250    0.341    0.503   53.540   24.684
  280.500    0.358    0.491   53.552   23.337
  280.750    0.386    0.475   52.951   23.795
  281.000    0.438    0.521   49.888   25.678
  281.250    0.435    0.588   49.902   28.234
  281.500    0.362    0.519   52.373   34.124
  281.750    0.336    0.494   54.232   40.463
  282.000    0.333    0.498   55.474   47.089
  282.250    0.337    0.499   54.257   50.817
  282.500    0.327    0.498   50.583   48.957
  282.750    0.322    0.478   49.979   39.060
  283.000    0.309    0.494   52.453   37.641
  283.250    0.299    0.512   52.465   36.964
  283.500    0.308    0.485   48.174   36.981
  283.750    0.258    0.452   43.271   37.002
  284.000    0.160    0.301   40.208   34.989
  284.250    0.133    0.278   42.069   33.080
  284.500    0.239    0.361   45.152   30.122
  284.750    0.294    0.450   45.166   27.951
  285.000    0.318    0.464   44.565   27.967
  285.250    0.318    0.462   44.577   30.764
  285.500    0.317    0.464   46.433   31.955
  285.750    0.324    0.470   49.520   35.142
  286.000    0.332    0.475   49.534   37.212
  286.250    0.326    0.469   44.014   37.938
  286.500    0.316    0.456   47.104   36.558
  286.750    0.311    0.451   48.959   31.456
  287.000    0.322    0.443   48.973   26.559
  287.250    0.317    0.437   48.985   22.003
  287.500    0.311    0.430   50.841   18.230
  287.750    0.313    0.447   50.854   15.984
  288.000    0.319    0.453   46.562   14.553
  288.250    0.314    0.448   45.963   13.762
  288.500    0.313    0.443   47.206   13.771
  288.750    0.317    0.449   46.604   13.777
  289.000    0.318    0.474   45.389   13.788
  289.250    0.320    0.477   46.017   13.538
  289.500    0.322    0.479   47.258   13.545
  289.750    0.323    0.480   47.885   13.300
  290.000    0.324    0.464   47.284   13.308
  290.250    0.325    0.442   46.681   13.316
  290.500    0.326    0.437   47.923   13.325
  290.750    0.326    0.439   50.397   13.335
  291.000    0.321    0.463   50.407   13.344
  291.250    0.315    0.502   47.349   13.351
  291.500    0.319    0.488   47.978   13.614
  291.750    0.326    0.461   47.987   13.623
  292.000    0.325    0.453   46.773   13.631
  292.250    0.318    0.449   46.786   13.636
  292.500    0.312    0.442   49.255   13.648
  292.750    0.314    0.429   52.347   13.403
  293.000    0.316    0.438   52.356   13.408
  293.250    0.313    0.434   48.065   13.419
  293.500    0.309    0.419   44.389   13.173
  293.750    0.308    0.411   48.092   13.182
  294.000    0.311    0.419   53.022   13.190
  294.250    0.319    0.436   54.268   13.200
  294.500    0.326    0.449   53.049   12.961
  294.750    0.330    0.460   49.988   12.966
  295.000    0.332    0.474   48.776   12.975
  295.250    0.335    0.483   49.400   12.985
  295.500    0.332    0.460   50.026   12.993
  295.750    0.325    0.446   50.656   13.000
  296.000    0.321    0.436   50.052   13.006
  296.250    0.325    0.428   48.221   13.016
  296.500    0.325    0.462   49.464   13.024
  296.750    0.325    0.467   51.320   13.279
  297.000    0.325    0.453   53.181   13.286
  297.250    0.326    0.446   50.736   13.048
  297.500    0.328    0.459   49.516   13.056
  297.750    0.326    0.468   49.529   13.066
  298.000    0.324    0.458   49.542   13.070
  298.250    0.327    0.447   48.941   13.328
  298.500    0.323    0.438   44.035   13.339
  298.750    0.313    0.458   44.663   13.344
  299.000    0.321    0.453   47.136   13.353
  299.250    0.328    0.443   49.606   13.362
  299.500    0.330    0.431   49.621   13.119
  299.750    0.323    0.424   49.635   13.127
  300.000    0.314    0.454   50.260   13.137
  300.250    0.312    0.460   50.273   13.143
  300.500    0.319    0.464   52.132   13.151
  300.750    0.325    0.458   54.602   13.160
  301.000    0.325    0.443   50.926   12.921
  301.250    0.320    0.454   46.637   12.931
  301.500    0.318    0.461   47.880   12.938
  301.750    0.320    0.443   50.350   12.946
  302.000    0.324    0.432   50.366   13.202
  302.250    0.318    0.439   49.146   13.211
  302.500    0.315    0.465   49.161   13.219
  302.750    0.315    0.467   48.559   13.226
  303.000    0.313    0.452   47.956   13.233
  303.250    0.309    0.445   47.355   12.996
  303.500    0.308    0.453   46.755   12.759
  303.750    0.320    0.454   49.842   12.767
  304.000    0.327    0.458   49.238   12.775
  304.250    0.326    0.473   47.408   13.028
  304.500    0.324    0.476   48.651   13.035
  304.750    0.319    0.443   49.895   13.043
  305.000    0.314    0.435   49.904   13.051
  305.250    0.311    0.459   48.076   12.816
  305.500    0.318    0.459   44.400   12.824
  305.750    0.321    0.445   42.566   12.830
  306.000    0.321    0.449   43.194   12.839
  306.250    0.319    0.455   48.128   12.847
  306.500    0.320    0.457   49.981   12.616
  306.750    0.316    0.451   51.225   12.619
