~VERSION INFORMATION
 VERS.                 2.0:   CWLS LOG ASCII STANDARD -VERSION 2.0
 WRAP.                  NO:   ONE LINE PER DEPTH STEP
~WELL INFORMATION BLOCK
#MNEM.UNIT           DATA                    DESCRIPTION OF MNEMONIC
#---------    -------------------            -------------------------------
# Generated from Intellog Unique Number	CS_69_70/WELL/768
WELL.         GULF OIL CANADA                : Well_name    - WELL
LOC .         00/06-08-069-15W4/0            : Location     - LOCATION
UWI .         00/06-08-069-15W4/0            : Uwi          - UNIQUE WELL ID
ENTR.         SP                             : Entered      - ENTERED BY
SRVC.         SCHLUMBERGER                   : Scn          - SERVICE COMPANY
STRT.M        259.080                        : top_depth    - START DEPTH
STOP.M        456.830                        : bot_depth    - STOP DEPTH
STEP.M        0.25                           : increment    - STEP LENGTH
 NULL. -999.2500:NULL Value
~CURVE INFORMATION BLOCK
#MNEM UNIT       ERCB CURVE CODE    CURVE DESCRIPTION
#-----------   ------------------   ----------------------------------
DEPT.M        00 001 00 00         : DEPTH        - DEPTH
GR  .API      00 310 00 00         : GR           - GAMMA RAY
DPHI.V/V      00 890 00 00         : PHID         - DENSITY POROSITY (SANDSTONE)
NPHI.V/V      00 330 00 00         : PHIN         - NEUTRON POROSITY (SANDSTONE)
ILD .OHMM     00 120 00 00         : RESD         - DEEP RESISTIVITY (DIL)
~PARAMETER INFORMATION
#MNEM.UNIT           DATA             DESCRIPTION OF MNEMONIC
#---------         -----------     ------------------------------
GL  .M        545.866              : gl           - GROUND LEVEL ELEVATION
EREF.M        549.524              : kb           - ELEVATION OF DEPTH REFERENCE
DATM.M        545.866              : datum        - DATUM ELEVATION
TDD .M        460.553              : tdd          - TOTAL DEPTH DRILLER
RUN .         ONE                  : Run          - RUN NUMBER
ENG .         BILL                 : Engineer     - RECORDING ENGINEER
WIT .         JIM                  : Witness      - WITNESSED BY
MUD .         GEL                  : Mud_type     - MUD TYPE
MATR.         SANDSTONE            : Logunit      - NEUTRON MATRIX
TMAX.C        14.4444              : BHT          - MAXIMUM RECORDED TEMPERATURE
BHTD.M        460.553              : BHTDEP       - MAXIMUM RECORDED TEMPERATURE
MATR.         1                    : LOGUNIT      - NEUTRON MATRIX
RMT .C        25                   : MDTP         - TEMPERATURE OF MUD
NEUT.         1                    : NEUTRON      - NEUTRON TYPE
RESI.         0                    : RESIST       - RESISTIVITY TYPE
RMC .OHMM     0.25                 : RMC          - RESISTIVITY OF MUD CAKE
RMF .OHMM     0.25                 : RMF          - RESISTIVITY OF MUD FILTRATE
SUFT.C        15                   : SUFT         - SURFACE TEMPERATURE
~A  DEPTH       GR     PHID     PHIN     RESD
# ...
  346.080   69.860    0.294    0.430    2.115
  346.330   67.956    0.297    0.421    2.048
  346.580   65.616    0.302    0.415    2.040
  346.830   66.085    0.303    0.417    2.037
  347.080   68.439    0.296    0.420    2.082
  347.330   68.950    0.290    0.421    2.163
  347.580   67.709    0.286    0.426    2.246
  347.830   67.000    0.291    0.433    2.359
  348.080   67.240    0.297    0.436    2.478
  348.330   68.661    0.303    0.436    2.633
  348.580   69.215    0.308    0.418    2.812
  348.830   67.081    0.297    0.401    3.086
  349.080   64.417    0.268    0.344    3.433
  349.330   61.888    0.221    0.288    3.982
  349.580   59.202    0.169    0.224    4.946
  349.830   57.643    0.104    0.209    6.786
  350.080   56.316    0.069    0.290   10.166
  350.330   55.594    0.257    0.338   11.936
  350.580   56.839    0.271    0.362    9.614
  350.830   62.841    0.284    0.379    7.262
  351.080   64.025    0.235    0.378    5.879
  351.330   62.286    0.187    0.357    5.425
  351.580   63.070    0.173    0.339    5.883
  351.830   64.745    0.230    0.352    6.057
  352.080   66.546    0.265    0.366    5.143
  352.330   68.279    0.283    0.378    4.151
  352.580   69.703    0.301    0.389    3.453
  352.830   70.246    0.318    0.402    3.039
  353.080   68.644    0.324    0.413    2.784
  353.330   66.903    0.327    0.421    2.636
  353.580   66.124    0.323    0.414    2.495
  353.830   66.374    0.316    0.405    2.408
  354.080   67.612    0.320    0.404    2.253
  354.330   68.666    0.311    0.412    2.211
  354.580   69.349    0.302    0.426    2.124
  354.830   69.419    0.301    0.428    2.050
  355.080   69.207    0.308    0.414    1.995
  355.330   69.656    0.292    0.406    2.001
  355.580   74.470    0.279    0.406    2.058
  355.830   78.327    0.271    0.413    2.142
  356.080   80.623    0.266    0.411    2.295
  356.330   80.908    0.276    0.412    2.428
  356.580   78.920    0.283    0.415    2.599
  356.830   80.654    0.271    0.413    2.783
  357.080   84.296    0.255    0.409    3.050
  357.330   87.183    0.241    0.404    3.282
  357.580   89.207    0.230    0.402    3.508
  357.830   90.175    0.218    0.401    3.717
  358.080   90.673    0.210    0.403    3.946
  358.330   89.890    0.224    0.410    4.100
  358.580   88.571    0.234    0.415    4.187
  358.830   85.764    0.244    0.417    4.150
  359.080   84.507    0.253    0.420    4.063
  359.330   85.175    0.247    0.421    3.982
  359.580   87.761    0.225    0.423    3.950
  359.830   89.498    0.207    0.422    3.995
  360.080   90.328    0.193    0.419    4.080
  360.330   89.469    0.179    0.406    4.202
  360.580   89.041    0.186    0.399    4.375
  360.830   89.908    0.195    0.393    4.577
  361.080   91.764    0.185    0.389    4.744
  361.330   93.652    0.174    0.391    4.896
  361.580   94.285    0.174    0.399    5.021
  361.830   94.229    0.181    0.406    5.180
  362.080   94.055    0.175    0.403    5.205
  362.330   93.181    0.165    0.394    5.271
  362.580   92.189    0.156    0.388    5.405
  362.830   90.231    0.146    0.378    5.625
  363.080   86.308    0.102    0.361    5.902
  363.330   82.265    0.077    0.342    6.217
  363.580   82.028    0.100    0.342    6.403
  363.830   87.027    0.147    0.384    6.069
  364.080   92.783    0.177    0.405    5.479
  364.330   97.245    0.202    0.418    5.013
  364.580  102.835    0.208    0.420    4.626
  364.830  106.710    0.203    0.425    4.353
  365.080  109.295    0.193    0.434    4.134
  365.330  108.508    0.183    0.446    4.005
  365.580  104.629    0.177    0.443    3.945
  365.830  102.395    0.175    0.436    3.928
  366.080  103.538    0.178    0.438    3.948
  366.330  106.596    0.182    0.442    4.003
  366.580  108.542    0.198    0.433    4.034
  366.830  107.795    0.194    0.424    4.070
  367.080  104.273    0.208    0.418    4.076
  367.330  100.987    0.219    0.423    3.948
  367.580   97.230    0.228    0.436    3.620
  367.830   97.760    0.240    0.465    3.121
  368.080  102.598    0.270    0.548    2.680
  368.330  106.274    0.243    0.565    2.334
  368.580  108.705    0.269    0.572    2.077
  368.830  107.563    0.273    0.566    1.902
  369.080  104.538    0.254    0.542    1.843
  369.330  103.685    0.243    0.510    1.875
  369.580  104.019    0.224    0.484    2.004
  369.830  104.671    0.213    0.468    2.255
  370.080  105.160    0.209    0.454    2.474
  370.330  105.823    0.214    0.447    2.792
  370.580  105.148    0.212    0.452    2.916
  370.830  102.556    0.210    0.462    3.035
  371.080  100.666    0.232    0.472    3.157
  371.330  101.019    0.247    0.459    3.217
  371.580   98.232    0.232    0.447    3.205
  371.830   98.540    0.224    0.437    3.157
  372.080  100.038    0.218    0.431    3.117
  372.330   98.857    0.230    0.421    3.106
  372.580   94.120    0.238    0.416    3.094
  372.830   90.069    0.238    0.431    3.060
  373.080   85.337    0.219    0.445    3.030
  373.330   81.082    0.198    0.451    2.980
  373.580   78.245    0.211    0.448    2.910
  373.830   76.729    0.258    0.433    2.847
  374.080   77.056    0.299    0.426    2.782
  374.330   79.500    0.298    0.442    2.640
  374.580   82.400    0.287    0.452    2.535
  374.830   83.786    0.286    0.442    2.425
  375.080   80.254    0.284    0.435    2.373
  375.330   75.774    0.277    0.435    2.352
  375.580   72.958    0.277    0.436    2.420
  375.830   68.579    0.277    0.432    2.492
  376.080   63.715    0.272    0.426    2.522
  376.330   58.242    0.268    0.434    2.475
  376.580   56.318    0.272    0.421    2.365
  376.830   55.941    0.288    0.412    2.276
  377.080   55.873    0.303    0.411    2.169
  377.330   58.218    0.295    0.415    2.231
  377.580   59.455    0.287    0.424    2.154
  377.830   59.801    0.288    0.427    2.088
  378.080   58.487    0.300    0.431    2.039
  378.330   56.546    0.308    0.428    2.006
  378.580   56.469    0.310    0.417    1.999
  378.830   58.348    0.314    0.409    2.023
  379.080   60.870    0.290    0.403    2.069
  379.330   63.467    0.280    0.410    2.131
  379.580   63.792    0.276    0.417    2.206
  379.830   61.157    0.275    0.413    2.271
  380.080   58.815    0.270    0.406    2.321
  380.330   59.767    0.272    0.404    2.326
  380.580   62.009    0.288    0.403    2.281
  380.830   64.323    0.301    0.402    2.224
  381.080   66.222    0.303    0.403    2.180
  381.330   66.810    0.314    0.406    2.132
  381.580   64.777    0.306    0.412    2.094
  381.830   62.400    0.291    0.401    2.058
  382.080   60.975    0.291    0.395    2.038
  382.330   60.922    0.292    0.392    2.013
  382.580   61.888    0.303    0.396    2.000
  382.830   62.909    0.291    0.402    2.003
  383.080   63.953    0.301    0.409    2.015
  383.330   65.195    0.308    0.415    2.030
  383.580   67.405    0.294    0.417    2.042
  383.830   68.500    0.284    0.408    2.068
  384.080   63.547    0.266    0.403    2.119
  384.330   63.681    0.258    0.404    2.194
  384.580   65.918    0.250    0.404    2.232
  384.830   67.986    0.257    0.398    2.246
  385.080   69.213    0.283    0.398    2.226
  385.330   67.706    0.275    0.409    2.215
  385.580   68.987    0.283    0.417    2.227
  385.830   71.349    0.285    0.415    2.271
  386.080   72.883    0.297    0.400    2.336
  386.330   72.173    0.293    0.395    2.401
  386.580   72.263    0.288    0.400    2.510
  386.830   74.402    0.285    0.404    2.564
  387.080   76.239    0.284    0.402    2.616
  387.330   76.754    0.290    0.408    2.510
  387.580   76.437    0.300    0.416    2.349
  387.830   73.551    0.292    0.417    2.267
  388.080   72.358    0.294    0.414    2.241
  388.330   73.020    0.294    0.409    2.280
  388.580   76.308    0.275    0.401    2.419
  388.830   79.778    0.260    0.395    2.566
  389.080   84.642    0.245    0.405    2.830
  389.330   88.763    0.229    0.420    3.015
