~VERSION INFORMATION
 VERS.                 2.0:   CWLS LOG ASCII STANDARD -VERSION 2.0
 WRAP.                  NO:   ONE LINE PER DEPTH STEP
~WELL INFORMATION BLOCK
#MNEM.UNIT           DATA                    DESCRIPTION OF MNEMONIC
#---------    -------------------            -------------------------------
# Generated from Intellog Unique Number	CN_94_101/WELL/2602
WELL.         PARAMOUNT RESOURCES LTD.       : Well_name    - WELL
LOC .         00/05-24-094-18W4/0            : Location     - LOCATION
UWI .         00/05-24-094-18W400            : Uwi          - UNIQUE WELL ID
ENTR.         JOETTE                         : Entered      - ENTERED BY
SRVC.         COMPUTALOG                     : Scn          - SERVICE COMPANY
DATE.         06/12/92                       : Date         - LOG DATE
STRT.M        95                             : top_depth    - START DEPTH
STOP.M        275                            : bot_depth    - STOP DEPTH
STEP.M        0.25                           : increment    - STEP LENGTH
 NULL. -999.2500:NULL Value
~CURVE INFORMATION BLOCK
#MNEM UNIT       ERCB CURVE CODE    CURVE DESCRIPTION
#-----------   ------------------   ----------------------------------
DEPT.M        00 001 00 00         : DEPTH        - DEPTH
CALI.MM       00 280 01 00         : CAL          - CALIPER
GR  .API      00 310 00 00         : GR           - GAMMA RAY
NPHI.V/V      00 330 00 00         : PHIN         - NEUTRON POROSITY (SANDSTONE)
DPHI.V/V      00 890 00 00         : PHID         - DENSITY POROSITY (SANDSTONE)
ILD .OHMM     00 120 00 00         : RESD         - DEEP RESISTIVITY (DIL)
~PARAMETER INFORMATION
#MNEM.UNIT           DATA             DESCRIPTION OF MNEMONIC
#---------         -----------     ------------------------------
GL  .M        539.64               : gl           - GROUND LEVEL ELEVATION
EREF.M        543.44               : kb           - ELEVATION OF DEPTH REFERENCE
DATM.M        543.44               : datum        - DATUM ELEVATION
TDD .M        278.1                : tdd          - TOTAL DEPTH DRILLER
RUN .         ONE                  : Run          - RUN NUMBER
ENG .         JO                   : Engineer     - RECORDING ENGINEER
WIT .         TIM                  : Witness      - WITNESSED BY
MUD .         GEL                  : Mud_type     - MUD TYPE
MATR.         SANDSTONE            : Logunit      - NEUTRON MATRIX
TMAX.C        23                   : BHT          - MAXIMUM RECORDED TEMPERATURE
BHTD.M        278.1                : BHTDEP       - MAXIMUM RECORDED TEMPERATURE
RMT .C        20                   : MDTP         - TEMPERATURE OF MUD
MUDD.KG/M     1100                 : MWT          - MUD DENSITY
NEUT.         1                    : NEUTRON      - NEUTRON TYPE
RESI.         0                    : RESIST       - RESISTIVITY TYPE
RM  .OHMM     5.3                  : RM           - RESISTIVITY OF MUD
RMC .OHMM     5.3                  : RMC          - RESISTIVITY OF MUD CAKE
RMF .OHMM     7.5                  : RMF          - RESISTIVITY OF MUD FILTRATE
SUFT.C        4                    : SUFT         - SURFACE TEMPERATURE
~A  DEPTH      CAL       GR     PHIN     PHID     RESD
# ...
  131.500  176.786   73.284    0.391    0.263    7.630
  131.750  177.807   76.992    0.387    0.271    7.775
  132.000  177.780   81.324    0.392    0.253    7.772
  132.250  175.676   86.893    0.412    0.255    7.769
  132.500  174.615   81.912    0.437    0.263    7.329
  132.750  174.594   70.724    0.410    0.289    7.187
  133.000  174.566   65.121    0.375    0.311    7.184
  133.250  172.456   68.829    0.344    0.314    7.182
  133.500  170.367   73.777    0.375    0.287    7.178
  133.750  170.346   78.101    0.406    0.281    6.773
  134.000  171.346   78.706    0.404    0.281    6.641
  134.250  172.347   78.068    0.377    0.281    6.899
  134.500  171.292   73.703    0.372    0.274    7.888
  134.750  169.202   70.588    0.377    0.269    8.515
  135.000  165.023   71.812    0.411    0.301    9.014
  135.250  161.899   81.106    0.438    0.277    8.840
  135.500  160.837   82.322    0.430    0.271    7.724
  135.750  162.879   82.314    0.420    0.260    6.622
  136.000  164.927   86.642    0.415    0.263    5.786
  136.250  171.092   90.970    0.417    0.270    5.355
  136.500  174.175   85.989    0.415    0.278    5.354
  136.750  175.175   82.244    0.401    0.281    5.351
  137.000  172.038   84.089    0.430    0.283    5.350
  137.250  172.024   87.797    0.454    0.281    5.450
  137.500  174.058   87.780    0.444    0.275    5.554
  137.750  176.093   87.768    0.437    0.268    5.552
  138.000  176.072   88.364    0.439    0.265    5.549
  138.250  176.052   88.352    0.443    0.264    5.337
  138.500  173.948   88.960    0.449    0.265    5.134
  138.750  171.859   89.556    0.442    0.269    5.035
  139.000  170.783   90.164    0.431    0.272    4.937
  139.250  171.797   90.772    0.433    0.273    4.748
  139.500  171.777   91.368    0.441    0.271    4.746
  139.750  173.818   91.981    0.438    0.268    4.745
  140.000  177.928   95.684    0.442    0.268    4.834
  140.250  182.038   92.564    0.453    0.283    4.926
  140.500  187.176   84.479    0.422    0.286    5.214
  140.750  188.183   78.877    0.410    0.268    5.417
  141.000  186.087   75.132    0.413    0.257    5.847
  141.250  179.860   74.499    0.402    0.256    5.957
  141.500  170.516   82.552    0.380    0.255    5.731
  141.750  164.282   96.810    0.395    0.266    5.204
  142.000  162.178  100.513    0.442    0.260    4.818
  142.250  162.151   98.018    0.476    0.261    4.374
  142.500  163.158   94.894    0.483    0.263    4.128
  142.750  164.165   96.740    0.471    0.263    4.047
  143.000  165.179  100.451    0.444    0.255    4.046
  143.250  166.186  102.914    0.444    0.251    4.123
  143.500  170.282  104.134    0.455    0.251    4.201
  143.750  171.303  102.885    0.480    0.254    4.280
  144.000  173.337   99.144    0.487    0.260    4.279
  144.250  174.344   94.783    0.496    0.261    4.360
  144.500  174.317   88.560    0.485    0.228    4.275
  144.750  174.289   86.682    0.456    0.183    4.192
  145.000  172.200   92.872    0.430    0.258    4.032
  145.250  166.993   99.683    0.420    0.270    3.879
  145.500  165.932  100.907    0.461    0.279    3.877
  145.750  170.042   96.546    0.474    0.291    3.949
  146.000  172.083   87.216    0.471    0.301    4.181
  146.250  173.097   80.993    0.446    0.307    4.344
  146.500  173.056   79.735    0.419    0.286    4.779
  146.750  174.070   80.339    0.415    0.257    5.158
  147.000  175.083   80.944    0.414    0.211    5.359
  147.250  175.056   83.410    0.421    0.176    5.674
  147.500  170.891   90.841    0.434    0.224    5.780
  147.750  170.863   90.200    0.407    0.265    5.561
  148.000  175.994   87.705    0.404    0.309    5.349
  148.250  178.042   75.275    0.409    0.329    5.556
  148.500  175.939   59.742    0.411    0.329    6.231
  148.750  170.747   61.584    0.411    0.326    6.350
  149.000  160.375   64.054    0.417    0.328    6.722
  149.250  163.451   70.244    0.388    0.324    6.593
  149.500  184.105   76.434    0.356    0.276    6.341
  149.750  184.077   88.831    0.459    0.266    5.871
  150.000  184.057   95.641    0.479    0.247    5.434
  150.250  182.981  101.827    0.482    0.243    5.127
  150.500  180.892   99.949    0.482    0.252    5.126
  150.750  177.768   87.519    0.430    0.216    5.123
  151.000  172.554   75.710    0.395    0.086    5.220
  151.250  169.431   70.729    0.374    0.117    5.855
  151.500  166.307   70.708    0.384    0.242    6.442
  151.750  166.272   72.554    0.394    0.266    6.565
  152.000  168.321   73.778    0.386    0.273    5.847
  152.250  171.390   75.003    0.384    0.282    5.208
  152.500  171.362   79.335    0.414    0.252    4.729
  152.750  170.307   84.280    0.431    0.209    4.638
  153.000  165.094   78.682    0.436    0.162    4.547
  153.250  163.004   75.558    0.406    0.084    4.458
  153.500  160.901   81.132    0.398    0.126    4.372
  153.750  162.949   92.907    0.424    0.183    4.287
  154.000  166.025  101.580    0.451    0.209    4.204
  154.250  167.018  106.529    0.457    0.228    4.202
  154.500  164.922  107.749    0.456    0.241    4.042
  154.750  162.833  107.112    0.441    0.245    3.963
  155.000  162.798  106.471    0.439    0.248    3.812
  155.250  163.812  105.842    0.468    0.250    3.811
  155.500  166.895  103.335    0.476    0.258    3.737
  155.750  174.094  102.081    0.481    0.261    3.736
  156.000  176.150  103.306    0.487    0.269    3.734
  156.250  176.108  107.018    0.475    0.273    3.732
  156.500  176.095  100.790    0.464    0.274    3.730
  156.750  176.067   96.425    0.465    0.271    3.728
  157.000  176.033   96.417    0.467    0.265    3.727
  157.250  175.998   99.500    0.467    0.263    3.725
  157.500  175.978  101.966    0.465    0.264    3.796
  157.750  176.978  102.570    0.459    0.272    3.794
  158.000  176.957  106.277    0.450    0.273    3.720
  158.250  177.971  109.985    0.436    0.270    3.863
  158.500  178.978  103.762    0.439    0.264    4.014
  158.750  179.985   92.574    0.437    0.261    4.590
  159.000  180.978   80.144    0.410    0.268    5.559
  159.250  179.930   75.162    0.380    0.284    7.700
  159.500  170.586   72.663    0.366    0.282    8.153
  159.750  161.242   76.371    0.345    0.274    8.308
  160.000  164.318   81.320    0.355    0.283    7.691
  160.250  166.366   85.648    0.404    0.283    7.257
  160.500  170.476   86.872    0.435    0.209    7.683
  160.750  172.511   71.340    0.406    0.150    7.680
  161.000  167.318   55.807    0.332    0.056    7.388
  161.250  159.008   65.721    0.260    0.076    6.708
  161.500  157.940   95.492    0.230    0.142    6.092
  161.750  161.022  101.686    0.503    0.170    5.222
  162.000  165.139  107.251    0.471    0.170    4.741
  162.250  168.208  101.032    0.421    0.163    4.475
  162.500  166.112   97.908    0.388    0.163    4.142
  162.750  164.022  100.999    0.375    0.209    3.984
  163.000  162.961  104.086    0.477    0.215    3.833
  163.250  162.933  108.414    0.488    0.228    3.833
  163.500  162.906  109.639    0.464    0.246    3.545
  163.750  162.871  107.136    0.457    0.253    2.761
  164.000  163.878  105.257    0.448    0.260    2.708
  164.250  164.885  103.379    0.453    0.269    2.655
  164.500  164.858  101.500    0.466    0.276    2.604
  164.750  165.872  100.859    0.481    0.289    2.603
  165.000  167.892  103.950    0.479    0.296    2.652
  165.250  167.879  102.692    0.475    0.297    2.651
  165.500  167.844  100.185    0.492    0.304    2.753
  165.750  166.782  102.038    0.502    0.319    2.805
  166.000  165.720  106.367    0.489    0.319    2.858
  166.250  165.700  105.109    0.479    0.285    3.027
  166.500  166.707  100.748    0.474    0.278    3.205
  166.750  169.783   98.249    0.471    0.270    3.526
  167.000  172.852  100.711    0.434    0.274    4.032
  167.250  173.865   96.974    0.429    0.298    4.883
  167.500  171.755   84.545    0.437    0.304    5.802
  167.750  167.604   78.322    0.410    0.314    6.892
