~VERSION INFORMATION
 VERS.                 2.0:   CWLS LOG ASCII STANDARD -VERSION 2.0
 WRAP.                  NO:   ONE LINE PER DEPTH STEP
~WELL INFORMATION BLOCK
#MNEM.UNIT           DATA                    DESCRIPTION OF MNEMONIC
#---------    -------------------            -------------------------------
# Generated from Intellog Unique Number	CS_77_79/WELL/2918
WELL.         CAN WORLDWIDE ENR              : Well_name    - WELL
LOC .         00/07-06-079-03W4/0            : Location     - LOCATION
UWI .         00/07-06-079-03W4/0            : Uwi          - UNIQUE WELL ID
ENTR.         TIM                            : Entered      - ENTERED BY
SRVC.         SCHLUMBERGER                   : Scn          - SERVICE COMPANY
STRT.M        135                            : top_depth    - START DEPTH
STOP.M        405                            : bot_depth    - STOP DEPTH
STEP.M        0.25                           : increment    - STEP LENGTH
 NULL. -999.2500:NULL Value
~CURVE INFORMATION BLOCK
#MNEM UNIT       ERCB CURVE CODE    CURVE DESCRIPTION
#-----------   ------------------   ----------------------------------
DEPT.M        00 001 00 00         : DEPTH        - DEPTH
GR  .API      00 310 00 00         : GR           - GAMMA RAY
NPHI.V/V      00 330 00 00         : PHIN         - NEUTRON POROSITY (SANDSTONE)
DPHI.V/V      00 890 00 00         : PHID         - DENSITY POROSITY (SANDSTONE)
ILD .OHMM     00 120 00 00         : RESD         - DEEP RESISTIVITY (DIL)
~PARAMETER INFORMATION
#MNEM.UNIT           DATA             DESCRIPTION OF MNEMONIC
#---------         -----------     ------------------------------
GL  .M        552.02               : gl           - GROUND LEVEL ELEVATION
EREF.M        556.38               : kb           - ELEVATION OF DEPTH REFERENCE
DATM.M        556.38               : datum        - DATUM ELEVATION
TDD .M        410                  : tdd          - TOTAL DEPTH DRILLER
RUN .         ONE                  : Run          - RUN NUMBER
ENG .         BILL                 : Engineer     - RECORDING ENGINEER
WIT .         JIM                  : Witness      - WITNESSED BY
MUD .         GEL                  : Mud_type     - MUD TYPE
MATR.         SANDSTONE            : Logunit      - NEUTRON MATRIX
TMAX.C        20                   : BHT          - MAXIMUM RECORDED TEMPERATURE
BHTD.M        410                  : BHTDEP       - MAXIMUM RECORDED TEMPERATURE
MATR.         1                    : LOGUNIT      - NEUTRON MATRIX
RMT .C        15                   : MDTP         - TEMPERATURE OF MUD
NEUT.         1                    : NEUTRON      - NEUTRON TYPE
RESI.         4.4                  : RESIST       - RESISTIVITY TYPE
RMC .OHMM     4.5                  : RMC          - RESISTIVITY OF MUD CAKE
RMF .OHMM     4                    : RMF          - RESISTIVITY OF MUD FILTRATE
SUFT.C        15                   : SUFT         - SURFACE TEMPERATURE
~A  DEPTH       GR     PHIN     PHID     RESD
  135.000  107.780    0.512    0.242    3.525
  135.250  107.776    0.512    0.241    3.526
  135.500  107.165    0.514    0.237    3.526
  135.750  106.552    0.515    0.235    3.527
  136.000  108.375    0.515    0.237    3.594
  136.250  108.372    0.517    0.244    3.595
  136.500  107.150    0.520    0.248    3.664
  136.750  106.539    0.525    0.251    3.665
  137.000  106.536    0.519    0.249    3.735
  137.250  107.142    0.503    0.248    3.806
  137.500  107.747    0.505    0.248    3.879
  137.750  107.745    0.516    0.245    3.953
  138.000  105.913    0.527    0.240    4.029
  138.250  104.693    0.538    0.226    4.106
  138.500  100.427    0.523    0.213    4.107
  138.750   93.726    0.472    0.206    4.264
  139.000   82.762    0.397    0.208    4.773
  139.250   84.586    0.427    0.218    5.652
  139.500   95.543    0.438    0.225    5.980
  139.750   99.803    0.453    0.230    5.870
  140.000   97.973    0.461    0.235    5.655
  140.250   92.489    0.464    0.240    5.448
  140.500   87.615    0.468    0.245    5.348
  140.750   82.131    0.468    0.252    6.099
  141.000   75.429    0.463    0.259    7.498
  141.250   72.382    0.457    0.264    9.047
  141.500   67.508    0.454    0.270    9.572
  141.750   67.504    0.448    0.278    9.755
  142.000   69.936    0.442    0.286    9.756
  142.250   76.023    0.436    0.289    9.577
  142.500   81.500    0.425    0.275    9.055
  142.750   85.150    0.425    0.258    8.561
  143.000   88.800    0.432    0.242    7.944
  143.250   92.450    0.445    0.234    7.511
  143.500   94.275    0.448    0.234    7.101
  143.750   96.098    0.453    0.236    7.103
  144.000   97.313    0.458    0.238    7.239
  144.250   98.527    0.463    0.235    7.517
  144.500   99.134    0.464    0.235    7.660
  144.750  100.348    0.456    0.247    7.954
  145.000   99.736    0.442    0.245    8.739
  145.250   95.470    0.433    0.232    9.246
  145.500   87.551    0.425    0.208   10.746
  145.750   79.632    0.422    0.202   11.158
  146.000   78.410    0.409    0.222   11.586
  146.250   80.842    0.395    0.232   12.032
  146.500   82.057    0.390    0.226   12.034
  146.750   84.490    0.389    0.226   12.036
  147.000   86.312    0.391    0.226   12.039
  147.250   86.920    0.397    0.228   12.040
  147.500   87.525    0.406    0.229   12.272
  147.750   86.913    0.412    0.231   12.505
  148.000   83.865    0.422    0.233   12.745
  148.250   78.990    0.429    0.238   12.990
  148.500   75.942    0.436    0.248   13.238
  148.750   73.503    0.430    0.251   13.490
  149.000   75.328    0.407    0.244   14.274
  149.250   75.933    0.385    0.245   15.103
  149.500   70.450    0.383    0.256   15.684
  149.750   67.401    0.387    0.270   15.983
  150.000   70.444    0.395    0.279   16.597
  150.250   75.920    0.387    0.250   16.600
  150.500   73.482    0.379    0.248   16.604
  150.750   68.608    0.383    0.255   16.922
  151.000   63.122    0.391    0.266   17.244
  151.250   63.120    0.399    0.279   18.245
  151.500   59.463    0.399    0.289   20.045
  151.750   55.198    0.395    0.295   20.426
  152.000   51.539    0.392    0.286   20.818
  152.250   49.711    0.387    0.283   21.618
  152.500   45.445    0.378    0.288   22.031
  152.750   42.398    0.371    0.294   22.034
  153.000   39.959    0.361    0.299   22.881
  153.250   39.347    0.356    0.299   23.761
  153.500   43.605    0.354    0.299   24.215
  153.750   44.821    0.360    0.299   24.678
  154.000   41.163    0.365    0.300   22.475
  154.250   38.725    0.367    0.305   20.467
  154.500   36.894    0.370    0.308   18.292
  154.750   38.109    0.373    0.300   16.044
  155.000   41.151    0.375    0.285   14.073
  155.250   70.985    0.381    0.266   12.578
  155.500   82.552    0.397    0.252   11.033
  155.750   91.683    0.415    0.237   10.431
  156.000  100.204    0.441    0.236    9.679
  156.250  108.726    0.458    0.240    9.152
  156.500  111.768    0.476    0.243    8.653
  156.750  108.111    0.467    0.248    8.336
  157.000   94.103    0.461    0.271    8.183
  157.250   77.658    0.456    0.301    8.032
  157.500   59.996    0.449    0.332    9.334
  157.750   61.210    0.444    0.316   13.084
  158.000   66.688    0.437    0.304   15.787
  158.250   75.209    0.428    0.305   16.089
  158.500   79.469    0.424    0.310   16.707
  158.750   78.247    0.414    0.310   17.027
  159.000   78.853    0.405    0.310   17.680
  159.250   81.286    0.399    0.313   19.061
  159.500   86.153    0.399    0.340   20.168
  159.750   82.498    0.402    0.493   20.172
  160.000   72.751    0.516    0.505   20.176
  160.250   61.178    0.541    0.485   20.179
  160.500   59.348    0.509    0.436   20.183
  160.750   55.692    0.474    0.407   20.960
  161.000   50.817    0.430    0.365   21.359
  161.250   49.595    0.382    0.346   22.179
  161.500   55.682    0.376    0.348   22.604
  161.750   70.902    0.375    0.346   23.919
  162.000   85.513    0.369    0.346   24.836
  162.250   81.857    0.375    0.347   25.790
  162.500   67.239    0.387    0.347   26.784
  162.750   66.018    0.403    0.347   27.294
  163.000   62.362    0.417    0.348   27.817
  163.250   58.095    0.426    0.351   27.304
  163.500   56.265    0.431    0.350   26.802
  163.750   53.826    0.436    0.345   26.309
  164.000   52.605    0.436    0.342   24.875
  164.250   56.255    0.436    0.342   23.963
  164.500   62.342    0.440    0.342   22.235
  164.750   70.864    0.447    0.345   19.874
  165.000   72.079    0.470    0.424   18.442
  165.250   68.421    0.503    0.428   17.765
  165.500   65.374    0.523    0.374   18.797
  165.750   59.890    0.532    0.346   22.680
  166.000   55.624    0.384    0.336   23.113
  166.250   53.186    0.355    0.332   24.002
  166.500   50.137    0.342    0.324   24.006
  166.750   48.916    0.349    0.329   24.465
  167.000   47.087    0.356    0.349   24.471
  167.250   41.603    0.380    0.352   24.474
  167.500   37.947    0.402    0.352   24.478
  167.750   33.680    0.407    0.346   24.028
  168.000   38.549    0.402    0.335   23.586
  168.250   61.077    0.391    0.315   22.722
  168.500   74.469    0.388    0.278   22.304
  168.750   77.511    0.397    0.262   21.089
  169.000   78.117    0.413    0.274   20.316
  169.250   73.851    0.416    0.301   19.572
  169.500   67.758    0.396    0.324   19.575
  169.750   64.102    0.389    0.328   20.712
  170.000   61.661    0.389    0.317   21.918
  170.250   61.051    0.380    0.310   21.922
  170.500   59.220    0.380    0.312   21.925
  170.750   57.391    0.387    0.311   21.929
  171.000   56.170    0.396    0.312   21.934
  171.250   54.339    0.407    0.320   21.938
  171.500   52.510    0.415    0.325   22.357
  171.750   50.070    0.413    0.329   22.786
  172.000   51.893    0.412    0.328   22.790
  172.250   54.936    0.404    0.321   22.794
  172.500   59.804    0.396    0.314   21.960
  172.750   64.063    0.393    0.306   21.555
  173.000   67.713    0.395    0.297   21.158
  173.250   67.710    0.400    0.293   20.768
  173.500   66.490    0.405    0.297   20.773
  173.750   65.269    0.394    0.289   21.171
  174.000   63.438    0.386    0.286   21.577
  174.250   62.217    0.381    0.295   22.407
  174.500   60.388    0.380    0.313   22.409
  174.750   58.557    0.378    0.321   22.413
  175.000   60.990    0.382    0.303   22.419
  175.250   65.249    0.394    0.298   22.005
  175.500   66.464    0.389    0.296   21.199
  175.750   68.287    0.382    0.299   20.424
  176.000   69.501    0.384    0.305   20.427
  176.250   66.454    0.389    0.313   20.430
  176.500   63.406    0.393    0.322   20.435
  176.750   62.185    0.399    0.320   20.439
  177.000   68.271    0.392    0.290   20.062
  177.250   73.749    0.375    0.238   18.969
  177.500   79.226    0.361    0.169   17.602
  177.750   86.530    0.363    0.120   16.332
  178.000   93.225    0.368    0.140   15.441
  178.250  100.529    0.380    0.174   14.329
