~VERSION INFORMATION
 VERS.                 2.0:   CWLS LOG ASCII STANDARD -VERSION 2.0
 WRAP.                  NO:   ONE LINE PER DEPTH STEP
~WELL INFORMATION BLOCK
#MNEM.UNIT           DATA                    DESCRIPTION OF MNEMONIC
#---------    -------------------            -------------------------------
# Generated from Intellog Unique Number	CS_69_70/WELL/849
NULL.         -999.25                        : NULL_VALUE
WELL.         AMOCO CANADA PETROLEUM         : Well_name    - WELL              
LOC .         00/07-31-070-14W4/0            : Location     - LOCATION          
UWI .         00/07-31-070-14W4/0            : Uwi          - UNIQUE WELL ID    
ENTR.         SP                             : Entered      - ENTERED BY        
SRVC.         SCHLUMBERGER                   : Scn          - SERVICE COMPANY   
STRT.F        1050                           : top_depth    - START DEPTH       
STOP.F        1760.3                         : bot_depth    - STOP DEPTH        
STEP.F        0.82                           : increment    - STEP LENGTH       
~CURVE INFORMATION BLOCK
#MNEM UNIT       ERCB CURVE CODE    CURVE DESCRIPTION
#-----------   ------------------   ----------------------------------
DEPT.F        00 001 00 00         : DEPTH        - DEPTH                       
GR  .API      00 310 00 00         : GR           - GAMMA RAY                   
NPHI.V/V      00 330 00 00         : PHIN         - NEUTRON POROSITY (SANDSTONE)
DPHI.V/V      00 890 00 00         : PHID         - DENSITY POROSITY (SANDSTONE)
ILD .OHMM     00 120 00 00         : RESD         - DEEP RESISTIVITY (DIL)      
~PARAMETER INFORMATION       
#MNEM.UNIT           DATA             DESCRIPTION OF MNEMONIC
#---------         -----------     ------------------------------
GL  .F        2039.71              : gl           - GROUND LEVEL ELEVATION      
EREF.F        2053.71              : kb           - ELEVATION OF DEPTH REFERENCE
DATM.F        2039.71              : datum        - DATUM ELEVATION             
TDD .F        1900                 : tdd          - TOTAL DEPTH DRILLER         
RUN .         ONE                  : Run          - RUN NUMBER                  
ENG .         BILL                 : Engineer     - RECORDING ENGINEER          
WIT .         JIM                  : Witness      - WITNESSED BY                
MUD .         GEL                  : Mud_type     - MUD TYPE                    
MATR.         SANDSTONE            : Logunit      - NEUTRON MATRIX              
TMAX.C        25.5556              : BHT          - MAXIMUM RECORDED TEMPERATURE
BHTD.M        512.369              : BHTDEP       - MAXIMUM RECORDED TEMPERATURE
MATR.         1                    : LOGUNIT      - NEUTRON MATRIX              
RMT .C        25                   : MDTP         - TEMPERATURE OF MUD          
NEUT.         1                    : NEUTRON      - NEUTRON TYPE                
RESI.         0                    : RESIST       - RESISTIVITY TYPE            
RMC .OHMM     0.25                 : RMC          - RESISTIVITY OF MUD CAKE     
RMF .OHMM     0.25                 : RMF          - RESISTIVITY OF MUD FILTRATE 
SUFT.C        15                   : SUFT         - SURFACE TEMPERATURE         
~A  DEPTH       GR     PHIN     PHID     RESD
# ...
 1478.150   88.329    0.459    0.253    2.702
 1478.970   95.416    0.472    0.253    2.592
 1479.790   99.548    0.482    0.243    2.538
 1480.610  101.313    0.495    0.231    2.534
 1481.430  101.305    0.499    0.236    2.481
 1482.250  100.711    0.499    0.243    2.478
 1483.070   99.518    0.500    0.250    2.475
 1483.890   99.513    0.504    0.254    2.521
 1484.710   99.510    0.506    0.252    2.515
 1485.530  100.095    0.512    0.248    2.513
 1486.350  100.680    0.517    0.246    2.510
 1487.170  102.447    0.518    0.244    2.456
 1487.990  103.623    0.515    0.244    2.358
 1488.810  104.797    0.503    0.247    2.263
 1489.630  104.791    0.489    0.248    2.172
 1490.450  104.784    0.469    0.253    2.043
 1491.270  104.780    0.465    0.254    2.000
 1492.090  104.179    0.464    0.257    1.920
 1492.910  103.585    0.457    0.259    1.842
 1493.730  102.397    0.451    0.260    1.840
 1494.550   99.433    0.446    0.261    1.950
 1495.370   96.470    0.425    0.264    2.194
 1496.190   93.506    0.418    0.264    2.469
 1497.010   91.730    0.409    0.261    2.779
 1497.830   86.995    0.399    0.254    3.254
 1498.650   80.486    0.386    0.248    3.735
 1499.480   74.569    0.365    0.236    4.373
 1500.300   69.834    0.312    0.042    5.545
 1501.120   65.690    0.281    0.038    6.623
 1501.940   62.135    0.270    0.040    7.758
 1502.760   60.948    0.264    0.048    8.904
 1503.580   58.576    0.255    0.074   10.632
 1504.400   57.979    0.260    0.101    9.808
 1505.220   58.562    0.286    0.148    6.446
 1506.040   61.513    0.308    0.211    4.590
 1506.860   66.237    0.343    0.229    4.319
 1507.680   73.324    0.367    0.259    3.751
 1508.500   73.909    0.373    0.270    3.325
 1509.320   75.082    0.394    0.265    3.066
 1510.140   76.259    0.405    0.258    2.829
 1510.960   77.437    0.406    0.250    2.557
 1511.780   78.613    0.410    0.200    2.503
 1512.600   78.606    0.415    0.167    2.761
 1513.420   78.600    0.419    0.185    3.169
 1514.240   79.183    0.424    0.211    3.427
 1515.060   80.359    0.429    0.218    3.704
 1515.880   81.537    0.430    0.218    3.701
 1516.700   85.076    0.432    0.204    3.622
 1517.520   86.841    0.433    0.197    3.547
 1518.340   88.020    0.433    0.201    3.403
 1519.160   90.965    0.433    0.208    3.399
 1519.980   92.735    0.434    0.211    3.325
 1520.800   94.503    0.434    0.206    3.322
 1521.620   98.042    0.434    0.200    3.251
 1522.440   98.036    0.433    0.204    3.247
 1523.260   97.440    0.432    0.208    3.243
 1524.080   96.843    0.432    0.216    3.239
 1524.900   96.245    0.431    0.224    3.300
 1525.720   95.646    0.431    0.228    3.294
 1526.540   96.231    0.431    0.229    3.225
 1527.360   97.407    0.429    0.228    3.155
 1528.180   99.173    0.429    0.221    3.153
 1529.000   99.169    0.427    0.215    3.148
 1529.820   97.981    0.425    0.204    3.206
 1530.640   95.609    0.423    0.192    3.268
 1531.460   93.238    0.422    0.178    3.329
 1532.280   92.642    0.423    0.167    3.391
 1533.100   91.452    0.426    0.194    3.454
 1533.920   90.264    0.426    0.201    3.383
 1534.740   89.666    0.426    0.198    3.243
 1535.560   89.069    0.426    0.197    3.177
 1536.380   87.880    0.425    0.192    3.111
 1537.200   85.510    0.422    0.182    3.045
 1538.020   80.773    0.426    0.186    2.980
 1538.850   83.131    0.430    0.229    2.978
 1539.670   84.900    0.438    0.238    3.031
 1540.490   87.847    0.445    0.229    3.029
 1541.310   89.615    0.444    0.218    3.024
 1542.130   90.792    0.430    0.211    3.021
 1542.950   91.375    0.422    0.217    2.957
 1543.770   90.779    0.432    0.220    2.727
 1544.590   89.589    0.454    0.221    2.368
 1545.410   90.176    0.468    0.217    2.184
 1546.230   92.532    0.481    0.215    2.015
 1547.050   94.892    0.490    0.216    1.715
 1547.870   99.023    0.487    0.216    1.551
 1548.690  101.971    0.458    0.215    1.402
 1549.510   99.008    0.441    0.211    1.429
 1550.330   97.823    0.432    0.204    1.706
 1551.150   95.452    0.426    0.200    2.080
 1551.970   93.078    0.420    0.192    2.690
 1552.790   89.528    0.410    0.186    3.276
 1553.610   82.429    0.397    0.179    3.473
 1554.430   84.194    0.397    0.209    3.398
 1555.250   87.143    0.398    0.239    3.329
 1556.070   87.728    0.393    0.249    3.323
 1556.890   84.768    0.378    0.248    3.592
 1557.710   80.033    0.336    0.239    3.887
 1558.530   75.889    0.312    0.008    4.929
 1559.350   70.562    0.287    0.014    6.635
 1560.170   63.463    0.271    0.034    9.110
 1560.990   62.864    0.300    0.124    9.653
 1561.810   66.406    0.340    0.144    8.727
 1562.630   73.493    0.372    0.163    6.469
 1563.450   81.762    0.396    0.168    5.966
 1564.270   86.485    0.409    0.172    4.244
 1565.090   90.613    0.421    0.173    4.075
 1565.910   91.792    0.432    0.175    3.683
 1566.730   92.375    0.437    0.176    3.330
 1567.550   92.962    0.431    0.178    3.132
 1568.370   94.138    0.424    0.179    2.946
 1569.190   95.902    0.420    0.180    2.829
 1570.010   97.079    0.420    0.180    2.715
 1570.830   97.666    0.426    0.178    2.553
 1571.650   98.840    0.454    0.175    2.451
 1572.470   96.471    0.465    0.172    2.399
 1573.290   94.690    0.479    0.166    2.257
 1574.110   93.501    0.477    0.155    2.253
 1574.930   93.493    0.474    0.150    2.295
 1575.750   93.487    0.465    0.155    2.338
 1576.570   94.075    0.458    0.179    2.336
 1577.400   95.842    0.454    0.181    2.332
 1578.220   97.608    0.450    0.185    2.329
 1579.040   98.785    0.445    0.185    2.325
 1579.860   99.368    0.446    0.184    2.370
 1580.680   99.360    0.450    0.183    2.412
 1581.500   98.763    0.450    0.179    2.409
 1582.320   98.757    0.446    0.177    2.407
 1583.140   98.159    0.442    0.174    2.451
 1583.960   97.564    0.440    0.173    2.448
 1584.780   96.966    0.436    0.173    2.445
 1585.600   96.958    0.435    0.178    2.490
 1586.420   96.954    0.440    0.189    2.487
 1587.240   97.537    0.444    0.200    2.484
 1588.060   98.122    0.450    0.207    2.431
 1588.880   99.298    0.453    0.207    2.429
 1589.700  100.475    0.461    0.205    2.378
 1590.520  104.014    0.466    0.202    2.281
 1591.340  105.191    0.459    0.193    2.234
 1592.160  107.550    0.450    0.178    2.142
 1592.980  107.542    0.441    0.164    2.056
 1593.800  106.946    0.428    0.170    2.014
 1594.620  105.756    0.421    0.182    1.933
 1595.440  104.567    0.427    0.194    1.854
 1596.260  104.561    0.438    0.198    1.965
 1597.080  148.298    0.447    0.189    2.085
 1597.900  151.839    0.439    0.166    2.490
 1598.720  140.601    0.405    0.137    3.351
 1599.540  127.591    0.377    0.101    4.421
 1600.360  109.260    0.366    0.099    5.491
 1601.180   93.885    0.349    0.128    5.825
 1602.000   78.508    0.350    0.148    6.554
 1602.820   76.138    0.350    0.149    7.087
 1603.640   74.358    0.351    0.149    7.515
 1604.460   73.170    0.358    0.179    7.964
 1605.280   72.572    0.378    0.236    8.113
 1606.100   71.384    0.383    0.267    8.264
 1606.920   70.786    0.393    0.278    8.250
 1607.740   69.596    0.397    0.278    8.244
 1608.560   69.001    0.404    0.275    7.909
 1609.380   67.811    0.406    0.272    7.740
 1610.200   67.807    0.405    0.251    7.734
 1611.020   66.619    0.403    0.248    8.032
 1611.840   66.020    0.396    0.244    8.182
 1612.660   66.015    0.388    0.237    8.508
 1613.480   66.009    0.385    0.226    9.015
 1614.300   66.594    0.383    0.212    9.187
 1615.120   68.952    0.379    0.199    9.355
 1615.940   69.537    0.374    0.187    9.346
 1616.770   68.936    0.369    0.189    9.514
 1617.590   68.931    0.363    0.199    9.507
 1618.410   70.698    0.363    0.208    9.304
 1619.230   73.057    0.364    0.202    9.111
 1620.050   73.641    0.367    0.171    8.069
