~VERSION INFORMATION
 VERS.                 2.0:   CWLS LOG ASCII STANDARD -VERSION 2.0
 WRAP.                  NO:   ONE LINE PER DEPTH STEP
~WELL INFORMATION BLOCK
#MNEM.UNIT           DATA                    DESCRIPTION OF MNEMONIC
#---------    -------------------            -------------------------------
# Generated from Intellog Unique Number	CS_67_68/WELL/2173
WELL.         06-34-067-02W4                 : Well_name    - WELL
LOC .         00/06-34-067-02W4/0            : Location     - LOCATION
UWI .         00/06-34-067-02W4/0            : Uwi          - UNIQUE WELL ID
ENTR.         SP                             : Entered      - ENTERED BY
SRVC.         SCHLUMBERGER                   : Scn          - SERVICE COMPANY
STRT.M        360                            : top_depth    - START DEPTH
STOP.M        615                            : bot_depth    - STOP DEPTH
STEP.M        0.25                           : increment    - STEP LENGTH
 NULL. -999.2500:NULL Value
~CURVE INFORMATION BLOCK
#MNEM UNIT       ERCB CURVE CODE    CURVE DESCRIPTION
#-----------   ------------------   ----------------------------------
DEPT.M        00 001 00 00         : DEPTH        - DEPTH
ILD .OHMM     00 120 00 00         : RESD         - DEEP RESISTIVITY (DIL)
DPHI.V/V      00 890 00 00         : PHID         - DENSITY POROSITY (LIMESTONE)
NPHI.V/V      00 330 00 00         : PHIN         - NEUTRON POROSITY (LIMESTONE)
GR  .API      00 310 00 00         : GR           - GAMMA RAY
CALI.MM       00 280 01 00         : CAL          - CALIPER
~PARAMETER INFORMATION
#MNEM.UNIT           DATA             DESCRIPTION OF MNEMONIC
#---------         -----------     ------------------------------
GL  .M        686.22               : gl           - GROUND LEVEL ELEVATION
EREF.M        689.57               : kb           - ELEVATION OF DEPTH REFERENCE
DATM.M        689.57               : datum        - DATUM ELEVATION
TDD .M        628                  : tdd          - TOTAL DEPTH DRILLER
RUN .         ONE                  : Run          - RUN NUMBER
ENG .         BILL                 : Engineer     - RECORDING ENGINEER
WIT .         JIM                  : Witness      - WITNESSED BY
MUD .         GEL                  : Mud_type     - MUD TYPE
MATR.         LIMESTONE            : Logunit      - NEUTRON MATRIX
TMAX.C        25                   : BHT          - MAXIMUM RECORDED TEMPERATURE
BHTD.M        627.2                : BHTDEP       - MAXIMUM RECORDED TEMPERATURE
MATR.         1                    : LOGUNIT      - NEUTRON MATRIX
RMT .C        25                   : MDTP         - TEMPERATURE OF MUD
NEUT.         1                    : NEUTRON      - NEUTRON TYPE
RESI.         0                    : RESIST       - RESISTIVITY TYPE
RMC .OHMM     0.25                 : RMC          - RESISTIVITY OF MUD CAKE
RMF .OHMM     0.25                 : RMF          - RESISTIVITY OF MUD FILTRATE
SUFT.C        15                   : SUFT         - SURFACE TEMPERATURE
~A  DEPTH     RESD     PHID     PHIN       GR      CAL
# ...
  469.500    7.384    0.364    0.413   58.916  162.075
  469.750    7.396    0.366    0.414   61.607  161.442
  470.000    7.434    0.369    0.402   63.194  160.910
  470.250    7.473    0.369    0.389   63.122  160.588
  470.500    7.526    0.363    0.381   60.837  160.570
  470.750    7.566    0.355    0.378   59.046  160.346
  471.000    7.619    0.353    0.393   57.559  160.223
  471.250    7.645    0.353    0.389   56.875  160.514
  471.500    7.656    0.352    0.378   57.047  161.111
  471.750    7.682    0.355    0.392   59.063  161.912
  472.000    7.708    0.358    0.409   61.325  163.224
  472.250    7.748    0.350    0.402   59.902  164.330
  472.500    7.817    0.345    0.390   57.434  164.311
  472.750    7.844    0.342    0.385   54.291  163.680
  473.000    7.944    0.347    0.389   52.742  163.356
  473.250    8.001    0.359    0.394   52.548  163.440
  473.500    8.028    0.361    0.388   55.424  163.729
  473.750    8.039    0.356    0.371   58.117  163.609
  474.000    7.991    0.358    0.361   59.948  163.590
  474.250    7.944    0.360    0.385   60.675  162.954
  474.500    7.926    0.358    0.405   60.846  163.248
  474.750    7.894    0.356    0.414   60.899  163.535
  475.000    7.920    0.351    0.411   60.888  163.824
  475.250    7.947    0.366    0.402   60.569  163.705
  475.500    8.018    0.376    0.390   59.882  163.276
  475.750    7.985    0.349    0.403   59.934  162.439
  476.000    7.908    0.332    0.415   62.809  160.783
  476.250    7.817    0.326    0.423   66.054  159.024
  476.500    7.728    0.323    0.428   69.360  157.880
  476.750    7.710    0.326    0.424   71.866  157.351
  477.000    7.722    0.326    0.416   72.594  157.538
  477.250    7.761    0.322    0.412   71.355  157.929
  477.500    7.830    0.318    0.415   71.467  158.419
  477.750    7.858    0.317    0.423   72.623  159.018
  478.000    7.914    0.320    0.421   74.578  159.512
  478.250    7.955    0.325    0.414   76.471  159.699
  478.500    8.027    0.331    0.408   75.047  159.268
  478.750    8.038    0.341    0.402   71.105  158.637
  479.000    8.036    0.349    0.396   67.468  158.211
  479.250    8.033    0.352    0.401   65.554  157.988
  479.500    7.940    0.345    0.407   66.588  157.763
  479.750    7.806    0.341    0.400   67.928  157.643
  480.000    7.559    0.339    0.395   68.531  157.524
  480.250    7.376    0.339    0.394   69.012  157.299
  480.500    7.264    0.336    0.408   69.861  157.382
  480.750    6.983    0.322    0.416   72.185  157.674
  481.000    7.019    0.315    0.403   77.271  157.656
  481.250    6.990    0.334    0.390   80.946  157.943
  481.500    7.066    0.353    0.403   73.749  157.924
  481.750    7.157    0.364    0.410   70.236  157.904
  482.000    7.154    0.347    0.410   67.093  157.787
  482.250    6.877    0.332    0.417   67.941  157.869
  482.500    6.298    0.315    0.421   68.851  157.854
  482.750    5.909    0.299    0.421   74.247  157.832
  483.000    5.841    0.308    0.439   82.222  158.432
  483.250    5.937    0.322    0.434   86.572  159.232
  483.500    6.047    0.335    0.421   82.137  159.828
  483.750    5.590    0.342    0.437   80.407  159.606
  484.000    4.913    0.328    0.473   83.099  159.690
  484.250    4.433    0.318    0.494   87.879  160.490
  484.500    3.955    0.344    0.508   93.519  163.236
  484.750    3.582    0.361    0.497   97.317  167.620
  485.000    3.336    0.375    0.488  100.439  171.286
  485.250    3.442    0.381    0.500   95.511  174.648
  485.500    3.578    0.363    0.498   93.291  178.315
  485.750    3.775    0.351    0.481   93.586  180.652
  486.000    3.976    0.329    0.464   96.832  180.121
  486.250    3.989    0.299    0.448   98.111  177.236
  486.500    3.612    0.285    0.461   96.565  173.738
  486.750    3.352    0.281    0.489  100.977  168.908
  487.000    3.192    0.285    0.503  108.337  164.283
  487.250    3.109    0.288    0.504  114.039  164.265
  487.500    3.022    0.288    0.501  115.564  170.590
  487.750    2.982    0.291    0.494  114.938  175.382
  488.000    2.958    0.318    0.485  113.146  178.233
  488.250    2.968    0.333    0.507  111.784  180.060
  488.500    3.006    0.334    0.530  110.114  179.837
  488.750    3.299    0.343    0.539  109.182  180.126
  489.000    3.792    0.349    0.519  109.110  180.825
  489.250    4.533    0.352    0.473  104.123  181.215
  489.500    5.389    0.365    0.464   97.540  180.072
  489.750    6.625    0.381    0.462   85.427  176.266
  490.000    8.677    0.375    0.444   79.827  169.795
  490.250   10.508    0.357    0.434   77.543  165.889
  490.500   11.704    0.344    0.452   76.855  164.743
  490.750   12.770    0.331    0.450   77.890  162.882
  491.000   13.449    0.320    0.453   79.477  161.429
  491.250   13.196    0.315    0.473   81.001  160.902
  491.500   12.263    0.321    0.487   80.499  160.474
  491.750   12.193    0.327    0.498   80.978  160.456
  492.000   12.326    0.328    0.496   82.503  160.537
  492.250   12.506    0.328    0.478   81.941  160.827
  492.500   12.317    0.328    0.458   78.428  161.117
  492.750   10.706    0.327    0.445   87.078  161.100
  493.000    8.931    0.320    0.449   96.343  160.978
  493.250    8.150    0.316    0.453   98.543  161.269
  493.500    7.244    0.318    0.454   93.188  162.172
  493.750    6.392    0.336    0.450   89.860  163.997
  494.000    5.353    0.360    0.449   86.962  165.614
  494.250    4.550    0.377    0.446   84.125  167.338
  494.500    3.977    0.385    0.458   85.403  169.364
  494.750    3.300    0.403    0.472   89.448  170.680
  495.000    2.890    0.386    0.479   94.719  171.072
  495.250    3.129    0.332    0.465   93.726  170.235
  495.500    3.485    0.303    0.455   92.180  168.778
  495.750    3.970    0.289    0.454   94.380  167.229
  496.000    4.504    0.287    0.453   91.420  163.832
  496.250    4.878    0.290    0.446   88.092  160.128
  496.500    5.014    0.298    0.426   86.853  161.645
  496.750    4.847    0.316    0.424   89.115  165.416
  497.000    4.590    0.337    0.432   86.094  167.752
  497.250    4.243    0.349    0.440   84.608  167.733
  497.500    4.004    0.369    0.447   86.502  166.896
  497.750    3.899    0.385    0.454   89.439  166.059
  498.000    3.912    0.355    0.458   92.070  164.199
  498.250    3.954    0.323    0.450   90.155  161.825
  498.500    3.975    0.309    0.446   86.397  160.170
  498.750    4.064    0.299    0.444   89.150  160.765
  499.000    4.193    0.287    0.448   91.657  161.258
  499.250    4.383    0.278    0.462   94.102  162.161
  499.500    4.650    0.279    0.469   95.629  163.885
  499.750    4.844    0.277    0.481   92.301  167.243
  500.000    5.120    0.269    0.477   89.649  171.218
  500.250    5.273    0.269    0.466   90.928  174.168
  500.500    5.451    0.275    0.452   92.266  175.174
  500.750    5.572    0.272    0.447   91.642  173.621
  501.000    5.654    0.268    0.456   88.745  170.122
  501.250    5.833    0.269    0.461   85.909  167.442
  501.500    5.985    0.271    0.461   87.801  165.275
  501.750    6.153    0.267    0.454   88.651  163.924
  502.000    6.313    0.266    0.447   88.395  163.907
  502.250    6.490    0.273    0.440   89.488  163.685
  502.500    6.659    0.268    0.433   91.444  162.948
  502.750    6.883    0.259    0.441   94.750  162.522
  503.000    7.102    0.260    0.459   98.732  163.118
  503.250    7.578    0.292    0.467  102.222  165.965
  503.500    8.315    0.317    0.467   93.610  168.098
  503.750    9.192    0.317    0.464   87.827  168.692
  504.000   10.123    0.312    0.457   79.339  167.653
  504.250   10.781    0.308    0.451   76.748  166.200
  504.500   11.270    0.302    0.447   79.010  165.054
  504.750   11.414    0.297    0.457   82.009  164.424
  505.000    9.940    0.296    0.473   85.315  164.609
  505.250   10.705    0.301    0.420   81.742  164.286
  505.500   12.214    0.288    0.385   76.693  162.937
  505.750   13.352    0.260    0.364   72.812  161.379
