~VERSION INFORMATION
 VERS.                 2.0:   CWLS LOG ASCII STANDARD -VERSION 2.0
 WRAP.                  NO:   ONE LINE PER DEPTH STEP
~WELL INFORMATION BLOCK
#MNEM.UNIT           DATA                    DESCRIPTION OF MNEMONIC
#---------    -------------------            -------------------------------
# Generated from Intellog Unique Number	CS_69_70/WELL/812
WELL.         CANADIAN WORLDWIDE ENERGY      : Well_name    - WELL
LOC .         00/07-06-069-09W4/0            : Location     - LOCATION
UWI .         00/07-06-069-09W4/0            : Uwi          - UNIQUE WELL ID
ENTR.         SP                             : Entered      - ENTERED BY
SRVC.         SCHLUMBERGER                   : Scn          - SERVICE COMPANY
STRT.M        475                            : top_depth    - START DEPTH
STOP.M        685                            : bot_depth    - STOP DEPTH
STEP.M        0.25                           : increment    - STEP LENGTH
 NULL. -999.2500:NULL Value
~CURVE INFORMATION BLOCK
#MNEM UNIT       ERCB CURVE CODE    CURVE DESCRIPTION
#-----------   ------------------   ----------------------------------
DEPT.M        00 001 00 00         : DEPTH        - DEPTH
ILD .OHMM     00 120 00 00         : RESD         - DEEP RESISTIVITY (DIL)
DPHI.V/V      00 890 00 00         : PHID         - DENSITY POROSITY (LIMESTONE)
NPHI.V/V      00 330 00 00         : PHIN         - NEUTRON POROSITY (LIMESTONE)
GR  .API      00 310 00 00         : GR           - GAMMA RAY
~PARAMETER INFORMATION
#MNEM.UNIT           DATA             DESCRIPTION OF MNEMONIC
#---------         -----------     ------------------------------
GL  .M        785.99               : gl           - GROUND LEVEL ELEVATION
EREF.M        789.09               : kb           - ELEVATION OF DEPTH REFERENCE
DATM.M        785.99               : datum        - DATUM ELEVATION
TDD .M        680                  : tdd          - TOTAL DEPTH DRILLER
RUN .         ONE                  : Run          - RUN NUMBER
ENG .         BILL                 : Engineer     - RECORDING ENGINEER
WIT .         JIM                  : Witness      - WITNESSED BY
MUD .         GEL                  : Mud_type     - MUD TYPE
MATR.         LIMESTONE            : Logunit      - NEUTRON MATRIX
TMAX.C        25                   : BHT          - MAXIMUM RECORDED TEMPERATURE
BHTD.M        680                  : BHTDEP       - MAXIMUM RECORDED TEMPERATURE
MATR.         1                    : LOGUNIT      - NEUTRON MATRIX
RMT .C        25                   : MDTP         - TEMPERATURE OF MUD
NEUT.         1                    : NEUTRON      - NEUTRON TYPE
RESI.         0                    : RESIST       - RESISTIVITY TYPE
RMC .OHMM     0.25                 : RMC          - RESISTIVITY OF MUD CAKE
RMF .OHMM     0.25                 : RMF          - RESISTIVITY OF MUD FILTRATE
SUFT.C        15                   : SUFT         - SURFACE TEMPERATURE
~A  DEPTH     RESD     PHID     PHIN       GR
# ...
  562.000    6.292    0.273    0.457   86.893
  562.250    6.203    0.271    0.443   85.733
  562.500    6.104    0.279    0.432   84.940
  562.750    6.062    0.289    0.439   83.597
  563.000    6.102    0.295    0.426   82.193
  563.250    6.213    0.282    0.449   86.041
  563.500    6.288    0.319    0.472   88.851
  563.750    6.377    0.331    0.466   77.797
  564.000    6.455    0.321    0.465   75.294
  564.250    6.472    0.314    0.473   75.539
  564.500    6.309    0.325    0.478   76.883
  564.750    6.033    0.314    0.478   78.594
  565.000    5.770    0.287    0.469   80.427
  565.250    5.581    0.269    0.458   82.382
  565.500    5.460    0.258    0.447   84.215
  565.750    5.262    0.251    0.454   85.192
  566.000    5.080    0.246    0.468   86.476
  566.250    5.027    0.242    0.481   87.209
  566.500    5.050    0.243    0.461   87.577
  566.750    5.083    0.247    0.447   87.760
  567.000    5.068    0.255    0.439   88.677
  567.250    5.045    0.250    0.443   90.327
  567.500    5.067    0.243    0.456   92.709
  567.750    5.091    0.238    0.469   95.092
  568.000    5.133    0.233    0.475   90.634
  568.250    5.176    0.229    0.462   90.391
  568.500    5.210    0.225    0.459   93.384
  568.750    5.234    0.225    0.487   95.705
  569.000    5.220    0.227    0.500   94.118
  569.250    5.224    0.225    0.476   96.501
  569.500    5.207    0.220    0.465   99.005
  569.750    5.201    0.217    0.465   99.861
  570.000    5.168    0.215    0.460   98.884
  570.250    5.142    0.216    0.453  100.229
  570.500    5.079    0.224    0.457  103.527
  570.750    4.997    0.221    0.466  109.391
  571.000    4.879    0.218    0.467  113.301
  571.250    4.683    0.221    0.452  105.911
  571.500    4.184    0.234    0.446  100.537
  571.750    3.781    0.238    0.440   99.194
  572.000    3.417    0.228    0.452  105.486
  572.250    3.118    0.221    0.470  109.823
  572.500    2.937    0.214    0.488  111.534
  572.750    2.819    0.221    0.467  111.351
  573.000    2.727    0.228    0.465  113.489
  573.250    2.658    0.232    0.500  110.375
  573.500    2.660    0.234    0.521  105.673
  573.750    2.749    0.238    0.531   99.749
  574.000    2.901    0.245    0.522   95.414
  574.250    3.264    0.251    0.504   92.055
  574.500    3.794    0.254    0.478   94.560
  574.750    4.087    0.254    0.468   96.881
  575.000    4.330    0.249    0.475   98.409
  575.250    4.441    0.243    0.476   97.738
  575.500    4.478    0.236    0.461   94.562
  575.750    4.440    0.229    0.450   92.365
  576.000    4.352    0.236    0.441   91.510
  576.250    4.194    0.245    0.447   91.389
  576.500    4.041    0.239    0.451   92.061
  576.750    3.895    0.232    0.461   92.917
  577.000    3.832    0.227    0.478   94.750
  577.250    3.799    0.226    0.491   96.277
  577.500    3.789    0.248    0.482   94.934
  577.750    3.798    0.278    0.469   85.346
  578.000    3.822    0.297    0.457   78.201
  578.250    3.847    0.309    0.451   73.682
  578.500    3.895    0.321    0.457   73.255
  578.750    3.920    0.322    0.469   72.645
  579.000    3.930    0.323    0.452   71.302
  579.250    3.957    0.325    0.439   69.287
  579.500    3.974    0.329    0.455   68.921
  579.750    4.023    0.329    0.451   72.220
  580.000    4.476    0.311    0.434   75.091
  580.250    5.133    0.267    0.419   78.879
  580.500    5.920    0.215    0.469   81.933
  580.750    6.764    0.200    0.493   75.338
  581.000    7.301    0.159    0.515   67.948
  581.250    6.930    0.088    0.426   60.437
  581.500    6.192    0.057    0.298   67.278
  581.750    5.327    0.094    0.237   78.272
  582.000    4.565    0.141    0.350   82.975
  582.250    4.204    0.180    0.403   81.022
  582.500    3.990    0.194    0.412   78.823
  582.750    3.897    0.195    0.416   77.541
  583.000    3.834    0.195    0.424   84.077
  583.250    3.751    0.222    0.434   88.170
  583.500    3.684    0.247    0.456   86.522
  583.750    3.666    0.258    0.469   86.950
  584.000    3.662    0.260    0.475   89.149
  584.250    3.686    0.269    0.476   90.432
  584.500    3.738    0.275    0.471   87.379
  584.750    3.791    0.272    0.466   82.555
  585.000    3.844    0.267    0.463   83.411
  585.250    3.899    0.267    0.460   86.709
  585.500    3.962    0.266    0.484   89.581
  585.750    4.018    0.260    0.488   91.474
  586.000    4.051    0.249    0.475   91.109
  586.250    4.078    0.232    0.457   89.460
  586.500    4.073    0.222    0.447   87.690
  586.750    4.031    0.227    0.465   85.247
  587.000    4.011    0.240    0.453   83.111
  587.250    4.007    0.252    0.446   86.226
  587.500    3.996    0.244    0.476   88.364
  587.750    3.984    0.239    0.495   90.014
  588.000    3.986    0.242    0.483   91.480
  588.250    3.997    0.249    0.483   93.252
  588.500    4.008    0.241    0.502   94.413
  588.750    4.027    0.231    0.484   97.040
  589.000    4.030    0.238    0.472   98.201
  589.250    4.041    0.249    0.471   96.308
  589.500    3.901    0.247    0.476   95.393
  589.750    3.682    0.249    0.465   94.600
  590.000    3.365    0.242    0.466   92.646
  590.250    3.134    0.236    0.473   93.074
  590.500    2.848    0.230    0.468   97.472
  590.750    2.588    0.234    0.468  103.641
  591.000    2.434    0.243    0.477  109.689
  591.250    2.297    0.248    0.495  111.888
  591.500    2.160    0.255    0.528  107.430
  591.750    2.081    0.255    0.543  108.286
  592.000    1.950    0.254    0.544  110.974
  592.250    1.868    0.251    0.539  112.929
  592.500    1.821    0.248    0.527  110.975
  592.750    1.805    0.257    0.521  112.075
  593.000    1.814    0.266    0.514  112.564
  593.250    1.853    0.273    0.529  106.152
  593.500    1.952    0.271    0.547  102.000
  593.750    2.040    0.269    0.558   98.824
  594.000    2.149    0.271    0.556   99.130
  594.250    2.217    0.272    0.541  101.879
  594.500    2.278    0.272    0.529  102.857
  594.750    2.350    0.268    0.523  101.697
  595.000    2.410    0.263    0.514  103.347
  595.250    2.477    0.256    0.518  104.020
  595.500    2.536    0.249    0.537  101.761
  595.750    2.636    0.249    0.540   96.814
  596.000    2.787    0.266    0.520   90.585
  596.250    3.042    0.281    0.490   86.860
  596.500    3.285    0.290    0.471   81.853
  596.750    3.486    0.277    0.457   85.457
  597.000    3.686    0.264    0.442   88.939
  597.250    3.852    0.250    0.430   90.527
  597.500    4.034    0.231    0.422   91.566
  597.750    4.193    0.216    0.447   91.994
  598.000    4.342    0.197    0.453   86.193
  598.250    4.488    0.182    0.450   81.063
  598.500    4.620    0.167    0.442   81.003
  598.750    4.713    0.207    0.445   86.134
  599.000    4.663    0.229    0.439   88.883
  599.250    4.579    0.232    0.448   90.899
  599.500    4.430    0.224    0.460   93.098
  599.750    4.277    0.217    0.468   97.069
  600.000    4.145    0.211    0.459   97.253
  600.250    4.124    0.210    0.445   94.811
  600.500    4.105    0.220    0.432   93.101
  600.750    4.077    0.239    0.422   90.842
  601.000    4.049    0.240    0.427   89.926
  601.250    4.053    0.238    0.441   89.744
  601.500    4.033    0.235    0.452   89.561
  601.750    4.021    0.233    0.447   87.669
  602.000    4.040    0.227    0.438   85.715
  602.250    4.097    0.222    0.432   88.891
  602.500    4.171    0.214    0.476   90.358
  602.750    4.222    0.219    0.481   91.336
  603.000    4.250    0.210    0.460   92.741
  603.250    4.236    0.203    0.440   94.391
  603.500    4.224    0.208    0.426   95.491
  603.750    4.204    0.227    0.426   96.713
  604.000    4.199    0.238    0.438   97.508
  604.250    4.291    0.232    0.449   97.997
  604.500    4.658    0.231    0.458   96.532
  604.750    5.056    0.226    0.463   92.257
  605.000    5.637    0.201    0.357   83.768
  605.250    5.663    0.072    0.286   72.714
