~VERSION INFORMATION
 VERS.                 2.0:   CWLS LOG ASCII STANDARD -VERSION 2.0
 WRAP.                  NO:   ONE LINE PER DEPTH STEP
~WELL INFORMATION BLOCK
#MNEM.UNIT           DATA                    DESCRIPTION OF MNEMONIC
#---------    -------------------            -------------------------------
# Generated from Intellog Unique Number	CS_77_79/WELL/856
WELL.         CANADIAN WORLDWIDE ENERGY      : Well_name    - WELL
LOC .         00/05-19-077-04W4/0            : Location     - LOCATION
UWI .         00/05-19-077-04W4/0            : Uwi          - UNIQUE WELL ID
ENTR.         SP                             : Entered      - ENTERED BY
SRVC.         SCHLUMBERGER                   : Scn          - SERVICE COMPANY
STRT.M        150                            : top_depth    - START DEPTH
STOP.M        405                            : bot_depth    - STOP DEPTH
STEP.M        0.25                           : increment    - STEP LENGTH
 NULL. -999.2500:NULL Value
~CURVE INFORMATION BLOCK
#MNEM UNIT       ERCB CURVE CODE    CURVE DESCRIPTION
#-----------   ------------------   ----------------------------------
DEPT.M        00 001 00 00         : DEPTH        - DEPTH
ILD .OHMM     00 120 00 00         : RESD         - DEEP RESISTIVITY (DIL)
DPHI.V/V      00 890 00 00         : PHID         - DENSITY POROSITY (LIMESTONE)
NPHI.V/V      00 330 00 00         : PHIN         - NEUTRON POROSITY (LIMESTONE)
GR  .API      00 310 00 00         : GR           - GAMMA RAY
~PARAMETER INFORMATION
#MNEM.UNIT           DATA             DESCRIPTION OF MNEMONIC
#---------         -----------     ------------------------------
GL  .M        563.2                : gl           - GROUND LEVEL ELEVATION
EREF.M        566.2                : kb           - ELEVATION OF DEPTH REFERENCE
DATM.M        563.2                : datum        - DATUM ELEVATION
TDD .M        405.5                : tdd          - TOTAL DEPTH DRILLER
RUN .         ONE                  : Run          - RUN NUMBER
ENG .         BILL                 : Engineer     - RECORDING ENGINEER
WIT .         JIM                  : Witness      - WITNESSED BY
MUD .         GEL                  : Mud_type     - MUD TYPE
MATR.         LIMESTONE            : Logunit      - NEUTRON MATRIX
TMAX.C        24                   : BHT          - MAXIMUM RECORDED TEMPERATURE
BHTD.M        405.5                : BHTDEP       - MAXIMUM RECORDED TEMPERATURE
MATR.         1                    : LOGUNIT      - NEUTRON MATRIX
RMT .C        25                   : MDTP         - TEMPERATURE OF MUD
NEUT.         1                    : NEUTRON      - NEUTRON TYPE
RESI.         0                    : RESIST       - RESISTIVITY TYPE
RMC .OHMM     0.25                 : RMC          - RESISTIVITY OF MUD CAKE
RMF .OHMM     0.25                 : RMF          - RESISTIVITY OF MUD FILTRATE
SUFT.C        15                   : SUFT         - SURFACE TEMPERATURE
~A  DEPTH     RESD     PHID     PHIN       GR
# ...
  237.000    6.311    0.225    0.458  108.070
  237.250    6.199    0.222    0.437  104.405
  237.500    6.446    0.219    0.421  102.571
  237.750    6.573    0.215    0.425   99.521
  238.000    6.965    0.215    0.420   97.692
  238.250    7.241    0.216    0.411  102.659
  238.500    7.249    0.220    0.423  102.688
  238.750    7.254    0.213    0.438  103.957
  239.000    7.259    0.214    0.451  105.214
  239.250    7.131    0.220    0.450  105.860
  239.500    7.002    0.230    0.455  105.894
  239.750    7.006    0.224    0.443  107.153
  240.000    7.148    0.217    0.448  103.484
  240.250    7.294    0.217    0.456  102.888
  240.500    7.299    0.230    0.455  106.000
  240.750    7.304    0.239    0.450  109.116
  241.000    7.453    0.244    0.443  105.443
  241.250    7.458    0.234    0.438  104.247
  241.500    7.463    0.221    0.431  104.885
  241.750    7.333    0.214    0.438  105.528
  242.000    7.478    0.224    0.444  105.564
  242.250    7.483    0.228    0.446  105.607
  242.500    7.493    0.229    0.440  105.636
  242.750    7.641    0.225    0.435  105.666
  243.000    7.648    0.222    0.426  105.687
  243.250    7.800    0.215    0.427  105.696
  243.500    6.970    0.215    0.437  102.029
  243.750    6.973    0.214    0.441  102.682
  244.000    7.114    0.206    0.443  103.315
  244.250    7.118    0.206    0.432  103.343
  244.500    7.265    0.208    0.418   99.669
  244.750    7.410    0.208    0.416  101.548
  245.000    7.415    0.206    0.422  103.428
  245.250    7.562    0.206    0.427   99.764
  245.500    7.715    0.222    0.432   98.546
  245.750    7.871    0.235    0.438   97.959
  246.000    7.875    0.237    0.437   98.604
  246.250    8.034    0.228    0.427   98.017
  246.500    8.195    0.216    0.418   94.965
  246.750    8.047    0.213    0.423   93.751
  247.000    7.906    0.222    0.424   96.867
  247.250    7.762    0.229    0.421  101.230
  247.500    7.621    0.231    0.426  102.481
  247.750    7.073    0.229    0.433  103.742
  248.000    6.944    0.234    0.440  104.388
  248.250    6.692    0.227    0.446  103.807
  248.500    6.572    0.215    0.457  104.457
  248.750    6.579    0.219    0.456  104.482
  249.000    6.583    0.222    0.453  103.888
  249.250    6.593    0.226    0.468  102.689
  249.500    6.474    0.229    0.473  101.475
  249.750    6.478    0.231    0.472   98.424
  250.000    6.483    0.232    0.462   98.452
  250.250    6.487    0.226    0.449   99.091
  250.500    6.372    0.216    0.451  100.988
  250.750    6.259    0.210    0.459  100.999
  251.000    6.145    0.214    0.462   99.792
  251.250    6.152    0.224    0.460   98.585
  251.500    6.039    0.226    0.439   98.000
  251.750    5.932    0.227    0.423   95.561
  252.000    5.609    0.230    0.417   94.358
  252.250    5.406    0.237    0.437   95.003
  252.500    5.209    0.239    0.450   95.642
  252.750    5.211    0.250    0.456   95.052
  253.000    5.418    0.276    0.448   92.613
  253.250    6.193    0.297    0.435   84.620
  253.500    7.934    0.338    0.436   74.771
  253.750   10.161    0.348    0.437   66.158
  254.000   12.770    0.347    0.429   62.485
  254.250   14.598    0.346    0.426   61.897
  254.500   15.765    0.346    0.426   61.931
  254.750   16.391    0.349    0.424   61.339
  255.000   16.717    0.350    0.420   61.370
  255.250   17.058    0.345    0.419   60.771
  255.500   17.073    0.344    0.432   61.423
  255.750   17.413    0.344    0.435   61.456
  256.000   17.424    0.346    0.441   62.716
  256.250   17.439    0.349    0.441   63.977
  256.500   17.462    0.350    0.437   64.622
  256.750   17.473    0.350    0.433   64.647
  257.000   17.486    0.350    0.438   64.065
  257.250   17.504    0.351    0.443   64.086
  257.500   17.516    0.352    0.440   64.756
  257.750   18.216    0.356    0.433   62.292
  258.000   18.576    0.358    0.420   61.086
  258.250   18.945    0.352    0.397   61.751
  258.500   20.850    0.322    0.365   61.774
  258.750   23.836    0.176    0.295   60.558
  259.000   28.844    0.047    0.180   58.124
  259.250   32.344    0.026    0.171   55.672
  259.500   35.604    0.021    0.175   53.233
  259.750   34.967    0.033    0.199   54.509
  260.000   34.330    0.044    0.235   55.764
  260.250   28.419    0.188    0.292   60.727
  260.500   21.813    0.234    0.338   62.605
  260.750   19.854    0.270    0.383   62.635
  261.000   18.072    0.335    0.435   63.285
  261.250   16.449    0.342    0.423   62.084
  261.500   16.782    0.340    0.395   61.486
  261.750   16.796    0.328    0.354   59.661
  262.000   18.138    0.232    0.244   54.760
  262.250   18.852    0.198    0.234   49.843
  262.500   19.605    0.080    0.240   45.553
  262.750   19.254    0.112    0.267   51.755
  263.000   18.553    0.261    0.304   58.577
  263.250   17.872    0.329    0.351   61.691
  263.500   16.581    0.342    0.411   62.333
  263.750   15.983    0.340    0.415   62.359
  264.000   15.694    0.340    0.422   62.389
  264.250   15.125    0.343    0.431   62.417
  264.500   15.139    0.350    0.435   63.062
  264.750   14.868    0.351    0.433   61.243
  265.000   14.884    0.351    0.429   61.894
  265.250   14.615    0.346    0.444   63.776
  265.500   14.351    0.337    0.453   65.034
  265.750   14.360    0.331    0.455   66.296
  266.000   13.838    0.333    0.450   67.554
  266.250   13.591    0.327    0.445   69.434
  266.500   13.343    0.319    0.463   68.227
  266.750   13.112    0.318    0.471   67.650
  267.000   13.122    0.324    0.477   67.675
  267.250   13.131    0.327    0.469   68.949
  267.500   13.391    0.335    0.460   68.971
  267.750   13.405    0.350    0.457   69.614
  268.000   13.671    0.353    0.462   69.635
  268.250   13.948    0.350    0.463   67.814
  268.500   13.957    0.345    0.453   67.237
  268.750   14.243    0.342    0.460   66.640
  269.000   14.524    0.339    0.465   66.046
  269.250   14.534    0.332    0.460   66.074
  269.500   14.276    0.331    0.448   64.869
  269.750   14.021    0.332    0.443   63.663
  270.000   13.507    0.327    0.451   64.317
  270.250   12.297    0.319    0.455   66.192
  270.500   10.984    0.314    0.442   68.066
  270.750    9.809    0.306    0.429   67.484
  271.000    7.820    0.299    0.435   66.897
  271.250    7.117    0.295    0.462   68.151
  271.500    6.120    0.261    0.474   73.118
  271.750    5.365    0.230    0.482   81.793
  272.000    4.975    0.219    0.490   93.546
  272.250    4.360    0.228    0.495   97.896
  272.500    3.679    0.256    0.498   97.928
  272.750    3.287    0.273    0.489   96.106
  273.000    3.049    0.283    0.483   94.281
  273.250    2.937    0.270    0.495   95.550
  273.500    2.778    0.261    0.512   97.427
  273.750    2.728    0.256    0.522   98.683
  274.000    2.680    0.243    0.516  101.184
  274.250    2.733    0.235    0.523  103.061
  274.500    2.735    0.237    0.551  104.329
  274.750    2.843    0.247    0.561  105.595
  275.000    3.190    0.258    0.546  106.853
  275.250    3.444    0.259    0.534  106.885
  275.500    3.648    0.258    0.511  106.291
  275.750    4.094    0.254    0.491  103.233
  276.000    4.420    0.243    0.496   98.941
  276.250    4.772    0.238    0.496   94.655
  276.500    5.353    0.235    0.487   91.598
  276.750    5.779    0.233    0.492   89.778
  277.000    6.483    0.239    0.486   88.562
  277.250    6.738    0.266    0.460   87.975
  277.500    7.275    0.272    0.448   86.773
  277.750    7.707    0.262    0.456   83.708
  278.000    8.168    0.251    0.461   81.887
  278.250    8.494    0.273    0.459   79.448
  278.500    8.661    0.288    0.440   72.070
  278.750    8.836    0.294    0.434   72.100
  279.000    9.010    0.296    0.432   74.598
  279.250    9.193    0.291    0.441   75.237
  279.500    9.379    0.293    0.442   73.420
  279.750    9.384    0.287    0.434   74.070
  280.000    9.754    0.277    0.428   74.101
  280.250   10.339    0.261    0.423   74.733
