~VERSION INFORMATION
 VERS.                 2.0:   CWLS LOG ASCII STANDARD -VERSION 2.0
 WRAP.                  NO:   ONE LINE PER DEPTH STEP
~WELL INFORMATION BLOCK
#MNEM.UNIT           DATA                    DESCRIPTION OF MNEMONIC
#---------    -------------------            -------------------------------
# Generated from Intellog Unique Number	CX_WELLS/WELL/3016
WELL.         TRITON ET AL DIVIDE            : Well_name    - WELL
LOC .         00/06-22-082-12W4/0            : Location     - LOCATION
UWI .         00/06-22-082-12W400            : Uwi          - UNIQUE WELL ID
ENTR.         T                              : Entered      - ENTERED BY
SRVC.         SCHLUMBERGER                   : Scn          - SERVICE COMPANY
DATE.         03/04/92                       : Date         - LOG DATE
STRT.M        295                            : top_depth    - START DEPTH
STOP.M        515                            : bot_depth    - STOP DEPTH
STEP.M        0.25                           : increment    - STEP LENGTH
 NULL. -999.2500:NULL Value
~CURVE INFORMATION BLOCK
#MNEM UNIT       ERCB CURVE CODE    CURVE DESCRIPTION
#-----------   ------------------   ----------------------------------
DEPT.M        00 001 00 00         : DEPTH        - DEPTH
GR  .API      00 310 00 00         : GR           - GAMMA RAY
NPHI.V/V      00 330 00 00         : PHIN         - NEUTRON POROSITY (SANDSTONE)
DPHI.V/V      00 890 00 00         : PHID         - DENSITY POROSITY (SANDSTONE)
ILD .OHMM     00 120 00 00         : RESD         - DEEP RESISTIVITY (OTHER)
~PARAMETER INFORMATION
#MNEM.UNIT           DATA             DESCRIPTION OF MNEMONIC
#---------         -----------     ------------------------------
GL  .M        740.69               : gl           - GROUND LEVEL ELEVATION
EREF.M        744.42               : kb           - ELEVATION OF DEPTH REFERENCE
DATM.M        744.42               : datum        - DATUM ELEVATION
TDD .M        526                  : tdd          - TOTAL DEPTH DRILLER
RUN .         ONE                  : Run          - RUN NUMBER
ENG .         JO                   : Engineer     - RECORDING ENGINEER
WIT .         TIM                  : Witness      - WITNESSED BY
MUD .         GEL                  : Mud_type     - MUD TYPE
MATR.         SANDSTONE            : Logunit      - NEUTRON MATRIX
TMAX.C        24                   : BHT          - MAXIMUM RECORDED TEMPERATURE
BHTD.M        526                  : BHTDEP       - MAXIMUM RECORDED TEMPERATURE
RMT .C        24                   : MDTP         - TEMPERATURE OF MUD
MUDD.KG/M     1                    : MWT          - MUD DENSITY
NEUT.         1                    : NEUTRON      - NEUTRON TYPE
RESI.         2.65                 : RESIST       - RESISTIVITY TYPE
RM  .OHMM     2.65                 : RM           - RESISTIVITY OF MUD
RMC .OHMM     1.52                 : RMC          - RESISTIVITY OF MUD CAKE
RMF .OHMM     2.86                 : RMF          - RESISTIVITY OF MUD FILTRATE
SUFT.C        4                    : SUFT         - SURFACE TEMPERATURE
~A  DEPTH       GR     PHIN     PHID     RESD
# ...
  469.000   86.510    0.384    0.220   35.613
  469.250   72.168    0.384    0.228   46.450
  469.500   63.196    0.384    0.252   60.585
  469.750   54.815    0.383    0.274   67.089
  470.000   55.993    0.380    0.280   63.074
  470.250   58.950    0.375    0.282   55.764
  470.500   61.321    0.373    0.285   51.369
  470.750   64.283    0.372    0.285   45.420
  471.000   67.245    0.372    0.279   40.156
  471.250   71.993    0.369    0.252   34.783
  471.500   75.552    0.367    0.240   32.042
  471.750   78.514    0.367    0.220   29.514
  472.000   81.481    0.368    0.206   27.186
  472.250   86.831    0.368    0.203   25.041
  472.500   93.373    0.367    0.198   23.543
  472.750   98.722    0.364    0.189   22.134
  473.000  103.475    0.367    0.178   21.677
  473.250  110.012    0.371    0.165   21.669
  473.500  114.173    0.375    0.171   21.664
  473.750  112.362    0.375    0.177   23.502
  474.000   88.472    0.372    0.197   24.982
  474.250   75.915    0.370    0.203   27.664
  474.500   67.540    0.366    0.206   31.911
  474.750   66.325    0.360    0.214   33.922
  475.000   70.481    0.358    0.224   36.058
  475.250   77.023    0.355    0.226   36.791
  475.500   87.146    0.356    0.225   34.581
  475.750   87.125    0.358    0.228   33.878
  476.000   85.314    0.364    0.231   32.509
  476.250   76.341    0.369    0.239   30.563
  476.500   70.348    0.381    0.247   28.152
  476.750   83.460    0.389    0.250   24.386
  477.000   95.969    0.386    0.218   22.007
  477.250  105.490    0.375    0.191   19.062
  477.500   92.347    0.368    0.178   17.559
  477.750   92.325    0.367    0.169   16.849
  478.000  101.255    0.367    0.166   16.504
  478.250  105.411    0.367    0.161   16.498
  478.500  103.594    0.367    0.156   16.158
  478.750  101.788    0.367    0.161   16.152
  479.000   96.993    0.367    0.203   16.481
  479.250   85.634    0.367    0.232   16.817
  479.500   68.303    0.367    0.249   16.817
  479.750   66.492    0.367    0.244   16.801
  480.000   70.647    0.367    0.222   17.144
  480.250   78.383    0.367    0.215   17.856
  480.500   83.130    0.368    0.209   18.978
  480.750   81.314    0.369    0.204   19.766
  481.000   78.314    0.371    0.205   20.587
  481.250   75.912    0.372    0.212   21.440
  481.500   71.713    0.374    0.210   22.788
  481.750   69.300    0.378    0.204   23.253
  482.000   68.091    0.382    0.208   24.717
  482.250   66.274    0.388    0.219   26.271
  482.500   65.656    0.391    0.230   29.089
  482.750   62.651    0.397    0.236   30.296
  483.000   59.646    0.402    0.242   33.544
  483.250   61.421    0.406    0.247   34.231
  483.500   62.587    0.393    0.252   35.649
  483.750   62.566    0.383    0.270   39.477
  484.000   61.346    0.376    0.263   47.443
  484.250   60.137    0.371    0.255   53.614
  484.500   58.326    0.368    0.255   53.605
  484.750   56.509    0.364    0.255   53.587
  485.000   57.681    0.363    0.258   53.570
  485.250   62.439    0.363    0.259   52.459
  485.500   65.396    0.365    0.248   52.451
  485.750   64.783    0.369    0.234   53.508
  486.000   63.569    0.377    0.241   54.601
  486.250   62.354    0.382    0.260   56.863
  486.500   61.731    0.385    0.263   59.219
  486.750   61.113    0.386    0.267   64.243
  487.000   59.903    0.386    0.268   68.288
  487.250   58.689    0.386    0.271   69.683
  487.500   57.474    0.386    0.273   72.564
  487.750   56.254    0.385    0.274   74.039
  488.000   55.045    0.381    0.275   80.321
  488.250   53.830    0.380    0.279   85.392
  488.500   52.019    0.378    0.285   96.506
  488.750   50.202    0.378    0.292  106.867
  489.000   47.789    0.377    0.297  113.604
  489.250   47.171    0.377    0.298  113.558
  489.500   47.746    0.378    0.299  108.978
  489.750   50.714    0.379    0.301   96.340
  490.000   55.461    0.382    0.301   86.936
  490.250   54.241    0.382    0.300   83.429
  490.500   54.220    0.383    0.297   78.436
  490.750   54.806    0.384    0.294   76.823
  491.000   57.172    0.386    0.286   76.804
  491.250   59.532    0.389    0.279   76.772
  491.500   61.898    0.390    0.272   76.753
  491.750   64.865    0.389    0.267   76.728
  492.000   69.618    0.389    0.256   79.900
  492.250   66.613    0.388    0.260   84.931
  492.500   54.647    0.387    0.267   81.499
  492.750   52.846    0.387    0.285   70.600
  493.000   49.244    0.388    0.288   57.517
  493.250   44.444    0.389    0.293   38.972
  493.500   44.428    0.390    0.288   37.403
  493.750   52.761    0.390    0.260   33.755
  494.000   65.868    0.389    0.229   29.241
  494.250   75.990    0.384    0.177   25.330
  494.500   90.887    0.370    0.153   22.860
  494.750   97.424    0.372    0.157   20.207
  495.000   98.602    0.381    0.183   19.001
  495.250   94.403    0.387    0.187   18.230
  495.500   89.012    0.388    0.192   18.227
  495.750   85.405    0.385    0.194   17.852
  496.000   91.356    0.377    0.199   18.215
  496.250   94.915    0.364    0.201   18.208
  496.500   91.303    0.368    0.201   18.960
  496.750   90.099    0.374    0.199   19.346
  497.000   90.675    0.379    0.194   19.343
  497.250   90.653    0.384    0.185   20.144
  497.500   91.229    0.381    0.179   20.975
  497.750   91.208    0.375    0.176   21.400
  498.000   90.579    0.372    0.176   21.395
  498.250   91.149    0.366    0.178   20.955
  498.500   91.735    0.368    0.179   20.949
  498.750   91.709    0.369    0.181   20.518
  499.000   91.688    0.371    0.184   20.096
  499.250   91.666    0.369    0.186   19.683
  499.500   89.850    0.368    0.187   19.675
  499.750   88.640    0.367    0.189   19.670
  500.000   86.829    0.366    0.189   19.660
  500.250   85.609    0.366    0.189   19.655
  500.500   85.002    0.365    0.189   19.651
  500.750   82.583    0.361    0.189   19.639
  501.000   81.379    0.361    0.189   19.235
  501.250   80.164    0.361    0.189   19.230
  501.500   80.138    0.361    0.189   19.224
  501.750   80.111    0.361    0.189   18.830
  502.000   80.095    0.360    0.188   18.822
  502.250   81.267    0.358    0.189   18.815
  502.500   81.246    0.357    0.189   18.812
  502.750   81.822    0.357    0.190   19.193
  503.000   84.187    0.357    0.190   19.585
  503.250   85.359    0.357    0.184   19.981
  503.500   85.338    0.362    0.184   19.976
  503.750   84.720    0.366    0.208   20.379
  504.000   78.135    0.370    0.240   20.374
  504.250   69.755    0.376    0.245   20.366
  504.500   75.109    0.371    0.225   20.359
  504.750   79.862    0.367    0.194   20.351
  505.000   85.211    0.361    0.195   20.348
  505.250   82.792    0.361    0.204   20.336
  505.500   79.798    0.361    0.209   20.331
  505.750   72.616    0.361    0.209   20.328
  506.000   70.805    0.362    0.207   20.321
  506.250   80.331    0.362    0.206   20.312
  506.500   82.691    0.362    0.204   19.893
  506.750   83.864    0.361    0.202   19.482
  507.000   83.848    0.360    0.202   19.477
  507.250   83.219    0.358    0.198   19.471
  507.500   82.612    0.360    0.188   19.463
  507.750   82.591    0.360    0.182   19.066
  508.000   83.161    0.360    0.192   19.059
  508.250   81.349    0.359    0.193   18.289
  508.500   78.344    0.357    0.193   17.193
  508.750   75.340    0.357    0.199   16.839
  509.000   71.141    0.359    0.205   16.494
  509.250   67.540    0.360    0.233   16.486
  509.500   75.873    0.361    0.230   16.481
  509.750   85.996    0.362    0.216   16.477
  510.000   85.974    0.362    0.206   17.158
  510.250   84.749    0.362    0.200   17.507
  510.500   82.943    0.364    0.198   18.608
  510.750   79.347    0.364    0.197   19.382
  511.000   72.165    0.365    0.201   21.902
  511.250   65.580    0.366    0.226   22.352
  511.500   57.205    0.366    0.230   25.785
  511.750   53.603    0.366    0.237   30.989
  512.000   49.996    0.366    0.248   38.798
  512.250   48.782    0.368    0.258   45.679
