~VERSION INFORMATION
 VERS.                 2.0:   CWLS LOG ASCII STANDARD -VERSION 2.0
 WRAP.                  NO:   ONE LINE PER DEPTH STEP
~WELL INFORMATION BLOCK
#MNEM.UNIT           DATA                    DESCRIPTION OF MNEMONIC
#---------    -------------------            -------------------------------
# Generated from Intellog Unique Number	CX_WELLS/WELL/3007
WELL.         TRITON ATCOR THORNBURY         : Well_name    - WELL
LOC .         00/08-04-082-12W4/0            : Location     - LOCATION
UWI .         00/08-04-082-12W400            : Uwi          - UNIQUE WELL ID
ENTR.         T                              : Entered      - ENTERED BY
SRVC.         SCHLUMBERGER                   : Scn          - SERVICE COMPANY
STRT.M        300                            : top_depth    - START DEPTH
STOP.M        535                            : bot_depth    - STOP DEPTH
STEP.M        0.25                           : increment    - STEP LENGTH
 NULL. -999.2500:NULL Value
~CURVE INFORMATION BLOCK
#MNEM UNIT       ERCB CURVE CODE    CURVE DESCRIPTION
#-----------   ------------------   ----------------------------------
DEPT.M        00 001 00 00         : DEPTH        - DEPTH
GR  .API      00 310 00 00         : GR           - GAMMA RAY
NPHI.V/V      00 330 00 00         : PHIN         - NEUTRON POROSITY (SANDSTONE)
DPHI.V/V      00 890 00 00         : PHID         - DENSITY POROSITY (SANDSTONE)
ILD .OHMM     00 120 00 00         : RESD         - DEEP RESISTIVITY (OTHER)
~PARAMETER INFORMATION
#MNEM.UNIT           DATA             DESCRIPTION OF MNEMONIC
#---------         -----------     ------------------------------
GL  .M        746                  : gl           - GROUND LEVEL ELEVATION
EREF.M        748.6                : kb           - ELEVATION OF DEPTH REFERENCE
DATM.M        748.6                : datum        - DATUM ELEVATION
TDD .M        546                  : tdd          - TOTAL DEPTH DRILLER
RUN .         ONE                  : Run          - RUN NUMBER
ENG .         BILL                 : Engineer     - RECORDING ENGINEER
WIT .         JIM                  : Witness      - WITNESSED BY
MUD .         GEL                  : Mud_type     - MUD TYPE
MATR.         SANDSTONE            : Logunit      - NEUTRON MATRIX
TMAX.C        27                   : BHT          - MAXIMUM RECORDED TEMPERATURE
BHTD.M        546                  : BHTDEP       - MAXIMUM RECORDED TEMPERATURE
MATR.         1                    : LOGUNIT      - NEUTRON MATRIX
RMT .C        16                   : MDTP         - TEMPERATURE OF MUD
NEUT.         1                    : NEUTRON      - NEUTRON TYPE
RESI.         3.34                 : RESIST       - RESISTIVITY TYPE
RMC .OHMM     2                    : RMC          - RESISTIVITY OF MUD CAKE
RMF .OHMM     3.9                  : RMF          - RESISTIVITY OF MUD FILTRATE
SUFT.C        4                    : SUFT         - SURFACE TEMPERATURE
~A  DEPTH       GR     PHIN     PHID     RESD
# ...
  343.500   96.444    0.418    0.301    9.451
  343.750   94.081    0.418    0.298    9.456
  344.000   89.945    0.418    0.284    9.461
  344.250   86.392    0.415    0.282    9.823
  344.500   81.655    0.418    0.277   10.197
  344.750   76.323    0.422    0.276   10.394
  345.000   72.776    0.419    0.282   10.396
  345.250   72.799    0.417    0.289   10.212
  345.500   74.025    0.413    0.299    9.848
  345.750   75.238    0.415    0.307    9.671
  346.000   76.452    0.424    0.311    9.155
  346.250   77.070    0.439    0.317    8.828
  346.500   80.670    0.439    0.288    8.357
  346.750   81.872    0.414    0.284    8.207
  347.000   84.870    0.410    0.273    8.060
  347.250   87.280    0.407    0.272    8.066
  347.500   90.290    0.410    0.269    8.219
  347.750   91.498    0.417    0.268    8.691
  348.000   93.301    0.422    0.274    9.537
  348.250   93.925    0.427    0.283   10.463
  348.500   92.163    0.431    0.315   13.309
  348.750   88.616    0.436    0.336   16.015
  349.000   85.064    0.449    0.304   18.233
  349.250   82.713    0.472    0.271   20.006
  349.500   80.951    0.464    0.189   20.016
  349.750   72.638    0.396    0.319   18.262
  350.000   65.520    0.335    0.326   17.284
  350.250   69.126    0.391    0.337   15.481
  350.500   70.333    0.439    0.344   14.124
  350.750   72.142    0.475    0.338   13.123
  351.000   72.165    0.471    0.317   11.756
  351.250   73.986    0.466    0.314   11.332
  351.500   76.378    0.468    0.311   10.728
  351.750   82.953    0.495    0.304   10.156
  352.000   88.332    0.495    0.300    9.792
  352.250   90.146    0.486    0.298    8.933
  352.500   90.770    0.490    0.295    8.612
  352.750   91.383    0.498    0.293    8.004
  353.000   92.001    0.492    0.293    7.860
  353.250   92.614    0.485    0.291    7.442
  353.500   94.428    0.478    0.291    7.175
  353.750   96.237    0.475    0.291    7.047
  354.000   98.641    0.464    0.290    7.181
  354.250   99.259    0.456    0.291    7.595
  354.500   97.503    0.453    0.301    8.030
  354.750   95.736    0.453    0.315    8.976
  355.000   92.784    0.451    0.329    9.491
  355.250   89.243    0.450    0.331   10.609
  355.500   91.641    0.447    0.331   12.082
  355.750   90.486    0.446    0.331   12.774
  356.000   85.743    0.440    0.331   13.507
  356.250   78.030    0.434    0.337   14.549
  356.500   71.508    0.427    0.345   15.385
  356.750   63.796    0.428    0.358   16.574
  357.000   60.844    0.439    0.369   17.530
  357.250   64.438    0.468    0.374   17.863
  357.500   63.277    0.477    0.376   18.203
  357.750   62.699    0.489    0.374   18.551
  358.000   62.128    0.484    0.373   18.560
  358.250   60.973    0.488    0.368   18.917
  358.500   60.389    0.479    0.362   19.279
  358.750   58.038    0.446    0.352   19.288
  359.000   55.086    0.423    0.350   19.659
  359.250   53.914    0.418    0.349   19.671
  359.500   52.164    0.413    0.351   19.676
  359.750   50.991    0.410    0.356   20.054
  360.000   50.420    0.403    0.365   20.438
  360.250   49.259    0.397    0.374   20.445
  360.500   48.681    0.399    0.365   20.839
  360.750   48.716    0.405    0.354   20.849
  361.000   48.139    0.408    0.354   20.856
  361.250   48.162    0.416    0.361   20.871
  361.500   47.591    0.416    0.357   20.879
  361.750   47.019    0.398    0.353   20.894
  362.000   45.257    0.386    0.347   20.901
  362.250   44.096    0.395    0.343   20.909
  362.500   43.519    0.395    0.342   20.919
  362.750   43.548    0.400    0.349   21.319
  363.000   44.167    0.402    0.367   21.329
  363.250   44.791    0.407    0.368   21.342
  363.500   44.803    0.414    0.365   21.357
  363.750   44.826    0.419    0.364   21.365
  364.000   44.260    0.428    0.361   21.378
  364.250   44.284    0.406    0.357   21.386
  364.500   44.307    0.396    0.358   21.393
  364.750   44.331    0.398    0.362   21.015
  365.000   45.544    0.400    0.367   21.022
  365.250   48.555    0.403    0.372   21.035
  365.500   49.161    0.406    0.374   21.047
  365.750   50.375    0.412    0.375   20.672
  366.000   51.594    0.418    0.367   20.682
  366.250   52.819    0.422    0.350   20.690
  366.500   53.426    0.416    0.345   20.321
  366.750   52.855    0.403    0.335   19.959
  367.000   49.903    0.402    0.336   19.605
  367.250   45.761    0.412    0.347   19.256
  367.500   45.189    0.431    0.361   19.263
  367.750   46.403    0.438    0.380   18.924
  368.000   47.616    0.445    0.387   18.931
  368.250   48.836    0.443    0.362   18.940
  368.500   50.049    0.438    0.350   18.951
  368.750   50.673    0.438    0.348   18.958
  369.000   51.292    0.441    0.351   18.620
  369.250   51.315    0.439    0.357   18.631
  369.500   51.333    0.447    0.365   18.297
  369.750   51.374    0.453    0.366   18.306
  370.000   51.380    0.469    0.367   17.984
  370.250   51.403    0.463    0.369   17.991
  370.500   51.438    0.451    0.369   17.999
  370.750   51.456    0.455    0.367   17.683
  371.000   51.491    0.459    0.367   17.363
  371.250   51.509    0.458    0.368   17.376
  371.500   51.526    0.458    0.369   17.064
  371.750   50.966    0.459    0.369   17.072
  372.000   50.984    0.459    0.369   17.078
  372.250   50.406    0.456    0.370   16.778
  372.500   49.251    0.454    0.374   16.784
  372.750   48.079    0.455    0.376   16.489
  373.000   47.519    0.457    0.380   16.495
  373.250   46.941    0.456    0.376   16.203
  373.500   46.959    0.457    0.369   16.209
  373.750   47.589    0.463    0.361   16.215
  374.000   47.607    0.470    0.359   15.928
  374.250   48.219    0.471    0.362   15.933
  374.500   48.243    0.476    0.372   15.945
  374.750   47.671    0.476    0.377   15.662
  375.000   47.117    0.464    0.378   15.666
  375.250   47.129    0.452    0.379   15.391
  375.500   47.759    0.460    0.380   15.395
  375.750   47.771    0.465    0.377   15.404
  376.000   48.401    0.465    0.374   15.131
  376.250   49.008    0.448    0.370   15.135
  376.500   49.043    0.452    0.368   15.144
  376.750   49.655    0.474    0.368   15.153
  377.000   50.285    0.479    0.368   14.883
  377.250   50.297    0.472    0.366   14.888
  377.500   50.927    0.466    0.366   14.895
  377.750   51.540    0.468    0.367   14.906
  378.000   51.563    0.469    0.369   14.910
  378.250   52.176    0.471    0.371   14.920
  378.500   52.211    0.471    0.376   14.924
  378.750   52.229    0.471    0.376   14.933
  379.000   52.264    0.470    0.375   14.940
  379.250   52.281    0.468    0.374   14.947
  379.500   52.299    0.464    0.369   14.956
  379.750   52.334    0.460    0.368   14.963
  380.000   52.953    0.457    0.366   14.970
  380.250   53.559    0.453    0.366   15.257
  380.500   54.190    0.452    0.367   15.549
  380.750   54.796    0.451    0.367   15.556
  381.000   56.611    0.451    0.367   15.854
  381.250   58.419    0.449    0.366   16.159
  381.500   59.633    0.451    0.366   16.468
  381.750   58.466    0.458    0.364   16.474
  382.000   57.900    0.467    0.363   16.789
  382.250   58.525    0.467    0.363   17.112
  382.500   58.536    0.463    0.362   17.120
  382.750   58.560    0.458    0.354   17.445
  383.000   58.583    0.460    0.343   17.453
  383.250   56.238    0.464    0.344   17.792
  383.500   56.267    0.472    0.350   17.798
  383.750   56.874    0.474    0.354   17.806
  384.000   58.088    0.472    0.355   17.815
  384.250   58.117    0.471    0.352   17.824
  384.500   58.146    0.472    0.351   17.832
  384.750   58.753    0.473    0.353   17.519
  385.000   59.972    0.477    0.355   17.523
  385.250   60.597    0.481    0.356   16.900
  385.500   60.614    0.475    0.352   15.999
  385.750   60.638    0.459    0.330   15.426
  386.000   61.268    0.455    0.331   15.430
  386.250   61.875    0.445    0.341   14.878
  386.500   61.916    0.429    0.324   14.086
  386.750   61.332    0.423    0.317   14.089
