~VERSION INFORMATION
 VERS.                 2.0:   CWLS LOG ASCII STANDARD -VERSION 2.0
 WRAP.                  NO:   ONE LINE PER DEPTH STEP
~WELL INFORMATION BLOCK
#MNEM.UNIT           DATA                    DESCRIPTION OF MNEMONIC
#---------    -------------------            -------------------------------
# Generated from Intellog Unique Number	CS_77_79/WELL/3269
WELL.         AMOCO CANADA PETROLEUM CO.LTD. : Well_name    - WELL
LOC .         00/02-30-078-08W4/0            : Location     - LOCATION
UWI .         00/02-30-078-08W4/0            : Uwi          - UNIQUE WELL ID
ENTR.         JOETTE                         : Entered      - ENTERED BY
SRVC.         WESTERN ATLAS                  : Scn          - SERVICE COMPANY
DATE.         08-14-92                       : Date         - LOG DATE
STRT.M        165                            : top_depth    - START DEPTH
STOP.M        345                            : bot_depth    - STOP DEPTH
STEP.M        0.25                           : increment    - STEP LENGTH
 NULL. -999.2500:NULL Value
~CURVE INFORMATION BLOCK
#MNEM UNIT       ERCB CURVE CODE    CURVE DESCRIPTION
#-----------   ------------------   ----------------------------------
DEPT.M        00 001 00 00         : DEPTH        - DEPTH
ILD .OHMM     00 120 00 00         : RESD         - DEEP RESISTIVITY (DIL)
DPHI.V/V      00 890 00 00         : PHID         - DENSITY POROSITY (SANDSTONE)
NPHI.V/V      00 330 00 00         : PHIN         - NEUTRON POROSITY (SANDSTONE)
GR  .API      00 310 00 00         : GR           - GAMMA RAY
~PARAMETER INFORMATION
#MNEM.UNIT           DATA             DESCRIPTION OF MNEMONIC
#---------         -----------     ------------------------------
GL  .M        588.9                : gl           - GROUND LEVEL ELEVATION
EREF.M        592.4                : kb           - ELEVATION OF DEPTH REFERENCE
DATM.M        592.4                : datum        - DATUM ELEVATION
TDD .M        349.7                : tdd          - TOTAL DEPTH DRILLER
RUN .         ONE                  : Run          - RUN NUMBER
ENG .         BILL                 : Engineer     - RECORDING ENGINEER
WIT .         JIM                  : Witness      - WITNESSED BY
MUD .         GEL                  : Mud_type     - MUD TYPE
MATR.         SANDSTONE            : Logunit      - NEUTRON MATRIX
TMAX.C        29                   : BHT          - MAXIMUM RECORDED TEMPERATURE
BHTD.M        349.7                : BHTDEP       - MAXIMUM RECORDED TEMPERATURE
RMT .C        17                   : MDTP         - TEMPERATURE OF MUD
MUDD.KG/M     1100                 : MWT          - MUD DENSITY
NEUT.         1                    : NEUTRON      - NEUTRON TYPE
RESI.         0                    : RESIST       - RESISTIVITY TYPE
RM  .OHMM     4                    : RM           - RESISTIVITY OF MUD
RMC .OHMM     4.6                  : RMC          - RESISTIVITY OF MUD CAKE
RMF .OHMM     3.8                  : RMF          - RESISTIVITY OF MUD FILTRATE
SUFT.C        4                    : SUFT         - SURFACE TEMPERATURE
~A  DEPTH     RESD     PHID     PHIN       GR
  165.000    4.431    0.287    0.523  101.636
  165.250    4.438    0.280    0.474  106.003
  165.500    4.446    0.290    0.471  109.152
  165.750    4.288    0.309    0.508  106.133
  166.000    4.292    0.317    0.481   98.789
  166.250    4.217    0.304    0.472   92.677
  166.500    4.387    0.230    0.479   90.888
  166.750    4.741    0.261    0.442   85.406
  167.000    5.026    0.291    0.476   81.155
  167.250    5.134    0.286    0.427   95.385
  167.500    5.041    0.279    0.411   99.136
  167.750    4.861    0.286    0.425   99.809
  168.000    4.778    0.301    0.440   98.020
  168.250    4.697    0.302    0.455   93.769
  168.500    4.701    0.248    0.456   85.210
  168.750    4.798    0.257    0.457   80.343
  169.000    5.190    0.282    0.440   86.556
  169.250    5.194    0.293    0.447   92.154
  169.500    5.304    0.299    0.458   96.520
  169.750    5.312    0.272    0.452   95.963
  170.000    5.422    0.169    0.464   88.018
  170.250    5.857    0.110    0.469   77.612
  170.500    7.509    0.138    0.466   64.729
  170.750   11.426    0.170    0.455   59.247
  171.000   17.380    0.257    0.406   58.703
  171.250   21.451    0.312    0.403   55.669
  171.500   23.189    0.357    0.392   53.880
  171.750   25.057    0.345    0.398   55.169
  172.000   25.586    0.341    0.406   52.765
  172.250   24.669    0.367    0.403   46.682
  172.500   24.697    0.375    0.377   49.187
  172.750   24.734    0.368    0.410   50.476
  173.000   24.305    0.359    0.441   52.380
  173.250   23.002    0.358    0.429   51.221
  173.500   20.949    0.351    0.401   49.418
  173.750   18.368    0.343    0.391   70.433
  174.000   11.217    0.322    0.426   86.495
  174.250    8.776    0.305    0.441   93.939
  174.500    7.552    0.295    0.478  105.091
  174.750    6.876    0.288    0.447  106.409
  175.000    6.385    0.283    0.432  102.759
  175.250    6.272    0.288    0.431  100.340
  175.500    6.527    0.294    0.447  100.412
  175.750    6.787    0.300    0.479   98.609
  176.000    7.196    0.303    0.463  102.360
  176.250    7.210    0.293    0.444  103.649
  176.500    7.082    0.281    0.455   96.936
  176.750    6.831    0.286    0.488   96.378
  177.000    6.838    0.294    0.462   98.898
  177.250    6.851    0.283    0.423  100.186
  177.500    6.732    0.259    0.404  105.798
  177.750    6.613    0.257    0.422  104.625
  178.000    6.498    0.268    0.438  100.975
  178.250    6.763    0.279    0.436   99.802
  178.500    6.906    0.275    0.471  103.582
  178.750    6.916    0.270    0.476  103.625
  179.000    6.926    0.269    0.482  101.221
  179.250    7.625    0.287    0.455   95.109
  179.500    9.061    0.326    0.444   72.391
  179.750   11.616    0.365    0.460   59.508
  180.000   14.623    0.394    0.436   63.875
  180.250   16.407    0.390    0.430   68.256
  180.500   18.776    0.390    0.426   63.389
  180.750   18.104    0.404    0.443   54.200
  181.000   15.569    0.405    0.463   54.873
  181.250   12.894    0.360    0.431   82.644
  181.500   10.884    0.306    0.411   90.103
  181.750   10.297    0.272    0.380   92.007
  182.000    9.741    0.287    0.394   88.988
  182.250    9.219    0.282    0.383   86.583
  182.500    8.888    0.287    0.397   87.872
  182.750    8.573    0.300    0.426  111.335
  183.000    8.418    0.307    0.442  115.716
  183.250    8.431    0.280    0.442  109.604
  183.500    8.288    0.281    0.452  102.890
  183.750    8.141    0.293    0.489  106.026
  184.000    7.704    0.309    0.456  109.190
  184.250    7.154    0.319    0.440  106.757
  184.500    6.892    0.308    0.451  104.353
  184.750    6.651    0.307    0.478  106.872
  185.000    6.658    0.300    0.474  116.793
  185.250    6.666    0.289    0.484  114.389
  185.500    6.681    0.284    0.488  105.815
  185.750    6.816    0.283    0.457  104.026
  186.000    6.958    0.287    0.429  102.852
  186.250    7.099    0.295    0.463  102.910
  186.500    7.246    0.302    0.448   93.735
  186.750    7.257    0.341    0.479   90.099
  187.000    7.268    0.376    0.507   96.313
  187.250    7.010    0.300    0.508   97.601
  187.500    6.759    0.269    0.521  104.445
  187.750    6.639    0.242    0.487   97.731
  188.000    6.777    0.268    0.430   54.673
  188.250    7.901    0.295    0.420   46.728
  188.500   12.488    0.310    0.421   43.093
  188.750   20.889    0.323    0.390   40.703
  189.000   26.297    0.342    0.379   44.440
  189.250   28.950    0.339    0.395   50.037
  189.500   31.294    0.303    0.390   51.340
  189.750   29.605    0.329    0.371   51.398
  190.000   27.470    0.365    0.394   55.765
  190.250   24.086    0.390    0.409   60.131
  190.500   21.944    0.390    0.401   60.189
  190.750   20.768    0.393    0.391   64.555
  191.000   20.400    0.391    0.405   70.797
  191.250   19.676    0.321    0.410   69.595
  191.500   19.328    0.285    0.420   72.731
  191.750   18.285    0.287    0.428   91.885
  192.000   16.978    0.294    0.438   97.497
  192.250   16.991    0.309    0.417   93.231
  192.500   16.389    0.288    0.410   93.933
  192.750   16.728    0.303    0.420   89.038
  193.000   17.402    0.341    0.418   81.709
  193.250   18.096    0.382    0.411   84.845
  193.500   18.478    0.389    0.417   85.532
  193.750   18.506    0.331    0.426   88.682
  194.000   17.836    0.305    0.423   93.650
  194.250   11.540    0.286    0.414  104.172
  194.500    9.741    0.280    0.414  115.324
  194.750    8.541    0.271    0.419  125.230
  195.000    7.778    0.260    0.467  125.288
  195.250    6.951    0.244    0.463  124.730
  195.500    6.828    0.235    0.466  126.649
  195.750    6.712    0.225    0.487  126.707
  196.000    7.397    0.206    0.458  120.595
  196.250    7.837    0.242    0.462  121.884
  196.500    9.677    0.280    0.481  129.342
  196.750   11.498    0.306    0.496  124.476
  197.000   12.658    0.301    0.459  109.130
  197.250   15.636    0.292    0.435  113.497
  197.500   16.265    0.294    0.428  112.939
  197.750   16.284    0.279    0.439  110.535
  198.000   15.706    0.277    0.472  110.593
  198.250   14.041    0.287    0.474  106.342
  198.500   13.532    0.288    0.431   97.782
  198.750   13.043    0.279    0.426  100.302
  199.000   13.323    0.279    0.417   96.666
  199.250   13.854    0.277    0.434   91.800
  199.500   14.689    0.274    0.456   96.166
  199.750   15.574    0.264    0.423  100.533
  200.000   16.207    0.260    0.391  102.466
  200.250   16.531    0.262    0.397  100.677
  200.500   17.197    0.266    0.395   95.796
  200.750   17.229    0.269    0.360   89.069
  201.000   17.579    0.275    0.384   84.832
  201.250   18.659    0.295    0.382   82.413
  201.500   19.032    0.300    0.385   75.700
  201.750   19.798    0.280    0.394   69.001
  202.000   20.604    0.271    0.395   81.370
  202.250   21.023    0.277    0.426   82.644
  202.500   19.888    0.282    0.411   77.162
  202.750   16.788    0.286    0.409   75.373
  203.000   14.171    0.283    0.462   92.681
  203.250   12.663    0.279    0.434   98.894
  203.500   11.750    0.277    0.451  106.982
  203.750   10.906    0.286    0.424  110.733
  204.000   10.322    0.299    0.420  107.083
  204.250    9.952    0.306    0.437  100.385
  204.500    9.591    0.261    0.438  102.289
  204.750    8.574    0.243    0.426  107.257
  205.000    7.806    0.244    0.439  112.854
  205.250    7.671    0.249    0.429  111.065
  205.500   10.223    0.251    0.433  106.199
  205.750   11.258    0.252    0.418  101.948
  206.000   11.932    0.257    0.400  100.159
  206.250   13.398    0.262    0.424   97.755
  206.500   14.205    0.258    0.416   94.749
  206.750   14.494    0.248    0.397   94.807
  207.000   13.975    0.237    0.401  101.621
  207.250   13.474    0.224    0.438  104.757
  207.500   11.814    0.230    0.445  107.921
  207.750   10.759    0.244    0.396  111.042
  208.000   10.186    0.273    0.410  115.409
  208.250   10.194    0.293    0.441  113.004
