~VERSION INFORMATION
 VERS.                 2.0:   CWLS LOG ASCII STANDARD -VERSION 2.0
 WRAP.                  NO:   ONE LINE PER DEPTH STEP
~WELL INFORMATION BLOCK
#MNEM.UNIT           DATA                    DESCRIPTION OF MNEMONIC
#---------    -------------------            -------------------------------
# Generated from Intellog Unique Number	CS_67_68/WELL/2186
WELL.         GLOBEL ATMORE                  : Well_name    - WELL
LOC .         00/08-26-067-18W4/0            : Location     - LOCATION
UWI .         00/08-26-067-18W4/0            : Uwi          - UNIQUE WELL ID
ENTR.         JHS                            : Entered      - ENTERED BY
SRVC.         SCHLUMBERGER                   : Scn          - SERVICE COMPANY
STRT.M        350                            : top_depth    - START DEPTH
STOP.M        560                            : bot_depth    - STOP DEPTH
STEP.M        0.25                           : increment    - STEP LENGTH
 NULL. -999.2500:NULL Value
~CURVE INFORMATION BLOCK
#MNEM UNIT       ERCB CURVE CODE    CURVE DESCRIPTION
#-----------   ------------------   ----------------------------------
DEPT.M        00 001 00 00         : DEPTH        - DEPTH
DPHI.V/V      00 890 00 00         : PHID         - DENSITY POROSITY (LIMESTONE)
NPHI.V/V      00 330 00 00         : PHIN         - NEUTRON POROSITY (LIMESTONE)
CALI.MM       00 280 01 00         : CAL          - CALIPER
GR  .API      00 310 00 00         : GR           - GAMMA RAY
ILD .OHMM     00 120 00 00         : RESD         - DEEP RESISTIVITY (DIL)
~PARAMETER INFORMATION
#MNEM.UNIT           DATA             DESCRIPTION OF MNEMONIC
#---------         -----------     ------------------------------
GL  .M        583.7                : gl           - GROUND LEVEL ELEVATION
EREF.M        586.6                : kb           - ELEVATION OF DEPTH REFERENCE
DATM.M        586.6                : datum        - DATUM ELEVATION
TDD .M        575                  : tdd          - TOTAL DEPTH DRILLER
RUN .         ONE                  : Run          - RUN NUMBER
ENG .         BILL                 : Engineer     - RECORDING ENGINEER
WIT .         JIM                  : Witness      - WITNESSED BY
MUD .         GEL                  : Mud_type     - MUD TYPE
MATR.         LIMESTONE            : Logunit      - NEUTRON MATRIX
TMAX.C        19.4                 : BHT          - MAXIMUM RECORDED TEMPERATURE
BHTD.M        574                  : BHTDEP       - MAXIMUM RECORDED TEMPERATURE
MATR.         1                    : LOGUNIT      - NEUTRON MATRIX
RMT .C        25                   : MDTP         - TEMPERATURE OF MUD
NEUT.         1                    : NEUTRON      - NEUTRON TYPE
RESI.         0                    : RESIST       - RESISTIVITY TYPE
RMC .OHMM     0.25                 : RMC          - RESISTIVITY OF MUD CAKE
RMF .OHMM     0.25                 : RMF          - RESISTIVITY OF MUD FILTRATE
SUFT.C        15                   : SUFT         - SURFACE TEMPERATURE
~A  DEPTH     PHID     PHIN      CAL       GR     RESD
# ...
  423.000    0.197    0.510  166.265  106.539    2.635
  423.250    0.228    0.445  161.593   99.705    2.501
  423.500    0.267    0.423  156.817   89.754    2.342
  423.750    0.288    0.397  153.263   82.370    2.202
  424.000    0.302    0.402  152.561   84.024    2.090
  424.250    0.291    0.412  152.874   84.336    2.021
  424.500    0.287    0.415  153.496   85.380    1.977
  424.750    0.295    0.398  153.911   87.462    1.974
  425.000    0.303    0.405  153.818   87.467    1.982
  425.250    0.313    0.409  153.725   85.640    2.031
  425.500    0.314    0.414  153.839   85.645    2.078
  425.750    0.299    0.433  153.644   86.201    2.150
  426.000    0.288    0.449  153.855   85.107    2.216
  426.250    0.281    0.442  154.373   82.486    2.284
  426.500    0.284    0.418  154.992   83.285    2.315
  426.750    0.278    0.405  155.106   85.490    2.355
  427.000    0.273    0.407  155.114   84.519    2.387
  427.250    0.284    0.433  155.021   81.958    2.406
  427.500    0.293    0.445  154.930   88.865    2.443
  427.750    0.274    0.433  155.548   99.926    2.462
  428.000    0.242    0.443  155.762  105.367    2.504
  428.250    0.226    0.458  156.687  110.381    2.601
  428.500    0.227    0.472  158.223  103.730    2.666
  428.750    0.236    0.456  158.129   97.444    2.707
  429.000    0.242    0.442  156.815   92.991    2.713
  429.250    0.260    0.431  155.502   89.210    2.708
  429.500    0.274    0.435  155.205   86.100    2.694
  429.750    0.270    0.431  155.215   87.388    2.689
  430.000    0.253    0.421  155.326   91.791    2.690
  430.250    0.246    0.434  155.641   93.385    2.641
  430.500    0.259    0.444  155.449   89.787    2.568
  430.750    0.266    0.451  155.251   85.335    2.465
  431.000    0.268    0.453  154.955   83.751    2.522
  431.250    0.276    0.434  154.760   82.353    2.877
  431.500    0.281    0.429  154.363   84.617    3.577
  431.750    0.128    0.344  154.881   80.592    5.129
  432.000    0.067    0.193  155.807   71.925    8.262
  432.250    0.039    0.171  157.343   64.296   10.627
  432.500    0.026    0.151  158.674   59.660   12.704
  432.750    0.049    0.139  159.908   56.367   13.443
  433.000    0.132    0.211  160.423   53.624   12.498
  433.250    0.172    0.236  160.535   53.385   10.209
  433.500    0.200    0.250  160.136   63.530    7.721
  433.750    0.132    0.236  159.433   74.101    5.541
  434.000    0.102    0.276  159.849   81.924    4.311
  434.250    0.187    0.385  160.062   88.220    3.860
  434.500    0.208    0.400  159.869   90.791    3.522
  434.750    0.213    0.405  159.470   88.843    3.225
  435.000    0.217    0.403  158.360   89.764    3.004
  435.250    0.235    0.407  157.250   91.785    2.878
  435.500    0.246    0.416  156.139   91.790    2.778
  435.750    0.252    0.427  155.132   92.895    2.748
  436.000    0.266    0.427  154.833   93.206    2.764
  436.250    0.254    0.415  154.334   91.807    2.817
  436.500    0.243    0.416  154.445   90.408    2.861
  436.750    0.249    0.418  154.658   93.528    2.899
  437.000    0.260    0.417  154.670  101.841    2.938
  437.250    0.254    0.432  154.881  104.716    2.967
  437.500    0.245    0.447  155.295  100.142    3.013
  437.750    0.256    0.443  155.204   95.566    3.188
  438.000    0.254    0.443  155.111   90.258    3.562
  438.250    0.198    0.439  155.221   84.888    3.862
  438.500    0.169    0.394  155.536   81.413    4.011
  438.750    0.169    0.353  156.869   87.587    4.057
  439.000    0.205    0.372  158.608   98.097    3.902
  439.250    0.230    0.416  160.449  102.622    3.696
  439.500    0.240    0.438  160.561   95.605    3.656
  439.750    0.234    0.416  159.755   92.312    3.775
  440.000    0.220    0.414  159.562   93.967    3.980
  440.250    0.208    0.399  160.590   94.889    4.157
  440.500    0.198    0.386  161.718   95.443    4.228
  440.750    0.194    0.388  162.337   95.633    4.238
  441.000    0.191    0.399  162.654   97.776    4.191
  441.250    0.198    0.411  162.457  102.666    4.153
  441.500    0.206    0.417  161.958  105.787    4.100
  441.750    0.202    0.422  161.154  103.777    4.048
  442.000    0.197    0.427  160.754  105.371    3.937
  442.250    0.202    0.433  160.562  108.735    3.843
  442.500    0.197    0.438  160.265  100.435    3.801
  442.750    0.196    0.451  160.069   92.134    3.918
  443.000    0.203    0.467  160.079   85.849    4.053
  443.250    0.153    0.344  160.193   82.372    4.170
  443.500    0.117    0.311  160.405   81.523    4.266
  443.750    0.136    0.343  160.515   93.255    4.292
  444.000    0.162    0.392  160.828   97.231    4.213
  444.250    0.187    0.407  161.448  103.833    4.113
  444.500    0.181    0.405  161.051  106.098    3.977
  444.750    0.177    0.408  161.060  107.935    3.890
  445.000    0.184    0.431  161.272  106.719    3.833
  445.250    0.182    0.434  161.281  103.854    3.791
  445.500    0.172    0.421  162.206  101.050    3.728
  445.750    0.171    0.415  162.624  102.155    3.640
  446.000    0.186    0.417  162.326  106.682    3.487
  446.250    0.189    0.453  162.437  109.618    3.303
  446.500    0.200    0.507  164.177  112.310    3.182
  446.750    0.214    0.507  165.714  113.721    3.077
  447.000    0.208    0.489  166.028  112.077    2.993
  447.250    0.196    0.483  163.696  110.862    2.949
  447.500    0.211    0.470  159.226  109.340    2.901
  447.750    0.228    0.425  154.249  103.604    2.890
  448.000    0.237    0.445  152.628   97.258    2.886
  448.250    0.228    0.462  152.128   95.554    2.892
  448.500    0.207    0.432  157.634   94.703    2.937
  448.750    0.191    0.422  160.698   92.694    2.960
  449.000    0.199    0.441  162.132   97.829    2.960
  449.250    0.190    0.446  162.549  102.355    2.950
  449.500    0.183    0.446  161.542  106.391    2.934
  449.750    0.196    0.460  161.041  109.145    2.935
  450.000    0.228    0.445  159.421   96.936    2.964
  450.250    0.248    0.402  156.886   93.887    3.026
  450.500    0.229    0.388  154.858   94.198    3.084
  450.750    0.215    0.405  153.849   94.692    3.215
  451.000    0.213    0.422  154.672   95.554    3.345
  451.250    0.216    0.424  156.719   97.147    3.435
  451.500    0.204    0.414  157.338  100.207    3.534
  451.750    0.204    0.414  156.838  101.250    3.589
  452.000    0.203    0.410  155.117  101.621    3.583
  452.250    0.187    0.412  153.702  100.528    3.557
  452.500    0.194    0.429  152.895   98.884    3.518
  452.750    0.218    0.427  152.091   97.424    3.493
  453.000    0.218    0.424  151.796   97.124    3.468
  453.250    0.219    0.422  151.806   97.008    3.443
  453.500    0.213    0.420  152.118   93.410    3.399
  453.750    0.208    0.426  153.757   90.178    3.381
  454.000    0.219    0.423  155.191   93.237    3.331
  454.250    0.232    0.416  157.642   96.174    3.313
  454.500    0.222    0.415  159.891   98.440    3.271
  454.750    0.213    0.426  161.530   98.996    3.272
  455.000    0.214    0.439  162.150   97.901    3.261
  455.250    0.210    0.450  161.445   95.036    3.267
  455.500    0.225    0.438  158.401   88.445    3.262
  455.750    0.239    0.417  156.272   82.649    3.251
  456.000    0.245    0.398  155.366   78.745    3.295
  456.250    0.262    0.379  153.949   75.453    3.277
  456.500    0.285    0.380  151.111   70.939    3.169
  456.750    0.315    0.395  150.914   65.997    2.980
  457.000    0.308    0.404  150.312   63.254    2.839
  457.250    0.291    0.388  149.712   59.778    2.735
  457.500    0.278    0.381  149.721   64.120    2.741
  457.750    0.289    0.403  150.849   75.730    3.234
  458.000    0.301    0.419  153.607   86.364    4.294
  458.250    0.293    0.428  158.095   90.522    6.157
  458.500    0.126    0.416  160.854   92.603    8.441
  458.750    0.093    0.351  162.593   89.067   11.250
  459.000    0.071    0.237  163.315   77.468   13.781
  459.250    0.058    0.211  162.407   61.350   15.957
