~VERSION INFORMATION
 VERS.                 2.0:   CWLS LOG ASCII STANDARD -VERSION 2.0
 WRAP.                  NO:   ONE LINE PER DEPTH STEP
~WELL INFORMATION BLOCK
#MNEM.UNIT           DATA                    DESCRIPTION OF MNEMONIC
#---------    -------------------            -------------------------------
# Generated from Intellog Unique Number	CS_73_76/WELL/2181
WELL.         DOME PETROLEUM LIMITED         : Well_name    - WELL
LOC .         00/09-34-074-10W4/0            : Location     - LOCATION
UWI .         00/09-34-074-10W4/0            : Uwi          - UNIQUE WELL ID
ENTR.         SP                             : Entered      - ENTERED BY
SRVC.         SCHLUMBERGER                   : Scn          - SERVICE COMPANY
STRT.M        295                            : top_depth    - START DEPTH
STOP.M        495                            : bot_depth    - STOP DEPTH
STEP.M        0.25                           : increment    - STEP LENGTH
 NULL. -999.2500:NULL Value
~CURVE INFORMATION BLOCK
#MNEM UNIT       ERCB CURVE CODE    CURVE DESCRIPTION
#-----------   ------------------   ----------------------------------
DEPT.M        00 001 00 00         : DEPTH        - DEPTH
ILD .OHMM     00 120 00 00         : RESD         - DEEP RESISTIVITY (DIL)
DPHI.V/V      00 890 00 00         : PHID         - DENSITY POROSITY (LIMESTONE)
NPHI.V/V      00 330 00 00         : PHIN         - NEUTRON POROSITY (LIMESTONE)
GR  .API      00 310 00 00         : GR           - GAMMA RAY
~PARAMETER INFORMATION
#MNEM.UNIT           DATA             DESCRIPTION OF MNEMONIC
#---------         -----------     ------------------------------
GL  .M        675.02               : gl           - GROUND LEVEL ELEVATION
EREF.M        679                  : kb           - ELEVATION OF DEPTH REFERENCE
DATM.M        675.02               : datum        - DATUM ELEVATION
TDD .M        501                  : tdd          - TOTAL DEPTH DRILLER
RUN .         ONE                  : Run          - RUN NUMBER
ENG .         BILL                 : Engineer     - RECORDING ENGINEER
WIT .         JIM                  : Witness      - WITNESSED BY
MUD .         GEL                  : Mud_type     - MUD TYPE
MATR.         LIMESTONE            : Logunit      - NEUTRON MATRIX
TMAX.C        17                   : BHT          - MAXIMUM RECORDED TEMPERATURE
BHTD.M        501                  : BHTDEP       - MAXIMUM RECORDED TEMPERATURE
MATR.         1                    : LOGUNIT      - NEUTRON MATRIX
RMT .C        25                   : MDTP         - TEMPERATURE OF MUD
NEUT.         1                    : NEUTRON      - NEUTRON TYPE
RESI.         0                    : RESIST       - RESISTIVITY TYPE
RMC .OHMM     0.25                 : RMC          - RESISTIVITY OF MUD CAKE
RMF .OHMM     0.25                 : RMF          - RESISTIVITY OF MUD FILTRATE
SUFT.C        15                   : SUFT         - SURFACE TEMPERATURE
~A  DEPTH     RESD     PHID     PHIN       GR
# ...
  469.000   19.116    0.247    0.368   86.680
  469.250   20.625    0.245    0.361   79.414
  469.500   22.254    0.231    0.354   75.784
  469.750   23.561    0.221    0.356   72.766
  470.000   23.563    0.227    0.366   71.568
  470.250   22.261    0.253    0.366   74.627
  470.500   20.635    0.244    0.356   78.900
  470.750   19.128    0.230    0.353   80.734
  471.000   18.418    0.222    0.349   81.969
  471.250   18.421    0.228    0.346   76.527
  471.500   18.775    0.242    0.353   72.292
  471.750   19.503    0.244    0.350   68.057
  472.000   20.259    0.236    0.343   64.434
  472.250   20.649    0.233    0.338   63.844
  472.500   22.279    0.243    0.333   68.117
  472.750   24.500    0.250    0.356   73.598
  473.000   26.434    0.256    0.392   78.475
  473.250   27.985    0.277    0.401   75.457
  473.500   29.070    0.270    0.389   81.557
  473.750   29.074    0.242    0.377   88.257
  474.000   29.076    0.228    0.360   91.914
  474.250   27.995    0.227    0.364   91.332
  474.500   21.877    0.221    0.357   90.128
  474.750   17.096    0.196    0.355   91.984
  475.000   15.257    0.181    0.374   93.215
  475.250   14.144    0.200    0.396   94.447
  475.500   13.879    0.203    0.402   95.674
  475.750   14.146    0.197    0.410   96.298
  476.000   14.418    0.219    0.392   92.066
  476.250   13.623    0.239    0.364   84.796
  476.500   14.979    0.249    0.344   73.882
  476.750   16.472    0.258    0.349   70.257
  477.000   18.113    0.261    0.349   70.887
  477.250   19.917    0.267    0.359   69.690
  477.500   21.491    0.274    0.373   73.359
  477.750   21.904    0.259    0.371   80.056
  478.000   21.090    0.236    0.359   93.431
  478.250   17.446    0.218    0.353  111.063
  478.500   15.869    0.222    0.350  117.759
  478.750   15.870    0.229    0.361  112.923
  479.000   18.474    0.240    0.379   97.760
  479.250   26.496    0.253    0.394   79.564
  479.500   45.082    0.279    0.402   69.257
  479.750   61.081    0.300    0.397   59.559
  480.000   73.852    0.310    0.372   52.898
  480.250   91.006    0.314    0.365   48.054
  480.500   98.192    0.314    0.368   45.650
  480.750   98.203    0.308    0.368   45.670
  481.000   91.036    0.306    0.367   48.116
  481.250   82.801    0.306    0.365   52.380
  481.500   75.310    0.313    0.363   57.868
  481.750   62.298    0.312    0.363   61.528
  482.000   51.535    0.306    0.376   63.368
  482.250   47.774    0.303    0.381   56.099
  482.500   47.776    0.303    0.387   47.626
  482.750   53.544    0.309    0.403   44.601
  483.000   72.547    0.315    0.404   41.581
  483.250   86.066    0.314    0.377   39.781
  483.500   81.313    0.305    0.363   39.800
  483.750   62.346    0.307    0.357   42.249
  484.000   33.971    0.306    0.351   50.167
  484.250   22.807    0.295    0.342   59.897
  484.500   17.822    0.274    0.336   89.068
  484.750   12.429    0.236    0.332  103.053
  485.000   11.305    0.206    0.338  109.142
  485.250    9.530    0.186    0.351  112.812
  485.500    8.506    0.180    0.371  113.437
  485.750    7.885    0.178    0.376  113.450
  486.000    7.449    0.161    0.386  111.049
  486.250    7.310    0.130    0.384  109.844
  486.500    7.173    0.086    0.387  105.011
  486.750    7.174    0.060    0.392  102.598
  487.000    7.174    0.060    0.368  102.007
  487.250    7.040    0.074    0.355  102.647
  487.500    7.041    0.087    0.360  102.051
  487.750    7.042    0.083    0.374  101.462
  488.000    6.910    0.082    0.372  100.263
  488.250    6.910    0.092    0.367   97.246
  488.500    6.911    0.087    0.378   96.657
  488.750    6.912    0.080    0.383   97.284
  489.000    6.912    0.073    0.392   97.311
  489.250    7.046    0.072    0.394   97.930
  489.500    7.046    0.091    0.398   98.552
  489.750    7.182    0.091    0.383   98.574
  490.000    7.320    0.082    0.375   93.735
  490.250    7.604    0.082    0.366   90.108
  490.500    7.750    0.066    0.365   88.310
  490.750    8.205    0.062    0.373   87.720
  491.000    8.363    0.090    0.374   86.524
  491.250    8.688    0.098    0.363   84.117
  491.500    9.024    0.091    0.371   81.699
  491.750    9.924    0.088    0.374   74.437
  492.000   12.701    0.083    0.369   68.988
  492.250   16.257    0.079    0.329   63.537
  492.500   20.808    0.052    0.198   53.846
  492.750   26.632    0.035    0.181   43.541
  493.000   30.419    0.036    0.168   33.232
  493.250   32.203    0.051    0.159   24.747
  493.500   32.207    0.057    0.154   18.696
  493.750   29.856    0.048    0.158   15.675
  494.000   26.645    0.041    0.166   12.663
  494.250   18.937    0.031    0.177   12.679
  494.500   15.082    0.043    0.209   12.700
  494.750   12.476    0.047    0.224   12.716
  495.000   11.347    0.066    0.246   12.139
