~VERSION INFORMATION
 VERS.                 2.0:   CWLS LOG ASCII STANDARD -VERSION 2.0
 WRAP.                  NO:   ONE LINE PER DEPTH STEP
~WELL INFORMATION BLOCK
#MNEM.UNIT           DATA                    DESCRIPTION OF MNEMONIC
#---------    -------------------            -------------------------------
# Generated from Intellog Unique Number	CW_70_72/WELL/3290
NULL.         -999.25                        : NULL_VALUE
WELL.         SULPETRO ET AL MITSUE 05-18    : Well_name    - WELL              
LOC .         05-18-071-05W5                 : Location     - LOCATION          
UWI .         00/05-18-071-05W5/0            : Uwi          - UNIQUE WELL ID    
ENTR.         JAYE                           : Entered      - ENTERED BY        
SRVC.         SCHLUMBERGER                   : Scn          - SERVICE COMPANY   
DATE.         1 MAR 81                       : Date         - LOG DATE          
STRT.M        650                            : top_depth    - START DEPTH       
STOP.M        895                            : bot_depth    - STOP DEPTH        
STEP.M        0.25                           : increment    - STEP LENGTH       
~CURVE INFORMATION BLOCK
#MNEM UNIT       ERCB CURVE CODE    CURVE DESCRIPTION
#-----------   ------------------   ----------------------------------
DEPT.M        00 001 00 00         : DEPTH        - DEPTH                       
DPHI.V/V      00 890 00 00         : PHID         - DENSITY POROSITY (SANDSTONE)
ILD .OHMM     00 120 00 00         : RESD         - DEEP RESISTIVITY (DIL)      
CALI.MM       00 280 01 00         : CAL          - CALIPER                     
GR  .API      00 310 00 00         : GR           - GAMMA RAY                   
NPHI.V/V      00 330 00 00         : PHIN         - NEUTRON POROSITY (SANDSTONE)
~PARAMETER INFORMATION       
#MNEM.UNIT           DATA             DESCRIPTION OF MNEMONIC
#---------         -----------     ------------------------------
GL  .M        795.4                : gl           - GROUND LEVEL ELEVATION      
EREF.M        798.4                : kb           - ELEVATION OF DEPTH REFERENCE
DATM.M        795.4                : datum        - DATUM ELEVATION             
TDD .M        895                  : tdd          - TOTAL DEPTH DRILLER         
RUN .         ONE                  : Run          - RUN NUMBER                  
ENG .         VALLANCOURT          : Engineer     - RECORDING ENGINEER          
WIT .         THACKER              : Witness      - WITNESSED BY                
BASE.         EDM                  : Branch       - HOME BASE OF LOGGING UNIT   
MUD .         GEL CHEM             : Mud_type     - MUD TYPE                    
MATR.         SANDSTONE            : Logunit      - NEUTRON MATRIX              
TMAX.C        32.8                 : BHT          - MAXIMUM RECORDED TEMPERATURE
BHTD.M        895                  : BHTDEP       - MAXIMUM RECORDED TEMPERATURE
RMT .C        20                   : MDTP         - TEMPERATURE OF MUD          
MUDD.KG/M     1130                 : MWT          - MUD DENSITY                 
NEUT.         1                    : NEUTRON      - NEUTRON TYPE                
RESI.         0                    : RESIST       - RESISTIVITY TYPE            
RM  .OHMM     4.57                 : RM           - RESISTIVITY OF MUD          
RMC .OHMM     0.25                 : RMC          - RESISTIVITY OF MUD CAKE     
RMF .OHMM     3.86                 : RMF          - RESISTIVITY OF MUD FILTRATE 
SUFT.C        5                    : SUFT         - SURFACE TEMPERATURE         
~A  DEPTH     PHID     RESD      CAL       GR     PHIN
# ...
  869.000    0.051    3.366  168.023   92.094    0.373
  869.250    0.065    3.428  165.530   89.295    0.326
  869.500    0.100    3.280  163.968   94.936    0.351
  869.750    0.140    3.105  164.887   99.087    0.386
  870.000    0.148    2.988  167.669  103.487    0.412
  870.250    0.150    2.975  169.417  107.080    0.418
  870.500    0.147    3.035  169.923  108.315    0.392
  870.750    0.140    3.256  169.084  104.957    0.373
  871.000    0.132    3.495  168.453  106.005    0.357
  871.250    0.132    3.572  167.615  107.922    0.369
  871.500    0.141    3.412  167.604  109.344    0.393
  871.750    0.150    3.235  167.695  110.144    0.395
  872.000    0.160    3.096  167.893  109.889    0.386
  872.250    0.163    2.892  167.985  112.303    0.383
  872.500    0.162    2.763  167.871  114.841    0.385
  872.750    0.159    2.649  166.826  107.698    0.398
  873.000    0.167    2.584  165.160   86.342    0.393
  873.250    0.229    2.690  163.597   73.986    0.376
  873.500    0.214    2.975  161.931   57.533    0.366
  873.750    0.123    3.296  161.093   48.589    0.358
  874.000    0.085    3.672  161.600   50.321    0.228
  874.250    0.096    3.985  163.140   56.707    0.228
  874.500    0.172    4.190  163.336   60.176    0.252
  874.750    0.212    4.187  162.600   62.215    0.302
  875.000    0.208    3.628  160.522   63.637    0.323
  875.250    0.202    3.325  157.925   65.866    0.326
  875.500    0.195    3.298  156.363   68.590    0.311
  875.750    0.186    3.371  155.628   70.259    0.311
  876.000    0.182    3.458  156.857   72.052    0.308
  876.250    0.186    3.663  158.399   72.666    0.301
  876.500    0.183    3.983  160.042   74.025    0.314
  876.750    0.179    4.226  160.342   76.129    0.322
  877.000    0.176    4.509  160.538   75.998    0.312
  877.250    0.171    4.803  160.733   77.232    0.312
  877.500    0.172    5.020  161.033   80.391    0.316
  877.750    0.173    5.180  161.435   81.998    0.310
  878.000    0.164    5.224  161.837   83.046    0.318
  878.250    0.160    5.133  163.275   83.288    0.331
  878.500    0.155    4.867  166.057   84.150    0.323
  878.750    0.147    4.379  167.288   87.309    0.308
  879.000    0.146    3.429  167.587   91.461    0.305
  879.250    0.184    2.463  166.025   98.094    0.365
  879.500    0.210    1.954  163.739  105.597    0.436
  879.750    0.203    1.849  161.865  108.632    0.504
  880.000    0.176    1.933  161.752  108.501    0.511
  880.250    0.158    2.451  159.880   93.600    0.456
  880.500    0.135    3.155  148.491   82.733    0.382
  880.750    0.146    3.775  148.789   86.946    0.338
  881.000    0.163    4.646  154.262   89.857    0.328
  881.250    0.159    5.632  160.560   93.139    0.327
  881.500    0.154    6.205  163.548   94.684    0.326
  881.750    0.148    6.236  165.399   90.023    0.327
  882.000    0.148    6.150  166.837   86.728    0.319
  882.250    0.150    6.042  167.653   90.941    0.306
  882.500    0.154    5.837  167.538   94.906    0.315
  882.750    0.156    5.629  167.424   96.761    0.341
  883.000    0.159    5.419  166.896   98.182    0.349
  883.250    0.156    5.364  166.886  101.589    0.339
  883.500    0.145    5.441  167.185   94.260    0.348
  883.750    0.135    6.400  167.070   84.758    0.350
  884.000    0.119    7.118  167.368   75.753    0.326
  884.250    0.104    7.468  167.358   73.140    0.285
  884.500    0.088    7.705  166.521   74.499    0.277
  884.750    0.086    7.499  165.786   78.650    0.296
  885.000    0.087    7.151  165.568   85.408    0.315
  885.250    0.107    6.922  165.558   92.042    0.336
  885.500    0.121    6.956  165.546   85.209    0.371
  885.750    0.128    7.230  165.846   80.672    0.365
  886.000    0.116    7.686  165.835   75.515    0.339
  886.250    0.097    8.388  165.617   64.834    0.309
  886.500    0.087    8.802  164.882   62.097    0.292
  886.750    0.073    8.681  164.872   69.537    0.279
  887.000    0.072    7.493  164.964   79.708    0.295
  887.250    0.086    6.604  164.953   84.046    0.331
  887.500    0.103    6.285  164.322   87.267    0.389
  887.750    0.113    6.608  162.138   87.757    0.380
  888.000    0.111    8.315  159.955   84.275    0.349
  888.250    0.105   11.517  158.185   81.910    0.332
  888.500    0.120   16.937  156.934   82.524    0.334
  888.750    0.153   22.383  156.303   84.938    0.353
  889.000    0.156   24.706  156.499   86.111    0.286
  889.250    0.083   23.602  157.626   82.690    0.186
  889.500    0.049   16.452  159.580   82.249    0.183
  889.750    0.049   12.858  161.638   82.429    0.200
  890.000    0.047   10.434  163.799   82.484    0.214
  890.250    0.044    8.940  164.098   82.602    0.215
  890.500    0.051    7.391  164.397   82.596    0.213
  890.750    0.062    6.687  164.697   81.162    0.209
  891.000    0.060    6.400  164.686   68.433    0.202
  891.250    0.052    6.149  164.882   56.697    0.203
  891.500    0.050    6.019  164.768   42.913    0.205
  891.750    0.055    5.881  160.931   42.783    0.208
  892.000    0.060    5.833  144.783   45.445    0.210
  892.250    0.075    5.774  144.359   49.286    0.212
  892.500    0.089    5.749  148.072   52.134    0.213
  892.750    0.089    5.712  146.303   52.996    0.215
  893.000    0.074    5.729  141.533   52.680    0.220
  893.250    0.066    5.725  136.247   52.239    0.223
  893.500    0.075    5.754  130.031   51.674    0.224
  893.750    0.073    5.793  130.434   51.171    0.222
  894.000    0.070    5.865  136.939   50.915    0.219
  894.250    0.079    5.949  142.617   51.220    0.216
  894.500    0.089    6.069  142.192   51.585    0.213
  894.750    0.099    6.214  137.734   51.827    0.212
  895.000    0.107    6.268  136.172   52.316    0.214
