~VERSION INFORMATION
 VERS.                 2.0:   CWLS LOG ASCII STANDARD -VERSION 2.0
 WRAP.                  NO:   ONE LINE PER DEPTH STEP
~WELL INFORMATION BLOCK
#MNEM.UNIT           DATA                    DESCRIPTION OF MNEMONIC
#---------    -------------------            -------------------------------
# Generated from Intellog Unique Number	CC_80_83/WELL/2300
NULL.         -999.25                        : NULL_VALUE
WELL.         NOVALTA NEWBY                  : Well_name    - WELL
LOC .         07-24-082-05W4                 : Location     - LOCATION          
UWI .         00/07-24-082-05W4/0            : Uwi          - UNIQUE WELL ID    
ENTR.         DW                             : Entered      - ENTERED BY        
SRVC.         COMPUTALOG                     : Scn          - SERVICE COMPANY   
DATE.         22 JAN 83                      : Date         - LOG DATE
STRT.M        90                             : top_depth    - START DEPTH       
STOP.M        270.001                        : bot_depth    - STOP DEPTH        
STEP.M        0.3                            : increment    - STEP LENGTH       
~CURVE INFORMATION BLOCK
#MNEM UNIT       ERCB CURVE CODE    CURVE DESCRIPTION
#-----------   ------------------   ----------------------------------
DEPT.M        00 001 00 00         : DEPTH        - DEPTH                       
DPHI.V/V      00 890 00 00         : PHID         - DENSITY POROSITY (LIMESTONE)
NPHI.V/V      00 330 00 00         : PHIN         - NEUTRON POROSITY (LIMESTONE)
GR  .API      00 310 00 00         : GR           - GAMMA RAY                   
ILD .OHMM     00 120 00 00         : RESD         - DEEP RESISTIVITY (DIL)      
~PARAMETER INFORMATION       
#MNEM.UNIT           DATA             DESCRIPTION OF MNEMONIC
#---------         -----------     ------------------------------
GL  .M        459.76               : gl           - GROUND LEVEL ELEVATION      
EREF.M        462.76               : kb           - ELEVATION OF DEPTH REFERENCE
DATM.M        462.76               : datum        - DATUM ELEVATION             
TDD .M        273                  : tdd          - TOTAL DEPTH DRILLER         
RUN .         ONE                  : Run          - RUN NUMBER                  
ENG .         BILL                 : Engineer     - RECORDING ENGINEER          
WIT .         JIM                  : Witness      - WITNESSED BY                
MUD .         GEL                  : Mud_type     - MUD TYPE                    
MATR.         LIMESTONE            : Logunit      - NEUTRON MATRIX              
TMAX.C        23                   : BHT          - MAXIMUM RECORDED TEMPERATURE
BHTD.M        273                  : BHTDEP       - MAXIMUM RECORDED TEMPERATURE
MATR.         1                    : LOGUNIT      - NEUTRON MATRIX              
RMT .C        25                   : MDTP         - TEMPERATURE OF MUD          
NEUT.         1                    : NEUTRON      - NEUTRON TYPE                
RESI.         0                    : RESIST       - RESISTIVITY TYPE            
RMC .OHMM     0.25                 : RMC          - RESISTIVITY OF MUD CAKE     
RMF .OHMM     0.25                 : RMF          - RESISTIVITY OF MUD FILTRATE 
SUFT.C        15                   : SUFT         - SURFACE TEMPERATURE         
~A  DEPTH     PHID     PHIN       GR     RESD
# ...
  142.201    0.334    0.438   58.225   15.001
  142.501    0.345    0.414   58.864   15.005
  142.801    0.331    0.401   62.649   15.009
  143.101    0.326    0.423   62.658   15.304
  143.401    0.334    0.424   57.629   15.601
  143.701    0.338    0.421   55.751   15.606
  144.001    0.336    0.420   60.795   15.610
  144.301    0.324    0.434   67.730   15.038
  144.601    0.326    0.440   68.368   14.216
  144.901    0.328    0.434   66.488   13.695
  145.201    0.322    0.412   65.865   13.442
  145.501    0.313    0.406   60.208   13.448
  145.801    0.312    0.423   63.365   13.454
  146.101    0.335    0.399   66.521   13.207
  146.401    0.321    0.401   67.159   12.724
  146.701    0.314    0.450   67.799   12.489
  147.001    0.290    0.458   70.323   11.807
  147.301    0.275    0.482   77.256   10.546
  147.601    0.270    0.515   84.191    7.233
  147.901    0.279    0.484   88.606    6.105
  148.201    0.286    0.445   89.244    5.664
  148.501    0.288    0.420   80.439    4.965
  148.801    0.287    0.426   88.002    4.434
  149.101    0.281    0.524   96.195    3.537
  149.401    0.271    0.552   99.981    2.822
  149.701    0.262    0.531  100.618    2.569
  150.001    0.264    0.506  108.811    2.474
  150.301    0.282    0.512  110.709    2.523
  150.601    0.285    0.567  101.903    2.621
  150.901    0.280    0.572   98.134    2.671
  151.201    0.275    0.563  100.661    2.775
  151.501    0.265    0.521  104.449    2.883
  151.801    0.244    0.514  106.345    3.052
  152.101    0.233    0.536  103.835    3.293
  152.401    0.240    0.494   97.550    3.552
  152.701    0.238    0.450   95.039    4.991
  153.001    0.230    0.469   93.787    5.807
  153.301    0.228    0.478   93.799    6.147
  153.601    0.229    0.495   93.808    6.386
  153.901    0.233    0.502   91.925    6.761
  154.201    0.241    0.491   85.638    6.892
  154.501    0.246    0.462   83.127    7.025
  154.801    0.274    0.390   86.286    8.021
  155.101    0.322    0.348   86.293    9.691
  155.401    0.368    0.289   81.895   11.489
  155.701    0.368    0.282   81.272   17.409
  156.001    0.352    0.295   83.172   19.505
  156.301    0.359    0.295   83.811   18.790
  156.601    0.370    0.308   84.446   17.761
  156.901    0.362    0.382   86.973   14.711
  157.201    0.285    0.465   92.018   11.089
  157.501    0.258    0.474   92.026    9.185
  157.801    0.252    0.480   87.628    8.684
  158.101    0.243    0.465   90.156    8.686
  158.401    0.230    0.433   97.718    9.196
  158.701    0.225    0.425  102.133    9.374
  159.001    0.221    0.424   95.218    9.379
  159.301    0.218    0.436   91.450    9.381
  159.601    0.224    0.422   87.680    9.386
  159.901    0.240    0.413   86.429    9.213
  160.201    0.252    0.443   86.439    8.709
  160.501    0.254    0.474   92.741    7.927
  160.801    0.242    0.482   97.786    7.355
  161.101    0.215    0.470  106.610    7.085
  161.401    0.215    0.442   99.062    6.955
  161.701    0.242    0.413   93.409    7.089
  162.001    0.273    0.402   92.155    7.944
  162.301    0.270    0.398   90.904    8.251
  162.601    0.256    0.407   91.541    8.572
  162.901    0.248    0.459   94.698    8.104
  163.201    0.247    0.474  104.150    6.464
  163.501    0.248    0.488  111.714    5.354
  163.801    0.244    0.488  109.833    4.605
  164.101    0.236    0.462   99.771    4.521
  164.401    0.227    0.462   99.148    4.609
  164.701    0.223    0.505   99.788    4.611
  165.001    0.225    0.537   98.536    4.526
  165.301    0.232    0.524   94.767    4.443
  165.601    0.287    0.429   90.368    4.703
  165.901    0.314    0.378   78.415    6.014
  166.201    0.313    0.350   79.053    6.488
  166.501    0.266    0.507   88.505    6.019
  166.801    0.247    0.536   97.957    4.985
  167.101    0.243    0.539  102.372    3.829
  167.401    0.248    0.463  101.752    3.903
  167.701    0.256    0.438   97.354    4.373
  168.001    0.237    0.413   94.844    5.806
  168.301    0.228    0.382   81.630    8.159
  168.601    0.301    0.340   79.751    8.636
  168.901    0.279    0.446   84.166    8.012
  169.201    0.243    0.430   91.101    7.432
  169.501    0.251    0.360   86.071    7.868
  169.801    0.366    0.286   79.157    8.815
  170.101    0.393    0.264   77.276   11.271
  170.401    0.386    0.292   74.136   12.867
  170.701    0.363    0.366   73.519   13.882
  171.001    0.335    0.370   74.153   13.123
  171.301    0.312    0.367   74.790   11.288
  171.601    0.212    0.386   77.319   10.274
  171.901    0.165    0.442   82.364    9.007
  172.201    0.208    0.459   88.667    7.895
  172.501    0.218    0.457   94.971    7.053
  172.801    0.219    0.446   93.091    6.924
  173.101    0.234    0.458   91.212    6.925
  173.401    0.230    0.468   91.849    7.060
  173.701    0.219    0.448   93.117    7.063
  174.001    0.228    0.420   95.013    6.934
  174.301    0.224    0.404   96.281    6.937
  174.601    0.217    0.395   94.403    7.071
  174.901    0.224    0.389   95.039    7.346
  175.201    0.236    0.395   97.568    7.777
  175.501    0.241    0.394   98.833    7.927
  175.801    0.230    0.428   98.212    7.354
  176.101    0.226    0.474   93.184    4.949
  176.401    0.251    0.519   88.788    3.459
  176.701    0.281    0.539   87.536    2.759
  177.001    0.285    0.547   84.395    2.465
  177.301    0.283    0.542   81.259    2.330
  177.601    0.271    0.512   83.154    2.421
  177.901    0.276    0.497   86.940    2.661
  178.201    0.275    0.459   83.172    3.215
  178.501    0.250    0.425   84.441    3.885
  178.801    0.231    0.422   84.450    4.435
  179.101    0.236    0.440   84.456    4.875
  179.401    0.225    0.439   82.576    5.462
  179.701    0.222    0.412   83.842    6.005
  180.001    0.220    0.407   83.853    6.357
  180.301    0.213    0.376   82.600    6.010
  180.601    0.211    0.381   88.906    5.574
  180.901    0.233    0.470   95.838    4.446
  181.201    0.237    0.480  101.513    4.047
  181.501    0.221    0.481   90.819    3.616
  181.801    0.217    0.487   94.608    3.483
  182.101    0.233    0.493   95.873    3.485
  182.401    0.230    0.490   95.886    3.552
  182.701    0.232    0.477   95.260    3.690
  183.001    0.242    0.471   93.381    3.762
  183.301    0.230    0.470   92.129    3.908
  183.601    0.228    0.494   90.250    3.836
  183.901    0.226    0.503   91.516    3.766
  184.201    0.236    0.476   98.451    3.628
  184.501    0.238    0.468   95.943    3.629
  184.801    0.228    0.524   97.211    3.497
  185.101    0.227    0.523   98.475    3.497
  185.401    0.221    0.503   97.227    3.634
  185.701    0.205    0.473   88.420    3.774
  186.001    0.238    0.449   87.169    4.229
  186.301    0.249    0.426   89.698    4.737
  186.601    0.238    0.420   89.075    5.408
  186.901    0.220    0.428   89.085    5.309
  187.201    0.216    0.458   90.351    4.926
  187.501    0.217    0.450   94.140    4.835
  187.801    0.217    0.417   94.776    4.929
  188.101    0.150    0.380   82.194    5.318
  188.401    0.096    0.388   85.979    5.846
  188.701    0.214    0.396   89.764    6.931
  189.001    0.234    0.372   83.478    7.337
  189.301    0.280    0.317   77.821    7.916
  189.601    0.315    0.281   73.421    8.223
  189.901    0.319    0.260   69.022    7.774
  190.201    0.317    0.270   62.107    7.489
  190.501    0.312    0.331   58.967    6.817
  190.801    0.307    0.319   55.828    6.692
  191.101    0.307    0.292   55.837    6.326
  191.401    0.309    0.314   61.511    5.980
  191.701    0.305    0.403   69.074    5.341
  192.001    0.297    0.399   76.638    5.344
  192.301    0.316    0.314   63.427    6.100
  192.601    0.339    0.241   62.806    8.572
  192.901    0.332    0.231   59.666   11.381
  193.201    0.335    0.209   54.008   15.399
  193.501    0.355    0.167   52.757   17.251
  193.801    0.351    0.162   55.913   17.924
  194.101    0.343    0.203   64.107   16.625
