~VERSION INFORMATION
 VERS.                 2.0:   CWLS LOG ASCII STANDARD -VERSION 2.0
 WRAP.                  NO:   ONE LINE PER DEPTH STEP
~WELL INFORMATION BLOCK
#MNEM.UNIT           DATA                    DESCRIPTION OF MNEMONIC
#---------    -------------------            -------------------------------
# Generated from Intellog Unique Number	CS_77_79/WELL/907
WELL.         HOME OIL COMPANY LIMITED       : Well_name    - WELL
LOC .         00/07-25-077-06W4/0            : Location     - LOCATION
UWI .         00/07-25-077-06W4/0            : Uwi          - UNIQUE WELL ID
ENTR.         SP                             : Entered      - ENTERED BY
SRVC.         SCHLUMBERGER                   : Scn          - SERVICE COMPANY
STRT.M        145                            : top_depth    - START DEPTH
STOP.M        420                            : bot_depth    - STOP DEPTH
STEP.M        0.25                           : increment    - STEP LENGTH
 NULL. -999.2500:NULL Value
~CURVE INFORMATION BLOCK
#MNEM UNIT       ERCB CURVE CODE    CURVE DESCRIPTION
#-----------   ------------------   ----------------------------------
DEPT.M        00 001 00 00         : DEPTH        - DEPTH
ILD .OHMM     00 120 00 00         : RESD         - DEEP RESISTIVITY (DIL)
DPHI.V/V      00 890 00 00         : PHID         - DENSITY POROSITY (LIMESTONE)
NPHI.V/V      00 330 00 00         : PHIN         - NEUTRON POROSITY (LIMESTONE)
GR  .API      00 310 00 00         : GR           - GAMMA RAY
~PARAMETER INFORMATION
#MNEM.UNIT           DATA             DESCRIPTION OF MNEMONIC
#---------         -----------     ------------------------------
GL  .M        565.83               : gl           - GROUND LEVEL ELEVATION
EREF.M        568.85               : kb           - ELEVATION OF DEPTH REFERENCE
DATM.M        565.83               : datum        - DATUM ELEVATION
TDD .M        420.8                : tdd          - TOTAL DEPTH DRILLER
RUN .         ONE                  : Run          - RUN NUMBER
ENG .         BILL                 : Engineer     - RECORDING ENGINEER
WIT .         JIM                  : Witness      - WITNESSED BY
MUD .         GEL                  : Mud_type     - MUD TYPE
MATR.         LIMESTONE            : Logunit      - NEUTRON MATRIX
TMAX.C        16                   : BHT          - MAXIMUM RECORDED TEMPERATURE
BHTD.M        420.8                : BHTDEP       - MAXIMUM RECORDED TEMPERATURE
MATR.         1                    : LOGUNIT      - NEUTRON MATRIX
RMT .C        25                   : MDTP         - TEMPERATURE OF MUD
NEUT.         1                    : NEUTRON      - NEUTRON TYPE
RESI.         0                    : RESIST       - RESISTIVITY TYPE
RMC .OHMM     0.25                 : RMC          - RESISTIVITY OF MUD CAKE
RMF .OHMM     0.25                 : RMF          - RESISTIVITY OF MUD FILTRATE
SUFT.C        15                   : SUFT         - SURFACE TEMPERATURE
~A  DEPTH     RESD     PHID     PHIN       GR
# ...
  319.000    4.796    0.237    0.453   80.458
  319.250    4.452    0.236    0.552   82.917
  319.500    4.292    0.250    0.586   93.912
  319.750    4.375    0.257    0.303   92.095
  320.000    4.544    0.281    0.289   79.308
  320.250    4.632    0.275    0.319   58.588
  320.500    5.090    0.246    0.429   46.409
  320.750    5.386    0.226    0.481   62.891
  321.000    6.378    0.253    0.549  103.766
  321.250    7.553    0.330    0.271   94.635
  321.500    8.455    0.324    0.217   66.599
  321.750   10.013    0.317    0.227   60.519
  322.000   11.855    0.324    0.235   59.315
  322.250   13.521    0.329    0.236   60.550
  322.500   14.311    0.312    0.265   60.571
  322.750   14.323    0.296    0.282   63.025
  323.000   13.805    0.298    0.272   71.577
  323.250   13.807    0.292    0.270   69.156
  323.500   14.074    0.278    0.307   69.176
  323.750   14.619    0.286    0.344   71.021
  324.000   17.641    0.277    0.330   72.257
  324.250   20.888    0.098    0.186   71.050
  324.500   23.824    0.251    0.215   63.140
  324.750   27.691    0.295    0.243   58.887
  325.000   30.419    0.325    0.251   53.419
  325.250   30.436    0.312    0.270   50.382
  325.500   29.892    0.306    0.282   47.350
  325.750   27.750    0.285    0.311   49.195
  326.000   25.759    0.274    0.391   53.482
  326.250   24.363    0.283    0.436   57.768
  326.500   22.626    0.280    0.451   60.221
  326.750   22.214    0.280    0.525   55.364
  327.000   21.810    0.287    0.486   50.500
  327.250   20.252    0.269    0.422   46.861
  327.500   19.514    0.261    0.436   50.531
  327.750   17.785    0.262    0.386   62.744
  328.000   17.790    0.261    0.410   65.811
  328.250   17.800    0.264    0.474   60.343
  328.500   18.487    0.277    0.502   62.798
  328.750   19.937    0.269    0.474   57.937
  329.000   21.501    0.268    0.439   52.460
  329.250   21.916    0.251    0.431   50.648
  329.500   22.766    0.256    0.444   50.054
  329.750   22.779    0.265    0.456   56.781
  330.000   22.786    0.267    0.469   62.283
  330.250   22.800    0.286    0.492   55.592
  330.500   21.979    0.282    0.477   55.001
  330.750   21.577    0.290    0.542   51.356
  331.000   19.296    0.290    0.574   59.301
  331.250   17.255    0.273    0.538   56.880
  331.500   15.723    0.279    0.483   49.577
  331.750   14.871    0.254    0.433   52.644
  332.000   14.602    0.247    0.427   64.858
  332.250   14.074    0.248    0.492   70.362
  332.500   13.824    0.256    0.509   76.478
  332.750   13.832    0.236    0.443   70.394
  333.000   14.101    0.223    0.334   64.313
  333.250   14.640    0.167    0.352   63.116
  333.500   14.925    0.172    0.384   71.054
  333.750   15.219    0.212    0.398   88.148
  334.000   15.513    0.228    0.359   99.750
  334.250   16.117    0.237    0.324   93.669
  334.500   16.741    0.251    0.309   82.708
  334.750   17.388    0.239    0.298   68.090
  335.000   18.059    0.254    0.299   55.298
  335.250   18.408    0.252    0.312   57.755
  335.500   18.765    0.258    0.294   53.505
  335.750   19.861    0.263    0.283   49.861
  336.000   20.632    0.233    0.328   47.435
  336.250   21.030    0.222    0.382   54.772
  336.500   21.440    0.234    0.369   66.374
  336.750   21.854    0.260    0.337   88.954
  337.000   24.935    0.253    0.340   70.676
  337.250   24.027    0.239    0.348   56.672
  337.500   24.036    0.257    0.313   59.123
  337.750   24.511    0.273    0.327   56.700
  338.000   25.455    0.256    0.388   52.449
  338.250   29.030    0.242    0.398   48.198
  338.500   31.898    0.248    0.361   45.164
  338.750   35.047    0.254    0.347   49.448
  339.000   39.974    0.263    0.344   48.857
  339.250   43.917    0.271    0.360   50.700
  339.500   44.778    0.269    0.363   47.059
  339.750   43.972    0.262    0.357   49.520
  340.000   42.375    0.260    0.418   54.413
  340.250   44.846    0.274    0.445   55.038
  340.500   51.148    0.286    0.475   63.597
  340.750   61.713    0.291    0.443   83.123
  341.000   74.458    0.288    0.429   59.355
  341.250   86.535    0.294    0.456   49.613
  341.500   93.330    0.303    0.484   51.459
  341.750   95.135    0.312    0.463   49.647
  342.000   88.310    0.319    0.403   47.834
  342.250   74.674    0.298    0.342   53.951
  342.500   70.620    0.226    0.362   54.576
  342.750   63.147    0.218    0.384   52.155
  343.000   51.425    0.244    0.406   56.441
  343.250   45.983    0.260    0.429   55.845
  343.500   43.496    0.255    0.402   55.867
  343.750   42.715    0.251    0.376   57.098
  344.000   42.746    0.223    0.352   52.239
  344.250   43.567    0.238    0.370   48.593
  344.500   46.123    0.251    0.383   51.660
  344.750   47.017    0.261    0.372   50.461
  345.000   47.934    0.267    0.382   51.086
  345.250   47.954    0.268    0.341   46.224
  345.500   47.967    0.245    0.387   45.630
  345.750   48.898    0.284    0.464   51.747
  346.000   51.751    0.299    0.464   58.466
  346.250   52.763    0.273    0.433   50.563
  346.500   50.845    0.236    0.419   46.309
  346.750   46.330    0.247    0.425   48.153
  347.000   39.167    0.251    0.359   52.438
  347.250   35.687    0.247    0.349   57.942
  347.500   34.390    0.259    0.357   62.839
  347.750   33.778    0.251    0.428   64.079
  348.000   34.431    0.265    0.448   64.088
  348.250   35.103    0.279    0.370   61.055
  348.500   36.454    0.216    0.361   51.925
  348.750   37.864    0.232    0.396   51.941
  349.000   40.075    0.264    0.406   61.720
  349.250   44.035    0.252    0.389   56.855
  349.500   49.299    0.268    0.389   51.380
  349.750   57.293    0.298    0.385   46.522
  350.000   65.336    0.315    0.393   39.218
  350.250   78.830    0.299    0.448   36.794
  350.500   93.350    0.299    0.476   40.473
  350.750  116.921    0.281    0.430   33.172
  351.000  143.742    0.285    0.367   27.699
  351.250  154.994    0.282    0.353   23.446
  351.500  158.007    0.267    0.386   27.123
  351.750  143.976    0.275    0.424   41.774
  352.000  144.072    0.299    0.430   43.011
  352.250  146.884    0.314    0.452   35.101
  352.500  149.701    0.300    0.406   29.630
  352.750  152.624    0.282    0.379   28.426
  353.000  158.533    0.277    0.384   33.321
  353.250  167.774    0.294    0.401   38.825
  353.500  174.265    0.306    0.436   39.450
  353.750  181.003    0.309    0.409   32.154
  354.000  210.364    0.299    0.368   29.734
  354.250  231.122    0.314    0.408   29.742
  354.500  244.617    0.325    0.475   32.808
  354.750  227.114    0.361    0.475   36.483
  355.000  162.194    0.320    0.408   35.282
  355.250  103.545    0.315    0.443   37.127
  355.500   79.716    0.290    0.465   41.417
  355.750   74.016    0.242    0.495   48.748
  356.000   75.446    0.256    0.452   72.549
  356.250   79.843    0.324    0.490   70.734
  356.500   98.155    0.343    0.530   59.167
  356.750  127.629    0.330    0.562   35.397
  357.000  529.783    0.324    0.542   31.145
  357.250 1039.980    0.322    0.421   30.550
  357.500  862.903    0.319    0.431   31.179
  357.750  540.670    0.307    0.421   33.026
  358.000  416.284    0.252    0.406   49.506
  358.250  326.475    0.246    0.414   80.018
  358.500  332.839    0.263    0.378   80.033
  358.750  326.918    0.274    0.416   70.292
  359.000  321.064    0.289    0.427   65.433
  359.250  321.261    0.298    0.380   56.298
  359.500  315.436    0.293    0.342   39.239
  359.750  315.491    0.291    0.342   31.939
  360.000  900.589    0.298    0.370   33.785
  360.250  836.113    0.312    0.424   38.678
  360.500  706.785    0.319    0.438   36.864
  360.750  707.227    0.304    0.412   36.882
  361.000  853.182    0.302    0.423   34.462
  361.250  807.079    0.310    0.425   29.599
  361.500  708.318    0.315    0.395   29.003
  361.750  708.724    0.296    0.392   29.630
  362.000  736.183    0.286    0.420   29.647
  362.250  871.608    0.320    0.447   29.663
