~VERSION INFORMATION
 VERS.                 2.0:   CWLS LOG ASCII STANDARD -VERSION 2.0
 WRAP.                  NO:   ONE LINE PER DEPTH STEP
~WELL INFORMATION BLOCK
#MNEM.UNIT           DATA                    DESCRIPTION OF MNEMONIC
#---------    -------------------            -------------------------------
# Generated from Intellog Unique Number	CW_70_72/WELL/875
NULL.         -999.25                        : NULL_VALUE
WELL.         PETROREP ET AL SMITH 07-06     : Well_name    - WELL              
LOC .         07-06-072-25W4                 : Location     - LOCATION          
UWI .         00/07-06-072-25W4/0            : Uwi          - UNIQUE WELL ID    
ENTR.         JAYE                           : Entered      - ENTERED BY        
SRVC.         SCHLUMBERGER                   : Scn          - SERVICE COMPANY   
DATE.         24 NOV 77                      : Date         - LOG DATE          
STRT.M        393.192                        : top_depth    - START DEPTH       
STOP.M        618.692                        : bot_depth    - STOP DEPTH        
STEP.M        0.25                           : increment    - STEP LENGTH       
~CURVE INFORMATION BLOCK
#MNEM UNIT       ERCB CURVE CODE    CURVE DESCRIPTION
#-----------   ------------------   ----------------------------------
DEPT.M        00 001 00 00         : DEPTH        - DEPTH                       
DPHI.V/V      00 890 00 00         : PHID         - DENSITY POROSITY (SANDSTONE)
NPHI.V/V      00 330 00 00         : PHIN         - NEUTRON POROSITY (SANDSTONE)
GR  .API      00 310 00 00         : GR           - GAMMA RAY                   
CALI.MM       00 280 01 00         : CAL          - CALIPER                     
ILD .OHMM     00 120 00 00         : RESD         - DEEP RESISTIVITY (DIL)      
~PARAMETER INFORMATION       
#MNEM.UNIT           DATA             DESCRIPTION OF MNEMONIC
#---------         -----------     ------------------------------
GL  .M        582.473              : gl           - GROUND LEVEL ELEVATION      
EREF.M        586.13               : kb           - ELEVATION OF DEPTH REFERENCE
DATM.M        582.473              : datum        - DATUM ELEVATION             
TDD .M        621.792              : tdd          - TOTAL DEPTH DRILLER         
RUN .         ONE                  : Run          - RUN NUMBER                  
ENG .         KUBICA/RIVOLLIER     : Engineer     - RECORDING ENGINEER          
WIT .         HERB                 : Witness      - WITNESSED BY                
BASE.         EDM                  : Branch       - HOME BASE OF LOGGING UNIT   
MUD .         GEL                  : Mud_type     - MUD TYPE                    
MATR.         SANDSTONE            : Logunit      - NEUTRON MATRIX              
TMAX.C        27.7778              : BHT          - MAXIMUM RECORDED TEMPERATURE
BHTD.M        621.487              : BHTDEP       - MAXIMUM RECORDED TEMPERATURE
RMT .C        13.3333              : MDTP         - TEMPERATURE OF MUD          
MUDD.KG/M     1164                 : MWT          - MUD DENSITY                 
NEUT.         1                    : NEUTRON      - NEUTRON TYPE                
RESI.         0                    : RESIST       - RESISTIVITY TYPE            
RM  .OHMM     3.86                 : RM           - RESISTIVITY OF MUD          
RMC .OHMM     0                    : RMC          - RESISTIVITY OF MUD CAKE     
RMF .OHMM     3.1                  : RMF          - RESISTIVITY OF MUD FILTRATE 
SUFT.C        0                    : SUFT         - SURFACE TEMPERATURE         
~A  DEPTH     PHID     PHIN       GR      CAL     RESD
# ...
  429.692    0.243    0.456   83.272  160.910    3.864
  429.942    0.256    0.453   79.820  160.742    3.920
  430.192    0.266    0.439   78.979  160.573    3.969
  430.442    0.251    0.429   84.543  158.534    4.040
  430.692    0.223    0.418   93.403  160.675    4.176
  430.942    0.225    0.414  103.261  161.147    4.333
  431.192    0.222    0.410  106.897  162.038    4.410
  431.442    0.213    0.399  105.308  163.983    4.483
  431.692    0.209    0.408  100.552  164.879    4.430
  431.942    0.201    0.421   95.170  165.140    4.271
  432.192    0.191    0.439   89.972  165.291    3.701
  432.442    0.206    0.442   83.347  165.656    3.380
  432.692    0.211    0.449   77.404  166.336    3.284
  432.942    0.220    0.473   69.410  163.335    3.735
  433.192    0.245    0.445   61.789  156.430    4.527
  433.442    0.264    0.335   56.285  153.853    5.446
  433.692    0.269    0.351   52.271  156.951    5.932
  433.942    0.256    0.371   51.240  155.843    6.084
  434.192    0.273    0.415   53.014  151.260    5.156
  434.442    0.291    0.433   55.224  150.789    4.352
  434.692    0.302    0.443   57.553  151.040    4.088
  434.942    0.311    0.448   60.694  151.409    4.078
  435.192    0.301    0.442   63.083  152.828    4.059
  435.442    0.250    0.419   66.035  154.775    4.180
  435.692    0.216    0.416   69.981  157.245    4.208
  435.942    0.192    0.426   73.309  159.821    4.104
  436.192    0.234    0.435   72.466  162.401    3.973
  436.442    0.255    0.441   67.584  162.238    3.873
  436.692    0.267    0.434   63.506  160.074    3.785
  436.942    0.277    0.413   60.673  156.437    3.761
  437.192    0.267    0.415   61.450  153.964    3.738
  437.442    0.258    0.421   66.268  153.279    3.826
  437.692    0.253    0.409   65.863  152.802    3.954
  437.942    0.266    0.406   69.439  152.642    4.019
  438.192    0.284    0.424   74.443  153.213    3.934
  438.442    0.242    0.404   79.446  154.000    3.851
  438.692    0.209    0.385   85.759  154.784    3.762
  438.942    0.262    0.400   92.257  157.889    3.759
  439.192    0.288    0.432   85.691  161.307    3.779
  439.442    0.300    0.461   79.625  162.098    3.818
  439.692    0.260    0.450   85.254  159.936    3.887
  439.942    0.232    0.432   90.817  161.885    4.079
  440.192    0.213    0.428   89.857  161.932    4.215
  440.442    0.223    0.426   87.270  158.820    4.300
  440.692    0.205    0.442   86.742  155.715    4.333
  440.942    0.196    0.450   87.766  155.137    4.285
  441.192    0.196    0.441   88.913  155.180    4.275
  441.442    0.204    0.433   89.873  155.023    4.328
  441.692    0.203    0.435   91.214  154.326    4.308
  441.942    0.196    0.434   91.926  152.169    4.248
  442.192    0.194    0.433   91.023  150.962    4.183
  442.442    0.191    0.434   91.923  151.423    4.172
  442.692    0.193    0.435   92.824  153.793    4.146
  442.942    0.182    0.441   92.849  156.791    4.142
  443.192    0.177    0.450   92.815  159.576    4.178
  443.442    0.191    0.453   93.968  159.518    4.152
  443.692    0.207    0.448   94.306  157.047    4.087
  443.942    0.215    0.436   94.085  155.202    4.061
  444.192    0.215    0.439   93.494  154.718    4.127
  444.442    0.194    0.448   92.156  155.616    4.241
  444.692    0.195    0.454   89.076  155.450    4.417
  444.942    0.215    0.437   88.546  152.762    4.617
  445.192    0.227    0.432   90.439  154.605    4.798
  445.442    0.203    0.438   92.522  158.862    4.959
  445.692    0.188    0.446   93.484  163.234    5.039
  445.942    0.225    0.459   90.837  165.702    4.887
  446.192    0.266    0.527   86.140  166.910    4.651
  446.442    0.339    0.604   78.207  164.644    4.362
  446.692    0.391    0.564   82.097  162.274    4.181
  446.942    0.449    0.518   83.929  161.477    3.958
  447.192    0.284    0.478   84.019  161.216    3.809
  447.442    0.253    0.470   82.182  161.895    3.701
  447.692    0.268    0.462   76.867  162.997    3.691
  447.942    0.254    0.458   73.099  163.047    3.751
  448.192    0.252    0.456   68.772  161.937    3.812
  448.442    0.264    0.452   66.566  158.834    3.845
  448.692    0.263    0.455   70.885  158.772    3.871
  448.942    0.241    0.460   72.469  161.565    3.942
  449.192    0.234    0.458   71.504  163.613    4.014
  449.442    0.235    0.452   71.344  164.186    4.056
  449.692    0.243    0.440   71.002  163.713    4.090
  449.942    0.253    0.427   69.478  163.236    4.111
  450.192    0.268    0.443   67.639  162.338    4.100
  450.442    0.251    0.438   64.808  161.647    4.028
  450.692    0.271    0.427   61.975  159.696    3.841
  450.942    0.288    0.420   58.461  156.690    3.561
  451.192    0.300    0.427   53.453  152.949    3.301
  451.442    0.313    0.431   48.070  148.787    3.202
  451.692    0.320    0.424   44.304  146.521    3.260
  451.942    0.302    0.411   47.069  147.726    3.269
  452.192    0.291    0.405   50.395  150.309    3.165
  452.442    0.286    0.412   53.287  151.093    2.945
  452.692    0.274    0.430   52.322  150.191    2.771
  452.942    0.272    0.447   48.556  148.663    2.555
  453.192    0.292    0.421   44.791  147.771    2.343
  453.442    0.310    0.398   42.582  148.135    2.225
  453.692    0.320    0.405   41.929  145.967    2.174
  453.942    0.324    0.420   41.956  145.808    2.268
  454.192    0.330    0.426   41.238  148.491    2.471
  454.442    0.342    0.422   41.332  150.441    2.646
  454.692    0.343    0.412   43.662  150.905    2.740
  454.942    0.323    0.405   47.360  151.490    2.897
  455.192    0.299    0.417   52.305  152.165    3.005
  455.442    0.283    0.411   57.373  153.271    3.117
  455.692    0.268    0.405   61.256  154.693    3.191
  455.942    0.259    0.417   64.892  155.900    3.280
  456.192    0.251    0.426   66.600  157.210    3.397
  456.442    0.256    0.438   68.749  158.732    3.458
  456.692    0.244    0.449   70.766  161.314    3.567
  456.942    0.242    0.460   72.847  162.947    3.708
  457.192    0.254    0.467   75.119  163.519    3.796
  457.442    0.246    0.472   76.639  163.464    3.923
  457.692    0.252    0.480   77.603  163.508    4.010
  457.942    0.249    0.479   78.064  164.505    4.075
  458.192    0.238    0.468   78.030  164.870    4.111
  458.442    0.219    0.471   76.817  165.344    4.115
  458.692    0.240    0.470   73.987  165.184    4.081
  458.942    0.238    0.446   70.161  165.231    4.010
  459.192    0.238    0.425   64.653  164.017    3.925
  459.442    0.247    0.407   62.194  156.589    3.900
  459.692    0.245    0.419   66.018  154.109    3.934
  459.942    0.245    0.433   67.849  154.162    4.097
  460.192    0.250    0.401   70.367  154.212    4.380
  460.442    0.216    0.404   73.629  154.580    4.743
  460.692    0.192    0.410   75.902  155.152    5.070
  460.942    0.185    0.391   75.934  159.632    5.000
  461.192    0.187    0.377   74.406  162.095    4.733
  461.442    0.212    0.412   74.183  159.518    4.572
  461.692    0.234    0.429   75.769  155.460    4.526
  461.942    0.246    0.430   77.293  154.461    4.558
  462.192    0.254    0.424   78.935  155.141    4.650
  462.442    0.232    0.428   79.214  156.554    4.681
  462.692    0.218    0.437   78.994  160.189    4.582
  462.942    0.227    0.447   77.965  162.763    4.476
  463.192    0.219    0.442   74.636  164.287    4.341
  463.442    0.234    0.424   69.192  164.023    4.154
  463.692    0.246    0.410   61.074  159.329    3.932
  463.942    0.255    0.398   59.238  151.478    3.763
  464.192    0.270    0.407   62.565  150.582    3.643
  464.442    0.294    0.414   57.928  150.629    3.519
  464.692    0.292    0.415   57.647  150.784    3.432
  464.942    0.283    0.415   58.360  152.107    3.341
  465.192    0.292    0.414   57.083  153.203    3.288
  465.442    0.299    0.413   57.114  154.521    3.273
  465.692    0.300    0.414   57.765  154.999    3.260
  465.942    0.300    0.419   57.173  155.141    3.251
