~VERSION INFORMATION
 VERS.                 2.0:   CWLS LOG ASCII STANDARD -VERSION 2.0
 WRAP.                  NO:   ONE LINE PER DEPTH STEP
~WELL INFORMATION BLOCK
#MNEM.UNIT           DATA                    DESCRIPTION OF MNEMONIC
#---------    -------------------            -------------------------------
# Generated from Intellog Unique Number	CS_67_68/WELL/641
WELL.         AEC FISH CREEK                 : Well_name    - WELL
LOC .         00/05-29-068-07W4/0            : Location     - LOCATION
UWI .         00/05-29-068-07W4/0            : Uwi          - UNIQUE WELL ID
ENTR.         SP                             : Entered      - ENTERED BY
SRVC.         SCHLUMBERGER                   : Scn          - SERVICE COMPANY
STRT.M        290                            : top_depth    - START DEPTH
STOP.M        530                            : bot_depth    - STOP DEPTH
STEP.M        0.25                           : increment    - STEP LENGTH
 NULL. -999.2500:NULL Value
~CURVE INFORMATION BLOCK
#MNEM UNIT       ERCB CURVE CODE    CURVE DESCRIPTION
#-----------   ------------------   ----------------------------------
DEPT.M        00 001 00 00         : DEPTH        - DEPTH
ILD .OHMM     00 120 00 00         : RESD         - DEEP RESISTIVITY (DIL)
DPHI.V/V      00 890 00 00         : PHID         - DENSITY POROSITY (LIMESTONE)
NPHI.V/V      00 330 00 00         : PHIN         - NEUTRON POROSITY (LIMESTONE)
GR  .API      00 310 00 00         : GR           - GAMMA RAY
~PARAMETER INFORMATION
#MNEM.UNIT           DATA             DESCRIPTION OF MNEMONIC
#---------         -----------     ------------------------------
GL  .M        628.32               : gl           - GROUND LEVEL ELEVATION
EREF.M        631.9                : kb           - ELEVATION OF DEPTH REFERENCE
DATM.M        628.32               : datum        - DATUM ELEVATION
TDD .M        539                  : tdd          - TOTAL DEPTH DRILLER
RUN .         ONE                  : Run          - RUN NUMBER
ENG .         BILL                 : Engineer     - RECORDING ENGINEER
WIT .         JIM                  : Witness      - WITNESSED BY
MUD .         GEL                  : Mud_type     - MUD TYPE
MATR.         LIMESTONE            : Logunit      - NEUTRON MATRIX
TMAX.C        23                   : BHT          - MAXIMUM RECORDED TEMPERATURE
BHTD.M        539                  : BHTDEP       - MAXIMUM RECORDED TEMPERATURE
MATR.         1                    : LOGUNIT      - NEUTRON MATRIX
RMT .C        25                   : MDTP         - TEMPERATURE OF MUD
NEUT.         1                    : NEUTRON      - NEUTRON TYPE
RESI.         0                    : RESIST       - RESISTIVITY TYPE
RMC .OHMM     0.25                 : RMC          - RESISTIVITY OF MUD CAKE
RMF .OHMM     0.25                 : RMF          - RESISTIVITY OF MUD FILTRATE
SUFT.C        15                   : SUFT         - SURFACE TEMPERATURE
~A  DEPTH     RESD     PHID     PHIN       GR
# ...
  420.500    4.346    0.248    0.457  117.148
  420.750    4.365    0.245    0.442  117.167
  421.000    4.384    0.242    0.433  116.504
  421.250    4.363    0.242    0.454  113.810
  421.500    4.236    0.259    0.482  112.351
  421.750    4.051    0.270    0.498  113.849
  422.000    3.642    0.278    0.502  116.576
  422.250    3.292    0.282    0.498  120.292
  422.500    3.027    0.305    0.496  122.097
  422.750    2.793    0.296    0.501  124.087
  423.000    2.631    0.287    0.510  129.406
  423.250    2.437    0.283    0.492  135.772
  423.500    2.318    0.281    0.486  138.809
  423.750    2.217    0.298    0.508  132.236
  424.000    2.145    0.298    0.529  128.800
  424.250    2.114    0.289    0.539  130.608
  424.500    2.103    0.285    0.518  128.099
  424.750    2.113    0.289    0.511  123.740
  425.000    2.122    0.305    0.528  120.800
  425.250    2.119    0.319    0.500  121.621
  425.500    2.117    0.332    0.483  123.055
  425.750    2.098    0.336    0.496  123.565
  426.000    2.099    0.331    0.505  122.847
  426.250    2.141    0.326    0.496  121.506
  426.500    2.195    0.322    0.500  117.581
  426.750    2.289    0.321    0.522  113.591
  427.000    2.475    0.326    0.518  108.803
  427.250    2.690    0.350    0.500  106.789
  427.500    2.930    0.333    0.506  108.654
  427.750    3.160    0.312    0.492  104.850
  428.000    3.353    0.314    0.478  106.288
  428.250    3.451    0.326    0.471  108.403
  428.500    3.545    0.319    0.462  109.527
  428.750    3.608    0.315    0.467  108.188
  429.000    3.672    0.316    0.478  110.735
  429.250    3.802    0.301    0.458  111.801
  429.500    3.897    0.276    0.445  107.689
  429.750    4.034    0.256    0.444  109.312
  430.000    4.201    0.237    0.453  112.718
  430.250    4.283    0.220    0.462  115.877
  430.500    4.367    0.230    0.449  118.668
  430.750    4.461    0.235    0.440  119.920
  431.000    4.540    0.238    0.438  119.322
  431.250    4.586    0.239    0.437  118.538
  431.500    4.632    0.235    0.434  112.271
  431.750    4.688    0.233    0.430  110.317
  432.000    4.734    0.233    0.424  113.047
  432.250    4.800    0.232    0.432  116.577
  432.500    4.840    0.235    0.453  120.786
  432.750    4.852    0.236    0.455  123.515
  433.000    4.855    0.230    0.445  116.696
  433.250    4.840    0.232    0.439  112.151
  433.500    4.852    0.240    0.441  115.373
  433.750    4.901    0.253    0.439  119.399
  434.000    5.006    0.250    0.435  121.943
  434.250    5.163    0.056    0.418  117.275
  434.500    5.445    0.041    0.366  103.366
  434.750    5.988    0.029    0.335   92.228
  435.000    6.422    0.079    0.302   83.557
  435.250    6.890    0.235    0.366   88.076
  435.500    7.132    0.268    0.423   95.611
  435.750    7.299    0.284    0.451  101.175
  436.000    6.800    0.288    0.461  100.639
  436.250    6.347    0.290    0.467  100.102
  436.500    6.209    0.259    0.427  103.759
  436.750    6.366    0.119    0.373  106.054
  437.000    6.590    0.107    0.327   92.330
  437.250    6.784    0.165    0.356   91.053
  437.500    6.905    0.236    0.398   97.481
  437.750    6.973    0.232    0.408  102.738
  438.000    7.031    0.138    0.394   94.006
  438.250    7.101    0.194    0.382   85.579
  438.500    7.133    0.246    0.394   73.949
  438.750    6.992    0.270    0.410   77.173
  439.000    6.813    0.250    0.420   99.746
  439.250    6.384    0.232    0.431  114.555
  439.500    6.094    0.231    0.437  118.765
  439.750    5.752    0.240    0.438  117.060
  440.000    5.380    0.240    0.432  114.364
  440.250    5.244    0.226    0.414  117.586
  440.500    5.168    0.203    0.392  118.221
  440.750    5.093    0.181    0.377  109.549
  441.000    5.029    0.168    0.410  104.944
  441.250    4.902    0.212    0.434  100.771
  441.500    4.724    0.248    0.440   93.949
  441.750    4.492    0.275    0.434   92.303
  442.000    4.185    0.266    0.437   94.048
  442.250    3.862    0.260    0.445   95.791
  442.500    3.426    0.271    0.437   98.705
  442.750    2.971    0.285    0.438   98.539
  443.000    2.587    0.305    0.454   94.735
  443.250    2.265    0.322    0.480   98.513
  443.500    1.924    0.332    0.503  103.093
  443.750    1.713    0.334    0.508  105.390
  444.000    1.569    0.331    0.501  105.838
  444.250    1.506    0.327    0.487  105.179
  444.500    1.471    0.323    0.493  104.953
  444.750    1.500    0.326    0.513  106.817
  445.000    1.556    0.332    0.509  109.055
  445.250    1.607    0.318    0.493  110.059
  445.500    1.673    0.303    0.491  108.597
  445.750    1.741    0.294    0.482  107.383
  446.000    1.813    0.291    0.472  109.933
  446.250    1.876    0.288    0.479  112.964
  446.500    1.917    0.283    0.487  117.298
  446.750    1.943    0.282    0.491  120.212
  447.000    1.974    0.280    0.479  118.504
  447.250    2.017    0.279    0.473  115.748
  447.500    2.072    0.280    0.480  117.495
  447.750    2.141    0.280    0.489  115.662
  448.000    2.195    0.280    0.479  117.778
  448.250    2.255    0.282    0.472  120.689
  448.500    2.308    0.285    0.482  122.680
  448.750    2.349    0.289    0.467  119.370
  449.000    2.377    0.285    0.448  115.876
  449.250    2.460    0.280    0.449  115.956
  449.500    2.630    0.280    0.465  116.038
  449.750    2.816    0.266    0.453  115.252
  450.000    3.032    0.252    0.439  113.979
  450.250    3.278    0.243    0.425  110.914
  450.500    3.451    0.236    0.417  108.835
  450.750    3.565    0.231    0.409  107.927
  451.000    3.775    0.222    0.405  108.751
  451.250    3.900    0.217    0.400  110.246
  451.500    4.006    0.214    0.415  111.433
  451.750    4.116    0.194    0.409  111.514
  452.000    4.189    0.190    0.394  108.142
  452.250    4.199    0.237    0.419  109.577
  452.500    4.179    0.281    0.433  113.724
  452.750    4.134    0.272    0.430  118.119
  453.000    4.014    0.253    0.431  117.829
  453.250    3.712    0.245    0.435  114.826
  453.500    3.577    0.242    0.431  120.700
  453.750    3.301    0.239    0.428  126.574
  454.000    3.163    0.235    0.427  130.781
  454.250    3.025    0.232    0.418  136.714
  454.500    2.904    0.230    0.428  143.142
  454.750    2.825    0.228    0.458  145.995
  455.000    2.854    0.229    0.475  143.547
  455.250    2.954    0.232    0.469  131.671
  455.500    3.115    0.227    0.460  122.815
  455.750    3.380    0.223    0.434  117.471
  456.000    3.795    0.218    0.395  121.438
  456.250    4.196    0.215    0.368  123.671
  456.500    4.333    0.210    0.366  117.156
  456.750    4.658    0.201    0.346  105.280
  457.000    5.092    0.178    0.328  101.046
  457.250    5.483    0.109    0.317   98.169
  457.500    5.982   -0.002    0.382   90.420
  457.750    6.565    0.025    0.430   86.678
  458.000    7.097    0.157    0.429  101.242
  458.250    7.373    0.209    0.420  112.168
  458.500    7.617    0.273    0.421  116.807
  458.750    7.796    0.278    0.417  117.752
  459.000    7.950    0.278    0.404  117.028
  459.250    8.120    0.278    0.401  115.813
  459.500    8.421    0.279    0.413  117.005
  459.750    8.718    0.281    0.397  117.393
  460.000    8.905    0.280    0.388  117.409
  460.250    8.944    0.272    0.388  116.629
  460.500    8.883    0.264    0.387  111.035
  460.750    8.692    0.251    0.373   99.899
  461.000    8.600    0.244    0.362   89.195
  461.250    8.540    0.235    0.353   82.186
  461.500    8.513    0.228    0.349   84.609
  461.750    8.502    0.207    0.355   95.783
  462.000    8.556    0.214    0.364  101.284
  462.250    8.561    0.223    0.357   95.017
  462.500    8.615    0.220    0.352   90.226
  462.750    8.653    0.212    0.349   92.956
  463.000    8.739    0.225    0.349   93.960
  463.250    8.997    0.235    0.362   91.390
  463.500    9.207    0.241    0.375   91.839
  463.750    9.586    0.247    0.380   87.173
