~VERSION INFORMATION
 VERS.                 2.0:   CWLS LOG ASCII STANDARD -VERSION 2.0
 WRAP.                  NO:   ONE LINE PER DEPTH STEP
~WELL INFORMATION BLOCK
#MNEM.UNIT           DATA                    DESCRIPTION OF MNEMONIC
#---------    -------------------            -------------------------------
# Generated from Intellog Unique Number	CW_79_81/WELL/549
WELL.         07-16-079-24W4                 : Well_name    - WELL
LOC .         00/07-16-079-24W4/0            : Location     - LOCATION
UWI .         00/07-16-079-24W4/0            : Uwi          - UNIQUE WELL ID
ENTR.         MAX                            : Entered      - ENTERED BY
SRVC.         SCHLUMBERGER                   : Scn          - SERVICE COMPANY
STRT.M        198.12                         : top_depth    - START DEPTH
STOP.M        457.12                         : bot_depth    - STOP DEPTH
STEP.M        0.25                           : increment    - STEP LENGTH
 NULL. -999.2500:NULL Value
~CURVE INFORMATION BLOCK
#MNEM UNIT       ERCB CURVE CODE    CURVE DESCRIPTION
#-----------   ------------------   ----------------------------------
DEPT.M        00 001 00 00         : DEPTH        - DEPTH
ILD .OHMM     00 120 00 00         : RESD         - DEEP RESISTIVITY (DIL)
NPHI.V/V      00 330 00 00         : PHIN         - NEUTRON POROSITY (SANDSTONE)
DPHI.V/V      00 890 00 00         : PHID         - DENSITY POROSITY (SANDSTONE)
CALI.MM       00 280 01 00         : CAL          - CALIPER
GR  .API      00 310 00 00         : GR           - GAMMA RAY
~PARAMETER INFORMATION
#MNEM.UNIT           DATA             DESCRIPTION OF MNEMONIC
#---------         -----------     ------------------------------
GL  .M        557.479              : gl           - GROUND LEVEL ELEVATION
EREF.M        561.137              : kb           - ELEVATION OF DEPTH REFERENCE
DATM.M        557.479              : datum        - DATUM ELEVATION
TDD .M        353.568              : tdd          - TOTAL DEPTH DRILLER
RUN .         ONE                  : Run          - RUN NUMBER
ENG .         BILL                 : Engineer     - RECORDING ENGINEER
WIT .         JIM                  : Witness      - WITNESSED BY
MUD .         GEL                  : Mud_type     - MUD TYPE
MATR.         SANDSTONE            : Logunit      - NEUTRON MATRIX
TMAX.C        20                   : BHT          - MAXIMUM RECORDED TEMPERATURE
BHTD.M        445.008              : BHTDEP       - MAXIMUM RECORDED TEMPERATURE
RMT .C        17.7778              : MDTP         - TEMPERATURE OF MUD
MUDD.KG/M     10400                : MWT          - MUD DENSITY
NEUT.         1                    : NEUTRON      - NEUTRON TYPE
RESI.         0                    : RESIST       - RESISTIVITY TYPE
RM  .OHMM     10.7                 : RM           - RESISTIVITY OF MUD
RMC .OHMM     0.25                 : RMC          - RESISTIVITY OF MUD CAKE
RMF .OHMM     0.25                 : RMF          - RESISTIVITY OF MUD FILTRATE
SUFT.C        -23.3333             : SUFT         - SURFACE TEMPERATURE
~A  DEPTH     RESD     PHIN     PHID      CAL       GR
# ...
  271.120   18.876    0.511    0.338  241.966   55.544
  271.370   18.737    0.515    0.337  251.455   56.144
  271.620   18.769    0.489    0.329  233.051   58.218
  271.870   18.635    0.485    0.310  231.088   60.878
  272.120   18.670    0.487    0.299  232.109   64.423
  272.370   18.533    0.486    0.286  233.623   64.436
  272.620   18.393    0.474    0.303  234.141   63.272
  272.870   18.265    0.459    0.316  233.170   62.114
  273.120   18.315    0.450    0.312  231.699   62.714
  273.370   18.158    0.445    0.314  233.221   63.902
  273.620   17.870    0.441    0.300  234.735   64.801
  273.870   17.896    0.445    0.292  238.246   64.226
  274.120   17.765    0.473    0.290  242.750   62.179
  274.370   17.816    0.471    0.279  249.246   59.252
  274.620   17.674    0.467    0.271  263.211   58.385
  274.870   17.541    0.477    0.271  271.705   58.400
  275.120   17.416    0.479    0.283  268.242   59.296
  275.370   17.441    0.471    0.279  253.821   60.780
  275.620   17.636    0.469    0.281  252.851   62.265
  275.870   17.662    0.464    0.284  257.853   62.572
  276.120   16.611    0.454    0.277  262.360   62.586
  276.370   14.793    0.449    0.288  254.914   62.307
  276.620   12.940    0.454    0.277  246.969   62.322
  276.870   11.218    0.474    0.296  258.945   63.218
  277.120    9.637    0.490    0.305  263.948   63.819
  277.370    8.355    0.473    0.313  267.954   64.715
  277.620    7.442    0.463    0.286  258.018   66.494
  277.870    6.749    0.460    0.252  249.077   68.858
  278.120    6.405    0.477    0.222  248.107   72.402
  278.370    6.358    0.485    0.218  251.120   73.594
  278.620    6.256    0.468    0.215  229.234   76.547
  278.870    6.322    0.450    0.225  228.260   77.445
  279.120    6.628    0.451    0.230  227.785   75.401
  279.370    7.135    0.477    0.236  227.316   72.768
  279.620    8.259    0.488    0.258  226.838   70.427
  279.870    9.392    0.471    0.270  226.365   67.208
  280.120   10.392    0.479    0.269  225.392   64.573
  280.370   11.288    0.494    0.269  223.924   63.414
  280.620   12.491    0.493    0.281  222.953   63.427
  280.870   13.089    0.492    0.275  222.475   63.145
  281.120   13.720    0.477    0.267  222.501   62.573
  281.370   14.120    0.477    0.269  223.024   62.291
  281.620   14.146    0.476    0.268  223.064   62.010
  281.870   13.544    0.467    0.250  223.568   61.733
  282.120   10.730    0.457    0.237  223.587   62.335
  282.370    9.905    0.423    0.210  224.111   63.818
  282.620    8.060    0.403    0.238  225.630   67.948
  282.870    7.858    0.455    0.257  226.646   69.138
  283.120    7.525    0.492    0.242  227.665   72.390
  283.370    7.205    0.484    0.222  228.689   76.812
  283.620    6.962    0.467    0.213  228.709   80.062
  283.870    6.786    0.458    0.213  228.234   80.077
  284.120    6.617    0.449    0.219  229.258   80.388
  284.370    6.511    0.451    0.226  230.274   81.280
  284.620    6.520    0.457    0.230  230.296   81.883
  284.870    6.535    0.469    0.226  230.322   81.310
  285.120    6.604    0.483    0.227  229.849   80.146
  285.370    6.736    0.482    0.227  229.377   78.102
  285.620    6.736    0.483    0.226  229.400   78.116
  285.870    6.948    0.494    0.219  229.422   79.010
  286.120    7.280    0.485    0.230  229.422   79.319
  286.370    7.629    0.479    0.241  229.476   77.864
  286.620    7.994    0.482    0.225  229.490   76.405
  286.870    8.611    0.492    0.213  229.513   76.128
  287.120    8.611    0.504    0.214  229.041   77.612
  287.370   10.171    0.514    0.229  229.063   77.331
  287.620   10.851    0.523    0.242  228.090   75.286
  287.870   11.370    0.520    0.259  228.116   73.246
  288.120   11.597    0.505    0.288  228.138   71.786
  288.370   11.616    0.495    0.299  228.164   70.917
  288.620   11.529    0.488    0.288  228.187   70.930
  288.870   11.344    0.469    0.272  228.209   68.885
  289.120   11.059    0.461    0.272  228.232   65.667
  289.370   10.686    0.456    0.258  227.760   65.094
  289.620   10.623    0.452    0.251  227.782   65.106
  289.870   10.438    0.453    0.260  226.812   65.119
  290.120   10.084    0.462    0.257  226.340   63.663
  290.370    9.922    0.463    0.258  226.360   61.619
  290.620    9.763    0.460    0.262  226.388   61.043
  290.870    9.777    0.457    0.258  226.411   60.764
  291.120    9.791    0.456    0.254  226.433   61.365
  291.370   10.172    0.457    0.251  226.951   64.029
  291.620   10.950    0.455    0.253  227.475   66.099
  291.870   12.227    0.451    0.235  227.506   66.704
  292.120   14.282    0.435    0.218  227.523   62.602
  292.370   16.088    0.402    0.195  228.049   60.261
  292.620   18.126    0.384    0.168  228.066   57.920
  292.870   20.065    0.370    0.152  228.092   55.581
  293.120   21.018    0.326    0.136  228.114   52.069
  293.370   21.437    0.304    0.087  228.140   49.141
  293.620   21.284    0.290    0.070  228.160   47.979
  293.870   20.378    0.272    0.075  228.200   47.406
  294.120   18.649    0.266    0.069  228.208   47.712
  294.370   16.462    0.249    0.050  229.227   48.902
  294.620   14.146    0.206    0.029  229.255   51.567
  294.870   12.484    0.179    0.015  228.780   53.346
  295.120   11.119    0.178    0.033  228.803   53.944
  295.370    9.904    0.198    0.069  228.825   55.137
  295.620    8.902    0.276    0.129  228.350   57.502
  295.870    8.221    0.313    0.190  228.378   59.573
  296.120    7.664    0.348    0.232  228.398   62.529
  296.370    7.664    0.428    0.267  227.425   63.129
  296.620    7.485    0.443    0.275  226.955   63.440
  296.870    7.099    0.460    0.272  226.480   63.157
  297.120    6.862    0.474    0.279  226.503   63.171
  297.370    6.751    0.492    0.288  226.531   64.364
  297.620    6.700    0.505    0.299  226.548   66.434
  297.870    6.714    0.517    0.294  226.571   65.567
  298.120    6.727    0.536    0.291  226.099   65.286
  298.370    6.734    0.531    0.300  226.121   66.770
  298.620    6.687    0.528    0.301  225.649   68.255
  298.870    6.700    0.524    0.301  225.177   67.094
  299.120    6.711    0.517    0.309  225.199   65.933
  299.370    6.731    0.505    0.295  225.219   65.651
  299.620    6.796    0.482    0.280  225.743   65.666
  299.870    6.806    0.482    0.278  225.771   65.975
  300.120    6.879    0.482    0.279  225.791   66.867
  300.370    7.019    0.482    0.278  225.816   67.470
  300.620    7.157    0.493    0.274  225.839   66.605
  300.870    7.366    0.490    0.269  225.862   68.969
  301.120    7.651    0.477    0.263  225.887   71.923
  301.370    7.876    0.477    0.259  225.913   71.350
  301.620    8.031    0.468    0.252  225.936   69.891
  301.870    8.121    0.470    0.247  226.453   68.145
  302.120    8.135    0.467    0.257  226.479   66.100
  302.370    8.077    0.459    0.232  226.502   64.640
  302.620    7.945    0.452    0.222  227.022   62.597
  302.870    7.957    0.464    0.205  227.022   60.848
  303.120    7.972    0.484    0.252  227.079   59.683
  303.370    7.987    0.488    0.275  227.597   58.525
  303.620    8.071    0.470    0.273  227.617   58.539
  303.870    8.308    0.476    0.274  227.639   57.962
  304.120    8.630    0.488    0.266  226.669   57.097
  304.370    9.043    0.471    0.260  226.191   56.813
  304.620    9.307    0.457    0.268  225.716   56.532
  304.870    9.581    0.446    0.254  225.744   56.253
  305.120    9.864    0.435    0.248  225.266   55.679
  305.370   10.057    0.446    0.231  224.791   55.400
  305.620   10.088    0.460    0.262  224.318   55.119
  305.870   10.371    0.469    0.275  224.347   55.132
  306.120   10.576    0.463    0.282  224.364   55.146
  306.370   10.791    0.456    0.278  224.389   55.161
  306.620   11.204    0.471    0.284  224.412   56.056
  306.870   11.850    0.490    0.290  223.940   58.130
  307.120   12.762    0.489    0.291  223.467   58.441
  307.370   13.495    0.481    0.289  222.989   58.748
