~VERSION INFORMATION
 VERS.                 2.0:   CWLS LOG ASCII STANDARD -VERSION 2.0
 WRAP.                  NO:   ONE LINE PER DEPTH STEP
~WELL INFORMATION BLOCK
#MNEM.UNIT           DATA                    DESCRIPTION OF MNEMONIC
#---------    -------------------            -------------------------------
# Generated from Intellog Unique Number	CS_71_72/WELL/701
WELL.         SULPETRO ET AL IPIATIK         : Well_name    - WELL
LOC .         00/06-01-072-11W4/0            : Location     - LOCATION
UWI .         00/06-01-072-11W4/0            : Uwi          - UNIQUE WELL ID
ENTR.         SP                             : Entered      - ENTERED BY
SRVC.         SCHLUMBERGER                   : Scn          - SERVICE COMPANY
STRT.M        295                            : top_depth    - START DEPTH
STOP.M        525                            : bot_depth    - STOP DEPTH
STEP.M        0.25                           : increment    - STEP LENGTH
 NULL. -999.2500:NULL Value
~CURVE INFORMATION BLOCK
#MNEM UNIT       ERCB CURVE CODE    CURVE DESCRIPTION
#-----------   ------------------   ----------------------------------
DEPT.M        00 001 00 00         : DEPTH        - DEPTH
ILD .OHMM     00 120 00 00         : RESD         - DEEP RESISTIVITY (DIL)
DPHI.V/V      00 890 00 00         : PHID         - DENSITY POROSITY (LIMESTONE)
NPHI.V/V      00 330 00 00         : PHIN         - NEUTRON POROSITY (LIMESTONE)
GR  .API      00 310 00 00         : GR           - GAMMA RAY
~PARAMETER INFORMATION
#MNEM.UNIT           DATA             DESCRIPTION OF MNEMONIC
#---------         -----------     ------------------------------
GL  .M        644.9                : gl           - GROUND LEVEL ELEVATION
EREF.M        648.4                : kb           - ELEVATION OF DEPTH REFERENCE
DATM.M        644.9                : datum        - DATUM ELEVATION
TDD .M        529                  : tdd          - TOTAL DEPTH DRILLER
RUN .         ONE                  : Run          - RUN NUMBER
ENG .         BILL                 : Engineer     - RECORDING ENGINEER
WIT .         JIM                  : Witness      - WITNESSED BY
MUD .         GEL                  : Mud_type     - MUD TYPE
MATR.         LIMESTONE            : Logunit      - NEUTRON MATRIX
TMAX.C        20                   : BHT          - MAXIMUM RECORDED TEMPERATURE
BHTD.M        529                  : BHTDEP       - MAXIMUM RECORDED TEMPERATURE
MATR.         1                    : LOGUNIT      - NEUTRON MATRIX
RMT .C        25                   : MDTP         - TEMPERATURE OF MUD
NEUT.         1                    : NEUTRON      - NEUTRON TYPE
RESI.         0                    : RESIST       - RESISTIVITY TYPE
RMC .OHMM     0.25                 : RMC          - RESISTIVITY OF MUD CAKE
RMF .OHMM     0.25                 : RMF          - RESISTIVITY OF MUD FILTRATE
SUFT.C        15                   : SUFT         - SURFACE TEMPERATURE
~A  DEPTH     RESD     PHID     PHIN       GR
# ...
  382.000   16.086    0.313    0.388   40.963
  382.250   16.089    0.328    0.392   39.139
  382.500   15.793    0.330    0.397   37.313
  382.750   15.503    0.326    0.407   40.951
  383.000   15.220    0.335    0.419   44.590
  383.250   15.221    0.333    0.449   46.407
  383.500   15.512    0.332    0.462   47.618
  383.750   15.514    0.329    0.419   48.829
  384.000   14.670    0.323    0.408   50.039
  384.250   14.672    0.321    0.401   51.856
  384.500   14.677    0.320    0.404   53.066
  384.750   14.956    0.320    0.413   50.024
  385.000   15.241    0.324    0.425   48.199
  385.250   15.531    0.329    0.428   46.980
  385.500   15.829    0.332    0.402   46.976
  385.750   15.537    0.334    0.396   45.757
  386.000   15.540    0.337    0.393   43.929
  386.250   15.838    0.341    0.395   43.318
  386.500   15.840    0.334    0.398   42.706
  386.750   15.842    0.328    0.404   45.132
  387.000   15.846    0.318    0.409   48.770
  387.250   15.555    0.316    0.404   52.409
  387.500   14.708    0.320    0.398   53.621
  387.750   14.171    0.328    0.395   55.437
  388.000   13.909    0.326    0.397   54.826
  388.250   14.175    0.321    0.403   53.000
  388.500   14.178    0.317    0.408   54.818
  388.750   14.448    0.315    0.409   55.420
  389.000   14.452    0.316    0.401   54.202
  389.250   14.185    0.332    0.396   50.552
  389.500   13.926    0.332    0.394   51.155
  389.750   13.927    0.328    0.418   51.758
  390.000   13.930    0.327    0.436   51.148
  390.250   13.421    0.328    0.456   52.964
  390.500   12.929    0.322    0.455   54.174
  390.750   11.343    0.314    0.427   52.956
  391.000    9.768    0.306    0.420   55.381
  391.250    9.236    0.302    0.446   63.270
  391.500    8.571    0.294    0.463   67.517
  391.750    7.954    0.293    0.459   68.728
  392.000    8.901    0.313    0.463   60.828
  392.250   10.150    0.329    0.450   55.358
  392.500   10.538    0.337    0.421   48.674
  392.750   11.360    0.336    0.413   51.705
  393.000   11.795    0.326    0.415   55.344
  393.250   11.579    0.319    0.417   57.162
  393.500   10.948    0.314    0.411   58.979
  393.750   10.352    0.316    0.425   60.188
  394.000    9.974    0.322    0.430   60.792
  394.250    9.791    0.326    0.408   60.789
  394.500    9.433    0.315    0.398   60.782
  394.750    9.435    0.307    0.395   60.780
  395.000    9.436    0.304    0.402   60.773
  395.250    9.617    0.305    0.407   60.771
  395.500    9.985    0.330    0.411   64.409
  395.750   10.367    0.328    0.417   66.834
  396.000   11.176    0.309    0.409   68.044
  396.250   12.275    0.295    0.419   66.218
  396.500   12.987    0.284    0.446   63.784
  396.750   13.484    0.266    0.451   63.171
  397.000   14.001    0.252    0.416   63.775
  397.250   14.003    0.246    0.401   63.769
  397.500   12.058    0.246    0.395   63.159
  397.750   10.383    0.255    0.405   62.547
  398.000    9.456    0.269    0.412   62.544
  398.250    8.613    0.274    0.416   67.397
  398.500    7.846    0.274    0.416   72.250
  398.750    7.701    0.262    0.412   73.461
  399.000    7.703    0.258    0.410   73.456
  399.250    7.998    0.256    0.408   77.095
  399.500    8.150    0.269    0.411   78.305
  399.750    8.786    0.272    0.420   77.693
  400.000    9.471    0.270    0.433   77.083
  400.250    9.651    0.296    0.416   74.649
  400.500   10.021    0.293    0.410   72.215
  400.750    9.476    0.302    0.413   69.173
  401.000    8.960    0.304    0.429   67.955
  401.250    8.472    0.303    0.441   66.130
  401.500    8.011    0.292    0.452   67.339
  401.750    7.718    0.285    0.460   70.371
  402.000    7.436    0.274    0.454   75.225
  402.250    7.437    0.254    0.446   77.650
  402.500    7.439    0.235    0.437   78.860
  402.750    7.440    0.227    0.440   77.640
  403.000    7.441    0.225    0.434   77.030
  403.250    7.442    0.214    0.422   80.062
  403.500    7.444    0.208    0.422   83.092
  403.750    7.445    0.212    0.407   83.089
  404.000    7.588    0.234    0.404   80.655
  404.250    7.589    0.255    0.411   78.829
  404.500    7.734    0.268    0.412   77.003
  404.750    7.881    0.273    0.429   75.177
  405.000    8.031    0.278    0.429   75.171
  405.250    8.184    0.268    0.429   76.382
  405.500    8.034    0.250    0.462   78.807
  405.750    7.597    0.221    0.450   81.232
  406.000    7.457    0.202    0.424   83.048
  406.250    7.321    0.184    0.409   83.651
  406.500    7.322    0.151    0.399   84.253
  406.750    7.323    0.175    0.396   84.858
  407.000    7.189    0.197    0.422   86.068
  407.250    7.190    0.209    0.423   85.456
  407.500    7.191    0.209    0.423   83.022
  407.750    7.060    0.222    0.433   79.982
  408.000    7.061    0.243    0.426   79.975
  408.250    7.061    0.262    0.418   80.581
  408.500    6.932    0.237    0.415   78.753
  408.750    6.934    0.226    0.419   76.320
  409.000    6.935    0.226    0.432   74.494
  409.250    6.936    0.232    0.434   79.954
  409.500    6.808    0.232    0.435   83.592
  409.750    6.810    0.228    0.432   85.411
  410.000    6.812    0.226    0.429   89.051
  410.250    6.812    0.228    0.429   92.084
  410.500    6.813    0.224    0.427   93.293
  410.750    6.815    0.219    0.421   93.289
  411.000    6.816    0.228    0.413   90.854
  411.250    6.818    0.236    0.403   87.206
  411.500    6.818    0.238    0.399   84.773
  411.750    6.948    0.216    0.407   89.019
  412.000    6.950    0.205    0.410   85.979
  412.250    7.082    0.198    0.395   82.331
  412.500    7.218    0.201    0.386   78.683
  412.750    7.219    0.197    0.389   76.249
  413.000    7.221    0.192    0.401   82.925
  413.250    7.222    0.193    0.417   81.098
  413.500    7.089    0.203    0.428   79.879
  413.750    7.090    0.202    0.433   80.482
  414.000    7.092    0.190    0.437   82.906
  414.250    6.961    0.190    0.447   83.510
  414.500    6.963    0.193    0.449   84.112
  414.750    6.964    0.213    0.422   85.929
  415.000    6.965    0.222    0.437   87.141
  415.250    6.838    0.198    0.428   89.564
  415.500    6.838    0.200    0.416   88.953
  415.750    6.712    0.200    0.428   84.696
  416.000    6.590    0.204    0.414   82.871
  416.250    6.591    0.197    0.410   80.438
  416.500    6.469    0.192    0.417   90.150
  416.750    6.233    0.201    0.429   93.790
  417.000    6.005    0.204    0.427   93.178
  417.250    4.798    0.221    0.425   88.921
  417.500    3.300    0.244    0.444   91.953
  417.750    2.540    0.260    0.457   97.415
  418.000    2.270    0.282    0.507   99.233
  418.250    2.068    0.267    0.552  101.050
  418.500    1.992    0.263    0.576  100.437
  418.750    2.229    0.261    0.592   99.826
  419.000    2.689    0.261    0.517   97.392
  419.250    3.838    0.260    0.468   94.959
  419.500    4.216    0.256    0.448   93.133
  419.750    4.460    0.246    0.439   91.307
  420.000    4.898    0.232    0.454   88.266
  420.250    5.182    0.227    0.444   86.439
  420.500    5.281    0.231    0.431   85.828
  420.750    5.382    0.227    0.427   89.467
  421.000    5.383    0.225    0.432   87.640
  421.250    5.384    0.219    0.446   85.208
  421.500    5.487    0.228    0.456   82.774
  421.750    5.591    0.249    0.454   79.126
  422.000    5.698    0.267    0.439   76.692
  422.250    5.916    0.275    0.434   74.258
  422.500    6.029    0.252    0.427   73.040
  422.750    6.144    0.240    0.414   71.213
  423.000    6.501    0.229    0.407   74.851
  423.250    6.501    0.217    0.396   77.277
  423.500    6.503    0.232    0.395   79.701
  423.750    6.383    0.274    0.408   79.089
  424.000    6.150    0.289    0.421   76.047
  424.250    5.925    0.298    0.439   74.830
  424.500    5.926    0.292    0.447   73.611
  424.750    5.818    0.288    0.434   72.393
  425.000    5.710    0.284    0.421   72.388
  425.250    5.820    0.281    0.421   77.242
