~VERSION INFORMATION
 VERS.                 2.0:   CWLS LOG ASCII STANDARD -VERSION 2.0
 WRAP.                  NO:   ONE LINE PER DEPTH STEP
~WELL INFORMATION BLOCK
#MNEM.UNIT           DATA                    DESCRIPTION OF MNEMONIC
#---------    -------------------            -------------------------------
# Generated from Intellog Unique Number	CC_80_83/WELL/1185
NULL.         -999.25                        : NULL_VALUE
WELL.         GULF RESDELN                   : Well_name    - WELL              
LOC .         07-16-083-07W4                 : Location     - LOCATION          
UWI .         00/07-16-083-07W4/0            : Uwi          - UNIQUE WELL ID    
ENTR.         DW                             : Entered      - ENTERED BY        
SRVC.         SCHLUMBERGER                   : Scn          - SERVICE COMPANY   
DATE.         16 MAR 81                      : Date         - LOG DATE
STRT.M        250                            : top_depth    - START DEPTH       
STOP.M        504.99                         : bot_depth    - STOP DEPTH        
STEP.M        0.3                            : increment    - STEP LENGTH       
~CURVE INFORMATION BLOCK
#MNEM UNIT       ERCB CURVE CODE    CURVE DESCRIPTION
#-----------   ------------------   ----------------------------------
DEPT.M        00 001 00 00         : DEPTH        - DEPTH                       
DPHI.V/V      00 890 00 00         : PHID         - DENSITY POROSITY (LIMESTONE)
NPHI.V/V      00 330 00 00         : PHIN         - NEUTRON POROSITY (LIMESTONE)
GR  .API      00 310 00 00         : GR           - GAMMA RAY                   
ILD .OHMM     00 120 00 00         : RESD         - DEEP RESISTIVITY (DIL)      
~PARAMETER INFORMATION       
#MNEM.UNIT           DATA             DESCRIPTION OF MNEMONIC
#---------         -----------     ------------------------------
GL  .M        711.2                : gl           - GROUND LEVEL ELEVATION      
EREF.M        715                  : kb           - ELEVATION OF DEPTH REFERENCE
DATM.M        715                  : datum        - DATUM ELEVATION             
TDD .M        542                  : tdd          - TOTAL DEPTH DRILLER         
RUN .         ONE                  : Run          - RUN NUMBER                  
ENG .         BILL                 : Engineer     - RECORDING ENGINEER          
WIT .         JIM                  : Witness      - WITNESSED BY                
MUD .         GEL                  : Mud_type     - MUD TYPE                    
MATR.         LIMESTONE            : Logunit      - NEUTRON MATRIX              
TMAX.C        26                   : BHT          - MAXIMUM RECORDED TEMPERATURE
BHTD.M        542                  : BHTDEP       - MAXIMUM RECORDED TEMPERATURE
MATR.         1                    : LOGUNIT      - NEUTRON MATRIX              
RMT .C        25                   : MDTP         - TEMPERATURE OF MUD          
NEUT.         1                    : NEUTRON      - NEUTRON TYPE                
RESI.         0                    : RESIST       - RESISTIVITY TYPE            
RMC .OHMM     0.25                 : RMC          - RESISTIVITY OF MUD CAKE     
RMF .OHMM     0.25                 : RMF          - RESISTIVITY OF MUD FILTRATE 
SUFT.C        4                    : SUFT         - SURFACE TEMPERATURE         
~A  DEPTH     PHID     PHIN       GR     RESD
# ...
  458.792    0.319    0.391   40.723   83.484
  459.092    0.301    0.393   41.973   78.848
  459.392    0.317    0.400   43.221   86.757
  459.692    0.329    0.409   45.089   90.145
  459.992    0.318    0.422   48.816   91.896
  460.292    0.295    0.419   52.545   97.323
  460.592    0.303    0.411   51.935  109.147
  460.892    0.304    0.422   43.266  137.263
  461.192    0.303    0.415   32.740  201.106
  461.492    0.302    0.395   30.270  193.598
  461.792    0.328    0.407   29.660  179.391
  462.092    0.323    0.404   31.529  160.001
  462.392    0.311    0.394   31.538  140.004
  462.692    0.334    0.386   29.687   92.004
  462.992    0.333    0.399   32.796   83.639
  463.292    0.329    0.394   35.903   83.650
  463.592    0.326    0.381   36.533   93.817
  463.892    0.346    0.408   31.585  107.243
  464.192    0.326    0.401   32.213  122.591
  464.492    0.308    0.395   31.604  132.334
  464.792    0.324    0.401   29.752  120.306
  465.092    0.316    0.441   27.903   86.975
  465.392    0.310    0.439   28.532   69.178
  465.692    0.309    0.402   27.304   66.597
  465.992    0.330    0.391   27.931   62.898
  466.292    0.326    0.395   29.800   52.976
  466.591    0.310    0.408   34.767   42.948
  466.891    0.307    0.416   39.734   39.795
  467.191    0.311    0.427   45.941   23.771
  467.491    0.311    0.417   56.486   15.621
  467.791    0.290    0.434   76.328   11.294
  468.091    0.165    0.447   96.170    8.322
  468.391    0.113    0.420  108.574    8.484
  468.691    0.144    0.407  106.725    8.485
  468.991    0.142    0.434  109.833    8.168
  469.291    0.175    0.430  109.223    8.015
  469.591    0.153    0.415  106.132    8.328
  469.891    0.170    0.418  103.662    8.329
  470.191    0.169    0.431  106.770    8.491
  470.491    0.168    0.435  103.062    8.993
  470.791    0.170    0.431  101.832    9.525
  471.091    0.161    0.420   99.981    9.525
  471.391    0.146    0.403   99.370    9.526
  471.691    0.139    0.408   98.760    9.527
  471.991    0.138    0.384   99.389    8.828
  472.291    0.165    0.369  100.018    8.499
  472.591    0.166    0.385  100.028    8.500
  472.891    0.167    0.396  103.755    8.665
  473.191    0.159    0.400  104.385    8.833
  473.491    0.145    0.409  106.253    9.005
  473.791    0.180    0.415  108.743    9.179
  474.091    0.151    0.399  108.131    8.670
  474.391    0.180    0.388  108.141    8.507
  474.691    0.175    0.391  107.530    8.508
  474.991    0.165    0.404  104.440    8.509
  475.291    0.170    0.421  106.929    8.674
  475.591    0.151    0.412  109.417    8.511
  475.891    0.127    0.391  110.045    8.352
  476.191    0.135    0.390  105.717    8.194
  476.491    0.147    0.400  105.106    8.196
  476.791    0.167    0.385  106.355    8.355
  477.091    0.137    0.397  103.266    8.848
  477.391    0.169    0.392  102.657    9.020
  477.691    0.158    0.397  103.905    8.519
  477.991    0.139    0.407  104.534    8.359
  478.291    0.149    0.390  103.923    8.521
  478.591    0.149    0.388   98.973   11.348
  478.891    0.152    0.418   86.588   16.003
  479.191    0.273    0.421   72.962   16.314
  479.491    0.238    0.413   65.534   14.551
  479.791    0.225    0.395   71.741   13.742
  480.091    0.209    0.394   83.525   11.141
  480.391    0.205    0.399   91.592    9.564
  480.691    0.194    0.404   89.742    9.385
  480.991    0.204    0.424   87.892    9.386
  481.291    0.190    0.435   93.480   10.526
  481.591    0.175    0.412   94.109   12.501
  481.891    0.191    0.401   81.103   14.566
  482.191    0.297    0.392   66.857   22.598
  482.491    0.302    0.386   63.767   23.933
  482.791    0.296    0.389   69.975   22.604
  483.091    0.311    0.443   72.463   20.945
  483.391    0.305    0.422   70.612   19.408
  483.691    0.256    0.407   66.906   17.983
  483.991    0.272    0.399   63.194   16.985
  484.291    0.282    0.417   54.526   15.441
  484.591    0.283    0.398   52.057   13.511
  484.891    0.273    0.404   55.784   11.822
  485.191    0.222    0.455   66.331   10.149
  485.491    0.179    0.421   70.677    8.881
  485.791    0.180    0.429   77.504    7.921
  486.091    0.181    0.439   84.951    7.481
  486.391    0.159    0.440   84.340    7.066
  486.691    0.162    0.426   80.631    6.933
  486.991    0.198    0.419   72.584    6.674
  487.291    0.130    0.414   59.578    6.185
  487.591    0.130    0.406   52.769    5.841
  487.891    0.173    0.405   52.780    5.517
  488.191    0.185    0.406   58.365    5.112
  488.491    0.206    0.402   76.348    4.921
  488.791    0.138    0.392   99.289    4.922
  489.091    0.170    0.369  113.552    5.212
  489.391    0.173    0.335  120.380    5.520
  489.691    0.153    0.329  116.051    6.074
  489.991    0.091    0.346  101.805    6.433
  490.291    0.116    0.402  107.393    6.813
  490.591    0.150    0.417  120.418    7.079
  490.891    0.141    0.423  117.947    7.216
  491.190    0.152    0.440  104.942    6.314
  491.490    0.215    0.416  104.950    5.022
  491.790    0.290    0.381  108.679    4.395
  492.090    0.232    0.376  114.266    4.312
  492.390    0.243    0.407  118.613    4.396
  492.690    0.239    0.426  124.201    4.656
  492.990    0.223    0.401  129.788    5.221
  493.290    0.223    0.377  136.614    6.566
  493.590    0.226    0.371  143.441    6.443
  493.890    0.235    0.368  138.492    5.970
  494.190    0.243    0.366  131.065    5.427
  494.490    0.249    0.358  130.454    4.659
  494.790    0.252    0.348  132.323    4.485
  495.090    0.259    0.348  129.233    4.842
  495.390    0.266    0.359  110.029    5.430
  495.690    0.274    0.468   99.502    6.207
  495.990    0.278    0.552   92.695    6.574
  496.290    0.226    0.529   99.521    6.209
  496.590    0.189    0.491  111.926    5.865
  496.890    0.161    0.458  113.794    5.754
  497.190    0.138    0.445  111.324    5.646
  497.490    0.118    0.491  106.377    6.095
  497.790    0.110    0.486   84.073    6.706
  498.090    0.129    0.449   56.193    8.434
  498.390    0.105    0.374   42.568   11.231
  498.690    0.088    0.353   35.141   14.125
  498.990    0.128    0.339   32.050   19.542
  499.290    0.161    0.321   30.822   25.050
  499.590    0.191    0.281   32.069   29.749
  499.890    0.251    0.288   62.448   33.365
  500.190    0.288    0.365   64.316   33.370
  500.490    0.000    0.317   58.747   32.742
  500.790    0.000    0.211   46.361   38.149
  501.090    0.000    0.173   29.636   53.798
  501.390    0.000    0.151   23.450   52.788
  501.690    0.000    0.147   22.838   46.192
  501.990    0.000    0.168   26.566   44.466
  502.290    0.000    0.181   32.772   42.808
  502.590    0.000    0.171   33.401   44.480
  502.890    0.000    0.158   28.452   47.108
  503.190    0.000    0.155   23.504   49.890
  503.490    0.000    0.162   21.654   54.892
  503.790    0.000    0.164   23.521   62.751
  504.090    0.000    0.159   22.293   69.043
  504.390    0.000    0.146   19.822   77.432
  504.690    0.000    0.139   20.451   82.006
  504.990    0.000    0.144   21.700   80.468
