~VERSION INFORMATION
 VERS.                 2.0:   CWLS LOG ASCII STANDARD -VERSION 2.0
 WRAP.                  NO:   ONE LINE PER DEPTH STEP
~WELL INFORMATION BLOCK
#MNEM.UNIT           DATA                    DESCRIPTION OF MNEMONIC
#---------    -------------------            -------------------------------
# Generated from Intellog Unique Number	CW_76_78/WELL/693
WELL.         ASHLAND PCP TOTAL PELICAN 07-3 : Well_name    - WELL
LOC .         00/07-36-076-19W4/0            : Location     - LOCATION
UWI .         00/07-36-076-19W4/0            : Uwi          - UNIQUE WELL ID
ENTR.         JAYE                           : Entered      - ENTERED BY
SRVC.         SCHLUMBERGER                   : Scn          - SERVICE COMPANY
DATE.         25 FEB 75                      : Date         - LOG DATE
STRT.M        210.312                        : top_depth    - START DEPTH
STOP.M        387.062                        : bot_depth    - STOP DEPTH
STEP.M        0.25                           : increment    - STEP LENGTH
 NULL. -999.2500:NULL Value
~CURVE INFORMATION BLOCK
#MNEM UNIT       ERCB CURVE CODE    CURVE DESCRIPTION
#-----------   ------------------   ----------------------------------
DEPT.M        00 001 00 00         : DEPTH        - DEPTH
ILD .OHMM     00 120 00 00         : RESD         - DEEP RESISTIVITY (DIL)
NPHI.V/V      00 330 00 00         : PHIN         - NEUTRON POROSITY (SANDSTONE)
DPHI.V/V      00 890 00 00         : PHID         - DENSITY POROSITY (SANDSTONE)
GR  .API      00 310 00 00         : GR           - GAMMA RAY
CALI.MM       00 280 01 00         : CAL          - CALIPER
~PARAMETER INFORMATION
#MNEM.UNIT           DATA             DESCRIPTION OF MNEMONIC
#---------         -----------     ------------------------------
GL  .M        565.099              : gl           - GROUND LEVEL ELEVATION
EREF.M        568.757              : kb           - ELEVATION OF DEPTH REFERENCE
DATM.M        565.099              : datum        - DATUM ELEVATION
TDD .M        406.908              : tdd          - TOTAL DEPTH DRILLER
RUN .         ONE                  : Run          - RUN NUMBER
ENG .         LAVERCIERE           : Engineer     - RECORDING ENGINEER
WIT .         GARDINER             : Witness      - WITNESSED BY
BASE.         EDM                  : Branch       - HOME BASE OF LOGGING UNIT
MUD .         GEL                  : Mud_type     - MUD TYPE
MATR.         SANDSTONE            : Logunit      - NEUTRON MATRIX
TMAX.C        20                   : BHT          - MAXIMUM RECORDED TEMPERATURE
BHTD.M        406.298              : BHTDEP       - MAXIMUM RECORDED TEMPERATURE
RMT .C        10                   : MDTP         - TEMPERATURE OF MUD
MUDD.KG/M     1056                 : MWT          - MUD DENSITY
NEUT.         1                    : NEUTRON      - NEUTRON TYPE
RESI.         0                    : RESIST       - RESISTIVITY TYPE
RM  .OHMM     1.8                  : RM           - RESISTIVITY OF MUD
RMC .OHMM     0                    : RMC          - RESISTIVITY OF MUD CAKE
RMF .OHMM     1.94                 : RMF          - RESISTIVITY OF MUD FILTRATE
SUFT.C        -17.7778             : SUFT         - SURFACE TEMPERATURE
~A  DEPTH     RESD     PHIN     PHID       GR      CAL
  210.312    3.857    0.568    0.290  100.449  222.549
  210.562    3.988    0.581    0.276   99.550  223.919
  210.812    4.199    0.573    0.264   99.206  222.817
  211.062    4.391    0.555    0.267   99.279  220.975
  211.312    4.481    0.534    0.272   99.848  218.843
  211.562    4.531    0.532    0.270  102.068  216.624
  211.812    4.603    0.532    0.280  104.219  214.985
  212.062    4.656    0.554    0.255  104.180  213.257
  212.312    4.726    0.574    0.255  103.094  211.218
  212.562    4.756    0.587    0.278  100.861  209.486
  212.812    4.647    0.578    0.276   97.757  207.654
  213.062    4.220    0.561    0.260   97.041  205.322
  213.312    4.030    0.521    0.237   98.778  202.664
  213.562    3.843    0.517    0.248   99.828  199.692
  213.812    3.793    0.535    0.265   98.378  199.087
  214.062    3.945    0.546    0.278   92.782  197.894
  214.312    4.254    0.531    0.285   83.397  196.072
  214.562    4.985    0.493    0.278   75.416  193.807
  214.812    5.855    0.394    0.186   72.319  189.290
  215.062    7.485    0.405    0.168   74.177  182.500
  215.312   10.613    0.422    0.273   75.470  179.028
  215.562   13.162    0.429    0.315   71.708  175.563
  215.812   13.753    0.455    0.323   66.652  173.482
  216.062   14.324    0.486    0.325   60.686  170.534
  216.312   14.974    0.490    0.327   54.174  168.069
  216.562   15.844    0.480    0.343   50.097  166.447
  216.812   17.213    0.451    0.348   47.250  164.512
  217.062   18.424    0.462    0.342   46.410  165.268
  217.312   18.016    0.451    0.332   48.394  165.945
  217.562   17.546    0.461    0.342   51.515  166.789
  217.812   17.038    0.451    0.348   55.510  168.378
  218.062   16.670    0.460    0.331   59.614  171.188
  218.312   16.181    0.469    0.312   63.113  173.591
  218.562   15.294    0.480    0.304   63.253  175.904
  218.812   13.947    0.448    0.336   62.358  178.094
  219.062   12.819    0.434    0.337   62.674  180.093
  219.312   10.871    0.446    0.326   65.989  182.199
  219.562    8.125    0.476    0.334   77.306  185.529
  219.812    6.358    0.517    0.331   84.836  190.837
  220.062    5.230    0.530    0.297   89.931  194.376
  220.312    4.443    0.504    0.277   94.156  196.582
  220.562    4.314    0.493    0.270   98.579  197.859
  220.812    4.606    0.514    0.260  102.127  198.093
  221.062    4.876    0.519    0.249  109.227  198.427
  221.312    5.148    0.507    0.239  109.186  198.370
  221.562    4.919    0.529    0.229  106.705  197.378
  221.812    4.670    0.546    0.216  107.266  196.769
  222.062    5.040    0.530    0.217  110.092  194.737
  222.312    5.630    0.544    0.242  106.203  191.462
  222.562    6.661    0.543    0.264   97.311  185.695
  222.812    7.950    0.527    0.266   89.147  179.418
  223.062    9.999    0.504    0.320   78.231  174.498
  223.312   13.467    0.459    0.338   64.389  171.103
  223.562   15.596    0.444    0.326   59.889  168.961
  223.812   16.526    0.447    0.310   58.935  166.842
  224.062   16.837    0.471    0.326   56.450  165.924
  224.312   16.389    0.464    0.341   55.489  166.167
  224.562   16.280    0.447    0.331   59.779  167.454
  224.812   16.071    0.450    0.329   65.052  168.824
  225.062   15.544    0.446    0.344   68.187  170.081
  225.312   14.736    0.420    0.320   70.523  171.974
  225.562   13.888    0.414    0.299   74.327  173.870
  225.812   13.259    0.421    0.281   77.942  177.009
  226.062   12.591    0.418    0.262   81.135  180.442
  226.312   11.923    0.447    0.247   76.701  184.827
  226.562   10.795    0.446    0.257   74.214  189.286
  226.812    9.687    0.437    0.255   80.341  196.153
  227.062    8.440    0.429    0.250   85.666  201.655
  227.312    7.692    0.443    0.271   87.032  207.693
  227.562    7.363    0.479    0.275   85.338  212.052
  227.812    7.854    0.503    0.298   83.896  215.811
  228.062    8.864    0.520    0.322   83.729  217.387
  228.312    9.654    0.507    0.325   84.844  214.629
  228.562   10.586    0.489    0.317   84.620  208.865
  228.812   12.034    0.474    0.307   84.144  206.210
  229.062   13.184    0.460    0.326   84.711  206.347
  229.312   13.476    0.445    0.315   87.358  208.663
  229.562   13.067    0.442    0.295   89.816  211.060
  229.812   12.838    0.442    0.274   92.582  212.433
  230.062   13.050    0.445    0.258   95.898  210.808
  230.312   13.560    0.447    0.242   93.716  205.461
  230.562   14.271    0.432    0.250   76.883  199.507
  230.812   14.761    0.427    0.280   69.088  192.820
  231.062   15.053    0.438    0.280   61.780  186.950
  231.312   15.184    0.451    0.288   55.201  183.052
  231.562   15.393    0.438    0.304   45.632  179.978
  231.812   15.806    0.427    0.315   38.998  177.432
  232.062   16.216    0.424    0.325   35.716  174.984
  232.312   16.386    0.418    0.333   39.526  171.913
  232.562   16.558    0.395    0.344   47.475  168.225
  232.812   16.768    0.417    0.341   48.534  165.773
  233.062   16.501    0.436    0.342   45.809  164.554
  233.312   16.111    0.440    0.350   44.420  164.175
  233.562   15.623    0.397    0.355   49.747  164.402
  233.812   15.035    0.376    0.352   58.319  164.952
  234.062   14.127    0.375    0.320   67.978  167.569
  234.312   13.079    0.392    0.297   76.241  172.147
  234.562   11.951    0.403    0.279   79.923  177.042
  234.812   11.303    0.399    0.265   82.752  181.101
  235.062   11.534    0.408    0.255   84.540  183.930
  235.312   12.064    0.417    0.235   83.951  184.997
  235.562   12.355    0.426    0.251   79.877  185.118
  235.812   11.947    0.424    0.244   76.351  185.671
  236.062   10.400    0.417    0.300   76.739  187.691
  236.312    8.632    0.428    0.314   87.623  189.980
  236.562    6.685    0.464    0.288   98.018  193.736
  236.812    5.198    0.501    0.286  104.693  198.202
  237.062    4.410    0.538    0.298  111.310  203.513
  237.312    4.003    0.583    0.249  117.615  207.255
  237.562    3.853    0.592    0.222  119.463  210.178
  237.812    3.744    0.589    0.216  119.910  208.869
  238.062    3.757    0.578    0.241  119.812  205.501
  238.312    3.767    0.566    0.249  118.787  206.361
  238.562    3.859    0.563    0.244  116.243  209.397
  238.812    3.988    0.569    0.234  111.131  211.784
  239.062    4.220    0.575    0.212  106.569  213.473
  239.312    4.630    0.558    0.167  106.158  214.224
  239.562    5.181    0.558    0.126  114.481  215.287
  239.812    5.852    0.563    0.102  120.603  216.477
  240.062    6.681    0.524    0.171  115.309  217.233
  240.312    7.592    0.490    0.253  109.837  217.777
  240.562    8.162    0.462    0.258  108.631  217.905
  240.812    8.394    0.456    0.258  109.997  217.522
  241.062    8.225    0.479    0.254  111.599  215.377
  241.312    8.096    0.479    0.247  110.704  211.686
  241.562    8.088    0.468    0.232  108.646  209.124
  241.812    8.579    0.470    0.251  104.447  206.885
  242.062    9.328    0.486    0.268   97.014  203.617
  242.312   10.258    0.513    0.287   87.935  200.433
  242.562   11.389    0.491    0.314   82.462  195.905
  242.812   12.379    0.466    0.300   75.701  191.501
  243.062   13.109    0.470    0.302   73.954  189.149
  243.312   13.620    0.479    0.316   75.682  188.047
  243.562   13.651    0.477    0.296   75.948  187.758
  243.812   13.503    0.464    0.309   77.178  187.895
  244.062   13.334    0.457    0.325   81.531  188.452
  244.312   12.726    0.458    0.335   86.865  188.782
  244.562   11.857    0.466    0.314   86.148  189.129
  244.812   11.209    0.477    0.299   87.207  190.706
  245.062   10.701    0.474    0.312   91.315  193.025
  245.312   10.354    0.453    0.305   94.509  195.628
  245.562   10.145    0.471    0.295   96.664  201.763
  245.812    9.975    0.479    0.276   98.945  202.116
  246.062    9.627    0.483    0.301  102.133  200.478
  246.312    9.338    0.480    0.288  106.667  203.091
  246.562    9.030    0.468    0.286  112.913  207.476
