~VERSION INFORMATION
 VERS.                 2.0:   CWLS LOG ASCII STANDARD -VERSION 2.0
 WRAP.                  NO:   ONE LINE PER DEPTH STEP
~WELL INFORMATION BLOCK
#MNEM.UNIT           DATA                    DESCRIPTION OF MNEMONIC
#---------    -------------------            -------------------------------
# Generated from Intellog Unique Number	CS_69_70/WELL/906
NULL.         -999.25                        : NULL_VALUE
WELL.         HUSKY OIL OPERATION LTD.       : Well_name    - WELL              
LOC .         00/09-12-070-06W4/0            : Location     - LOCATION          
UWI .         00/09-12-070-06W4/0            : Uwi          - UNIQUE WELL ID    
ENTR.         SP                             : Entered      - ENTERED BY        
SRVC.         SCHLUMBERGER                   : Scn          - SERVICE COMPANY   
STRT.M        315                            : top_depth    - START DEPTH       
STOP.M        560                            : bot_depth    - STOP DEPTH        
STEP.M        0.25                           : increment    - STEP LENGTH       
~CURVE INFORMATION BLOCK
#MNEM UNIT       ERCB CURVE CODE    CURVE DESCRIPTION
#-----------   ------------------   ----------------------------------
DEPT.M        00 001 00 00         : DEPTH        - DEPTH                       
ILD .OHMM     00 120 00 00         : RESD         - DEEP RESISTIVITY (DIL)      
DPHI.V/V      00 890 00 00         : PHID         - DENSITY POROSITY (LIMESTONE)
NPHI.V/V      00 330 00 00         : PHIN         - NEUTRON POROSITY (LIMESTONE)
GR  .API      00 310 00 00         : GR           - GAMMA RAY                   
~PARAMETER INFORMATION       
#MNEM.UNIT           DATA             DESCRIPTION OF MNEMONIC
#---------         -----------     ------------------------------
GL  .M        675.2                : gl           - GROUND LEVEL ELEVATION      
EREF.M        678.8                : kb           - ELEVATION OF DEPTH REFERENCE
DATM.M        675.2                : datum        - DATUM ELEVATION             
TDD .M        567                  : tdd          - TOTAL DEPTH DRILLER         
RUN .         ONE                  : Run          - RUN NUMBER                  
ENG .         BILL                 : Engineer     - RECORDING ENGINEER          
WIT .         JIM                  : Witness      - WITNESSED BY                
MUD .         GEL                  : Mud_type     - MUD TYPE                    
MATR.         LIMESTONE            : Logunit      - NEUTRON MATRIX              
TMAX.C        25                   : BHT          - MAXIMUM RECORDED TEMPERATURE
BHTD.M        567                  : BHTDEP       - MAXIMUM RECORDED TEMPERATURE
MATR.         1                    : LOGUNIT      - NEUTRON MATRIX              
RMT .C        25                   : MDTP         - TEMPERATURE OF MUD          
NEUT.         1                    : NEUTRON      - NEUTRON TYPE                
RESI.         0                    : RESIST       - RESISTIVITY TYPE            
RMC .OHMM     0.25                 : RMC          - RESISTIVITY OF MUD CAKE     
RMF .OHMM     0.25                 : RMF          - RESISTIVITY OF MUD FILTRATE 
SUFT.C        15                   : SUFT         - SURFACE TEMPERATURE         
~A  DEPTH     RESD     PHID     PHIN       GR
# ...
  489.000  234.955    0.331    0.346   19.776
  489.250  210.250    0.331    0.351   22.186
  489.500  191.628    0.329    0.351   23.392
  489.750  153.325    0.338    0.349   25.802
  490.000  162.221    0.349    0.359   26.405
  490.250  181.484    0.359    0.372   25.803
  490.500  203.067    0.351    0.382   24.599
  490.750  210.826    0.344    0.387   23.997
  491.000  203.218    0.344    0.392   19.781
  491.250  127.658    0.340    0.378   16.770
  491.500  112.124    0.338    0.344   17.373
  491.750  135.141    0.342    0.336   22.193
  492.000  162.888    0.364    0.378   25.206
  492.250  175.536    0.382    0.404   21.592
  492.500  189.193    0.357    0.415   16.774
  492.750  172.461    0.337    0.331   18.582
  493.000  182.450    0.332    0.332   21.595
  493.250  193.039    0.355    0.360   22.800
  493.500  200.448    0.346    0.378   24.005
  493.750  220.138    0.338    0.361   21.597
  494.000  260.401    0.342    0.347   19.188
  494.250  313.840    0.344    0.353   23.405
  494.500  332.026    0.350    0.369   24.008
  494.750  338.484    0.355    0.384   21.599
  495.000  351.480    0.357    0.394   19.190
  495.250  400.651    0.352    0.374   18.589
  495.500  415.947    0.344    0.359   17.987
  495.750  448.342    0.340    0.355   17.988
  496.000  432.153    0.338    0.353   18.591
  496.250  401.405    0.335    0.354   18.592
  496.500  386.916    0.330    0.355   18.592
  496.750  387.071    0.326    0.358   19.195
  497.000  417.201    0.329    0.365   18.594
  497.250  466.789    0.331    0.364   18.594
  497.500  484.634    0.332    0.361   18.596
  497.750  493.993    0.333    0.361   19.198
  498.000  418.043    0.335    0.361   19.802
  498.250  395.510    0.336    0.364   19.802
  498.500  388.422    0.338    0.372   18.598
  498.750  381.382    0.341    0.376   17.996
  499.000  347.657    0.342    0.370   17.997
  499.250  335.165    0.344    0.358   19.203
  499.500  348.063    0.344    0.353   20.408
  499.750  361.435    0.344    0.348   21.012
  500.000  375.266    0.336    0.343   19.808
  500.250  389.730    0.332    0.343   19.205
  500.500  389.910    0.336    0.348   19.809
  500.750  375.804    0.337    0.358   20.412
  501.000  369.118    0.335    0.367   20.412
  501.250  383.262    0.336    0.363   19.811
  501.500  405.490    0.337    0.350   20.414
  501.750  390.830    0.332    0.355   21.620
  502.000  369.813    0.331    0.371   21.620
  502.250  369.975    0.340    0.381   22.223
  502.500  363.335    0.346    0.388   21.622
  502.750  343.756    0.354    0.375   21.020
  503.000  337.607    0.358    0.367   21.623
  503.250  337.816    0.360    0.380   23.431
  503.500  331.685    0.355    0.370   27.046
  503.750  325.717    0.347    0.354   39.697
  504.000  296.922    0.340    0.356   46.325
  504.250  255.965    0.338    0.373   49.338
  504.500  233.308    0.336    0.386   48.133
  504.750  224.876    0.333    0.389   46.327
  505.000  225.009    0.338    0.382   51.749
  505.250  229.330    0.340    0.373   50.545
  505.500  212.987    0.342    0.372   40.907
  505.750  197.809    0.349    0.370   36.691
  506.000  194.231    0.352    0.394   35.487
  506.250  201.723    0.347    0.393   34.283
  506.500  205.599    0.340    0.372   34.284
  506.750  205.708    0.335    0.353   36.694
  507.000  191.014    0.336    0.359   36.092
  507.250  126.885    0.336    0.361   33.683
  507.500   84.278    0.336    0.363   43.323
  507.750   59.195    0.324    0.348   54.167
  508.000   37.185    0.249    0.306   58.384
  508.250   21.281    0.172    0.307   62.602
  508.500   14.947    0.195    0.333   65.615
  508.750   12.647    0.211    0.336   65.013
  509.000   12.655    0.213    0.320   66.219
  509.250   12.902    0.215    0.318   68.629
  509.500   12.904    0.213    0.315   69.834
  509.750   12.674    0.210    0.331   72.245
  510.000   12.445    0.206    0.337   74.656
  510.250   12.221    0.198    0.335   75.861
  510.500   12.006    0.194    0.330   77.067
  510.750   12.697    0.189    0.329   77.669
  511.000   13.185    0.188    0.341   74.056
  511.250   13.440    0.196    0.354   70.442
  511.500   13.960    0.211    0.353   69.238
  511.750   14.227    0.204    0.330   70.443
  512.000   15.333    0.193    0.323   70.444
  512.250   18.140    0.212    0.318   68.035
  512.500   22.692    0.250    0.326   60.205
  512.750   28.386    0.267    0.338   55.988
  513.000   39.716    0.289    0.335   55.989
  513.250   43.603    0.285    0.350   52.978
  513.500   53.544    0.292    0.369   44.545
  513.750   64.534    0.315    0.365   41.533
  514.000   73.547    0.313    0.353   39.124
  514.250   85.400    0.314    0.362   35.511
  514.500   93.772    0.326    0.356   30.692
  514.750  102.979    0.329    0.361   31.898
  515.000  106.932    0.331    0.370   31.898
  515.250  108.994    0.332    0.355   29.490
  515.500  109.050    0.333    0.355   26.478
  515.750  105.127    0.333    0.364   25.876
  516.000   95.830    0.332    0.367   24.672
  516.250   87.349    0.330    0.367   23.468
  516.500   78.148    0.329    0.364   20.457
  516.750   66.120    0.327    0.361   19.855
  517.000   51.934    0.326    0.364   21.061
  517.250   34.496    0.327    0.361   24.073
  517.500   25.148    0.338    0.345   30.701
  517.750   19.032    0.335    0.329   42.147
  518.000   16.712    0.276    0.315   56.003
  518.250   14.407    0.179    0.313   80.100
  518.500   12.892    0.201    0.343   91.547
  518.750   11.973    0.262    0.394   87.331
  519.000   11.327    0.272    0.416   85.524
  519.250   10.519    0.221    0.393   92.754
  519.500   10.139    0.181    0.377   97.574
  519.750    9.595    0.145    0.392   98.779
  520.000    9.421    0.159    0.388   92.756
  520.250    9.253    0.166    0.369   90.950
  520.500    9.256    0.175    0.358   94.565
  520.750    9.092    0.178    0.355   99.385
  521.000    9.094    0.169    0.369   99.385
  521.250    8.933    0.160    0.377   98.181
  521.500    9.449    0.161    0.377   99.989
  521.750    9.279    0.165    0.383  104.207
  522.000    9.284    0.169    0.406  106.617
  522.250    9.289    0.169    0.424  108.425
  522.500    9.292    0.166    0.423  103.607
  522.750    9.298    0.158    0.425  101.198
  523.000    9.477    0.147    0.435   97.584
  523.250    9.484    0.139    0.446   98.187
  523.500    9.141    0.138    0.434   98.790
  523.750    9.317    0.165    0.361   89.152
  524.000    9.320    0.199    0.342   81.322
  524.250    9.501    0.205    0.330   73.491
  524.500    9.504    0.201    0.324   89.757
  524.750    9.508    0.176    0.321   98.191
  525.000    8.401    0.146    0.400  103.428
  525.250    7.947    0.163    0.425  103.442
  525.500    7.516    0.186    0.420   87.728
  525.750    7.244    0.231    0.392   70.201
  526.000    6.981    0.279    0.375   54.490
  526.250    6.855    0.300    0.365   50.872
  526.500    6.607    0.297    0.374   52.096
  526.750    6.487    0.289    0.371   52.714
  527.000    6.369    0.285    0.354   53.330
  527.250    6.492    0.283    0.346   50.319
  527.500    6.618    0.296    0.362   47.309
  527.750    6.872    0.291    0.375   52.764
  528.000    7.004    0.288    0.375   63.058
  528.250    7.007    0.274    0.337   72.751
  528.500    6.880    0.268    0.329   75.786
  528.750    6.755    0.257    0.336   61.283
  529.000    6.510    0.301    0.338   51.619
  529.250    6.274    0.288    0.337   55.869
  529.500    6.161    0.282    0.332   55.273
  529.750    5.938    0.275    0.340   48.633
  530.000    5.829    0.307    0.353   42.599
  530.250    5.618    0.324    0.365   41.401
  530.500    5.415    0.313    0.342   46.860
  530.750    5.316    0.306    0.347   51.108
  531.000    5.220    0.296    0.354   53.537
  531.250    5.321    0.291    0.349   54.758
  531.500    5.423    0.292    0.347   55.981
  531.750    5.426    0.298    0.359   55.390
  532.000    5.427    0.300    0.368   53.587
  532.250    5.430    0.290    0.359   54.209
