~VERSION INFORMATION
 VERS.                 2.0:   CWLS LOG ASCII STANDARD -VERSION 2.0
 WRAP.                  NO:   ONE LINE PER DEPTH STEP
~WELL INFORMATION BLOCK
#MNEM.UNIT           DATA                    DESCRIPTION OF MNEMONIC
#---------    -------------------            -------------------------------
# Generated from Intellog Unique Number	CS_77_79/WELL/875
WELL.         HOME OIL COMPANY               : Well_name    - WELL
LOC .         00/06-16-077-06W4/0            : Location     - LOCATION
UWI .         00/06-16-077-06W4/0            : Uwi          - UNIQUE WELL ID
ENTR.         SP                             : Entered      - ENTERED BY
SRVC.         SCHLUMBERGER                   : Scn          - SERVICE COMPANY
STRT.M        143.256                        : top_depth    - START DEPTH
STOP.M        362.506                        : bot_depth    - STOP DEPTH
STEP.M        0.25                           : increment    - STEP LENGTH
 NULL. -999.2500:NULL Value
~CURVE INFORMATION BLOCK
#MNEM UNIT       ERCB CURVE CODE    CURVE DESCRIPTION
#-----------   ------------------   ----------------------------------
DEPT.M        00 001 00 00         : DEPTH        - DEPTH
GR  .API      00 310 00 00         : GR           - GAMMA RAY
DPHI.V/V      00 890 00 00         : PHID         - DENSITY POROSITY (SANDSTONE)
NPHI.V/V      00 330 00 00         : PHIN         - NEUTRON POROSITY (SANDSTONE)
ILD .OHMM     00 120 00 00         : RESD         - DEEP RESISTIVITY (DIL)
~PARAMETER INFORMATION
#MNEM.UNIT           DATA             DESCRIPTION OF MNEMONIC
#---------         -----------     ------------------------------
GL  .M        566.105              : gl           - GROUND LEVEL ELEVATION
EREF.M        569.641              : kb           - ELEVATION OF DEPTH REFERENCE
DATM.M        566.105              : datum        - DATUM ELEVATION
TDD .M        368.808              : tdd          - TOTAL DEPTH DRILLER
RUN .         ONE                  : Run          - RUN NUMBER
ENG .         BILL                 : Engineer     - RECORDING ENGINEER
WIT .         JIM                  : Witness      - WITNESSED BY
MUD .         GEL                  : Mud_type     - MUD TYPE
MATR.         SANDSTONE            : Logunit      - NEUTRON MATRIX
TMAX.C        23.3333              : BHT          - MAXIMUM RECORDED TEMPERATURE
BHTD.M        389.534              : BHTDEP       - MAXIMUM RECORDED TEMPERATURE
MATR.         1                    : LOGUNIT      - NEUTRON MATRIX
RMT .C        25                   : MDTP         - TEMPERATURE OF MUD
NEUT.         1                    : NEUTRON      - NEUTRON TYPE
RESI.         0                    : RESIST       - RESISTIVITY TYPE
RMC .OHMM     0.25                 : RMC          - RESISTIVITY OF MUD CAKE
RMF .OHMM     0.25                 : RMF          - RESISTIVITY OF MUD FILTRATE
SUFT.C        15                   : SUFT         - SURFACE TEMPERATURE
~A  DEPTH       GR     PHID     PHIN     RESD
# ...
  317.256  121.917    0.170    0.419    5.115
  317.506  119.605    0.176    0.404    5.301
  317.756  116.848    0.152    0.394    5.359
  318.006  114.835    0.144    0.388    5.468
  318.256  115.594    0.140    0.397    5.480
  318.506  114.481    0.155    0.402    5.551
  318.756  117.888    0.165    0.402    5.656
  319.006  122.699    0.184    0.407    5.768
  319.256  123.740    0.173    0.416    5.747
  319.506  121.600    0.156    0.428    5.872
  319.756  121.012    0.136    0.416    5.857
  320.006  120.844    0.146    0.406    5.941
  320.256  121.960    0.148    0.402    5.961
  320.506  121.657    0.150    0.404    5.961
  320.756  119.921    0.166    0.401    6.036
  321.006  117.728    0.176    0.400    6.066
  321.256  116.387    0.156    0.413    6.067
  321.506  114.914    0.140    0.408    6.068
  321.756  111.694    0.153    0.393    6.084
  322.006  108.911    0.175    0.375    6.176
  322.256  105.342    0.171    0.364    6.172
  322.506  107.311    0.174    0.359    6.169
  322.756  110.659    0.158    0.368    6.167
  323.006  114.500    0.157    0.379    6.165
  323.256  118.945    0.154    0.386    6.163
  323.506  118.639    0.164    0.387    6.161
  323.756  115.901    0.153    0.390    6.167
  324.006  114.647    0.157    0.390    6.046
  324.256  114.198    0.162    0.385    6.033
  324.506  112.037    0.166    0.386    6.164
  324.756  110.061    0.165    0.389    6.150
  325.006  108.153    0.162    0.388    6.148
  325.256  110.234    0.153    0.382    6.147
  325.506  111.642    0.148    0.374    6.144
  325.756  111.532    0.148    0.370    6.140
  326.006  109.841    0.158    0.376    6.131
  326.256  108.871    0.176    0.383    6.021
  326.506  108.812    0.172    0.380    6.024
  326.756  108.152    0.179    0.373    6.023
  327.006  107.602    0.183    0.369    6.021
  327.256  106.763    0.172    0.380    6.019
  327.506  106.420    0.167    0.385    6.016
  327.756  107.332    0.168    0.384    5.948
  328.006  110.252    0.146    0.375    5.906
  328.256  110.132    0.144    0.386    5.900
  328.506  108.270    0.150    0.379    5.888
  328.756  105.637    0.168    0.372    6.014
  329.006  104.007    0.178    0.373    6.003
  329.256  106.354    0.173    0.371    6.002
  329.506  105.810    0.197    0.375    6.000
  329.756  104.005    0.213    0.374    5.999
  330.006  108.794    0.210    0.377    5.997
  330.256  107.713    0.190    0.393    5.995
  330.506  104.703    0.199    0.407    5.993
  330.756  103.257    0.191    0.410    5.991
  331.006  101.809    0.179    0.394    5.989
  331.256   99.259    0.177    0.402    5.987
  331.506   97.036    0.185    0.386    5.985
  331.756   98.493    0.178    0.376    5.983
  332.006  103.139    0.167    0.384    5.981
  332.256  109.386    0.175    0.380    5.979
  332.506  111.191    0.177    0.383    5.977
  332.756  115.731    0.165    0.377    5.975
  333.006  118.561    0.165    0.385    5.973
  333.256  121.816    0.151    0.408    5.971
  333.506  122.738    0.152    0.411    5.968
  333.756  122.129    0.159    0.397    5.968
  334.006  120.923    0.172    0.375    6.034
  334.256  119.439    0.160    0.375    6.071
  334.506  116.924    0.156    0.365    6.072
  334.756  115.945    0.166    0.365    6.058
  335.006  114.251    0.172    0.367    6.189
  335.256  113.290    0.176    0.371    6.179
  335.506  113.235    0.174    0.377    6.226
  335.756  113.242    0.182    0.380    6.286
  336.006  112.314    0.186    0.378    6.289
  336.256  111.885    0.172    0.369    6.324
  336.506  111.465    0.172    0.367    6.398
  336.756  112.485    0.178    0.371    6.398
  337.006  113.727    0.179    0.377    6.402
  337.256  115.644    0.171    0.385    6.280
  337.506  115.734    0.158    0.391    6.144
  337.756  115.118    0.149    0.397    6.037
  338.006  115.337    0.162    0.403    5.834
  338.256  110.578    0.178    0.397    5.826
  338.506  107.332    0.179    0.382    5.822
  338.756  108.364    0.157    0.366    5.820
  339.006  111.310    0.176    0.378    5.820
  339.256  114.560    0.186    0.389    5.818
  339.506  114.048    0.188    0.399    6.002
  339.756  112.292    0.186    0.398    6.211
  340.006  106.997    0.171    0.393    6.596
  340.256   95.404    0.188    0.395    7.958
  340.506   84.558    0.192    0.396   10.285
  340.756   65.137    0.214    0.394   12.355
  341.006   56.917    0.244    0.395   17.201
  341.256   55.672    0.279    0.381   20.772
  341.506   57.907    0.294    0.375   20.536
  341.756   65.849    0.296    0.374   18.380
  342.006   75.274    0.272    0.366   15.416
  342.256   74.801    0.250    0.373   13.124
  342.506   68.945    0.247    0.394   12.838
  342.756   62.833    0.267    0.405   13.760
  343.006   69.295    0.277    0.393   15.469
  343.256   78.273    0.279    0.381   12.633
  343.506   91.631    0.240    0.371   11.067
  343.756   95.862    0.195    0.374    8.994
  344.006  102.141    0.201    0.365    8.275
  344.256  106.880    0.172    0.359    7.403
  344.506  107.640    0.180    0.379    7.000
  344.756  106.839    0.197    0.399    6.795
  345.006  104.038    0.209    0.411    6.582
  345.256   99.686    0.216    0.417    6.563
  345.506   99.246    0.222    0.402    6.556
  345.756   99.499    0.214    0.394    6.721
  346.006  101.856    0.195    0.387    6.916
  346.256  101.062    0.168    0.380    7.178
  346.506   99.404    0.153    0.370    7.379
  346.756   96.171    0.163    0.358    7.775
  347.006   92.297    0.174    0.351    8.002
  347.256   89.299    0.184    0.351    8.408
  347.506   87.890    0.191    0.372    8.799
  347.756   87.396    0.197    0.389    9.082
  348.006   89.262    0.213    0.383    9.048
  348.256   92.878    0.205    0.388    8.583
  348.506   94.006    0.202    0.385    8.345
  348.756   98.887    0.200    0.372    7.830
  349.006   99.313    0.196    0.373    7.284
  349.256   94.212    0.205    0.386    7.132
  349.506   90.601    0.203    0.392    6.185
  349.756   86.909    0.202    0.374    6.174
  350.006   86.484    0.213    0.367    6.236
  350.256   92.521    0.191    0.361    6.261
  350.506  111.946    0.150    0.395    7.160
  350.756  108.682    0.156    0.383    7.061
  351.006  107.354    0.164    0.394    7.081
  351.256  104.155    0.166    0.393    6.960
  351.506  104.275    0.177    0.384    6.963
  351.756   99.446    0.176    0.369    6.962
  352.006  100.849    0.189    0.383    6.935
  352.256  103.955    0.189    0.401    7.280
  352.506   98.400    0.183    0.413    7.479
  352.756   87.679    0.214    0.422    7.901
  353.006   76.972    0.262    0.424    9.045
  353.256   66.260    0.314    0.439   10.651
  353.506   53.199    0.347    0.430   13.391
  353.756   49.662    0.364    0.421   17.416
  354.006   54.153    0.363    0.424   22.473
  354.256   55.771    0.360    0.427   27.275
  354.506   58.074    0.359    0.435   33.158
  354.756   59.914    0.349    0.450   36.721
  355.006   53.817    0.345    0.440   40.148
  355.256   47.100    0.358    0.454   41.725
  355.506   44.946    0.365    0.441   40.873
  355.756   44.955    0.360    0.425   36.404
  356.006   46.981    0.358    0.414   32.956
  356.256   55.843    0.364    0.411   27.800
  356.506   60.854    0.359    0.406   23.330
  356.756   66.233    0.348    0.417   21.106
  357.006   69.843    0.329    0.422   21.893
  357.256   63.965    0.324    0.436   22.610
  357.506   56.645    0.333    0.442   20.631
  357.756   62.262    0.358    0.432   18.160
  358.006   71.072    0.357    0.420   15.343
  358.256   75.004    0.341    0.417   14.058
  358.506   75.880    0.334    0.432   11.597
  358.756   71.346    0.348    0.443    8.905
  359.006   62.510    0.347    0.422    7.984
  359.256   55.343    0.243    0.409    9.038
  359.506   46.270    0.168    0.330   12.001
  359.756   36.160    0.039    0.188   15.402
  360.006   29.907    0.001    0.097   20.005
  360.256   28.692   -0.000    0.099   26.128
  360.506   27.862   -0.000    0.106   35.984
