~VERSION INFORMATION
 VERS.                 2.0:   CWLS LOG ASCII STANDARD -VERSION 2.0
 WRAP.                  NO:   ONE LINE PER DEPTH STEP
~WELL INFORMATION BLOCK
#MNEM.UNIT           DATA                    DESCRIPTION OF MNEMONIC
#---------    -------------------            -------------------------------
# Generated from Intellog Unique Number	CW_70_72/WELL/2904
NULL.         -999.25                        : NULL_VALUE
COMP .        CALMARK RESOURCES LTD          :  COMPANY
WELL.         CALMARK ET AL MISTAHAE         : Well_name    - WELL              
LOC .         09-25-079-01W5                 : Location     - LOCATION          
UWI .         00/09-25-079-01W5/0            : Uwi          - UNIQUE WELL ID    
ENTR.         MAX                            : Entered      - ENTERED BY        
SRVC.         COMPUTALOG                     : Scn          - SERVICE COMPANY   
DATE.         25 FEB 89                      : Date         - LOG DATE
STRT.M        245                            : top_depth    - START DEPTH       
STOP.M        500                            : bot_depth    - STOP DEPTH        
STEP.M        0.25                           : increment    - STEP LENGTH       
~CURVE INFORMATION BLOCK
#MNEM UNIT       ERCB CURVE CODE    CURVE DESCRIPTION
#-----------   ------------------   ----------------------------------
DEPT.M        00 001 00 00         : DEPTH        - DEPTH                       
ILD .OHMM     00 120 00 00         : RESD         - DEEP RESISTIVITY (DIL)      
NPHI.V/V      00 330 00 00         : PHIN         - NEUTRON POROSITY (SANDSTONE)
DPHI.V/V      00 890 00 00         : PHID         - DENSITY POROSITY (SANDSTONE)
CALI.MM       00 280 01 00         : CAL          - CALIPER                     
GR  .API      00 310 00 00         : GR           - GAMMA RAY                   
~PARAMETER INFORMATION       
#MNEM.UNIT           DATA             DESCRIPTION OF MNEMONIC
#---------         -----------     ------------------------------
GL  .M        570.5                : gl           - GROUND LEVEL ELEVATION      
EREF.M        574.14               : kb           - ELEVATION OF DEPTH REFERENCE
DATM.M        570.5                : datum        - DATUM ELEVATION             
TDD .M        521                  : tdd          - TOTAL DEPTH DRILLER         
RUN .         ONE                  : Run          - RUN NUMBER                  
ENG .         BILL                 : Engineer     - RECORDING ENGINEER          
WIT .         JIM                  : Witness      - WITNESSED BY                
MUD .         GEL                  : Mud_type     - MUD TYPE                    
MATR.         SANDSTONE            : Logunit      - NEUTRON MATRIX              
TMAX.C        21                   : BHT          - MAXIMUM RECORDED TEMPERATURE
BHTD.M        521                  : BHTDEP       - MAXIMUM RECORDED TEMPERATURE
RMT .C        14.4                 : MDTP         - TEMPERATURE OF MUD          
MUDD.KG/M     950                  : MWT          - MUD DENSITY                 
NEUT.         1                    : NEUTRON      - NEUTRON TYPE                
RESI.         0                    : RESIST       - RESISTIVITY TYPE            
RM  .OHMM     2.2                  : RM           - RESISTIVITY OF MUD          
RMC .OHMM     1.9                  : RMC          - RESISTIVITY OF MUD CAKE     
RMF .OHMM     2                    : RMF          - RESISTIVITY OF MUD FILTRATE 
SUFT.C        -20                  : SUFT         - SURFACE TEMPERATURE         
~A  DEPTH     RESD     PHIN     PHID      CAL       GR
# ...
  281.500   17.295    0.417    0.329  166.428   43.667
  281.750   16.225    0.409    0.327  167.891   46.601
  282.000   15.642    0.416    0.325  168.861   48.653
  282.250   15.498    0.419    0.320  169.344   50.118
  282.500   15.354    0.409    0.316  169.336   50.406
  282.750   15.075    0.409    0.315  169.328   48.344
  283.000   14.533    0.421    0.318  169.319   46.282
  283.250   13.884    0.440    0.328  168.331   46.866
  283.500   12.674    0.449    0.328  168.323   49.212
  283.750   11.361    0.436    0.322  168.316   52.733
  284.000   10.561    0.421    0.307  168.308   55.668
  284.250    9.908    0.415    0.294  168.790   56.251
  284.500    9.294    0.415    0.292  169.760   57.715
  284.750    9.042    0.408    0.293  169.753   60.062
  285.000    8.959    0.398    0.298  170.234   58.293
  285.250    8.796    0.399    0.300  170.227   55.938
  285.500    8.714    0.410    0.300  170.217   56.520
  285.750    8.634    0.430    0.297  170.210   57.397
  286.000    8.400    0.441    0.297  170.691   59.450
  286.250    7.952    0.435    0.299  171.174   62.677
  286.500    7.392    0.416    0.296  170.676   66.199
  286.750    6.872    0.419    0.285  172.137   72.073
  287.000    6.565    0.439    0.265  172.617   77.063
  287.250    6.048    0.453    0.250  173.101   77.059
  287.500    5.674    0.451    0.252  175.539   74.115
  287.750    5.322    0.454    0.256  176.513   72.641
  288.000    5.039    0.454    0.259  178.464   73.811
  288.250    4.727    0.452    0.267  180.416   75.863
  288.500    4.516    0.444    0.276  180.896   78.210
  288.750    4.474    0.432    0.275  179.418   80.262
  289.000    4.555    0.423    0.268  177.453   80.844
  289.250    4.854    0.408    0.260  174.016   79.370
  289.500    6.320    0.404    0.249  170.086   77.015
  289.750   10.909    0.412    0.241  167.139   72.308
  290.000   15.136    0.437    0.264  166.153   62.898
  290.250   21.192    0.437    0.328  167.614   52.607
  290.500   28.872    0.427    0.359  167.607   48.194
  290.750   29.667    0.446    0.344  166.619   47.308
  291.000   29.126    0.454    0.338  165.630   49.066
  291.250   27.825    0.437    0.321  165.624   51.413
  291.500   26.826    0.427    0.334  165.613   54.053
  291.750   27.564    0.431    0.343  165.117   56.105
  292.000   29.641    0.435    0.343  165.108   57.569
  292.250   33.971    0.432    0.338  164.610   57.269
  292.500   39.649    0.409    0.296  164.602   55.796
  292.750   46.276    0.322    0.258  164.594   53.147
  293.000   53.521    0.276    0.131  164.587   49.909
  293.250   56.514    0.231    0.044  165.067   47.553
  293.500   55.483    0.193    0.016  165.550   46.078
  293.750   50.647    0.177    0.025  166.032   43.134
  294.000   46.656    0.182    0.031  166.514   40.190
  294.250   39.600    0.200    0.053  166.506   41.949
  294.500   35.175    0.241    0.129  166.987   46.647
  294.750   29.854    0.394    0.167  167.468   48.699
  295.000   25.108    0.409    0.348  167.462   48.106
  295.250   22.101    0.428    0.358  167.454   48.983
  295.500   19.810    0.441    0.357  167.444   50.448
  295.750   18.416    0.450    0.355  165.965   53.676
  296.000   16.965    0.449    0.340  164.979   59.255
  296.250   15.914    0.438    0.324  163.501   63.364
  296.500   15.625    0.438    0.302  162.513   66.298
  296.750   15.341    0.436    0.287  162.505   67.469
  297.000   15.338    0.433    0.279  163.477   65.701
  297.250   16.049    0.419    0.285  164.448   63.932
  297.500   17.898    0.391    0.271  163.461   63.340
  297.750   21.273    0.350    0.238  163.451   60.102
  298.000   30.891    0.298    0.066  163.443   57.157
  298.250   36.383    0.233    0.045  163.437   55.391
  298.500   37.726    0.214    0.033  163.429   52.153
  298.750   29.233    0.200    0.019  163.419   49.503
  299.000   22.042    0.218   -0.000  163.413   46.559
  299.250   20.679    0.246    0.023  163.895   43.616
  299.500   19.935    0.327    0.118  164.866   52.721
  299.750   19.932    0.375    0.198  166.817   65.648
  300.000   21.434    0.405    0.316  167.789   58.295
  300.250   24.790    0.437    0.331  167.291   51.530
  300.500   26.900    0.424    0.336  166.793   48.586
  300.750   27.142    0.419    0.338  164.824   47.701
  301.000   27.635    0.405    0.335  163.347   44.168
  301.250   26.643    0.408    0.333  162.361   42.988
  301.500   24.994    0.429    0.331  162.841   42.983
  301.750   24.316    0.427    0.334  162.833   44.448
  302.000   23.657    0.411    0.334  162.826   45.325
  302.250   23.439    0.400    0.333  162.817   45.026
  302.500   23.649    0.402    0.334  162.809   45.315
  302.750   24.299    0.402    0.334  162.801   45.604
  303.000   24.967    0.406    0.332  162.794   43.835
  303.250   25.422    0.418    0.333  162.785   42.068
  303.500   26.121    0.424    0.337  163.265   40.593
  303.750   26.840    0.423    0.343  165.216   40.589
  304.000   28.085    0.419    0.346  165.700   40.289
  304.250   29.120    0.420    0.343  166.181   39.991
  304.500   29.381    0.420    0.342  165.684   39.986
  304.750   29.110    0.420    0.345  163.713   39.687
  305.000   28.580    0.420    0.346  162.729   39.977
  305.250   27.805    0.423    0.345  162.231   42.029
  305.500   27.297    0.416    0.339  162.712   43.787
  305.750   26.802    0.410    0.333  163.682   44.369
  306.000   25.839    0.428    0.333  164.164   44.365
  306.250   25.367    0.441    0.337  165.137   43.185
  306.500   25.134    0.438    0.339  166.109   42.591
  306.750   25.134    0.431    0.338  166.588   42.881
  307.000   24.898    0.443    0.338  167.072   43.171
  307.250   24.222    0.442    0.338  167.062   42.871
  307.500   23.781    0.435    0.335  166.075   41.986
  307.750   23.562    0.436    0.334  165.087   40.216
  308.000   23.133    0.436    0.336  163.609   40.799
  308.250   22.711    0.418    0.338  162.623   41.089
  308.500   22.501    0.427    0.335  162.124   39.615
  308.750   22.294    0.439    0.336  162.115   37.846
  309.000   22.291    0.409    0.343  162.109   39.311
  309.250   22.085    0.408    0.343  162.100   43.421
  309.500   22.085    0.403    0.340  162.091   43.415
  309.750   21.877    0.399    0.342  162.574   42.822
  310.000   21.674    0.409    0.345  162.565   43.994
  310.250   21.474    0.414    0.345  162.558   43.401
  310.500   21.276    0.416    0.346  162.549   43.396
  310.750   21.080    0.419    0.347  162.541   43.685
  311.000   20.696    0.411    0.347  162.533   43.681
  311.250   20.319    0.406    0.346  162.524   43.970
  311.500   20.316    0.405    0.343  162.517   45.728
  311.750   19.945    0.403    0.338  162.508   45.134
  312.000   19.760    0.411    0.336  162.501   44.837
  312.250   19.758    0.429    0.341  162.982   46.007
  312.500   19.754    0.422    0.344  163.955   46.002
  312.750   19.751    0.419    0.346  163.946   44.822
  313.000   19.747    0.435    0.352  163.937   47.756
  313.250   19.744    0.442    0.349  163.930   49.808
  313.500   19.741    0.442    0.346  163.920   50.097
  313.750   19.736    0.438    0.345  164.402   49.798
  314.000   19.733    0.430    0.347  164.393   49.500
  314.250   19.730    0.432    0.352  164.386   52.434
  314.500   19.727    0.425    0.361  164.867   53.017
  314.750   19.723    0.443    0.361  164.860   51.837
  315.000   19.719    0.458    0.356  164.853   50.362
  315.250   19.716    0.459    0.342  164.845   51.237
  315.500   19.713    0.453    0.345  164.835   52.410
  315.750   19.353    0.448    0.354  165.317   53.874
  316.000   16.728    0.450    0.352  165.309   55.044
  316.250   15.131    0.450    0.350  165.302   56.509
  316.500   14.456    0.455    0.350  164.801   58.856
  316.750   14.193    0.445    0.348  164.794   56.794
  317.000   14.987    0.420    0.335  164.786   53.262
  317.250   16.263    0.406    0.287  164.780   50.024
  317.500   16.409    0.273    0.118  164.769   48.550
  317.750   14.979    0.264    0.032  164.761   47.369
