~VERSION INFORMATION
 VERS.                 2.0:   CWLS LOG ASCII STANDARD -VERSION 2.0
 WRAP.                  NO:   ONE LINE PER DEPTH STEP
~WELL INFORMATION BLOCK
#MNEM.UNIT           DATA                    DESCRIPTION OF MNEMONIC
#---------    -------------------            -------------------------------
# Generated from Intellog Unique Number	CW_73_75/WELL/3516
WELL.         1CGR MAXUS KELLY               : Well_name    - WELL
LOC .         00/02-01-073-19W4/0            : Location     - LOCATION
UWI .         00/02-01-073-19W4/0            : Uwi          - UNIQUE WELL ID
ENTR.         TIM                            : Entered      - ENTERED BY
SRVC.         SCHLUMBERGER                   : Scn          - SERVICE COMPANY
STRT.M        325                            : top_depth    - START DEPTH
STOP.M        555                            : bot_depth    - STOP DEPTH
STEP.M        0.25                           : increment    - STEP LENGTH
 NULL. -999.2500:NULL Value
~CURVE INFORMATION BLOCK
#MNEM UNIT       ERCB CURVE CODE    CURVE DESCRIPTION
#-----------   ------------------   ----------------------------------
DEPT.M        00 001 00 00         : DEPTH        - DEPTH
ILD .OHMM     00 120 00 00         : RESD         - DEEP RESISTIVITY (DIL)
DPHI.V/V      00 890 00 00         : PHID         - DENSITY POROSITY (SANDSTONE)
NPHI.V/V      00 330 00 00         : PHIN         - NEUTRON POROSITY (SANDSTONE)
CALI.MM       00 280 01 00         : CAL          - CALIPER
GR  .API      00 310 00 00         : GR           - GAMMA RAY
~PARAMETER INFORMATION
#MNEM.UNIT           DATA             DESCRIPTION OF MNEMONIC
#---------         -----------     ------------------------------
GL  .M        631.8                : gl           - GROUND LEVEL ELEVATION
EREF.M        635.6                : kb           - ELEVATION OF DEPTH REFERENCE
DATM.M        635.6                : datum        - DATUM ELEVATION
TDD .M        509                  : tdd          - TOTAL DEPTH DRILLER
RUN .         ONE                  : Run          - RUN NUMBER
ENG .         BILL                 : Engineer     - RECORDING ENGINEER
WIT .         JIM                  : Witness      - WITNESSED BY
MUD .         GEL                  : Mud_type     - MUD TYPE
MATR.         SANDSTONE            : Logunit      - NEUTRON MATRIX
TMAX.C        22                   : BHT          - MAXIMUM RECORDED TEMPERATURE
BHTD.M        509                  : BHTDEP       - MAXIMUM RECORDED TEMPERATURE
RMT .C        15                   : MDTP         - TEMPERATURE OF MUD
MUDD.KG/M     1090                 : MWT          - MUD DENSITY
NEUT.         1                    : NEUTRON      - NEUTRON TYPE
RESI.         0                    : RESIST       - RESISTIVITY TYPE
RM  .OHMM     3.11                 : RM           - RESISTIVITY OF MUD
RMC .OHMM     3.5                  : RMC          - RESISTIVITY OF MUD CAKE
RMF .OHMM     3.2                  : RMF          - RESISTIVITY OF MUD FILTRATE
SUFT.C        4                    : SUFT         - SURFACE TEMPERATURE
~A  DEPTH     RESD     PHID     PHIN      CAL       GR
# ...
  507.500   68.520    0.042    0.239  148.481   12.870
  507.750   61.439    0.034    0.235  149.534   13.507
  508.000   57.081    0.034    0.230  150.596   16.570
  508.250   50.202    0.054    0.226  151.639   20.248
  508.500   44.152    0.072    0.225  152.692   23.932
  508.750   38.111    0.091    0.236  153.754   27.000
  509.000   33.496    0.116    0.301  153.800   30.678
  509.250   30.602    0.159    0.307  154.843   41.058
  509.500   28.987    0.167    0.310  155.915   47.179
  509.750   26.515    0.159    0.309  155.933   49.638
  510.000   25.590    0.165    0.309  155.971   54.529
  510.250   25.164    0.188    0.308  156.026   60.650
  510.500   25.212    0.214    0.328  156.054   63.109
  510.750   26.256    0.243    0.355  157.107   66.787
  511.000   28.922    0.265    0.394  158.160   67.424
  511.250   30.669    0.245    0.368  159.212   62.567
  511.500   31.899    0.180    0.340  159.249   54.669
  511.750   31.980    0.170    0.333  159.296   36.407
  512.000   28.657    0.171    0.333  159.324   55.322
  512.250   26.180    0.164    0.355  159.361   83.371
  512.500   23.903    0.132    0.382  159.398   76.692
  512.750   23.069    0.094    0.363  159.445   61.482
  513.000   21.893    0.068    0.277  158.448   45.664
  513.250   21.528    0.052    0.255  158.495   26.799
  513.500   21.569    0.047    0.266  158.541   30.477
  513.750   21.250    0.059    0.290  158.578   34.764
  514.000   20.508    0.076    0.303  158.606   34.792
  514.250   18.736    0.088    0.302  159.659   34.210
  514.500   18.071    0.081    0.274  159.705   33.612
  514.750   16.811    0.073    0.262  159.752   33.025
  515.000   16.244    0.061    0.256  160.786   32.438
  515.250   15.984    0.051    0.262  160.842   33.685
  515.500   15.727    0.038    0.278  160.870   34.311
  515.750   16.055    0.042    0.280  159.892   36.161
  516.000   17.025    0.046    0.278  159.929   40.448
  516.250   18.053    0.039    0.274  157.935   41.689
  516.500   19.144    0.044    0.273  156.948   36.837
  516.750   20.313    0.056    0.281  155.969   32.595
  517.000   21.541    0.073    0.320  155.000   26.530
  517.250   23.273    0.094    0.339  155.047   24.110
  517.500   25.161    0.125    0.350  154.059   22.304
  517.750   26.664    0.165    0.347  154.106   20.504
  518.000   27.751    0.162    0.322  154.125   19.923
  518.250   27.306    0.125    0.311  154.171   19.945
  518.500   24.484    0.130    0.340  154.218   21.795
  518.750   23.192    0.181    0.337  154.264   23.036
  519.000   20.795    0.116    0.328  154.283   24.277
  519.250   19.332    0.037    0.317  154.320   26.133
  519.500   17.662    0.020    0.283  154.357   27.972
  519.750   16.730    0.012    0.282  154.394   35.915
  520.000   15.573    0.018    0.282  155.456   59.704
  520.250   15.039    0.032    0.279  156.509   74.349
  520.500   14.797    0.051    0.276  157.562   79.245
  520.750   14.560    0.048    0.271  158.614   78.049
  521.000   14.326    0.037    0.269  158.642   72.588
  521.250   14.097    0.035    0.285  158.680   64.690
  521.500   14.132    0.043    0.296  157.711   58.010
  521.750   14.168    0.075    0.302  156.732   59.860
  522.000   14.195    0.103    0.312  155.754   55.618
  522.250   14.500    0.128    0.317  154.785   46.507
  522.500   15.110    0.155    0.320  153.788   44.701
  522.750   15.726    0.169    0.320  152.819   34.970
  523.000   16.377    0.132    0.314  151.841   22.807
  523.250   16.718    0.048    0.307  150.872   22.220
  523.500   16.750    0.044    0.268  149.903   25.903
  523.750   17.120    0.031    0.258  149.922   30.794
  524.000   17.477    0.040    0.265  149.959   35.691
  524.250   17.521    0.079    0.301  150.006   29.620
  524.500   17.566    0.111    0.308  150.043   24.165
  524.750   17.633    0.102    0.299  150.080   22.969
  525.000   17.361    0.021    0.258  150.127   21.772
  525.250   17.071    0.035    0.270  150.155   24.835
  525.500   16.180    0.057    0.278  150.192   28.513
  525.750   15.336    0.061    0.289  150.229   33.410
  526.000   14.801    0.074    0.339  150.266   34.656
  526.250   14.020    0.098    0.329  150.304   31.632
  526.500   13.297    0.110    0.309  150.341   29.212
  526.750   12.603    0.088    0.269  150.378   28.636
  527.000   12.171    0.046    0.258  150.415   28.653
  527.250   11.761    0.036    0.251  150.462   29.894
  527.500   11.558    0.046    0.254  150.499   29.916
  527.750   11.175    0.085    0.281  151.552   28.720
  528.000   11.204    0.132    0.309  151.579   27.524
  528.250   11.017    0.128    0.330  151.626   25.109
  528.500   11.045    0.099    0.345  151.663   22.700
  528.750   10.875    0.086    0.338  151.691   20.285
  529.000   10.902    0.070    0.314  151.728   19.089
  529.250   10.727    0.084    0.314  151.775   19.721
  529.500   10.755    0.115    0.316  151.803   21.571
  529.750   10.782    0.105    0.317  151.849   24.030
  530.000   10.802    0.096    0.319  151.877   25.880
  530.250   10.844    0.112    0.319  151.914   24.684
  530.500   10.864    0.135    0.309  151.952   23.482
  530.750   10.885    0.113    0.291  153.004   21.073
  531.000   10.912    0.095    0.292  153.042   19.877
  531.250   10.947    0.111    0.308  153.079   19.894
  531.500   10.982    0.096    0.325  153.116   22.353
  531.750   11.217    0.097    0.324  153.163   26.042
  532.000   11.239    0.152    0.319  153.209   28.496
  532.250   11.267    0.169    0.314  152.231   30.346
  532.500   11.296    0.156    0.305  152.259   30.978
  532.750   11.538    0.115    0.300  152.296   31.000
  533.000   11.575    0.066    0.300  152.333   29.804
  533.250   11.597    0.058    0.300  151.364   28.613
  533.500   11.854    0.067    0.302  151.392   29.854
  533.750   12.337    0.053    0.303  151.429   33.526
  534.000   12.594    0.050    0.306  151.467   39.032
  534.250   13.615    0.056    0.311  151.513   35.399
  534.500   14.720    0.059    0.314  150.544   30.547
  534.750   16.214    0.059    0.311  150.572   26.305
  535.000   16.854    0.063    0.311  150.619   23.286
  535.250   18.565    0.076    0.312  150.637   20.877
  535.500   20.463    0.082    0.305  149.659   20.279
  535.750   20.876    0.080    0.294  149.696   19.083
  536.000   22.569    0.069    0.276  148.718   17.892
  536.250   23.933    0.026    0.254  148.774   16.690
  536.500   25.379    0.005    0.238  148.793   16.109
  536.750   26.912    0.016    0.226  147.824   16.142
  537.000   27.490    0.007    0.215  147.879   16.154
  537.250   25.588    0.004    0.206  147.898   16.181
  537.500   23.804    0.010    0.246  147.945   16.204
  537.750   21.344    0.016    0.267  147.972   16.221
  538.000   20.586    0.039    0.280  147.004   16.243
  538.250   19.868    0.048    0.291  148.056   15.662
  538.500   18.843    0.055    0.297  148.093   15.684
  538.750   17.871    0.060    0.302  149.137   15.701
  539.000   17.562    0.065    0.307  149.183   15.729
  539.250   17.280    0.071    0.309  149.211   16.355
  539.500   17.674    0.079    0.310  149.258   17.607
  539.750   18.394    0.086    0.305  149.286   18.233
  540.000   17.752    0.094    0.293  149.323   20.088
  540.250   15.613    0.157    0.283  149.369   20.709
  540.500   13.981    0.142    0.270  149.397   24.387
  540.750   11.845    0.182    0.257  149.453   84.732
  541.000    9.666    0.201    0.476  150.487  100.601
  541.250   10.849    0.201    0.482  150.524  110.371
  541.500   12.161    0.182    0.456  151.596   98.818
  541.750   14.986    0.152    0.432  151.642   75.682
  542.000   17.127    0.112    0.379  151.661   20.876
  542.250   19.585    0.069    0.337  151.707   22.721
  542.500   21.560    0.023    0.314  151.735   27.008
  542.750   24.655    0.014    0.260  151.773   34.951
  543.000   26.638    0.004    0.198  151.810   36.192
  543.250   27.227    0.063    0.171  152.872   41.088
  543.500   26.756    0.064    0.194  152.909   60.003
  543.750   24.906    0.060    0.209  152.946   65.509
