~VERSION INFORMATION
 VERS.                 2.0:   CWLS LOG ASCII STANDARD -VERSION 2.0
 WRAP.                  NO:   ONE LINE PER DEPTH STEP
~WELL INFORMATION BLOCK
#MNEM.UNIT           DATA                    DESCRIPTION OF MNEMONIC
#---------    -------------------            -------------------------------
# Generated from Intellog Unique Number	CC_80_83/WELL/1049
WELL.         GULF PONY                      : Well_name    - WELL
LOC .         00/04-15-081-09W4/0            : Location     - LOCATION
UWI .         00/04-15-081-09W400            : Uwi          - UNIQUE WELL ID
ENTR.         DW                             : Entered      - ENTERED BY
SRVC.         SCHLUMBERGER                   : Scn          - SERVICE COMPANY
STRT.M        243.84                         : top_depth    - START DEPTH
STOP.M        487.34                         : bot_depth    - STOP DEPTH
STEP.M        0.25                           : increment    - STEP LENGTH
 NULL. -999.2500:NULL Value
~CURVE INFORMATION BLOCK
#MNEM UNIT       ERCB CURVE CODE    CURVE DESCRIPTION
#-----------   ------------------   ----------------------------------
DEPT.M        00 001 00 00         : DEPTH        - DEPTH
GR  .API      00 310 00 00         : GR           - GAMMA RAY
DPHI.V/V      00 890 00 00         : PHID         - DENSITY POROSITY (SANDSTONE)
NPHI.V/V      00 330 00 00         : PHIN         - NEUTRON POROSITY (SANDSTONE)
ILD .OHMM     00 120 00 00         : RESD         - DEEP RESISTIVITY (DIL)
~PARAMETER INFORMATION
#MNEM.UNIT           DATA             DESCRIPTION OF MNEMONIC
#---------         -----------     ------------------------------
GL  .M        701.528              : gl           - GROUND LEVEL ELEVATION
EREF.M        705.338              : kb           - ELEVATION OF DEPTH REFERENCE
DATM.M        705.338              : datum        - DATUM ELEVATION
TDD .M        489.204              : tdd          - TOTAL DEPTH DRILLER
RUN .         ONE                  : Run          - RUN NUMBER
ENG .         BILL                 : Engineer     - RECORDING ENGINEER
WIT .         JIM                  : Witness      - WITNESSED BY
MUD .         GEL                  : Mud_type     - MUD TYPE
MATR.         SANDSTONE            : Logunit      - NEUTRON MATRIX
TMAX.C        23.8889              : BHT          - MAXIMUM RECORDED TEMPERATURE
BHTD.M        487.68               : BHTDEP       - MAXIMUM RECORDED TEMPERATURE
MATR.         1                    : LOGUNIT      - NEUTRON MATRIX
RMT .C        25                   : MDTP         - TEMPERATURE OF MUD
NEUT.         1                    : NEUTRON      - NEUTRON TYPE
RESI.         0                    : RESIST       - RESISTIVITY TYPE
RMC .OHMM     0.25                 : RMC          - RESISTIVITY OF MUD CAKE
RMF .OHMM     0.25                 : RMF          - RESISTIVITY OF MUD FILTRATE
SUFT.C        4                    : SUFT         - SURFACE TEMPERATURE
~A  DEPTH       GR     PHID     PHIN     RESD
# ...
  417.840  112.210    0.224    0.486    3.704
  418.090  116.386    0.224    0.494    3.600
  418.340  117.339    0.224    0.498    3.603
  418.590  113.556    0.224    0.510    3.591
  418.840  110.787    0.225    0.522    3.612
  419.090  112.027    0.228    0.525    3.731
  419.340  113.704    0.233    0.511    3.794
  419.590  114.184    0.248    0.518    3.854
  419.840  113.661    0.251    0.540    3.887
  420.090  114.620    0.239    0.547    3.877
  420.340  115.675    0.238    0.537    3.881
  420.590  111.343    0.246    0.525    3.936
  420.840  112.108    0.234    0.509    4.099
  421.090  114.863    0.227    0.490    4.338
  421.340  114.813    0.233    0.482    4.644
  421.590  113.105    0.238    0.484    5.034
  421.840  112.187    0.237    0.486    5.339
  422.090  111.638    0.222    0.494    5.211
  422.340  111.365    0.218    0.477    4.988
  422.590  110.088    0.211    0.480    5.001
  422.840  110.310    0.211    0.513    5.218
  423.090  110.608    0.214    0.515    5.467
  423.340  105.047    0.170    0.472    5.727
  423.590  109.571    0.186    0.460    5.943
  423.840  118.181    0.211    0.461    5.998
  424.090  123.932    0.231    0.419    6.285
  424.340  118.403    0.275    0.353    6.768
  424.590   99.447    0.320    0.339    7.350
  424.840   90.051    0.331    0.357    9.539
  425.090   86.222    0.358    0.365   13.814
  425.340   85.251    0.374    0.347   19.420
  425.590   86.455    0.346    0.355   24.917
  425.840   87.993    0.315    0.390   28.855
  426.090   89.970    0.325    0.366   30.207
  426.340   92.795    0.324    0.368   28.521
  426.590   93.113    0.314    0.387   24.736
  426.840   93.273    0.305    0.406   21.030
  427.090  101.477    0.282    0.425   17.284
  427.340  116.339    0.235    0.441   12.748
  427.590  120.971    0.192    0.453   10.338
  427.840  120.959    0.180    0.464    8.988
  428.090  121.390    0.183    0.457    8.372
  428.340  118.591    0.185    0.426    8.635
  428.590  113.246    0.191    0.395    9.377
  428.840  112.543    0.198    0.390   10.108
  429.090  109.206    0.202    0.396   10.930
  429.340  103.472    0.189    0.410   11.561
  429.590  102.831    0.179    0.414   11.950
  429.840  106.453    0.184    0.409   12.334
  430.090  106.891    0.196    0.412   12.670
  430.340  105.327    0.201    0.413   12.640
  430.590  104.418    0.199    0.414   12.933
  430.840  102.309    0.196    0.404   13.386
  431.090  100.407    0.194    0.391   13.717
  431.340  101.950    0.193    0.382   13.844
  431.590  105.591    0.199    0.380   13.822
  431.840  106.663    0.208    0.397   14.021
  432.090  104.283    0.197    0.396   14.093
  432.340   99.206    0.197    0.387   14.008
  432.590   95.218    0.213    0.387   14.097
  432.840   95.398    0.214    0.384   14.271
  433.090   96.548    0.216    0.371   14.210
  433.340   95.035    0.229    0.363   14.992
  433.590   92.671    0.223    0.361   15.723
  433.840   92.649    0.208    0.358   16.019
  434.090   94.333    0.221    0.363   16.242
  434.340   95.287    0.249    0.377   16.475
  434.590   97.282    0.238    0.384   16.743
  434.840   98.834    0.234    0.382   16.744
  435.090   98.710    0.236    0.372   16.861
  435.340   97.212    0.230    0.362   17.077
  435.590   94.313    0.225    0.362   17.010
  435.840   90.128    0.218    0.367   16.969
  436.090   89.082    0.210    0.370   17.452
  436.340   89.178    0.202    0.364   17.823
  436.590   87.587    0.202    0.360   18.064
  436.840   85.026    0.222    0.362   18.275
  437.090   83.671    0.250    0.362   18.226
  437.340   83.120    0.267    0.362   18.215
  437.590   82.988    0.265    0.368   18.159
  437.840   83.372    0.258    0.375   18.331
  438.090   85.197    0.255    0.380   18.520
  438.340   90.908    0.251    0.384   18.467
  438.590  100.232    0.247    0.384   18.462
  438.840  103.925    0.241    0.383   18.201
  439.090  103.360    0.227    0.388   17.834
  439.340  102.368    0.215    0.404   17.709
  439.590  100.972    0.214    0.412   17.655
  439.840   97.050    0.220    0.399   17.336
  440.090   90.961    0.227    0.394   17.047
  440.340   85.902    0.243    0.390   16.778
  440.590   82.440    0.250    0.382   16.498
  440.840   80.997    0.276    0.394   16.224
  441.090   77.751    0.324    0.413   15.966
  441.340   68.825    0.323    0.390   15.702
  441.590   65.304    0.269    0.386   15.436
  441.840   65.589    0.291    0.397   15.239
  442.090   62.120    0.321    0.404   14.794
  442.340   58.213    0.308    0.400   13.986
  442.590   59.150    0.310    0.392   13.135
  442.840   56.655    0.303    0.388   12.513
  443.090   53.685    0.301    0.397   12.235
  443.340   52.675    0.314    0.411   12.158
  443.590   53.580    0.329    0.420   12.240
  443.840   57.051    0.335    0.422   12.791
  444.090   64.393    0.333    0.424   13.821
  444.340   72.954    0.310    0.413   14.456
  444.590   76.318    0.294    0.399   15.361
  444.840   72.104    0.286    0.396   15.938
  445.090   66.712    0.302    0.395   16.128
  445.340   65.960    0.335    0.393   16.689
  445.590   66.421    0.316    0.405   17.458
  445.840   66.630    0.319    0.404   18.551
  446.090   57.555    0.333    0.399   21.340
  446.340   54.172    0.333    0.397   25.589
  446.590   62.450    0.324    0.405   32.688
  446.840   64.743    0.319    0.417   44.541
  447.090   64.471    0.325    0.411   59.167
  447.340   67.441    0.320    0.409   82.447
  447.590   71.969    0.314    0.416   95.106
  447.840   67.752    0.312    0.421   93.492
  448.090   57.421    0.312    0.418   90.228
  448.340   59.330    0.322    0.409   84.685
  448.590   62.974    0.318    0.402   79.266
  448.840   63.656    0.290    0.404   75.523
  449.090   61.944    0.283    0.405   71.310
  449.340   60.257    0.299    0.399   65.381
  449.590   60.484    0.288    0.388   59.556
  449.840   62.858    0.269    0.374   54.414
  450.090   71.978    0.256    0.362   48.039
  450.340   78.606    0.243    0.358   43.961
  450.590   78.346    0.252    0.376   44.857
  450.840   75.360    0.272    0.404   48.841
  451.090   70.820    0.262    0.410   54.322
  451.340   64.155    0.282    0.418   66.626
  451.590   63.078    0.293    0.415   91.431
  451.840   64.670    0.283    0.401  116.561
  452.090   64.904    0.278    0.394  129.652
  452.340   65.432    0.287    0.400  132.102
  452.590   65.804    0.293    0.404  127.020
  452.840   68.054    0.298    0.400  107.265
  453.090   70.339    0.302    0.392   76.899
  453.340   72.599    0.287    0.386   58.013
  453.590   75.797    0.258    0.378   59.372
  453.840   75.037    0.254    0.374   65.166
  454.090   62.990    0.283    0.396   74.186
  454.340   56.363    0.296    0.411   87.666
  454.590   58.693    0.305    0.410   96.487
  454.840   65.151    0.312    0.403   96.144
  455.090   71.208    0.295    0.394   95.093
  455.340   70.784    0.286    0.390  103.803
  455.590   67.895    0.285    0.388  122.568
  455.840   67.463    0.289    0.401  141.747
  456.090   67.725    0.296    0.415  149.626
  456.340   63.533    0.302    0.418  147.869
  456.590   55.778    0.305    0.419  150.598
  456.840   53.200    0.310    0.414  161.968
  457.090   53.352    0.314    0.418  175.497
  457.340   52.509    0.319    0.424  188.168
  457.590   52.249    0.323    0.427  205.596
  457.840   54.695    0.327    0.430  223.369
  458.090   57.236    0.332    0.428  226.096
  458.340   58.720    0.329    0.425  230.632
  458.590   57.909    0.323    0.423  223.054
  458.840   56.296    0.319    0.428  205.993
  459.090   56.609    0.321    0.437  184.542
  459.340   59.357    0.329    0.440  146.220
  459.590   62.437    0.331    0.435   94.283
  459.840   65.168    0.328    0.431   62.589
  460.090   69.554    0.324    0.434   46.106
  460.340   75.634    0.292    0.427   34.414
  460.590   82.406    0.237    0.401   27.616
  460.840   89.073    0.211    0.380   22.158
  461.090   90.510    0.212    0.384   20.201
