~VERSION INFORMATION
 VERS.                 2.0:   CWLS LOG ASCII STANDARD -VERSION 2.0
 WRAP.                  NO:   ONE LINE PER DEPTH STEP
~WELL INFORMATION BLOCK
#MNEM.UNIT           DATA                    DESCRIPTION OF MNEMONIC
#---------    -------------------            -------------------------------
# Generated from Intellog Unique Number	CN_94_101/WELL/2773
WELL.         PARAMOUNT LTD.                 : Well_name    - WELL
LOC .         00/04-23-094-21W4/0            : Location     - LOCATION
UWI .         00/04-23-094-21W4/0            : Uwi          - UNIQUE WELL ID
ENTR.         JOETTE                         : Entered      - ENTERED BY
SRVC.         COMPUTALOG                     : Scn          - SERVICE COMPANY
DATE.         07/03/92                       : Date         - LOG DATE
STRT.M        175                            : top_depth    - START DEPTH
STOP.M        350                            : bot_depth    - STOP DEPTH
STEP.M        0.25                           : increment    - STEP LENGTH
 NULL. -999.2500:NULL Value
~CURVE INFORMATION BLOCK
#MNEM UNIT       ERCB CURVE CODE    CURVE DESCRIPTION
#-----------   ------------------   ----------------------------------
DEPT.M        00 001 00 00         : DEPTH        - DEPTH
CALI.MM       00 280 01 00         : CAL          - CALIPER
GR  .API      00 310 00 00         : GR           - GAMMA RAY
NPHI.V/V      00 330 00 00         : PHIN         - NEUTRON POROSITY (SANDSTONE)
DPHI.V/V      00 890 00 00         : PHID         - DENSITY POROSITY (SANDSTONE)
ILD .OHMM     00 120 00 00         : RESD         - DEEP RESISTIVITY (DIL)
~PARAMETER INFORMATION
#MNEM.UNIT           DATA             DESCRIPTION OF MNEMONIC
#---------         -----------     ------------------------------
GL  .M        662.1                : gl           - GROUND LEVEL ELEVATION
EREF.M        665.5                : kb           - ELEVATION OF DEPTH REFERENCE
DATM.M        665.5                : datum        - DATUM ELEVATION
TDD .M        354.5                : tdd          - TOTAL DEPTH DRILLER
RUN .         ONE                  : Run          - RUN NUMBER
ENG .         JO                   : Engineer     - RECORDING ENGINEER
WIT .         TIM                  : Witness      - WITNESSED BY
MUD .         GEL                  : Mud_type     - MUD TYPE
MATR.         SANDSTONE            : Logunit      - NEUTRON MATRIX
TMAX.C        25                   : BHT          - MAXIMUM RECORDED TEMPERATURE
BHTD.M        354.5                : BHTDEP       - MAXIMUM RECORDED TEMPERATURE
RMT .C        7.8                  : MDTP         - TEMPERATURE OF MUD
MUDD.KG/M     1050                 : MWT          - MUD DENSITY
NEUT.         1                    : NEUTRON      - NEUTRON TYPE
RESI.         0                    : RESIST       - RESISTIVITY TYPE
RM  .OHMM     3.2                  : RM           - RESISTIVITY OF MUD
RMC .OHMM     3.2                  : RMC          - RESISTIVITY OF MUD CAKE
RMF .OHMM     3.2                  : RMF          - RESISTIVITY OF MUD FILTRATE
SUFT.C        4                    : SUFT         - SURFACE TEMPERATURE
~A  DEPTH      CAL       GR     PHIN     PHID     RESD
# ...
  248.000  173.290  109.460    0.426    0.204    4.789
  248.250  174.314  107.703    0.422    0.208    4.878
  248.500  175.315  107.720    0.398    0.214    4.875
  248.750  173.380  109.514    0.401    0.222    4.968
  249.000  172.416  111.899    0.407    0.222    4.966
  249.250  171.459  112.518    0.418    0.220    5.059
  249.500  176.436  114.306    0.429    0.217    5.057
  249.750  177.452  116.104    0.438    0.214    5.055
  250.000  176.488  113.755    0.425    0.219    4.957
  250.250  175.531  111.997    0.415    0.224    4.767
  250.500  174.582  112.020    0.409    0.215    4.675
  250.750  174.605  112.029    0.414    0.188    4.673
  251.000  174.634  112.643    0.416    0.178    4.760
  251.250  173.678  113.252    0.410    0.194    4.759
  251.500  170.756  113.858    0.407    0.208    4.756
  251.750  170.779  114.467    0.411    0.214    4.754
  252.000  172.781  115.081    0.465    0.211    4.572
  252.250  175.777  114.508    0.461    0.210    4.484
  252.500  177.772  114.521    0.440    0.214    4.481
  252.750  177.810  114.539    0.436    0.224    4.479
  253.000  176.861  116.337    0.453    0.225    4.564
  253.250  175.889  118.717    0.468    0.217    4.475
  253.500  172.967  115.781    0.474    0.204    4.388
  253.750  172.003  109.289    0.474    0.175    4.221
  254.000  169.081  107.540    0.472    0.183    4.137
  254.250  167.154  109.329    0.462    0.208    4.057
  254.500  165.211  108.168    0.442    0.237    4.056
  254.750  165.233  106.405    0.437    0.258    4.054
  255.000  169.201  105.235    0.432    0.257    4.130
  255.250  172.197  101.707    0.432    0.255    4.289
  255.500  171.233   98.770    0.433    0.256    4.455
  255.750  169.298   97.595    0.424    0.260    4.716
  256.000  167.347   94.659    0.418    0.268    4.899
  256.250  165.419   92.901    0.415    0.266    5.088
  256.500  166.435   88.772    0.392    0.261    5.183
  256.750  170.411   90.565    0.393    0.251    5.083
  257.000  169.447   97.685    0.406    0.245    4.797
  257.250  168.497  103.621    0.433    0.254    4.273
  257.500  167.526  103.051    0.454    0.266    3.956
  257.750  167.556  101.294    0.469    0.269    3.805
  258.000  169.558  100.133    0.472    0.261    4.029
  258.250  169.588  100.141    0.446    0.261    4.348
  258.500  168.632   99.568    0.424    0.260    4.874
  258.750  166.696   98.994    0.420    0.229    5.063
  259.000  167.727   97.241    0.412    0.203    5.259
  259.250  170.709  100.217    0.415    0.221    5.156
  259.500  173.690  103.791    0.434    0.242    5.056
  259.750  176.686  102.625    0.445    0.253    4.957
  260.000  176.716  101.459    0.447    0.248    4.954
  260.250  174.773  100.881    0.447    0.246    4.952
  260.500  171.844  102.091    0.442    0.247    4.950
  260.750  169.894  103.288    0.437    0.248    4.947
  261.000  166.964  104.485    0.431    0.251    5.041
  261.250  167.002  105.691    0.422    0.253    5.039
  261.500  169.004  105.705    0.419    0.254    5.036
  261.750  170.028  105.723    0.424    0.256    5.034
  262.000  170.050  104.557    0.417    0.257    5.031
  262.250  170.072  104.575    0.414    0.257    5.126
  262.500  170.102  105.776    0.421    0.258    5.123
  262.750  170.147  105.794    0.432    0.259    5.221
  263.000  170.169  104.041    0.432    0.259    5.319
  263.250  172.179  101.692    0.422    0.259    5.631
  263.500  175.168   99.347    0.411    0.264    6.077
  263.750  178.157   97.589    0.400    0.271    6.434
  264.000  181.153   96.419    0.385    0.269    7.078
  264.250  182.154   94.070    0.387    0.261    7.352
  264.500  182.184   89.353    0.397    0.259    7.782
  264.750  178.284   87.596    0.392    0.264    7.779
  265.000  176.326   89.393    0.364    0.265    7.627
  265.250  181.287   89.999    0.360    0.266    7.061
  265.500  177.372   90.016    0.361    0.267    6.290
  265.750  169.518   91.810    0.388    0.270    5.712
  266.000  165.595   93.603    0.387    0.272    5.288
  266.250  161.680   92.442    0.387    0.274    4.895
  266.500  160.731   93.052    0.396    0.269    4.531
  266.750  162.741   98.983    0.420    0.265    4.443
  267.000  163.742  103.144    0.449    0.260    4.192
  267.250  166.738  104.937    0.445    0.266    4.033
  267.500  167.762  103.179    0.438    0.261    3.878
  267.750  167.784  100.830    0.435    0.250    3.731
  268.000  165.841  102.040    0.441    0.213    3.659
  268.250  161.933  101.466    0.456    0.182    3.453
  268.500  159.983  100.893    0.475    0.225    3.321
  268.750  158.055  104.457    0.486    0.240    3.384
  269.000  157.083  107.434    0.457    0.201    3.514
  269.250  157.113  104.497    0.455    0.220    3.650
  269.500  161.096  106.878    0.466    0.255    3.938
  269.750  166.050  108.084    0.476    0.263    4.091
  270.000  167.073  106.322    0.466    0.262    4.331
  270.250  166.109  103.380    0.453    0.257    4.499
  270.500  164.166   98.072    0.447    0.261    5.142
  270.750  162.231   91.580    0.437    0.264    5.139
  271.000  165.227   92.190    0.400    0.259    5.040
  271.250  167.215   99.314    0.419    0.256    4.847
  271.500  168.246  104.658    0.457    0.258    4.754
  271.750  168.261  101.125    0.474    0.265    4.661
  272.000  166.318   99.367    0.474    0.274    4.483
  272.250  163.396  104.716    0.463    0.270    4.312
  272.500  160.482  108.881    0.459    0.262    4.069
  272.750  159.518  110.074    0.453    0.254    3.989
  273.000  158.554  111.280    0.438    0.247    3.912
  273.250  158.584  111.297    0.428    0.245    3.836
  273.500  158.613  111.311    0.458    0.249    3.761
  273.750  159.630  111.329    0.466    0.250    3.760
  274.000  160.646  110.764    0.475    0.248    3.757
  274.250  161.662  110.777    0.474    0.242    3.756
  274.500  161.699  110.791    0.447    0.229    3.826
  274.750  161.722  110.809    0.449    0.222    3.899
  275.000  161.751  106.092    0.458    0.229    3.897
  275.250  161.781  104.931    0.472    0.238    4.048
  275.500  162.797  106.132    0.476    0.246    4.285
  275.750  161.841  106.737    0.448    0.251    4.450
  276.000  158.919  107.356    0.441    0.259    4.711
  276.250  157.962  107.369    0.432    0.268    4.894
  276.500  158.979  106.795    0.419    0.262    5.181
  276.750  157.036  102.671    0.407    0.255    5.279
  277.000  153.128  102.097    0.407    0.251    4.702
  277.250  152.164  109.216    0.413    0.253    4.524
  277.500  152.201  112.785    0.419    0.253    4.187
  277.750  154.196  109.844    0.436    0.252    4.105
  278.000  157.185  109.270    0.456    0.253    4.103
  278.250  160.188  113.435    0.482    0.256    4.262
  278.500  161.190  111.081    0.487    0.259    4.687
  278.750  162.213  105.773    0.486    0.268    4.869
  279.000  162.243   98.097    0.455    0.272    5.255
  279.250  161.279   92.789    0.432    0.272    5.458
  279.500  159.344   91.627    0.420    0.272    5.779
  279.750  157.393   92.829    0.411    0.274    6.002
  280.000  154.472   92.847    0.408    0.274    5.998
  280.250  153.508   89.901    0.404    0.131    5.996
  280.500  153.537   82.817    0.399    0.108    5.658
  280.750  154.553   68.040    0.386    0.097    5.138
  281.000  156.556   57.997    0.364    0.071    4.665
  281.250  158.566   74.590    0.348    0.060    4.488
  281.500  160.583   87.032    0.369    0.189    4.235
  281.750  161.592  104.808    0.376    0.201    3.996
  282.000  163.594  112.520    0.407    0.190    3.918
  282.250  164.618  114.313    0.444    0.181    3.843
  282.500  164.633  116.111    0.459    0.193    3.767
  282.750  163.691  114.945    0.465    0.206    3.766
  283.000  162.720  118.514    0.482    0.201    3.837
  283.250  161.771  117.348    0.500    0.192    3.835
  283.500  161.801  114.994    0.517    0.197    3.907
  283.750  161.830  113.828    0.527    0.201    3.905
  284.000  162.847  117.402    0.509    0.197    3.978
  284.250  162.869  117.420    0.482    0.197    4.132
