~VERSION INFORMATION
 VERS.                 2.0:   CWLS LOG ASCII STANDARD -VERSION 2.0
 WRAP.                  NO:   ONE LINE PER DEPTH STEP
~WELL INFORMATION BLOCK
#MNEM.UNIT           DATA                    DESCRIPTION OF MNEMONIC
#---------    -------------------            -------------------------------
# Generated from Intellog Unique Number	CW_82_90/WELL/3062
WELL.         CHEVRON WABASCA NORTH          : Well_name    - WELL
LOC .         00/07-04-087-25W4/0            : Location     - LOCATION
UWI .         00/07-04-087-25W4/0            : Uwi          - UNIQUE WELL ID
ENTR.         MAX                            : Entered      - ENTERED BY
SRVC.         SCHLUMBERGER                   : Scn          - SERVICE COMPANY
STRT.M        228.6                          : top_depth    - START DEPTH
STOP.M        441.85                         : bot_depth    - STOP DEPTH
STEP.M        0.25                           : increment    - STEP LENGTH
 NULL. -999.2500:NULL Value
~CURVE INFORMATION BLOCK
#MNEM UNIT       ERCB CURVE CODE    CURVE DESCRIPTION
#-----------   ------------------   ----------------------------------
DEPT.M        00 001 00 00         : DEPTH        - DEPTH
ILD .OHMM     00 120 00 00         : RESD         - DEEP RESISTIVITY (DIL)
NPHI.V/V      00 330 00 00         : PHIN         - NEUTRON POROSITY (SANDSTONE)
DPHI.V/V      00 890 00 00         : PHID         - DENSITY POROSITY (SANDSTONE)
CALI.MM       00 280 01 00         : CAL          - CALIPER
GR  .API      00 310 00 00         : GR           - GAMMA RAY
~PARAMETER INFORMATION
#MNEM.UNIT           DATA             DESCRIPTION OF MNEMONIC
#---------         -----------     ------------------------------
GL  .M        629.412              : gl           - GROUND LEVEL ELEVATION
EREF.M        632.46               : kb           - ELEVATION OF DEPTH REFERENCE
DATM.M        629.412              : datum        - DATUM ELEVATION
TDD .M        445.313              : tdd          - TOTAL DEPTH DRILLER
RUN .         ONE                  : Run          - RUN NUMBER
ENG .         BILL                 : Engineer     - RECORDING ENGINEER
WIT .         JIM                  : Witness      - WITNESSED BY
MUD .         GEL                  : Mud_type     - MUD TYPE
MATR.         SANDSTONE            : Logunit      - NEUTRON MATRIX
TMAX.C        26.1111              : BHT          - MAXIMUM RECORDED TEMPERATURE
BHTD.M        445.313              : BHTDEP       - MAXIMUM RECORDED TEMPERATURE
MATR.         1                    : LOGUNIT      - NEUTRON MATRIX
RMT .C        10                   : MDTP         - TEMPERATURE OF MUD
NEUT.         1                    : NEUTRON      - NEUTRON TYPE
RESI.         0                    : RESIST       - RESISTIVITY TYPE
RMC .OHMM     5.34                 : RMC          - RESISTIVITY OF MUD CAKE
RMF .OHMM     7.18                 : RMF          - RESISTIVITY OF MUD FILTRATE
SUFT.C        -20.5556             : SUFT         - SURFACE TEMPERATURE
~A  DEPTH     RESD     PHIN     PHID      CAL       GR
  228.600    3.274    0.583    0.213  138.381  113.670
  228.850    3.276    0.593    0.193  139.137  113.380
  229.100    3.337    0.593    0.188  139.897  113.386
  229.350    3.494    0.580    0.212  138.415  111.623
  229.600    3.758    0.538    0.216  135.431  111.921
  229.850    4.307    0.518    0.214  133.947  111.337
  230.100    5.072    0.485    0.206  133.210  109.574
  230.350    5.813    0.462    0.190  130.232  108.106
  230.600    6.542    0.448    0.188  129.492  105.166
  230.850    6.849    0.436    0.183  126.511  100.753
  231.100    6.914    0.436    0.176  124.278   97.519
  231.350    6.794    0.445    0.166  128.030   98.701
  231.600    6.438    0.472    0.146  136.271  101.061
  231.850    5.991    0.506    0.139  138.524  104.600
  232.100    5.575    0.527    0.143  135.546  106.370
  232.350    5.188    0.530    0.169  132.563  105.786
  232.600    4.872    0.514    0.176  132.574  106.968
  232.850    4.658    0.499    0.181  132.587  109.035
  233.100    4.495    0.502    0.186  128.859  109.039
  233.350    4.457    0.507    0.194  126.625  108.749
  233.600    4.500    0.505    0.209  124.393  108.165
  233.850    4.502    0.504    0.204  122.160  108.169
  234.100    4.545    0.489    0.188  122.920  108.762
  234.350    4.589    0.484    0.199  124.427  109.944
  234.600    4.591    0.490    0.215  125.186  111.127
  234.850    4.593    0.517    0.198  122.205  110.837
  235.100    4.596    0.532    0.184  116.983  108.780
  235.350    4.640    0.545    0.179  114.747  104.956
  235.600    4.945    0.556    0.190  122.986   99.660
  235.850    5.668    0.538    0.195  122.250   91.713
  236.100    6.675    0.501    0.214  114.783   81.411
  236.350    7.649    0.448    0.221  109.558   71.697
  236.600    8.531    0.426    0.235  107.323   61.689
  236.850    9.602    0.421    0.240  105.094   55.805
  237.100   10.423    0.418    0.234  107.347   54.337
  237.350   10.619    0.413    0.233  108.107   52.279
  237.600   10.528    0.407    0.228  105.873   46.688
  237.850   11.021    0.394    0.226  105.886   39.626
  238.100   12.517    0.401    0.244  111.880   39.924
  238.350   13.835    0.427    0.239  106.656   40.518
  238.600   14.223    0.431    0.240  108.163   39.344
  238.850   14.489    0.414    0.238  109.673   39.643
  239.100   14.628    0.405    0.237  110.430   41.120
  239.350   14.637    0.405    0.222  111.936   42.597
  239.600   14.911    0.412    0.206  113.444   44.368
  239.850   15.329    0.413    0.220  114.203   45.256
  240.100   15.336    0.395    0.234  113.467   45.556
  240.350   15.345    0.378    0.273  111.982   43.794
  240.600   15.214    0.375    0.274  109.001   42.031
  240.850   15.083    0.391    0.263  107.517   42.035
  241.100   14.554    0.399    0.256  109.772   43.511
  241.350   13.667    0.414    0.257  112.027   44.988
  241.600   12.266    0.417    0.267  111.290   46.760
  241.850   11.009    0.423    0.277  110.553   48.826
  242.100    9.704    0.434    0.276  112.061   50.008
  242.350    9.030    0.454    0.265  113.568   52.663
  242.600    8.403    0.466    0.256  114.330   55.318
  242.850    7.820    0.466    0.254  115.834   56.206
  243.100    7.684    0.441    0.253  116.593   56.210
  243.350    7.687    0.441    0.248  116.605   55.625
  243.600    7.904    0.446    0.244  117.367   54.746
  243.850    8.124    0.448    0.236  118.871   50.628
  244.100    8.129    0.452    0.231  123.371   49.455
  244.350    7.843    0.450    0.237  131.611   50.637
  244.600    7.040    0.442    0.247  127.882   53.586
  244.850    6.375    0.425    0.233  124.901   58.597
  245.100    5.619    0.448    0.229  123.415   65.079
  245.350    5.182    0.511    0.228  120.437   72.446
  245.600    5.232    0.543    0.230  121.194   73.040
  245.850    5.678    0.518    0.259  121.205   63.915
  246.100    6.748    0.493    0.265  114.486   54.791
  246.350    7.733    0.480    0.254  111.506   45.666
  246.600    9.791    0.466    0.243  111.517   35.658
  246.850   11.740    0.449    0.257  111.529   26.534
  247.100   12.976    0.369    0.274  112.285   24.477
  247.350   12.408    0.337    0.264  113.794   29.782
  247.600   10.938    0.366    0.248  118.295   38.032
  247.850   11.142    0.405    0.236  121.297   37.153
  248.100   12.540    0.388    0.239  117.569   34.507
  248.350   13.735    0.405    0.243  120.571   28.916
  248.600   15.318    0.389    0.258  119.834   22.737
  248.850   17.399    0.360    0.251  116.853   21.858
  249.100   18.215    0.358    0.242  123.599   22.451
  249.350   18.221    0.384    0.240  128.845   23.339
  249.600   16.209    0.401    0.267  133.344   25.111
  249.850   15.498    0.409    0.263  132.607   28.354
  250.100   16.078    0.401    0.239  122.146   29.537
  250.350   17.450    0.415    0.236  107.198   23.651
  250.600   19.999    0.399    0.268  104.219   20.417
  250.850   22.305    0.380    0.288  105.723   19.537
  251.100   21.139    0.366    0.286  113.963   19.542
  251.350   20.028    0.354    0.263  120.706   21.902
  251.600   17.654    0.374    0.269  125.205   26.619
  251.850   15.700    0.416    0.264  127.462   30.745
  252.100   14.220    0.441    0.282  117.000   34.873
  252.350   13.722    0.451    0.284  105.791   35.172
  252.600   13.728    0.452    0.290  108.796   33.115
  252.850   14.113    0.448    0.292  113.296   29.881
  253.100   14.641    0.423    0.273  112.559   25.468
  253.350   15.187    0.398    0.268  112.568   23.999
  253.600   16.191    0.378    0.249  111.833   24.592
  253.850   17.103    0.376    0.249  111.845   27.248
  254.100   18.230    0.389    0.251  112.604   27.252
  254.350   19.085    0.393    0.275  113.363   26.667
  254.600   19.094    0.377    0.269  124.593   26.966
  254.850   15.511    0.365    0.246  132.835   30.505
  255.100   11.202    0.366    0.234  129.851   36.398
  255.350    9.873    0.397    0.217  125.374   45.826
  255.600    6.513    0.426    0.207  129.129   64.383
  255.850    4.258    0.498    0.202  125.397   79.406
  256.100    3.337    0.559    0.195  129.148   89.717
  256.350    3.022    0.572    0.213  131.403   99.734
  256.600    2.787    0.586    0.228  131.417  104.746
  256.850    2.640    0.579    0.230  132.174  106.811
  257.100    2.502    0.569    0.224  132.187  106.816
  257.350    2.436    0.556    0.225  132.196  103.876
  257.600    2.372    0.568    0.227  132.210  103.585
  257.850    2.310    0.598    0.227  132.219  103.590
  258.100    2.229    0.598    0.231  133.728  103.594
  258.350    2.151    0.595    0.246  134.488  103.305
  258.600    2.113    0.558    0.253  134.497  101.247
  258.850    2.114    0.566    0.243  133.760   98.306
  259.100    2.135    0.581    0.241  132.275   98.018
  259.350    2.194    0.598    0.243  129.296   98.315
  259.600    2.215    0.599    0.252  127.812   98.614
  259.850    2.217    0.595    0.245  129.319   97.735
  260.100    2.158    0.581    0.225  127.833   93.912
  260.350    2.121    0.573    0.193  124.105   92.738
  260.600    2.065    0.596    0.197  122.621   91.564
  260.850    1.992    0.598    0.221  129.363   87.446
  261.100    1.993    0.591    0.219  135.359   85.684
  261.350    2.087    0.589    0.220  145.843   85.394
  261.600    2.204    0.593    0.208  145.854   85.398
  261.850    2.393    0.592    0.206  147.361   83.930
  262.100    2.621    0.588    0.210  150.364   80.401
  262.350    2.923    0.570    0.229  141.399   76.282
  262.600    3.442    0.543    0.240  129.442   69.219
  262.850    3.909    0.509    0.244  120.479   69.812
  263.100    4.243    0.491    0.228  120.492   75.707
  263.350    4.094    0.485    0.235  120.502   77.184
  263.600    3.674    0.472    0.247  117.519   78.660
  263.850    3.419    0.490    0.221  118.280   83.966
  264.100    3.390    0.527    0.222  137.739   91.332
  264.350    3.517    0.549    0.196  141.490   96.638
  264.600    3.783    0.541    0.200  139.256   96.937
  264.850    4.415    0.518    0.228  129.546   96.646
