~VERSION INFORMATION
 VERS.                 2.0:   CWLS LOG ASCII STANDARD -VERSION 2.0
 WRAP.                  NO:   ONE LINE PER DEPTH STEP
~WELL INFORMATION BLOCK
#MNEM.UNIT           DATA                    DESCRIPTION OF MNEMONIC
#---------    -------------------            -------------------------------
# Generated from Intellog Unique Number	CS_77_79/WELL/870
WELL.         NORCEN                         : Well_name    - WELL
LOC .         00/06-11-077-13W4/0            : Location     - LOCATION
UWI .         00/06-11-077-13W4/0            : Uwi          - UNIQUE WELL ID
ENTR.         SP                             : Entered      - ENTERED BY
SRVC.         SCHLUMBERGER                   : Scn          - SERVICE COMPANY
STRT.M        274.32                         : top_depth    - START DEPTH
STOP.M        517.82                         : bot_depth    - STOP DEPTH
STEP.M        0.25                           : increment    - STEP LENGTH
 NULL. -999.2500:NULL Value
~CURVE INFORMATION BLOCK
#MNEM UNIT       ERCB CURVE CODE    CURVE DESCRIPTION
#-----------   ------------------   ----------------------------------
DEPT.M        00 001 00 00         : DEPTH        - DEPTH
GR  .API      00 310 00 00         : GR           - GAMMA RAY
DPHI.V/V      00 890 00 00         : PHID         - DENSITY POROSITY (SANDSTONE)
NPHI.V/V      00 330 00 00         : PHIN         - NEUTRON POROSITY (SANDSTONE)
ILD .OHMM     00 120 00 00         : RESD         - DEEP RESISTIVITY (DIL)
~PARAMETER INFORMATION
#MNEM.UNIT           DATA             DESCRIPTION OF MNEMONIC
#---------         -----------     ------------------------------
GL  .M        677.692              : gl           - GROUND LEVEL ELEVATION
EREF.M        681.045              : kb           - ELEVATION OF DEPTH REFERENCE
DATM.M        677.692              : datum        - DATUM ELEVATION
TDD .M        524.256              : tdd          - TOTAL DEPTH DRILLER
RUN .         ONE                  : Run          - RUN NUMBER
ENG .         BILL                 : Engineer     - RECORDING ENGINEER
WIT .         JIM                  : Witness      - WITNESSED BY
MUD .         GEL                  : Mud_type     - MUD TYPE
MATR.         SANDSTONE            : Logunit      - NEUTRON MATRIX
TMAX.C        23.8889              : BHT          - MAXIMUM RECORDED TEMPERATURE
BHTD.M        524.256              : BHTDEP       - MAXIMUM RECORDED TEMPERATURE
MATR.         1                    : LOGUNIT      - NEUTRON MATRIX
RMT .C        25                   : MDTP         - TEMPERATURE OF MUD
NEUT.         1                    : NEUTRON      - NEUTRON TYPE
RESI.         0                    : RESIST       - RESISTIVITY TYPE
RMC .OHMM     0.25                 : RMC          - RESISTIVITY OF MUD CAKE
RMF .OHMM     0.25                 : RMF          - RESISTIVITY OF MUD FILTRATE
SUFT.C        15                   : SUFT         - SURFACE TEMPERATURE
~A  DEPTH       GR     PHID     PHIN     RESD
# ...
  361.320   51.867    0.095    0.182   37.493
  361.570   55.225    0.127    0.200   34.231
  361.820   57.811    0.175    0.230   30.471
  362.070   59.672    0.229    0.281   26.079
  362.320   62.341    0.286    0.333   23.058
  362.570   64.946    0.321    0.391   19.966
  362.820   66.452    0.320    0.451   18.322
  363.070   66.936    0.328    0.458   17.049
  363.320   66.043    0.334    0.473   16.009
  363.570   65.698    0.342    0.486   15.235
  363.820   66.785    0.337    0.495   14.448
  364.070   67.263    0.330    0.499   14.299
  364.320   66.499    0.334    0.493   14.020
  364.570   67.305    0.323    0.475   13.733
  364.820   68.331    0.302    0.464   13.779
  365.070   68.374    0.317    0.460   13.472
  365.320   68.368    0.327    0.474   13.495
  365.570   66.705    0.331    0.474   13.494
  365.820   68.265    0.331    0.470   13.492
  366.070   66.508    0.331    0.481   13.489
  366.320   65.458    0.321    0.478   13.487
  366.570   66.284    0.312    0.469   13.485
  366.820   67.646    0.317    0.463   13.484
  367.070   68.706    0.328    0.483   13.483
  367.320   67.530    0.328    0.490   13.488
  367.570   67.535    0.326    0.487   13.274
  367.820   69.726    0.321    0.476   12.979
  368.070   72.693    0.301    0.477   12.691
  368.320   75.184    0.284    0.483   11.581
  368.570   77.781    0.246    0.487   10.088
  368.820   79.815    0.188    0.480    8.718
  369.070   81.588    0.204    0.451    7.961
  369.320   79.762    0.242    0.461    8.462
  369.570   76.734    0.250    0.483    8.907
  369.820   76.912    0.268    0.492   10.054
  370.070   76.580    0.276    0.472   10.939
  370.320   77.147    0.288    0.458   11.558
  370.570   79.453    0.292    0.455   12.245
  370.820   80.985    0.283    0.467   13.280
  371.070   78.302    0.301    0.473   13.675
  371.320   75.659    0.300    0.477   13.807
  371.570   74.732    0.305    0.480   13.937
  371.820   73.690    0.313    0.475   13.507
  372.070   73.713    0.307    0.465   13.119
  372.320   75.401    0.301    0.461   12.461
  372.570   77.827    0.290    0.473   11.671
  372.820   78.918    0.249    0.474   10.570
  373.070   80.692    0.194    0.477    9.445
  373.320   83.674    0.185    0.494    8.513
  373.570   87.759    0.198    0.506    7.672
  373.820   92.830    0.202    0.499    7.120
  374.070   92.834    0.194    0.489    6.762
  374.320   93.587    0.189    0.499    6.572
  374.570   94.716    0.202    0.501    6.364
  374.820   93.101    0.221    0.502    6.349
  375.070   93.626    0.233    0.483    6.346
  375.320   97.513    0.213    0.466    6.257
  375.570   98.360    0.194    0.477    6.238
  375.820   98.299    0.201    0.478    6.110
  376.070   98.348    0.202    0.492    6.048
  376.320   97.582    0.192    0.504    5.873
  376.570   98.200    0.193    0.520    5.886
  376.820   98.955    0.206    0.525    5.698
  377.070   98.122    0.201    0.515    5.646
  377.320   97.122    0.203    0.520    5.638
  377.570   96.070    0.199    0.531    5.813
  377.820   95.803    0.207    0.545    6.136
  378.070   95.329    0.235    0.548    6.728
  378.320   94.148    0.234    0.511    7.326
  378.570   91.425    0.248    0.490    7.939
  378.820   87.934    0.261    0.486    8.333
  379.070   83.570    0.275    0.489    8.547
  379.320   79.970    0.291    0.490    8.688
  379.570   81.811    0.300    0.484    8.642
  379.820   85.264    0.291    0.489    7.456
  380.070   88.212    0.270    0.494    5.874
  380.320   94.515    0.246    0.498    4.808
  380.570  106.110    0.247    0.529    4.143
  380.820  111.124    0.239    0.554    3.714
  381.070  112.828    0.234    0.538    3.410
  381.320  113.824    0.240    0.551    3.211
  381.570  114.297    0.247    0.568    3.066
  381.820  114.369    0.248    0.592    2.921
  382.070  115.034    0.253    0.611    2.932
  382.320  113.603    0.254    0.622    2.838
  382.570  112.409    0.243    0.610    2.825
  382.820  111.931    0.234    0.597    2.823
  383.070  112.612    0.240    0.614    2.818
  383.320  112.535    0.246    0.623    2.884
  383.570  113.043    0.242    0.633    3.067
  383.820  114.051    0.236    0.630    3.326
  384.070  110.369    0.241    0.616    3.686
  384.320  107.523    0.243    0.579    4.140
  384.570  103.345    0.252    0.555    4.851
  384.820   98.962    0.281    0.547    6.097
  385.070   93.207    0.288    0.539    7.150
  385.320   87.865    0.271    0.491    8.109
  385.570   84.010    0.253    0.462    9.152
  385.820   81.871    0.246    0.473    9.634
  386.070   83.574    0.250    0.477    9.920
  386.320   82.831    0.240    0.468   10.241
  386.570   80.471    0.244    0.456   10.322
  386.820   78.121    0.245    0.463    9.454
  387.070   78.634    0.251    0.474    9.507
  387.320   80.118    0.255    0.481    9.347
  387.570   81.530    0.266    0.480    9.141
  387.820   85.722    0.253    0.484    8.689
  388.070   88.105    0.237    0.480    8.477
  388.320   90.490    0.218    0.473    8.491
  388.570   90.340    0.194    0.481    8.477
  388.820   86.163    0.153    0.478    8.704
  389.070   81.557    0.112    0.442    9.090
  389.320   74.344    0.069    0.397   11.086
  389.570   69.808    0.119    0.321   11.919
  389.820   64.084    0.176    0.345   11.540
  390.070   65.589    0.211    0.398   10.733
  390.320   76.106    0.235    0.451    9.756
  390.570   87.077    0.238    0.461    9.028
  390.820   89.126    0.239    0.459    8.679
  391.070   89.771    0.228    0.461    8.320
  391.320   89.733    0.218    0.468    8.094
  391.570   89.720    0.228    0.475    7.974
  391.820   89.727    0.223    0.477    7.862
  392.070   88.721    0.214    0.480    8.038
  392.320   87.704    0.209    0.462    8.364
  392.570   87.223    0.219    0.443    8.328
  392.820   88.103    0.196    0.452    8.342
  393.070   90.682    0.196    0.461    7.953
  393.320   92.053    0.200    0.455    8.650
  393.570   92.016    0.213    0.453    9.215
  393.820   89.481    0.224    0.469    9.071
  394.070   87.240    0.235    0.471    8.087
  394.320   87.141    0.233    0.459    7.862
  394.570   87.791    0.236    0.458    8.466
  394.820   87.811    0.248    0.461    8.555
  395.070   86.959    0.247    0.467    7.905
  395.320   85.968    0.242    0.461    7.983
  395.570   85.260    0.237    0.448    8.243
  395.820   85.245    0.239    0.449    8.291
  396.070   86.348    0.240    0.438    8.303
  396.320   87.507    0.239    0.438    8.065
  396.570   86.202    0.230    0.439    7.839
  396.820   84.542    0.229    0.440    7.607
  397.070   85.506    0.245    0.437    7.247
  397.320   86.487    0.238    0.446    6.717
  397.570   87.475    0.252    0.453    5.983
  397.820   88.463    0.275    0.478    5.203
  398.070   89.442    0.287    0.498    4.557
  398.320   90.037    0.297    0.509    4.153
  398.570   90.802    0.257    0.517    3.907
  398.820   92.312    0.233    0.519    3.917
  399.070   93.491    0.247    0.519    3.934
  399.320   92.456    0.250    0.519    4.245
  399.570   94.066    0.254    0.520    4.421
  399.820   95.159    0.273    0.522    4.778
  400.070   95.438    0.269    0.525    4.915
  400.320   95.403    0.245    0.537    5.219
  400.570   95.020    0.222    0.535    5.673
  400.820   93.577    0.221    0.502    6.020
  401.070   92.473    0.229    0.467    6.272
  401.320   93.280    0.235    0.468    6.643
  401.570   92.405    0.230    0.475    6.973
  401.820   91.346    0.212    0.474    7.175
  402.070   91.199    0.193    0.476    7.561
  402.320   89.518    0.165    0.477    7.936
  402.570   87.419    0.173    0.440    8.060
  402.820   87.115    0.165    0.447    7.793
  403.070   89.809   -0.003    0.460    8.202
  403.320   90.684   -0.000    0.464    8.424
  403.570   83.992    0.000    0.447    8.414
  403.820   78.933   -0.009    0.446    8.311
  404.070   74.580    0.123    0.444    8.088
  404.320   69.773    0.202    0.434    8.100
  404.570   66.119    0.274    0.427    8.114
