~VERSION INFORMATION
 VERS.                 2.0:   CWLS LOG ASCII STANDARD -VERSION 2.0
 WRAP.                  NO:   ONE LINE PER DEPTH STEP
~WELL INFORMATION BLOCK
#MNEM.UNIT           DATA                    DESCRIPTION OF MNEMONIC
#---------    -------------------            -------------------------------
# Generated from Intellog Unique Number	CS_69_70/WELL/843
WELL.         GOLDEN EAGLE OIL & GAS         : Well_name    - WELL
LOC .         00/07-24-069-17W4/0            : Location     - LOCATION
UWI .         00/07-24-069-17W4/0            : Uwi          - UNIQUE WELL ID
ENTR.         SP                             : Entered      - ENTERED BY
SRVC.         SCHLUMBERGER                   : Scn          - SERVICE COMPANY
STRT.M        275                            : top_depth    - START DEPTH
STOP.M        445                            : bot_depth    - STOP DEPTH
STEP.M        0.25                           : increment    - STEP LENGTH
 NULL. -999.2500:NULL Value
~CURVE INFORMATION BLOCK
#MNEM UNIT       ERCB CURVE CODE    CURVE DESCRIPTION
#-----------   ------------------   ----------------------------------
DEPT.M        00 001 00 00         : DEPTH        - DEPTH
GR  .API      00 310 00 00         : GR           - GAMMA RAY
NPHI.V/V      00 330 00 00         : PHIN         - NEUTRON POROSITY (LIMESTONE)
DPHI.V/V      00 890 00 00         : PHID         - DENSITY POROSITY (LIMESTONE)
ILD .OHMM     00 120 00 00         : RESD         - DEEP RESISTIVITY (DIL)
~PARAMETER INFORMATION
#MNEM.UNIT           DATA             DESCRIPTION OF MNEMONIC
#---------         -----------     ------------------------------
GL  .M        550.5                : gl           - GROUND LEVEL ELEVATION
EREF.M        553.4                : kb           - ELEVATION OF DEPTH REFERENCE
DATM.M        550.5                : datum        - DATUM ELEVATION
TDD .M        480                  : tdd          - TOTAL DEPTH DRILLER
RUN .         ONE                  : Run          - RUN NUMBER
ENG .         BILL                 : Engineer     - RECORDING ENGINEER
WIT .         JIM                  : Witness      - WITNESSED BY
MUD .         GEL                  : Mud_type     - MUD TYPE
MATR.         LIMESTONE            : Logunit      - NEUTRON MATRIX
TMAX.C        22.2                 : BHT          - MAXIMUM RECORDED TEMPERATURE
BHTD.M        480                  : BHTDEP       - MAXIMUM RECORDED TEMPERATURE
MATR.         1                    : LOGUNIT      - NEUTRON MATRIX
RMT .C        25                   : MDTP         - TEMPERATURE OF MUD
NEUT.         1                    : NEUTRON      - NEUTRON TYPE
RESI.         0                    : RESIST       - RESISTIVITY TYPE
RMC .OHMM     0.25                 : RMC          - RESISTIVITY OF MUD CAKE
RMF .OHMM     0.25                 : RMF          - RESISTIVITY OF MUD FILTRATE
SUFT.C        15                   : SUFT         - SURFACE TEMPERATURE
~A  DEPTH       GR     PHIN     PHID     RESD
# ...
  405.500   96.138    0.455    0.198    3.558
  405.750   88.721    0.462    0.180    3.959
  406.000   78.910    0.456    0.159    4.541
  406.250   75.849    0.461    0.141    5.317
  406.500   73.769    0.464    0.175    6.260
  406.750   70.952    0.420    0.202    7.752
  407.000   65.927    0.379    0.136   10.427
  407.250   59.553    0.323    0.088   11.475
  407.500   57.964    0.240    0.040   12.372
  407.750   57.970    0.215    0.026   13.239
  408.000   60.306    0.202    0.019   12.355
  408.250   64.545    0.201    0.032   10.188
  408.500   65.533    0.209    0.043    8.002
  408.750   68.974    0.230    0.047    6.043
  409.000   74.441    0.259    0.082    4.773
  409.250   78.433    0.298    0.124    4.250
  409.500   78.500    0.330    0.189    3.922
  409.750   78.077    0.369    0.220    3.807
  410.000   80.905    0.415    0.227    3.738
  410.250   83.978    0.426    0.209    3.759
  410.500   86.376    0.411    0.201    3.825
  410.750   85.768    0.400    0.183    3.862
  411.000   85.591    0.436    0.165    3.870
  411.250   85.474    0.458    0.154    3.885
  411.500   85.540    0.446    0.170    3.908
  411.750   87.325    0.436    0.201    3.924
  412.000   89.049    0.428    0.187    3.947
  412.250   85.558    0.424    0.178    3.970
  412.500   88.817    0.429    0.184    3.986
  412.750   90.600    0.431    0.181    4.047
  413.000   88.152    0.434    0.176    4.132
  413.250   84.293    0.442    0.173    4.196
  413.500   84.176    0.435    0.184    4.284
  413.750   87.371    0.418    0.168    4.358
  414.000   91.611    0.400    0.162    4.425
  414.250   95.236    0.392    0.174    4.443
  414.500   94.813    0.405    0.183    4.411
  414.750   91.321    0.413    0.196    4.371
  415.000   88.935    0.409    0.196    4.363
  415.250   90.290    0.407    0.191    4.340
  415.500   94.590    0.411    0.188    4.301
  415.750   96.497    0.418    0.188    4.269
  416.000   90.981    0.415    0.191    4.207
  416.250   89.393    0.413    0.174    4.122
  416.500   91.791    0.424    0.163    4.069
  416.750   93.698    0.441    0.159    4.055
  417.000   96.956    0.434    0.179    4.110
  417.250   99.784    0.415    0.171    4.236
  417.500   98.439    0.404    0.174    4.533
  417.750   92.066    0.419    0.185    4.690
  418.000   87.960    0.419    0.184    4.888
  418.250   84.162    0.408    0.160    5.095
  418.500   85.395    0.400    0.160    5.020
  418.750   89.450    0.400    0.179    4.975
  419.000   88.474    0.416    0.198    4.902
  419.250   85.965    0.414    0.199    4.758
  419.500   88.242    0.394    0.182    4.576
  419.750   90.578    0.441    0.172    4.270
  420.000   93.037    0.492    0.185    3.581
  420.250   95.619    0.521    0.200    2.904
  420.500   94.153    0.532    0.210    2.251
  420.750   93.116    0.528    0.205    2.039
  421.000   89.809    0.528    0.196    2.032
  421.250   84.293    0.512    0.198    2.321
  421.500   78.041    0.467    0.215    2.677
  421.750   75.408    0.418    0.225    3.391
  422.000   69.340    0.367    0.182    4.122
  422.250   69.837    0.329    0.124    4.954
  422.500   76.162    0.356    0.124    5.801
  422.750   81.383    0.398    0.153    6.207
  423.000   85.745    0.433    0.181    5.858
  423.250   88.449    0.407    0.194    5.539
  423.500   84.835    0.396    0.172    5.317
  423.750   79.197    0.385    0.109    5.258
  424.000   83.191    0.387    0.116    5.290
  424.250   89.147    0.402    0.141    5.361
  424.500   93.631    0.412    0.150    5.443
  424.750   89.895    0.397    0.158    5.323
  425.000   92.233    0.383    0.168    5.119
  425.250   94.446    0.372    0.180    4.886
  425.500   93.164    0.380    0.191    4.725
  425.750   89.182    0.395    0.171    4.604
  426.000   90.905    0.408    0.157    4.511
  426.250   93.120    0.425    0.166    4.354
  426.500   94.475    0.457    0.168    4.211
  426.750   94.174    0.483    0.156    3.952
  427.000   89.211    0.470    0.140    3.779
  427.250   92.591    0.426    0.141    3.627
  427.500   96.892    0.426    0.164    3.481
  427.750   95.302    0.442    0.184    3.392
  428.000   94.878    0.458    0.197    3.393
  428.250   94.393    0.446    0.187    3.400
  428.500   92.251    0.434    0.161    3.414
  428.750   91.091    0.448    0.149    3.434
  429.000   92.631    0.438    0.156    3.416
  429.250   94.109    0.433    0.164    3.397
  429.500   94.728    0.447    0.137    3.348
  429.750   93.017    0.452    0.110    3.311
  430.000   94.311    0.439    0.111    3.262
  430.250   96.709    0.432    0.137    3.179
  430.500   99.108    0.445    0.155    3.097
  430.750  101.567    0.454    0.171    3.012
  431.000  105.070    0.468    0.184    2.913
  431.250  106.487    0.451    0.195    2.822
  431.500  105.940    0.436    0.201    2.709
  431.750  107.234    0.424    0.186    2.725
  432.000   98.836    0.446    0.156    2.793
  432.250   91.479    0.419    0.146    3.000
  432.500   95.534    0.384    0.145    3.109
  432.750  100.939    0.400    0.148    3.104
  433.000  105.791    0.442    0.156    2.990
  433.250  110.705    0.496    0.174    2.854
  433.500  113.103    0.492    0.183    2.689
  433.750  115.624    0.485    0.191    2.640
  434.000  107.655    0.514    0.196    2.700
  434.250   93.856    0.490    0.145    3.005
  434.500   82.328    0.382    0.115    3.492
  434.750   82.580    0.371    0.136    4.158
  435.000   82.769    0.358    0.148    4.805
  435.250   77.315    0.347    0.151    5.449
  435.500   72.964    0.337    0.154    6.134
  435.750   72.971    0.335    0.164    6.539
  436.000   74.449    0.344    0.179    6.997
  436.250   73.350    0.333    0.196    7.572
  436.500   69.981    0.323    0.182    8.240
  436.750   66.246    0.317    0.181    8.573
  437.000   62.815    0.310    0.206    9.020
  437.250   59.324    0.302    0.226    9.616
  437.500   58.470    0.304    0.236   10.232
  437.750   58.662    0.330    0.239   10.826
  438.000   59.280    0.341    0.222   11.242
  438.250   59.837    0.345    0.207   11.609
  438.500   59.905    0.336    0.193   11.877
  438.750   61.015    0.326    0.184   11.835
  439.000   61.143    0.321    0.186   12.198
  439.250   56.793    0.333    0.199   12.906
  439.500   51.217    0.356    0.215   14.019
  439.750   44.535    0.362    0.190   16.291
  440.000   39.755    0.318    0.142   18.649
  440.250   34.178    0.276   -0.014   21.509
  440.500   34.061    0.199   -0.012   22.377
  440.750   38.422    0.184   -0.010   22.551
  441.000   37.631    0.198   -0.006   21.565
  441.250   44.570    0.186   -0.001   20.583
  441.500   50.710    0.227    0.006   19.979
  441.750   53.846    0.268    0.009   19.725
  442.000   56.059    0.246    0.008   19.655
  442.250   58.948    0.252    0.006   19.441
  442.500   62.819    0.280    0.001   19.084
  442.750   60.187    0.298   -0.004   18.982
  443.000   49.702    0.288   -0.007   19.345
  443.250   38.358    0.258   -0.009   20.469
  443.500   29.651    0.235   -0.008   22.234
  443.750   28.246    0.203   -0.007   24.334
  444.000   30.215    0.192   -0.006   25.316
  444.250   36.295    0.192   -0.002   25.322
  444.500   44.338    0.197    0.002   25.092
  444.750   53.300    0.204    0.006   23.815
  445.000   68.153    0.233    0.012   20.086
