~VERSION INFORMATION
 VERS.                 2.0:   CWLS LOG ASCII STANDARD -VERSION 2.0
 WRAP.                  NO:   ONE LINE PER DEPTH STEP
~WELL INFORMATION BLOCK
#MNEM.UNIT           DATA                    DESCRIPTION OF MNEMONIC
#---------    -------------------            -------------------------------
# Generated from Intellog Unique Number	CS_71_72/WELL/778
WELL.         PEX PHILLIPS AEC GRIST         : Well_name    - WELL
LOC .         00/06-27-071-08W4/0            : Location     - LOCATION
UWI .         00/06-27-071-08W4/0            : Uwi          - UNIQUE WELL ID
ENTR.         SP                             : Entered      - ENTERED BY
SRVC.         SCHLUMBERGER                   : Scn          - SERVICE COMPANY
STRT.M        295                            : top_depth    - START DEPTH
STOP.M        520                            : bot_depth    - STOP DEPTH
STEP.M        0.25                           : increment    - STEP LENGTH
 NULL. -999.2500:NULL Value
~CURVE INFORMATION BLOCK
#MNEM UNIT       ERCB CURVE CODE    CURVE DESCRIPTION
#-----------   ------------------   ----------------------------------
DEPT.M        00 001 00 00         : DEPTH        - DEPTH
ILD .OHMM     00 120 00 00         : RESD         - DEEP RESISTIVITY (DIL)
DPHI.V/V      00 890 00 00         : PHID         - DENSITY POROSITY (LIMESTONE)
NPHI.V/V      00 330 00 00         : PHIN         - NEUTRON POROSITY (LIMESTONE)
GR  .API      00 310 00 00         : GR           - GAMMA RAY
~PARAMETER INFORMATION
#MNEM.UNIT           DATA             DESCRIPTION OF MNEMONIC
#---------         -----------     ------------------------------
GL  .M        653.4                : gl           - GROUND LEVEL ELEVATION
EREF.M        657.2                : kb           - ELEVATION OF DEPTH REFERENCE
DATM.M        653.4                : datum        - DATUM ELEVATION
TDD .M        532                  : tdd          - TOTAL DEPTH DRILLER
RUN .         ONE                  : Run          - RUN NUMBER
ENG .         BILL                 : Engineer     - RECORDING ENGINEER
WIT .         JIM                  : Witness      - WITNESSED BY
MUD .         GEL                  : Mud_type     - MUD TYPE
MATR.         LIMESTONE            : Logunit      - NEUTRON MATRIX
TMAX.C        23                   : BHT          - MAXIMUM RECORDED TEMPERATURE
BHTD.M        532                  : BHTDEP       - MAXIMUM RECORDED TEMPERATURE
MATR.         1                    : LOGUNIT      - NEUTRON MATRIX
RMT .C        25                   : MDTP         - TEMPERATURE OF MUD
NEUT.         1                    : NEUTRON      - NEUTRON TYPE
RESI.         0                    : RESIST       - RESISTIVITY TYPE
RMC .OHMM     0.25                 : RMC          - RESISTIVITY OF MUD CAKE
RMF .OHMM     0.25                 : RMF          - RESISTIVITY OF MUD FILTRATE
SUFT.C        15                   : SUFT         - SURFACE TEMPERATURE
~A  DEPTH     RESD     PHID     PHIN       GR
  295.000    2.599    0.292    0.547  119.719
  295.250    2.603    0.293    0.551  113.649
  295.500    2.631    0.301    0.561  111.291
  295.750    2.651    0.314    0.569  112.825
  296.000    2.660    0.326    0.580  111.562
  296.250    2.674    0.336    0.595  108.228
  296.500    2.719    0.263    0.545  107.634
  296.750    2.811    0.249    0.520  110.019
  297.000    2.917    0.278    0.524  113.075
  297.250    3.022    0.290    0.543  116.189
  297.500    3.107    0.249    0.567  119.427
  297.750    3.189    0.243    0.549  118.591
  298.000    3.260    0.251    0.550  117.203
  298.250    3.352    0.242    0.526  116.425
  298.500    3.395    0.212    0.509  115.648
  298.750    3.439    0.191    0.496  116.148
  299.000    3.543    0.178    0.485  113.242
  299.250    3.656    0.193    0.489  108.935
  299.500    3.808    0.259    0.487  123.001
  299.750    3.989    0.292    0.493  129.585
  300.000    4.125    0.303    0.501  131.544
  300.250    4.202    0.261    0.477  126.936
  300.500    4.138    0.237    0.463  122.813
  300.750    3.948    0.252    0.491  122.095
  301.000    3.732    0.277    0.532  127.947
  301.250    3.405    0.286    0.527  125.589
  301.500    3.153    0.248    0.513  124.205
  301.750    3.025    0.244    0.535  125.311
  302.000    3.076    0.227    0.552  124.474
  302.250    3.228    0.228    0.521  121.507
  302.500    3.362    0.259    0.509  119.451
  302.750    3.431    0.285    0.530  120.559
  303.000    3.469    0.286    0.535  121.789
  303.250    3.475    0.271    0.496  119.734
  303.500    3.526    0.260    0.477  118.593
  303.750    3.525    0.259    0.466  119.701
  304.000    3.459    0.283    0.488  118.802
  304.250    3.294    0.301    0.506  115.712
  304.500    3.149    0.319    0.525  111.224
  304.750    3.038    0.340    0.560   97.488
  305.000    3.066    0.220    0.583   85.761
  305.250    3.661    0.254    0.339   76.589
  305.500    4.597    0.278    0.315   68.087
  305.750    6.129    0.264    0.350  101.131
  306.000    7.682    0.281    0.412  113.554
  306.250    7.781    0.299    0.450  119.043
  306.500    6.322    0.310    0.473  120.577
  306.750    5.566    0.320    0.482  116.940
  307.000    5.183    0.298    0.470  106.247
  307.250    5.162    0.283    0.476   89.531
  307.500    5.499    0.282    0.468   75.007
  307.750    6.105    0.292    0.438   66.137
  308.000    6.904    0.293    0.437   57.148
  308.250    7.522    0.293    0.415   50.226
  308.500    8.074    0.293    0.380   44.947
  308.750    8.553    0.294    0.383   48.367
  309.000    8.926    0.307    0.381   47.164
  309.250    9.229    0.315    0.359   42.981
  309.500    9.331    0.317    0.357   39.222
  309.750    9.311    0.313    0.373   37.958
  310.000    9.153    0.312    0.386   37.363
  310.250    9.066    0.315    0.385   36.160
  310.500    9.166    0.320    0.363   35.503
  310.750    9.319    0.314    0.349   38.254
  311.000    9.545    0.319    0.352   41.799
  311.250    9.669    0.314    0.354   43.087
  311.500    9.703    0.306    0.364   44.195
  311.750    9.664    0.298    0.371   44.635
  312.000    9.680    0.300    0.378   44.830
  312.250    9.749    0.311    0.388   44.053
  312.500    9.802    0.320    0.400   45.405
  312.750    9.891    0.333    0.407   47.243
  313.000   10.019    0.344    0.399   49.020
  313.250   10.072    0.350    0.390   52.440
  313.500   10.163    0.337    0.385   56.470
  313.750   10.162    0.326    0.400   59.222
  314.000   10.179    0.317    0.410   60.449
  314.250   10.214    0.316    0.416   59.002
  314.500   10.288    0.329    0.418   56.644
  314.750   10.343    0.336    0.422   55.684
  315.000   10.438    0.327    0.429   57.339
  315.250   10.572    0.328    0.433   62.586
  315.500   10.669    0.319    0.437   67.221
  315.750   10.625    0.279    0.423   71.857
  316.000   10.120    0.212    0.396   85.436
  316.250    9.284    0.187    0.404  107.836
  316.500    8.438    0.178    0.431  110.588
  316.750    7.654    0.208    0.453  106.404
  317.000    7.035    0.256    0.438  106.051
  317.250    7.153    0.293    0.445   99.617
  317.500    7.677    0.304    0.416   87.341
  317.750    8.364    0.266    0.385   75.979
  318.000    8.861    0.273    0.372   66.807
  318.250    9.300    0.285    0.379   59.885
  318.500    9.562    0.286    0.374   75.289
  318.750    9.417    0.251    0.372   83.637
  319.000    8.885    0.218    0.385   98.676
  319.250    8.243    0.190    0.398  121.257
  319.500    7.312    0.182    0.415  131.492
  319.750    6.534    0.149    0.440  133.876
  320.000    6.051    0.128    0.429  127.198
  320.250    5.795    0.172    0.430  138.344
  320.500    5.416    0.208    0.447  147.301
  320.750    4.932    0.231    0.470  144.698
  321.000    4.524    0.241    0.495  141.488
  321.250    4.229    0.232    0.507  143.327
  321.500    3.938    0.228    0.518  147.475
  321.750    3.647    0.234    0.533  152.111
  322.000    3.396    0.244    0.552  149.510
  322.250    3.115    0.247    0.546  153.114
  322.500    2.906    0.259    0.566  155.923
  322.750    2.917    0.297    0.594  145.838
  323.000    3.317    0.319    0.619  122.127
  323.250    4.104    0.338    0.554   94.705
  323.500    5.690    0.336    0.505   76.407
  323.750    7.904    0.311    0.476   64.073
  324.000    9.633    0.325    0.439   53.988
  324.250   10.976    0.332    0.405   56.190
  324.500   11.413    0.329    0.382   56.204
  324.750   11.453    0.326    0.382   53.359
  325.000   11.343    0.324    0.401   51.364
  325.250   11.172    0.327    0.417   53.568
  325.500   10.921    0.333    0.422   57.475
  325.750   10.716    0.344    0.403   59.982
  326.000   10.554    0.354    0.418   62.185
  326.250   10.434    0.344    0.419   59.765
  326.500   10.354    0.338    0.411   62.759
  326.750   10.313    0.332    0.400   59.426
  327.000   10.252    0.333    0.392   51.166
  327.250   10.192    0.344    0.385   50.815
  327.500   10.171    0.343    0.383   56.121
  327.750   10.206    0.333    0.386   54.127
  328.000   10.261    0.327    0.392   49.761
  328.250   10.335    0.330    0.402   52.389
  328.500   10.332    0.335    0.413   58.790
  328.750   10.328    0.338    0.402   68.050
  329.000   10.328    0.340    0.400   84.793
  329.250   10.362    0.340    0.407   92.228
  329.500   10.378    0.336    0.404   91.815
  329.750   10.358    0.331    0.407  101.196
  330.000   10.315    0.326    0.416  117.330
  330.250   10.255    0.327    0.413  128.354
  330.500   10.235    0.336    0.405  137.858
  330.750   10.211    0.340    0.399  144.076
  331.000   10.247    0.337    0.418  130.585
  331.250   10.284    0.333    0.432  121.047
  331.500   10.398    0.332    0.425  111.023
  331.750   10.472    0.329    0.417  105.561
  332.000   10.451    0.308    0.426  105.028
  332.250   10.312    0.278    0.441  113.133
  332.500   10.100    0.274    0.462  118.500
  332.750    9.763    0.281    0.438  122.041
  333.000    9.420    0.287    0.408  123.939
  333.250    9.295    0.289    0.433  120.485
  333.500    9.557    0.278    0.456  113.867
  333.750    9.881    0.260    0.391  102.809
  334.000   10.198    0.252    0.361   92.541
  334.250   10.662    0.259    0.367   80.511
  334.500   10.900    0.276    0.401   71.339
  334.750   10.940    0.294    0.419   65.938
  335.000   10.958    0.311    0.397   65.159
  335.250   10.812    0.326    0.386   67.121
  335.500   10.491    0.343    0.401   69.567
  335.750   10.313    0.345    0.405   73.230
  336.000   10.273    0.322    0.391   76.285
  336.250   10.213    0.318    0.411   78.002
  336.500   10.134    0.319    0.416   76.920
  336.750   10.055    0.319    0.397   73.831
  337.000   10.015    0.315    0.390   75.182
  337.250    9.975    0.301    0.386   81.765
  337.500    9.973    0.301    0.388   82.996
  337.750   10.026    0.299    0.399   84.895
  338.000   10.061    0.284    0.410   99.569
  338.250   10.040    0.276    0.395  108.342
