~VERSION INFORMATION
 VERS.                 2.0:   CWLS LOG ASCII STANDARD -VERSION 2.0
 WRAP.                  NO:   ONE LINE PER DEPTH STEP
~WELL INFORMATION BLOCK
#MNEM.UNIT           DATA                    DESCRIPTION OF MNEMONIC
#---------    -------------------            -------------------------------
# Generated from Intellog Unique Number	CW_82_90/WELL/693
WELL.         08-34-083-24W4                 : Well_name    - WELL
LOC .         00/08-34-083-24W4/0            : Location     - LOCATION
UWI .         00/08-34-083-24W4/0            : Uwi          - UNIQUE WELL ID
ENTR.         JAYE                           : Entered      - ENTERED BY
SRVC.         SCHLUMBERGER                   : Scn          - SERVICE COMPANY
DATE.         01 MAR 86                      : Date         - LOG DATE
STRT.M        180                            : top_depth    - START DEPTH
STOP.M        395                            : bot_depth    - STOP DEPTH
STEP.M        0.25                           : increment    - STEP LENGTH
 NULL. -999.2500:NULL Value
~CURVE INFORMATION BLOCK
#MNEM UNIT       ERCB CURVE CODE    CURVE DESCRIPTION
#-----------   ------------------   ----------------------------------
DEPT.M        00 001 00 00         : DEPTH        - DEPTH
CALI.MM       00 280 01 00         : CAL          - CALIPER
GR  .API      00 310 00 00         : GR           - GAMMA RAY
NPHI.V/V      00 330 00 00         : PHIN         - NEUTRON POROSITY (SANDSTONE)
DPHI.V/V      00 890 00 00         : PHID         - DENSITY POROSITY (SANDSTONE)
ILD .OHMM     00 120 00 00         : RESD         - DEEP RESISTIVITY (DIL)
~PARAMETER INFORMATION
#MNEM.UNIT           DATA             DESCRIPTION OF MNEMONIC
#---------         -----------     ------------------------------
GL  .M        564.16               : gl           - GROUND LEVEL ELEVATION
EREF.M        567.76               : kb           - ELEVATION OF DEPTH REFERENCE
DATM.M        564.16               : datum        - DATUM ELEVATION
TDD .M        398                  : tdd          - TOTAL DEPTH DRILLER
RUN .         ONE                  : Run          - RUN NUMBER
ENG .         MILROSS              : Engineer     - RECORDING ENGINEER
WIT .         DZIUBA               : Witness      - WITNESSED BY
BASE.         SL                   : Branch       - HOME BASE OF LOGGING UNIT
MUD .         GEL CHEM             : Mud_type     - MUD TYPE
MATR.         SANDSTONE            : Logunit      - NEUTRON MATRIX
TMAX.C        21                   : BHT          - MAXIMUM RECORDED TEMPERATURE
BHTD.M        398                  : BHTDEP       - MAXIMUM RECORDED TEMPERATURE
RMT .C        18                   : MDTP         - TEMPERATURE OF MUD
MUDD.KG/M     1130                 : MWT          - MUD DENSITY
NEUT.         1                    : NEUTRON      - NEUTRON TYPE
RESI.         0                    : RESIST       - RESISTIVITY TYPE
RM  .OHMM     4.99                 : RM           - RESISTIVITY OF MUD
RMC .OHMM     0                    : RMC          - RESISTIVITY OF MUD CAKE
RMF .OHMM     4.75                 : RMF          - RESISTIVITY OF MUD FILTRATE
SUFT.C        0                    : SUFT         - SURFACE TEMPERATURE
~A  DEPTH      CAL       GR     PHIN     PHID     RESD
  180.000  271.290   84.814    0.579    0.236    2.728
  180.250  272.291   86.287    0.577    0.299    2.674
  180.500  272.349   88.262    0.579    0.308    2.656
  180.750  271.702   90.800    0.568    0.298    2.639
  181.000  270.413   92.775    0.549    0.276    2.640
  181.250  267.363   92.931    0.538    0.270    2.633
  181.500  264.212   90.542    0.555    0.259    2.625
  181.750  261.904   86.900    0.555    0.246    2.611
  182.000  260.918   84.194    0.522    0.212    2.594
  182.250  259.948   87.914    0.529    0.177    2.562
  182.500  261.412   93.879    0.542    0.217    2.521
  182.750  261.855   94.418    0.561    0.258    2.547
  183.000  264.109   94.332    0.567    0.266    2.587
  183.250  265.833   95.504    0.564    0.260    2.628
  183.500  264.703   97.281    0.554    0.243    2.635
  183.750  264.713   98.005    0.543    0.240    2.717
  184.000  265.316   96.486    0.554    0.236    2.849
  184.250  265.784   90.603    0.556    0.221    2.949
  184.500  266.875   87.525    0.545    0.230    3.058
  184.750  269.153   91.366    0.528    0.243    3.159
  185.000  271.275   90.970    0.524    0.253    3.264
  185.250  273.331   90.575    0.529    0.255    3.266
  185.500  275.044   92.423    0.538    0.259    3.312
  185.750  277.290   92.025    0.544    0.261    3.408
  186.000  277.880   87.761    0.546    0.255    3.594
  186.250  277.116   65.475    0.487    0.221    3.906
  186.500  276.561   46.307    0.404    0.166    4.516
  186.750  278.390   38.802    0.244    0.124    5.450
  187.000  277.835   37.660    0.211    0.147    6.676
  187.250  271.361   41.443    0.271    0.184   11.351
  187.500  266.550   41.981    0.360    0.224   12.289
  187.750  266.108   42.266    0.400    0.233   12.985
  188.000  269.280   44.987    0.450    0.276   14.164
  188.250  267.183   45.589    0.464    0.316   15.683
  188.500  262.067   41.575    0.438    0.323   18.230
  188.750  260.142   39.501    0.436    0.326   22.210
  189.000  260.129   40.783    0.428    0.333   22.268
  189.250  270.290   42.691    0.414    0.343   22.200
  189.500  274.045   42.979    0.420    0.354   22.304
  189.750  274.045   42.396    0.431    0.366   22.401
  190.000  292.774   40.627    0.445    0.364   22.459
  190.250  285.770   40.979    0.455    0.360   22.857
  190.500  269.952   44.017    0.454    0.365   23.569
  190.750  264.935   44.491    0.457    0.365   24.393
  191.000  261.729   42.032    0.461    0.369   25.013
  191.250  261.651   41.138    0.452    0.373   25.457
  191.500  261.651   40.991    0.450    0.375   25.763
  191.750  262.197   40.096    0.445    0.375   25.828
  192.000  262.570   39.330    0.440    0.372   25.753
  192.250  262.846   39.304    0.456    0.370   25.529
  192.500  263.350   41.024    0.471    0.370   25.404
  192.750  263.826   42.632    0.467    0.370   25.521
  193.000  263.826   42.291    0.456    0.371   26.119
  193.250  263.951   40.893    0.464    0.370   26.581
  193.500  264.048   39.250    0.498    0.367   26.208
  193.750  264.089   39.173    0.505    0.359   25.450
  194.000  263.839   39.584    0.475    0.361   24.672
  194.250  263.098   40.630    0.462    0.364   24.460
  194.500  262.768   41.658    0.498    0.358   24.249
  194.750  262.582   43.254    0.510    0.364   23.858
  195.000  262.338   44.793    0.511    0.362   22.997
  195.250  262.432   44.955    0.498    0.359   22.043
  195.500  262.684   44.877    0.475    0.354   20.505
  195.750  262.756   45.407    0.494    0.350   17.832
  196.000  262.838   48.077    0.503    0.334   17.316
  196.250  262.885   48.792    0.493    0.321   17.265
  196.500  261.829   48.149    0.494    0.328   17.970
  196.750  260.836   44.007    0.489    0.350   19.786
  197.000  258.828   39.310    0.458    0.349   23.175
  197.250  257.232   37.162    0.445    0.344   26.244
  197.500  255.950   35.208    0.451    0.342   29.773
  197.750  255.086   34.685    0.456    0.340   31.932
  198.000  254.633   35.541    0.460    0.341   32.559
  198.250  254.286   36.890    0.466    0.345   32.587
  198.500  254.357   37.363    0.468    0.346   32.485
  198.750  254.214   36.652    0.471    0.342   32.395
  199.000  253.886   38.563    0.464    0.340   32.363
  199.250  253.618   41.970    0.458    0.339   32.437
  199.500  253.171   44.010    0.452    0.338   32.894
  199.750  252.966   43.246    0.434    0.337   33.163
  200.000  252.992   41.405    0.434    0.338   32.937
  200.250  253.168   40.330    0.443    0.341   32.653
  200.500  254.911   40.422    0.446    0.341   32.312
  200.750  259.033   40.714    0.451    0.334   32.037
  201.000  261.385   40.572    0.461    0.322   31.815
  201.250  262.357   40.855    0.464    0.316   31.306
  201.500  263.363   41.896    0.460    0.325   30.921
  201.750  263.752   40.810    0.454    0.323   30.945
  202.000  263.757   39.613    0.447    0.327   31.435
  202.250  263.980   39.955    0.447    0.337   31.577
  202.500  264.607   40.681    0.450    0.341   31.244
  202.750  264.736   43.221    0.453    0.326   30.915
  203.000  265.019   43.264    0.452    0.324   30.883
  203.250  265.347   41.924    0.449    0.330   31.372
  203.500  265.458   40.151    0.458    0.320   31.872
  203.750  265.058   38.517    0.465    0.309   31.890
  204.000  265.070   37.367    0.456    0.322   31.732
  204.250  265.142   37.408    0.445    0.342   31.578
  204.500  265.458   38.376    0.453    0.345   31.133
  204.750  265.272   40.539    0.454    0.340   31.041
  205.000  265.597   40.773    0.447    0.340   31.174
  205.250  265.614   39.689    0.439    0.339   30.964
  205.500  265.788   38.102    0.450    0.339   29.849
  205.750  266.418   37.456    0.464    0.340   29.316
  206.000  266.439   37.929    0.487    0.342   28.897
  206.250  266.664   39.090    0.480    0.345   28.546
  206.500  266.573   42.126    0.457    0.348   28.471
  206.750  266.450   45.159    0.430    0.335   28.318
  207.000  265.420   46.820    0.485    0.298   27.712
  207.250  265.321   51.288    0.509    0.300   27.213
  207.500  263.873   55.941    0.498    0.310   26.432
  207.750  263.380   58.045    0.484    0.285   25.429
  208.000  261.995   59.263    0.471    0.298   22.585
  208.250  259.821   64.165    0.478    0.320   22.294
  208.500  259.429   69.263    0.484    0.335   20.738
  208.750  257.959   69.611    0.473    0.333   18.547
  209.000  258.008   57.492    0.461    0.295   16.127
  209.250  259.364   55.532    0.449    0.255   13.184
  209.500  261.080   54.517    0.462    0.206   11.146
  209.750  261.950   53.989    0.475    0.224   11.387
  210.000  262.221   52.410    0.490    0.254   12.608
  210.250  261.458   50.083    0.483    0.285   14.601
  210.500  259.448   48.371    0.467    0.327   18.781
  210.750  257.439   46.175    0.447    0.335   21.030
  211.000  256.158   44.527    0.446    0.334   20.119
  211.250  254.911   46.934    0.435    0.331   18.129
  211.500  254.735   51.462    0.446    0.324   16.276
  211.750  254.504   56.490    0.480    0.325   14.447
  212.000  254.576   59.215    0.473    0.333   12.681
  212.250  254.727   61.311    0.466    0.312   11.643
  212.500  254.901   62.969    0.485    0.292   10.414
  212.750  254.977   63.200    0.483    0.281    9.560
  213.000  255.163   62.368    0.453    0.288    8.519
  213.250  255.933   65.647    0.439    0.289    7.632
  213.500  259.224   76.723    0.471    0.282    6.416
  213.750  259.224   85.060    0.527    0.275    5.245
  214.000  264.137   89.903    0.550    0.268    4.377
  214.250  264.722   96.678    0.552    0.265    3.944
  214.500  263.351   98.337    0.550    0.265    3.946
  214.750  262.875   94.196    0.543    0.265    4.494
  215.000  262.219   79.268    0.514    0.268    6.740
  215.250  261.467   67.900    0.486    0.284   11.590
  215.500  261.213   64.072    0.479    0.299   15.858
  215.750  261.079   60.495    0.468    0.306   20.097
  216.000  261.176   57.852    0.438    0.310   22.249
  216.250  261.312   57.580    0.422    0.313   24.960
