~VERSION INFORMATION
 VERS.                 2.0:   CWLS LOG ASCII STANDARD -VERSION 2.0
 WRAP.                  NO:   ONE LINE PER DEPTH STEP
~WELL INFORMATION BLOCK
#MNEM.UNIT           DATA                    DESCRIPTION OF MNEMONIC
#---------    -------------------            -------------------------------
# Generated from Intellog Unique Number	CS_77_79/WELL/897
WELL.         KANDEX CAN-SUP THORNBURY       : Well_name    - WELL
LOC .         00/07-14-078-13W4/0            : Location     - LOCATION
UWI .         00/07-14-078-13W4/0            : Uwi          - UNIQUE WELL ID
ENTR.         JHS                            : Entered      - ENTERED BY
SRVC.         SCHLUMBERGER                   : Scn          - SERVICE COMPANY
STRT.M        259.080                        : top_depth    - START DEPTH
STOP.M        487.330                        : bot_depth    - STOP DEPTH
STEP.M        0.25                           : increment    - STEP LENGTH
 NULL. -999.2500:NULL Value
~CURVE INFORMATION BLOCK
#MNEM UNIT       ERCB CURVE CODE    CURVE DESCRIPTION
#-----------   ------------------   ----------------------------------
DEPT.M        00 001 00 00         : DEPTH        - DEPTH
RHOB.KG/M3    00 350 00 00         : DENS         - BULK DENSITY
GR  .API      00 310 00 00         : GR           - GAMMA RAY
DPHI.V/V      00 890 00 00         : PHID         - DENSITY POROSITY (SANDSTONE)
NPHI.V/V      00 330 00 00         : PHIN         - NEUTRON POROSITY (SANDSTONE)
ILD .OHMM     00 120 00 00         : RESD         - DEEP RESISTIVITY (DIL)
~PARAMETER INFORMATION
#MNEM.UNIT           DATA             DESCRIPTION OF MNEMONIC
#---------         -----------     ------------------------------
GL  .M        681.533              : gl           - GROUND LEVEL ELEVATION
EREF.M        684.886              : kb           - ELEVATION OF DEPTH REFERENCE
DATM.M        684.886              : datum        - DATUM ELEVATION
TDD .M        492.252              : tdd          - TOTAL DEPTH DRILLER
RUN .         ONE                  : Run          - RUN NUMBER
ENG .         BILL                 : Engineer     - RECORDING ENGINEER
WIT .         JIM                  : Witness      - WITNESSED BY
MUD .         GEL                  : Mud_type     - MUD TYPE
MATR.         SANDSTONE            : Logunit      - NEUTRON MATRIX
TMAX.C        21.1111              : BHT          - MAXIMUM RECORDED TEMPERATURE
BHTD.M        492.252              : BHTDEP       - MAXIMUM RECORDED TEMPERATURE
MATR.         1                    : LOGUNIT      - NEUTRON MATRIX
RMT .C        25                   : MDTP         - TEMPERATURE OF MUD
NEUT.         1                    : NEUTRON      - NEUTRON TYPE
RESI.         0                    : RESIST       - RESISTIVITY TYPE
RMC .OHMM     0.25                 : RMC          - RESISTIVITY OF MUD CAKE
RMF .OHMM     0.25                 : RMF          - RESISTIVITY OF MUD FILTRATE
SUFT.C        15                   : SUFT         - SURFACE TEMPERATURE
~A  DEPTH     DENS       GR     PHID     PHIN     RESD
# ...
  368.580   -0.000   89.823    0.301    0.484    4.636
  368.830   -0.000   93.160    0.291    0.469    4.107
  369.080    0.000  101.186    0.259    0.479    3.583
  369.330    0.000  108.228    0.244    0.518    3.052
  369.580    0.000  110.664    0.245    0.572    2.802
  369.830   -0.000  112.318    0.254    0.584    2.676
  370.080   -0.000  112.427    0.244    0.581    2.539
  370.330    0.000  112.486    0.246    0.601    2.469
  370.580    0.000  110.496    0.258    0.613    2.414
  370.830    0.000  108.589    0.258    0.619    2.464
  371.080   -0.000  108.196    0.258    0.615    2.429
  371.330   -0.000  108.118    0.270    0.608    2.296
  371.580   -0.000  109.678    0.256    0.582    2.124
  371.830    0.000  111.757    0.250    0.566    2.101
  372.080    0.000  111.596    0.261    0.578    2.109
  372.330    0.000  111.999    0.287    0.603    2.178
  372.580   -0.000  109.522    0.285    0.616    2.384
  372.830   -0.000  108.429    0.289    0.618    2.621
  373.080   -0.000  110.170    0.297    0.616    2.676
  373.330    0.000  108.627    0.293    0.617    2.677
  373.580    0.000  106.383    0.294    0.619    2.673
  373.830   -0.000  107.641    0.297    0.613    2.776
  374.080   -0.000  109.507    0.290    0.599    2.900
  374.330   -0.000  107.946    0.273    0.584    3.028
  374.580    0.000  106.490    0.261    0.572    3.338
  374.830    0.000  107.962    0.247    0.549    3.581
  375.080    0.000  111.022    0.237    0.550    3.931
  375.330   -0.000  112.040    0.241    0.550    4.182
  375.580   -0.000  110.757    0.256    0.537    4.303
  375.830   -0.000  105.239    0.254    0.525    4.302
  376.080    0.000  102.812    0.253    0.505    4.444
  376.330    0.000   99.068    0.258    0.513    4.611
  376.580   -0.000   98.065    0.267    0.531    4.814
  376.830   -0.000   95.834    0.280    0.549    5.314
  377.080   -0.000   91.172    0.289    0.540    5.624
  377.330    0.000   85.084    0.300    0.494    6.130
  377.580    0.000   81.470    0.290    0.469    7.040
  377.830    0.000   83.823    0.259    0.473    8.104
  378.080   -0.000   77.905    0.247    0.487    9.029
  378.330   -0.000   73.064    0.172    0.447    9.671
  378.580   -0.000   69.742    0.125    0.350    9.848
  378.830    0.000   68.080    0.163    0.343    9.320
  379.080    0.000   75.904    0.240    0.461    8.311
  379.330    0.000   81.651    0.277    0.497    7.444
  379.580   -0.000   84.904    0.279    0.484    6.908
  379.830   -0.000   87.562    0.284    0.490    6.791
  380.080    0.000   90.163    0.252    0.501    6.682
  380.330    0.000   88.503    0.243    0.507    6.680
  380.580    0.000   86.791    0.251    0.496    6.661
  380.830   -0.000   88.901    0.250    0.500    6.560
  381.080   -0.000   90.849    0.241    0.503    6.566
  381.330   -0.000   93.547    0.256    0.503    6.571
  381.580    0.000   94.945    0.259    0.494    6.563
  381.830    0.000   96.837    0.276    0.490    6.719
  382.080    0.000   97.105    0.262    0.492    6.711
  382.330   -0.000   96.090    0.256    0.484    6.839
  382.580   -0.000   95.101    0.266    0.461    6.769
  382.830    0.000   94.109    0.279    0.456    6.472
  383.080    0.000   93.105    0.282    0.471    6.207
  383.330    0.000   92.095    0.263    0.483    6.005
  383.580   -0.000   91.658    0.252    0.479    6.014
  383.830   -0.000   93.264    0.243    0.487    6.005
  384.080   -0.000   94.534    0.265    0.495    6.143
  384.330    0.000   89.668    0.268    0.488    6.137
  384.580    0.000   88.963    0.277    0.500    6.144
  384.830    0.000   89.331    0.281    0.496    5.999
  385.080   -0.000   92.393    0.289    0.491    5.627
  385.330   -0.000   94.263    0.278    0.496    5.149
  385.580   -0.000   94.881    0.279    0.501    4.554
  385.830    0.000   96.215    0.271    0.507    4.052
  386.080    0.000   99.128    0.270    0.516    3.652
  386.330   -0.000  102.231    0.285    0.528    3.451
  386.580   -0.000  102.380    0.283    0.535    3.449
  386.830   -0.000  100.864    0.257    0.528    3.546
  387.080    0.000  100.368    0.242    0.539    3.776
  387.330    0.000  103.084    0.238    0.547    4.006
  387.580    0.000  104.216    0.245    0.543    4.344
  387.830   -0.000  101.660    0.262    0.529    4.399
  388.080   -0.000   98.426    0.270    0.511    4.423
  388.330   -0.000   92.937    0.291    0.490    4.335
  388.580    0.000   90.090    0.279    0.477    4.388
  388.830    0.000   97.285    0.277    0.491    4.632
  389.080   -0.000   96.907    0.259    0.515    4.772
  389.330   -0.000   95.460    0.242    0.498    4.836
  389.580   -0.000   96.991    0.239    0.489    4.889
  389.830    0.000   98.029    0.243    0.484    4.960
  390.080    0.000  101.195    0.250    0.495    5.051
  390.330    0.000  101.807    0.253    0.507    5.284
  390.580   -0.000   97.437    0.264    0.503    5.441
  390.830   -0.000   95.468    0.271    0.499    5.623
  391.080   -0.000   91.297    0.281    0.499    5.671
  391.330    0.000   91.877    0.295    0.499    5.695
  391.580    0.000   92.582    0.307    0.490    5.424
  391.830    0.000   92.718    0.309    0.483    5.168
  392.080   -0.000   91.786    0.317    0.499    4.904
  392.330   -0.000   91.264    0.298    0.505    5.012
  392.580    0.000   95.155    0.281    0.490    5.369
  392.830    0.000   96.606    0.273    0.471    5.714
  393.080    0.000   95.763    0.276    0.457    6.084
  393.330   -0.000   94.227    0.277    0.455    6.376
  393.580   -0.000   92.254    0.282    0.454    6.442
  393.830   -0.000   89.475    0.293    0.454    6.489
  394.080    0.000   86.550    0.318    0.450    6.397
  394.330    0.000   83.047    0.333    0.456    6.270
  394.580    0.000   80.444    0.337    0.481    6.153
  394.830   -0.000   75.106    0.337    0.505    5.963
  395.080   -0.000   70.465    0.343    0.510    5.954
  395.330    0.000   68.346    0.341    0.485    5.837
  395.580    0.000   64.455    0.347    0.471    5.841
  395.830    0.000   66.044    0.354    0.474    5.840
  396.080   -0.000   68.374    0.345    0.481    5.850
  396.330   -0.000   67.744    0.337    0.487    5.731
  396.580   -0.000   66.448    0.340    0.503    5.748
  396.830    0.000   65.917    0.350    0.499    5.654
  397.080    0.000   66.922    0.351    0.475    5.644
  397.330    0.000   67.975    0.350    0.461    5.638
  397.580   -0.000   69.624    0.369    0.468    5.530
  397.830   -0.000   69.566    0.375    0.488    5.664
  398.080   -0.000   67.846    0.375    0.512    5.656
  398.330    0.000   66.504    0.375    0.524    5.659
  398.580    0.000   64.631    0.363    0.498    5.662
  398.830   -0.000   63.043    0.359    0.502    5.666
  399.080   -0.000   62.351    0.361    0.499    5.669
  399.330   -0.000   63.356    0.353    0.492    5.677
  399.580    0.000   64.296    0.355    0.497    5.579
  399.830    0.000   64.200    0.351    0.521    5.586
  400.080    0.000   65.776    0.357    0.525    5.464
  400.330   -0.000   67.327    0.350    0.483    5.477
  400.580   -0.000   67.348    0.327    0.474    5.481
  400.830   -0.000   68.089    0.326    0.493    5.489
  401.080    0.000   66.792    0.339    0.467    5.594
  401.330    0.000   63.969    0.345    0.460    5.587
  401.580    0.000   64.391    0.357    0.460    5.702
  401.830   -0.000   64.047    0.341    0.444    5.782
  402.080   -0.000   63.232    0.314    0.420    6.194
  402.330    0.000   64.466    0.281    0.409    6.715
  402.580    0.000   61.485    0.138    0.362    8.230
  402.830    0.000   53.677    0.059    0.266   10.229
  403.080   -0.000   50.891    0.037    0.216   12.290
  403.330   -0.000   52.792    0.092    0.278   14.262
  403.580   -0.000   55.585    0.130    0.307   14.569
  403.830    0.000   59.244    0.120    0.276   13.733
  404.080    0.000   61.308    0.105    0.244   11.546
  404.330    0.000   63.330    0.110    0.303    9.632
  404.580   -0.000   63.768    0.180    0.375    7.828
  404.830   -0.000   65.516    0.288    0.409    6.393
