~VERSION INFORMATION
 VERS.                 2.0:   CWLS LOG ASCII STANDARD -VERSION 2.0
 WRAP.                  NO:   ONE LINE PER DEPTH STEP
~WELL INFORMATION BLOCK
#MNEM.UNIT           DATA                    DESCRIPTION OF MNEMONIC
#---------    -------------------            -------------------------------
# Generated from Intellog Unique Number	CW_73_75/WELL/901
WELL.         08-05-075-25W4                 : Well_name    - WELL
LOC .         00/08-05-075-25W4/0            : Location     - LOCATION
UWI .         00/08-05-075-25W4/0            : Uwi          - UNIQUE WELL ID
ENTR.         JAYE                           : Entered      - ENTERED BY
SRVC.         SCHLUMBERGER                   : Scn          - SERVICE COMPANY
DATE.         16 NOV 74                      : Date         - LOG DATE
STRT.M        423.672                        : top_depth    - START DEPTH
STOP.M        621.672                        : bot_depth    - STOP DEPTH
STEP.M        0.25                           : increment    - STEP LENGTH
 NULL. -999.2500:NULL Value
~CURVE INFORMATION BLOCK
#MNEM UNIT       ERCB CURVE CODE    CURVE DESCRIPTION
#-----------   ------------------   ----------------------------------
DEPT.M        00 001 00 00         : DEPTH        - DEPTH
ILD .OHMM     00 120 00 00         : RESD         - DEEP RESISTIVITY (DIL)
NPHI.V/V      00 330 00 00         : PHIN         - NEUTRON POROSITY (SANDSTONE)
DPHI.V/V      00 890 00 00         : PHID         - DENSITY POROSITY (SANDSTONE)
GR  .API      00 310 00 00         : GR           - GAMMA RAY
CALI.MM       00 280 01 00         : CAL          - CALIPER
~PARAMETER INFORMATION
#MNEM.UNIT           DATA             DESCRIPTION OF MNEMONIC
#---------         -----------     ------------------------------
GL  .M        700.126              : gl           - GROUND LEVEL ELEVATION
EREF.M        704.088              : kb           - ELEVATION OF DEPTH REFERENCE
DATM.M        700.126              : datum        - DATUM ELEVATION
TDD .M        622.402              : tdd          - TOTAL DEPTH DRILLER
RUN .         ONE                  : Run          - RUN NUMBER
ENG .         SIMPSON              : Engineer     - RECORDING ENGINEER
WIT .         OXTOBY               : Witness      - WITNESSED BY
BASE.         EDM                  : Branch       - HOME BASE OF LOGGING UNIT
MUD .         GEL                  : Mud_type     - MUD TYPE
MATR.         SANDSTONE            : Logunit      - NEUTRON MATRIX
TMAX.C        23.3333              : BHT          - MAXIMUM RECORDED TEMPERATURE
BHTD.M        623.011              : BHTDEP       - MAXIMUM RECORDED TEMPERATURE
RMT .C        15                   : MDTP         - TEMPERATURE OF MUD
MUDD.KG/M     1080                 : MWT          - MUD DENSITY
NEUT.         1                    : NEUTRON      - NEUTRON TYPE
RESI.         0                    : RESIST       - RESISTIVITY TYPE
RM  .OHMM     1.8                  : RM           - RESISTIVITY OF MUD
RMC .OHMM     0                    : RMC          - RESISTIVITY OF MUD CAKE
RMF .OHMM     2.27                 : RMF          - RESISTIVITY OF MUD FILTRATE
SUFT.C        -17.7778             : SUFT         - SURFACE TEMPERATURE
~A  DEPTH     RESD     PHIN     PHID       GR      CAL
  423.672    2.422    0.658    0.246  101.618  224.845
  423.922    2.469    0.700    0.245   99.439  225.055
  424.172    2.498    0.715    0.235   98.230  225.370
  424.422    2.504    0.723    0.240   99.508  226.095
  424.672    2.502    0.708    0.247  101.633  226.515
  424.922    2.513    0.685    0.240  105.881  226.624
  425.172    2.529    0.676    0.215  107.038  226.525
  425.422    2.526    0.684    0.224  101.342  225.404
  425.672    2.510    0.679    0.224   96.253  224.693
  425.922    2.466    0.664    0.215   97.470  224.698
  426.172    2.441    0.637    0.214   99.353  225.732
  426.422    2.429    0.638    0.212  102.449  226.663
  426.672    2.382    0.665    0.209  105.545  228.106
  426.922    2.332    0.692    0.210  105.852  229.447
  427.172    2.295    0.674    0.210  105.249  230.274
  427.422    2.301    0.638    0.209  105.072  230.591
  427.672    2.333    0.603    0.212  105.561  229.878
  427.922    2.427    0.591    0.221  106.171  228.960
  428.172    2.639    0.580    0.231  104.841  225.989
  428.422    2.811    0.581    0.244   98.843  224.148
  428.672    3.034    0.576    0.259   92.783  224.873
  428.922    3.391    0.552    0.249   86.724  226.830
  429.172    3.381    0.535    0.202   81.695  227.761
  429.422    3.013    0.585    0.212   78.607  226.844
  429.672    2.560    0.663    0.240   82.370  225.105
  429.922    2.215    0.749    0.240   88.073  224.496
  430.172    1.984    0.778    0.257   86.683  226.556
  430.422    1.814    0.639    0.283   84.928  233.235
  430.672    1.702    0.561    0.269   82.993  238.786
  430.922    1.800    0.541    0.256   81.299  239.922
  431.172    2.567    0.515    0.250   79.301  234.898
  431.422    3.938    0.478    0.229   71.605  228.334
  431.672    5.274    0.459    0.153   65.000  224.645
  431.922    8.258    0.302    0.104   56.941  222.600
  432.172   19.182    0.284    0.070   52.033  221.578
  432.422   23.380    0.259    0.138   51.007  220.865
  432.672   20.567    0.309    0.236   52.041  220.461
  432.922   17.246    0.340    0.282   52.954  219.853
  433.172   13.939    0.394    0.305   54.717  219.551
  433.422   11.949    0.537    0.308   57.388  219.352
  433.672   10.551    0.550    0.284   59.090  219.974
  433.922    9.754    0.523    0.284   60.852  220.494
  434.172    9.237    0.491    0.277   61.523  220.501
  434.422    8.762    0.466    0.259   60.617  219.789
  434.672    8.207    0.463    0.225   58.923  219.077
  434.922    7.629    0.481    0.244   59.352  218.570
  435.172    6.874    0.484    0.266   60.569  218.576
  435.422    6.343    0.507    0.267   61.663  218.276
  435.672    5.974    0.502    0.275   62.759  217.974
  435.922    5.699    0.488    0.265   63.490  217.982
  436.172    5.537    0.476    0.257   62.342  218.296
  436.422    5.421    0.465    0.257   61.497  218.404
  436.672    5.495    0.507    0.250   62.229  218.411
  436.922    5.581    0.527    0.268   63.081  218.419
  437.172    5.690    0.505    0.253   61.752  218.835
  437.422    5.843    0.470    0.259   58.542  218.841
  437.672    6.011    0.476    0.272   58.061  219.157
  437.922    6.207    0.510    0.286   59.278  219.266
  438.172    6.258    0.521    0.285   60.190  219.169
  438.422    6.092    0.519    0.282   61.165  219.177
  438.672    5.975    0.530    0.266   61.835  219.183
  438.922    5.979    0.521    0.265   62.022  219.189
  439.172    6.028    0.502    0.265   61.843  219.504
  439.422    6.157    0.511    0.252   60.756  219.818
  439.672    6.252    0.510    0.260   57.667  220.545
  439.922    6.420    0.482    0.265   55.853  220.961
  440.172    6.703    0.450    0.249   56.099  221.995
  440.422    7.262    0.454    0.239   57.255  222.310
  440.672    7.624    0.450    0.252   58.653  222.726
  440.922    7.800    0.336    0.250   57.748  223.862
  441.172    7.806    0.274    0.209   55.508  225.614
  441.422    7.628    0.266    0.103   55.936  227.058
  441.672    7.412    0.306    0.222   58.184  227.989
  441.922    7.019    0.485    0.276   59.522  228.611
  442.172    6.418    0.504    0.280   59.768  228.823
  442.422    6.122    0.491    0.270   59.105  229.138
  442.672    6.230    0.452    0.277   59.412  228.836
  442.922    7.211    0.421    0.245   60.871  228.432
  443.172    9.391    0.381    0.111   62.148  227.721
  443.422   12.715    0.291    0.086   57.302  227.316
  443.672   15.242    0.215    0.061   50.272  226.399
  443.922   16.726    0.129    0.005   43.182  225.789
  444.172   15.351    0.132    0.062   44.157  224.872
  444.422   12.660    0.159    0.093   47.435  223.852
  444.672   10.538    0.333    0.185   48.894  222.627
  444.922    9.001    0.485    0.286   49.989  222.121
  445.172    7.731    0.510    0.293   50.417  221.511
  445.422    7.108    0.514    0.293   51.088  221.004
  445.672    6.933    0.517    0.283   51.698  220.189
  445.922    6.848    0.521    0.297   51.642  219.888
  446.172    6.943    0.524    0.294   51.828  219.792
  446.422    7.091    0.518    0.289   52.377  220.107
  446.672    7.136    0.484    0.278   53.472  220.421
  446.922    7.181    0.462    0.272   54.992  220.429
  447.172    7.159    0.450    0.268   56.693  220.229
  447.422    7.112    0.437    0.267   58.880  220.031
  447.672    6.975    0.466    0.290   60.400  220.037
  447.922    6.727    0.498    0.267   61.616  220.557
  448.172    6.336    0.483    0.259   62.772  221.693
  448.422    6.145    0.462    0.244   65.686  223.342
  448.672    6.026    0.470    0.209   71.389  224.991
  448.922    5.976    0.489    0.205   76.062  227.359
  449.172    6.024    0.474    0.194   85.645  230.445
  449.422    6.187    0.448    0.183   89.772  233.019
  449.672    6.448    0.461    0.202   89.837  236.003
  449.922    6.820    0.456    0.217   86.203  237.755
  450.172    7.227    0.443    0.233   77.112  228.624
  450.422    7.461    0.446    0.251   68.688  225.242
  450.672    7.677    0.433    0.268   56.627  223.914
  450.922    7.796    0.423    0.274   46.869  223.922
  451.172    7.904    0.416    0.279   41.719  224.030
  451.422    7.910    0.407    0.288   40.571  223.934
  451.672    7.844    0.393    0.296   38.453  224.044
  451.922    7.720    0.387    0.303   37.669  223.949
  452.172    7.628    0.393    0.292   38.825  223.544
  452.422    7.605    0.407    0.285   41.314  223.551
  452.672    7.513    0.411    0.275   45.199  223.147
  452.922    7.382    0.414    0.281   47.931  222.846
  453.172    7.200    0.393    0.273   46.116  222.441
  453.422    7.008    0.360    0.261   47.151  222.654
  453.672    6.686    0.364    0.246   58.917  223.173
  453.922    6.273    0.419    0.228   67.348  223.589
  454.172    5.985    0.472    0.236   73.719  223.596
  454.422    5.815    0.513    0.230   78.513  223.809
  454.672    5.777    0.510    0.210   82.518  224.227
  454.922    5.781    0.446    0.202   85.008  224.644
  455.172    5.861    0.413    0.212   81.434  225.060
  455.422    6.008    0.406    0.207   81.802  225.477
  455.672    6.102    0.449    0.204   88.597  225.690
  455.922    6.106    0.482    0.201   94.058  225.696
  456.172    5.900    0.519    0.221   91.879  225.497
  456.422    5.405    0.485    0.272   84.364  225.709
  456.672    4.466    0.476    0.270   81.458  226.024
  456.922    3.589    0.524    0.265   87.161  226.647
  457.172    3.038    0.642    0.254   96.624  227.577
  457.422    2.707    0.679    0.233  102.085  228.817
  457.672    2.480    0.683    0.222  106.574  229.849
  457.922    2.327    0.667    0.216  107.548  230.370
  458.172    2.303    0.642    0.187  107.856  230.685
  458.422    2.356    0.656    0.155  108.406  230.794
  458.672    2.493    0.670    0.215  109.501  231.005
  458.922    2.612    0.649    0.203  112.112  230.808
  459.172    2.742    0.642    0.219  114.965  230.812
  459.422    2.878    0.607    0.237  116.485  231.127
  459.672    3.130    0.544    0.247  117.216  232.879
  459.922    3.492    0.527    0.224  116.007  235.966
