~VERSION INFORMATION
 VERS.                 2.0:   CWLS LOG ASCII STANDARD -VERSION 2.0
 WRAP.                  NO:   ONE LINE PER DEPTH STEP
~WELL INFORMATION BLOCK
#MNEM.UNIT           DATA                    DESCRIPTION OF MNEMONIC
#---------    -------------------            -------------------------------
# Generated from Intellog Unique Number	CS_77_79/WELL/3293
WELL.         SCURRY                         : Well_name    - WELL
LOC .         00/06-20-078-02W5/0            : Location     - LOCATION
UWI .         00/06-20-078-02W5/0            : Uwi          - UNIQUE WELL ID
ENTR.         TIM                            : Entered      - ENTERED BY
SRVC.         COMPUTALOG                     : Scn          - SERVICE COMPANY
STRT.M        320.04                         : top_depth    - START DEPTH
STOP.M        573.04                         : bot_depth    - STOP DEPTH
STEP.M        0.25                           : increment    - STEP LENGTH
 NULL. -999.2500:NULL Value
~CURVE INFORMATION BLOCK
#MNEM UNIT       ERCB CURVE CODE    CURVE DESCRIPTION
#-----------   ------------------   ----------------------------------
DEPT.M        00 001 00 00         : DEPTH        - DEPTH
ILD .OHMM     00 120 00 00         : RESD         - DEEP RESISTIVITY (DIL)
GR  .API      00 310 00 00         : GR           - GAMMA RAY
DELT.US/F     00 520 00 00         : DELT         - SONIC TRAVEL TIME
~PARAMETER INFORMATION
#MNEM.UNIT           DATA             DESCRIPTION OF MNEMONIC
#---------         -----------     ------------------------------
GL  .M        641.635              : gl           - GROUND LEVEL ELEVATION
EREF.M        645.262              : kb           - ELEVATION OF DEPTH REFERENCE
DATM.M        645.262              : datum        - DATUM ELEVATION
TDD .M        575.158              : tdd          - TOTAL DEPTH DRILLER
RUN .         ONE                  : Run          - RUN NUMBER
ENG .         BILL                 : Engineer     - RECORDING ENGINEER
WIT .         JIM                  : Witness      - WITNESSED BY
MUD .         GEL                  : Mud_type     - MUD TYPE
MATR.         SANDSTONE            : Logunit      - NEUTRON MATRIX
TMAX.C        27.7778              : BHT          - MAXIMUM RECORDED TEMPERATURE
BHTD.M        573.024              : BHTDEP       - MAXIMUM RECORDED TEMPERATURE
MATR.         1                    : LOGUNIT      - NEUTRON MATRIX
RMT .C        18.8889              : MDTP         - TEMPERATURE OF MUD
NEUT.         1                    : NEUTRON      - NEUTRON TYPE
RESI.         0                    : RESIST       - RESISTIVITY TYPE
RMC .OHMM     4                    : RMC          - RESISTIVITY OF MUD CAKE
RMF .OHMM     13.1                 : RMF          - RESISTIVITY OF MUD FILTRATE
SUFT.C        5                    : SUFT         - SURFACE TEMPERATURE
~A  DEPTH     RESD       GR     DELT
# ...
  374.290   11.482   49.695  414.066
  374.540   11.287   50.856  417.990
  374.790   12.284   52.614  418.662
  375.040   14.872   55.540  305.500
  375.290   16.666   49.063  335.442
  375.540   17.663   39.639  362.788
  375.790   18.462   36.687  381.672
  376.040   18.267   33.144  412.921
  376.290   17.872   32.541  411.641
  376.540   17.082   34.887  379.791
  376.790   16.885   51.339  379.812
  377.040   16.491   48.386  381.135
  377.290   16.296   43.670  364.895
  377.540   17.493   40.127  355.810
  377.790   19.683   38.351  348.037
  378.040   22.271   37.163  348.704
  378.290   24.263   36.566  348.725
  378.540   26.454   35.961  344.839
  378.790   29.042   35.367  331.851
  379.040   31.033   34.764  307.806
  379.290   32.628   34.749  311.730
  379.540   32.432   32.973  324.761
  379.790   30.250   32.964  329.991
  380.040   28.463   32.953  333.915
  380.290   26.677   32.938  320.278
  380.540   25.884   31.750  317.047
  380.790   25.491   31.147  316.423
  381.040   25.493   31.718  312.542
  381.290   25.101   32.297  309.956
  381.540   24.904   32.876  308.027
  381.790   24.711   32.867  308.053
  382.040   24.515   32.262  311.338
  382.290   24.319   32.253  311.999
  382.540   24.122   31.647  311.370
  382.790   23.730   31.638  302.285
  383.040   23.532   32.215  295.802
  383.290   22.939   32.791  311.435
  383.540   21.552   32.776  322.525
  383.790   20.760   32.770  320.595
  384.040   19.570   33.347  319.966
  384.290   18.580   32.153  323.885
  384.540   17.389   32.141  350.580
  384.790   16.199   32.133  375.969
  385.040   14.413   32.706  381.844
  385.290   13.223   33.285  385.123
  385.540   11.637   35.626  372.131
  385.790   10.646   45.020  380.619
  386.040    9.257   46.773  392.343
  386.290    8.068   46.761  407.325
  386.540    6.878   47.925  415.813
  386.790    6.086   53.206  415.184
  387.040    5.493   57.311  413.249
  387.290    4.900   58.475  411.319
  387.540    4.309   60.228  411.346
  387.790    4.113   60.801  412.668
  388.040    3.718   61.377  412.684
  388.290    3.523   63.127  410.115
  388.540    3.525   66.053  407.529
  388.790    3.330   67.811  399.745
  389.040    3.333   71.328  384.156
  389.290    3.338   68.961  354.251
  389.540    3.540   66.600  346.467
  389.790    3.741   70.113  333.480
  390.040    4.143   74.806  263.904
  390.290    4.543   78.323  248.314
  390.540    5.143   80.657  224.264
  390.790    5.943   78.884  211.276
  391.040    6.344   70.055  207.395
  391.290    6.944   63.571  211.330
  391.540    6.948   60.622  218.501
  391.790    6.950   52.962  273.166
  392.040    6.953   48.246  294.652
  392.290    6.758   50.584  335.007
  392.540    5.967   51.751  364.949
  392.790    5.375   54.089  381.237
  393.040    5.178   55.256  389.064
  393.290    4.784   58.773  394.289
  393.540    4.390   87.573  398.213
  393.790    4.194   89.914  401.487
  394.040    3.998   92.254  404.766
  394.290    4.002   93.419  404.793
  394.540    3.807   92.816  404.158
  394.790    3.810   91.043  402.229
  395.040    3.813   88.673  398.998
  395.290    3.817   87.488  394.466
  395.540    3.821   86.882  390.590
  395.790    3.824   86.877  394.520
  396.040    4.226   87.450  398.439
  396.290    4.427   88.029  404.320
  396.540    4.829   88.603  406.287
  396.790    5.430   87.418  401.105
  397.040    6.227   83.874  393.321
  397.290    7.225   80.922  391.397
  397.540    8.024   79.147  390.762
  397.790    8.623   75.018  385.586
  398.040    9.422   68.538  379.103
  398.290    9.823   62.642  366.115
  398.540   10.225   58.517  353.784
  398.790   10.627   51.445  355.101
  399.040   10.830   49.081  358.374
  399.290   11.030   49.067  359.046
  399.540   11.433   49.055  359.073
  399.790   11.435   49.046  359.089
  400.040   11.638   47.858  359.772
  400.290   11.640   45.485  361.089
  400.540   11.445   47.244  361.766
  400.790   11.450   50.172  362.433
  401.040   11.453   49.572  363.105
  401.290   11.456   47.797  363.126
  401.540   11.459   47.782  363.804
  401.790   11.463   47.764  364.476
  402.040   11.466   47.758  364.497
  402.290   11.468   46.568  363.879
  402.540   11.473   45.971  363.890
  402.790   11.477   46.541  361.310
  403.040   11.479   48.297  356.127
  403.290   11.483   48.876  338.587
  403.540   11.288   48.858  355.520
  403.790   11.091   47.667  370.507
  404.040   10.897   47.068  376.388
  404.290   10.900   47.650  376.404
  404.540   10.705   48.226  375.786
  404.790   10.708   47.623  375.802
  405.040   10.314   47.020  375.824
  405.290   10.119   47.012  375.200
  405.540    9.723   46.406  375.872
  405.790    9.530   46.400  375.894
  406.040    9.334   44.624  373.969
  406.290    9.338   44.024  372.679
  406.540    9.341   45.777  370.104
  406.790    9.344   46.350  368.819
  407.040    9.346   46.333  367.556
  407.290    9.351   45.736  368.217
  407.540    9.354   45.724  369.540
  407.790    9.358   44.539  368.916
  408.040    9.360   43.936  367.637
  408.290    9.166   43.927  365.712
  408.540    9.169   44.498  365.072
  408.790    8.974   45.080  363.798
  409.040    8.977   47.415  364.476
  409.290    8.980   47.991  367.744
  409.540    8.984   47.979  373.620
  409.790    8.987   47.968  379.501
  410.040    8.792   46.777  383.419
  410.290    8.596   46.183  390.601
  410.540    8.401   47.347  395.176
  410.790    8.007   49.688  397.149
  411.040    8.010   52.022  388.714
  411.290    7.616   49.661  382.887
  411.540    7.023   52.002  382.253
  411.790    6.827   57.871  381.629
  412.040    6.037   64.325  381.006
  412.290    6.038   68.433  374.517
  412.540    5.843   72.534  308.838
  412.790    5.848   75.466  287.395
  413.040    6.051   78.983  234.074
  413.290    6.251   74.260  211.330
  413.540    7.647   71.311  206.799
  413.790    8.843   68.359  200.966
  414.040   10.437   64.819  230.919
  414.290   12.032   55.986  255.002
  414.540   11.042   50.676  269.338
  414.790   10.248   51.840  294.727
  415.040    8.860   56.533  338.334
  415.290    7.670   61.229  363.073
  415.540    6.679   70.038  368.948
  415.790    6.087   88.839  373.528
  416.040    5.494   88.242  378.103
  416.290    5.100   87.645  381.377
  416.540    5.104   86.454  384.000
  416.790    4.907   86.439  384.672
  417.040    4.712   87.019  383.393
  417.290    4.715   88.183  380.173
  417.540    4.521   89.345  382.145
  417.790    4.524   88.742  386.720
  418.040    4.726   88.733  389.988
  418.290    4.929   89.897  393.262
  418.540    4.932   91.650  395.885
  418.790    4.936   96.343  393.966
  419.040    4.938  102.212  393.343
  419.290    4.941  105.728  394.004
  419.540    4.946  102.770  397.939
  419.790    4.950  102.176  399.901
  420.040    4.953  103.341  400.584
  420.290    4.955  107.443  399.944
  420.540    4.961  108.022  398.675
  420.790    4.765  108.592  398.041
  421.040    4.767  107.995  397.412
  421.290    4.772  105.037  393.531
  421.540    4.775  102.673  389.655
  421.790    4.778  102.079  390.332
  422.040    4.780  100.892  390.994
  422.290    4.784   95.581  392.327
  422.540    4.787   92.044  393.004
  422.790    4.592   93.209  393.676
  423.040    4.596   97.310  393.036
  423.290    4.402   97.887  391.768
  423.540    4.404   96.699  391.128
  423.790    4.408   96.684  389.854
  424.040    4.411   94.320  390.526
  424.290    4.413   93.135  392.504
  424.540    4.419   99.592  393.171
  424.790    4.421  101.345  392.553
  425.040    4.424   99.569  389.316
  425.290    4.427  100.733  386.731
  425.540    4.631  103.662  389.354
  425.790    4.633  104.826  391.332
  426.040    4.637  102.453  392.004
  426.290    4.840  101.859  390.730
  426.540    4.843  100.671  388.795
  426.790    4.846   99.481  387.521
  427.040    4.850   99.469  387.537
  427.290    4.853   98.281  389.515
  427.540    4.856   95.917  391.494
  427.790    4.860   92.377  392.811
  428.040    5.062   90.013  389.585
  428.290    5.066   89.413  385.699
