~VERSION INFORMATION
 VERS.                 2.0:   CWLS LOG ASCII STANDARD -VERSION 2.0
 WRAP.                  NO:   ONE LINE PER DEPTH STEP
~WELL INFORMATION BLOCK
#MNEM.UNIT           DATA                    DESCRIPTION OF MNEMONIC
#---------    -------------------            -------------------------------
# Generated from Intellog Unique Number	CW_76_78/WELL/642
WELL.         07-32-077-22W4                 : Well_name    - WELL
LOC .         00/07-32-077-22W4/0            : Location     - LOCATION
UWI .         00/07-32-077-22W4/0            : Uwi          - UNIQUE WELL ID
ENTR.         jj                             : Entered      - ENTERED BY
SRVC.         WESTERN ATLAS                  : Scn          - SERVICE COMPANY
DATE.         06 MAR 1983                    : Date         - LOG DATE
STRT.M        300                            : top_depth    - START DEPTH
STOP.M        537                            : bot_depth    - STOP DEPTH
STEP.M        0.25                           : increment    - STEP LENGTH
 NULL. -999.2500:NULL Value
~CURVE INFORMATION BLOCK
#MNEM UNIT       ERCB CURVE CODE    CURVE DESCRIPTION
#-----------   ------------------   ----------------------------------
DEPT.M        00 001 00 00         : DEPTH        - DEPTH
ILD .OHMM     00 120 00 00         : RESD         - DEEP RESISTIVITY (DIL)
DPHI.V/V      00 890 00 00         : PHID         - DENSITY POROSITY (SANDSTONE)
NPHI.V/V      00 330 00 00         : PHIN         - NEUTRON POROSITY (SANDSTONE)
GR  .API      00 310 00 00         : GR           - GAMMA RAY
CALI.MM       00 280 01 00         : CAL          - CALIPER
~PARAMETER INFORMATION
#MNEM.UNIT           DATA             DESCRIPTION OF MNEMONIC
#---------         -----------     ------------------------------
GL  .M        630.9                : gl           - GROUND LEVEL ELEVATION
EREF.M        635.4                : kb           - ELEVATION OF DEPTH REFERENCE
DATM.M        630.9                : datum        - DATUM ELEVATION
TDD .M        537                  : tdd          - TOTAL DEPTH DRILLER
RUN .         ONE                  : Run          - RUN NUMBER
ENG .         RUTHERFORD           : Engineer     - RECORDING ENGINEER
WIT .         RAGHER               : Witness      - WITNESSED BY
BASE.         RED DEER             : Branch       - HOME BASE OF LOGGING UNIT
MUD .         GEL CHEM             : Mud_type     - MUD TYPE
MATR.         SANDSTONE            : Logunit      - NEUTRON MATRIX
TMAX.C        27                   : BHT          - MAXIMUM RECORDED TEMPERATURE
BHTD.M        536                  : BHTDEP       - MAXIMUM RECORDED TEMPERATURE
RMT .C        17                   : MDTP         - TEMPERATURE OF MUD
MUDD.KG/M     1055                 : MWT          - MUD DENSITY
NEUT.         1                    : NEUTRON      - NEUTRON TYPE
RESI.         0                    : RESIST       - RESISTIVITY TYPE
RM  .OHMM     0.4                  : RM           - RESISTIVITY OF MUD
RMC .OHMM     0.44                 : RMC          - RESISTIVITY OF MUD CAKE
RMF .OHMM     0.34                 : RMF          - RESISTIVITY OF MUD FILTRATE
SUFT.C        4.5                  : SUFT         - SURFACE TEMPERATURE
~A  DEPTH     RESD     PHID     PHIN       GR      CAL
# ...
  519.000    7.799    0.280    0.347   85.834    6.374
  519.250    8.496    0.278    0.327   78.246    6.360
  519.500    9.396    0.272    0.313   69.909    6.362
  519.750    9.969    0.261    0.322   71.131    6.377
  520.000    9.954    0.247    0.333   75.661    6.375
  520.250    9.516    0.250    0.354   80.694    6.360
  520.500    9.029    0.261    0.385   83.914    6.346
  520.750    8.390    0.275    0.420   88.446    6.319
  521.000    7.767    0.295    0.438  103.099    6.280
  521.250    7.300    0.267    0.430  111.755    6.269
  521.500    7.018    0.229    0.422  116.412    6.284
  521.750    6.760    0.233    0.423  116.822    6.311
  522.000    6.700    0.245    0.402  110.857    6.351
  522.250    6.909    0.253    0.370   99.646    6.366
  522.500    7.385    0.243    0.311   92.993    6.380
  522.750    7.954    0.232    0.330   57.353    6.370
  523.000    9.294    0.220    0.348   55.705    6.323
  523.250   10.318    0.210    0.341   58.983    6.275
  523.500   10.480    0.203    0.313   64.583    6.265
  523.750   10.153    0.203    0.298   65.302    6.242
  524.000    8.947    0.205    0.307   65.270    6.227
  524.250    7.870    0.183    0.349   67.866    6.209
  524.500    7.068    0.137    0.383   77.520    6.182
  524.750    6.445    0.125    0.371   90.862    6.134
  525.000    6.011    0.133    0.336  103.267    6.107
  525.250    5.639    0.147    0.323  101.115    6.089
  525.500    5.401    0.136    0.314   95.525    6.066
  525.750    5.312    0.118    0.309   92.624    6.056
  526.000    5.225    0.115    0.342   95.906    6.129
  526.250    5.139    0.126    0.342  104.249    6.227
  526.500    5.102    0.136    0.332  112.280    6.283
  526.750    5.124    0.151    0.317  115.314    6.315
  527.000    5.234    0.178    0.305  110.847    6.288
  527.250    5.480    0.201    0.298  103.447    6.240
  527.500    5.759    0.224    0.303   99.108    6.218
  527.750    6.345    0.262    0.315   93.892    6.203
  528.000    7.165    0.277    0.328   79.869    6.189
  528.250    7.732    0.275    0.336   68.407    6.179
  528.500    7.973    0.259    0.332   56.258    6.168
  528.750    7.917    0.244    0.320   48.107    6.170
  529.000    7.771    0.231    0.315   50.892    6.248
  529.250    7.673    0.233    0.319   55.988    6.279
  529.500    7.461    0.232    0.328   58.709    6.207
  529.750    7.133    0.224    0.335   60.552    6.134
  530.000    6.742    0.213    0.344   62.149    6.107
  530.250    6.336    0.205    0.351   62.747    6.134
  530.500    5.854    0.202    0.347   62.089    6.174
  530.750    5.298    0.206    0.342   61.500    6.197
  531.000    4.813    0.216    0.335   61.723    6.166
  531.250    4.489    0.225    0.327   62.693    6.114
  531.500    4.267    0.233    0.332   64.599    6.074
  531.750    4.103    0.229    0.341   65.009    6.043
  532.000    3.990    0.229    0.351   65.237    6.008
  532.250    3.902    0.236    0.357   65.329    5.977
  532.500    3.823    0.248    0.354   65.422    5.984
  532.750    3.739    0.261    0.346   65.462    6.027
  533.000    3.622    0.274    0.340   65.427    6.067
  533.250    3.410    0.270    0.340   65.464    6.132
  533.500    3.217    0.257    0.341   65.249    6.122
  533.750    3.059    0.243    0.343   65.154    6.066
  534.000    2.968    0.255    0.346   65.128    5.951
  534.250    2.936    0.280    0.350   64.788    5.745
  534.500    2.921    0.291    0.353   64.946    5.569
  534.750    2.906    0.294    0.354   65.540    5.492
  535.000    2.923    0.297    0.355   65.950    5.440
  535.250    2.941    0.299    0.355   66.170    5.425
  535.500    2.965    0.301    0.355   66.018    5.436
  535.750    2.983    0.304    0.354   65.676    5.459
  536.000    3.019    0.306    0.354   65.710    5.495
  536.250    3.037    0.306    0.354   65.617    5.518
  536.500    3.038    0.305    0.354   65.965    5.545
  536.750    3.005    0.304    0.353   66.503    5.564
  537.000    2.961    0.303    0.353   66.906    5.575
