~VERSION INFORMATION
 VERS.                 2.0:   CWLS LOG ASCII STANDARD -VERSION 2.0
 WRAP.                  NO:   ONE LINE PER DEPTH STEP
~WELL INFORMATION BLOCK
#MNEM.UNIT           DATA                    DESCRIPTION OF MNEMONIC
#---------    -------------------            -------------------------------
# Generated from Intellog Unique Number	CW_82_90/WELL/554
WELL.         PARAMOUNT ET AL GRANOR 07-01   : Well_name    - WELL
LOC .         00/07-01-084-19W4/0            : Location     - LOCATION
UWI .         00/07-01-084-19W400            : Uwi          - UNIQUE WELL ID
ENTR.         JAYE                           : Entered      - ENTERED BY
SRVC.         COMPUTALOG                     : Scn          - SERVICE COMPANY
DATE.         8 MAR 77                       : Date         - LOG DATE
STRT.M        207.264                        : top_depth    - START DEPTH
STOP.M        341.264                        : bot_depth    - STOP DEPTH
STEP.M        0.25                           : increment    - STEP LENGTH
 NULL. -999.2500:NULL Value
~CURVE INFORMATION BLOCK
#MNEM UNIT       ERCB CURVE CODE    CURVE DESCRIPTION
#-----------   ------------------   ----------------------------------
DEPT.M        00 001 00 00         : DEPTH        - DEPTH
CALI.MM       00 280 01 00         : CAL          - CALIPER
GR  .API      00 310 00 00         : GR           - GAMMA RAY
NPHI.V/V      00 330 00 00         : PHIN         - NEUTRON POROSITY (SANDSTONE)
DPHI.V/V      00 890 00 00         : PHID         - DENSITY POROSITY (SANDSTONE)
ILD .OHMM     00 120 00 00         : RESD         - DEEP RESISTIVITY (DLL)
~PARAMETER INFORMATION
#MNEM.UNIT           DATA             DESCRIPTION OF MNEMONIC
#---------         -----------     ------------------------------
GL  .M        579.272              : gl           - GROUND LEVEL ELEVATION
EREF.M        582.32               : kb           - ELEVATION OF DEPTH REFERENCE
DATM.M        579.272              : datum        - DATUM ELEVATION
TDD .M        342.29               : tdd          - TOTAL DEPTH DRILLER
RUN .         ONE                  : Run          - RUN NUMBER
ENG .         KING                 : Engineer     - RECORDING ENGINEER
WIT .         CONNELLY             : Witness      - WITNESSED BY
BASE.         MEDICINE HAT         : Branch       - HOME BASE OF LOGGING UNIT
MUD .         CHEM GEL             : Mud_type     - MUD TYPE
MATR.         SANDSTONE            : Logunit      - NEUTRON MATRIX
TMAX.C        16.6667              : BHT          - MAXIMUM RECORDED TEMPERATURE
BHTD.M        342.29               : BHTDEP       - MAXIMUM RECORDED TEMPERATURE
RMT .C        15.5556              : MDTP         - TEMPERATURE OF MUD
MUDD.KG/M     9500                 : MWT          - MUD DENSITY
NEUT.         0                    : NEUTRON      - NEUTRON TYPE
RESI.         1                    : RESIST       - RESISTIVITY TYPE
RM  .OHMM     4.2                  : RM           - RESISTIVITY OF MUD
RMC .OHMM     0                    : RMC          - RESISTIVITY OF MUD CAKE
RMF .OHMM     3.9                  : RMF          - RESISTIVITY OF MUD FILTRATE
SUFT.C        4                    : SUFT         - SURFACE TEMPERATURE
~A  DEPTH      CAL       GR     PHIN     PHID     RESD
# ...
  280.264  161.737   57.998    0.341    0.212    8.917
  280.514  161.839   54.832    0.315    0.206   10.580
  280.764  161.943   52.535    0.278    0.198   12.957
  281.014  161.941   50.920    0.235    0.207   14.430
  281.264  160.783   47.754    0.150    0.219   15.338
  281.514  159.520   34.906    0.100    0.200   14.965
  281.764  158.782   33.167    0.077    0.126   14.190
  282.014  157.519   40.614    0.121    0.137   13.227
  282.264  156.151   43.901    0.176    0.177   12.181
  282.514  156.044   46.693    0.214    0.261   11.603
  282.764  156.043   43.092    0.254    0.248   11.550
  283.014  156.986   41.105    0.241    0.260   11.793
  283.264  157.929   42.904    0.266    0.276   12.003
  283.514  158.138   43.461    0.282    0.268   11.902
  283.764  157.506   40.853    0.293    0.271   11.611
  284.014  156.453   41.287    0.290    0.275   11.443
  284.264  155.715   44.203    0.296    0.266   11.325
  284.514  155.083   49.290    0.314    0.274   11.026
  284.764  154.976   51.958    0.308    0.253   10.851
  285.014  154.028   54.067    0.305    0.273   10.872
  285.264  154.026   52.203    0.302    0.277   11.107
  285.514  155.285   50.465    0.320    0.264   11.226
  285.764  157.175   49.409    0.329    0.258   11.157
  286.014  157.383   48.228    0.331    0.249   10.949
  286.264  156.435   50.213    0.330    0.235   10.757
  286.514  155.067   50.274    0.329    0.254   10.499
  286.764  155.170   48.473    0.322    0.263   10.504
  287.014  156.324   46.983    0.314    0.266   10.517
  287.264  158.424   47.540    0.305    0.258   10.373
  287.514  159.263   48.221    0.297    0.250   10.223
  287.764  158.735   57.281    0.291    0.229    9.842
  288.014  158.839   63.548    0.296    0.206    8.878
  288.264  161.569   63.981    0.343    0.211    7.775
  288.514  165.035   63.918    0.347    0.207    7.271
  288.764  167.030   63.110    0.339    0.202    7.038
  289.014  166.187   60.130    0.330    0.197    7.010
  289.264  166.185   57.709    0.320    0.196    7.507
  289.514  165.658   56.962    0.313    0.198    8.875
  289.764  163.134   56.589    0.311    0.204    9.774
  290.014  160.189   56.153    0.322    0.201   10.033
  290.264  158.191   56.401    0.309    0.192    9.759
  290.514  157.348   57.703    0.297    0.228    9.328
  290.764  157.661   61.673    0.289    0.228    9.038
  291.014  158.710   68.747    0.349    0.214    8.632
  291.264  160.914   68.932    0.371    0.217    8.333
  291.514  161.648   70.545    0.374    0.208    8.051
  291.764  163.538   73.833    0.381    0.207    7.785
  292.014  165.322   73.335    0.371    0.214    7.585
  292.264  165.216   71.782    0.366    0.209    7.516
  292.514  164.688   69.671    0.364    0.210    7.487
  292.764  164.896   67.436    0.367    0.207    7.509
  293.014  165.000   66.255    0.379    0.204    7.620
  293.264  165.418   68.923    0.371    0.200    7.732
  293.514  165.416   63.523    0.361    0.195    7.876
  293.764  165.414   68.362    0.359    0.190    7.955
  294.014  165.097   72.705    0.358    0.191    7.911
  294.264  164.779   73.635    0.360    0.192    7.776
  294.514  164.462   73.199    0.373    0.188    7.576
  294.764  164.040   71.647    0.378    0.186    7.359
  295.014  163.723   71.770    0.372    0.188    7.159
  295.264  163.511   75.492    0.369    0.186    7.024
  295.514  163.088   76.980    0.365    0.181    7.029
  295.764  162.666   71.704    0.358    0.176    7.099
  296.014  162.349   73.751    0.356    0.170    7.080
  296.264  162.031   81.694    0.368    0.189    6.936
  296.514  161.714   84.299    0.361    0.201    6.703
  296.764  161.607   73.437    0.354    0.202    6.520
  297.014  161.710   74.615    0.362    0.199    6.400
  297.264  161.498   74.118    0.345    0.196    6.529
  297.514  160.970   76.040    0.323    0.179    7.158
  297.764  160.548   69.771    0.310    0.153    8.344
  298.014  160.231   61.206    0.288    0.139    9.276
  298.264  159.704   64.307    0.261    0.152   10.118
  298.514  159.387   67.409    0.235    0.171   11.559
  298.764  159.175   61.450    0.191    0.171   12.590
  299.014  159.383   57.477    0.146    0.129   12.373
  299.264  159.486   60.641    0.121    0.098   11.623
  299.514  160.009   64.984    0.064    0.124   11.037
  299.764  160.533   77.395    0.325    0.164   10.090
  300.014  160.741   67.154    0.315    0.183    9.824
  300.264  158.112   60.450    0.290    0.187    9.829
  300.514  156.849   66.097    0.268    0.201   10.047
  300.764  156.742   74.287    0.283    0.205   10.405
  301.014  157.055   69.880    0.309    0.211   10.746
  301.264  157.053   66.528    0.296    0.222   10.972
  301.514  157.472   64.292    0.301    0.236   11.075
  301.764  157.470   61.871    0.292    0.243   11.105
  302.014  157.468   54.547    0.274    0.246   11.200
  302.264  157.571   49.828    0.261    0.245   11.345
  302.514  157.463   48.214    0.294    0.234   11.767
  302.764  156.936   48.275    0.285    0.223   11.970
  303.014  156.829   49.515    0.278    0.245   11.892
  303.264  157.773   52.120    0.278    0.265   11.626
  303.514  159.347   59.132    0.300    0.248   11.319
  303.764  160.291   58.820    0.287    0.210   11.144
  304.014  159.764   49.448    0.282    0.215   10.894
  304.264  159.342   48.330    0.289    0.218   10.586
  304.514  159.130   46.095    0.304    0.255   10.469
  304.764  159.968   44.790    0.289    0.246   10.433
  305.014  160.072   44.355    0.273    0.228   10.520
  305.264  160.490   47.270    0.249    0.208   10.746
  305.514  160.803   50.372    0.229    0.185   10.972
  305.764  159.750   50.123    0.209    0.155   11.010
  306.014  158.277   45.033    0.186    0.130   10.932
  306.264  157.854   48.693    0.204    0.126   10.831
  306.514  157.852   49.188    0.267    0.212   10.474
  306.764  157.535   48.877    0.279    0.220   10.135
  307.014  157.218   49.248    0.277    0.234   10.032
  307.264  157.006   50.798    0.280    0.235   10.021
  307.514  156.794   57.003    0.279    0.237   10.125
  307.764  157.423   52.658    0.273    0.244   10.334
  308.014  157.946   50.609    0.262    0.250   10.421
  308.264  158.154   52.407    0.257    0.246   10.410
  308.514  159.518   52.965    0.272    0.229   10.242
  308.764  160.883   52.343    0.282    0.222    9.993
  309.014  162.772   51.287    0.284    0.215    9.579
  309.264  164.557   49.486    0.292    0.221    9.198
  309.514  165.816   53.022    0.291    0.207    8.899
  309.764  166.444   55.628    0.284    0.198    8.675
  310.014  167.703   58.730    0.280    0.201    8.515
  310.264  168.437   59.535    0.299    0.203    8.372
  310.514  168.225   56.927    0.299    0.198    8.369
  310.764  167.487   56.492    0.295    0.216    8.455
  311.014  167.170   63.193    0.296    0.221    8.477
  311.264  167.168   63.378    0.318    0.219    8.482
  311.514  167.271   59.840    0.320    0.208    8.429
  311.764  166.954   50.902    0.313    0.202    8.327
  312.014  167.057   49.473    0.307    0.199    8.275
  312.264  166.845   52.947    0.300    0.194    8.132
  312.514  166.948   61.076    0.301    0.193    8.013
  312.764  167.367   62.999    0.321    0.201    7.879
  313.014  167.470   62.315    0.326    0.203    7.711
  313.264  167.258   62.500    0.328    0.203    7.437
  313.514  165.784   62.871    0.331    0.192    7.122
  313.764  165.467   63.242    0.335    0.188    6.880
  314.014  165.045   64.296    0.338    0.182    6.672
  314.264  164.938   70.005    0.338    0.175    6.381
  314.514  164.936   69.011    0.335    0.122    6.058
  314.764  164.513   73.106    0.328    0.097    5.849
  315.014  164.091   80.179    0.313    0.099    5.657
  315.264  163.774   78.006    0.323    0.153    5.433
  315.514  163.352   80.549    0.333    0.193    5.256
  315.764  162.929   85.761    0.334    0.200    5.163
  316.014  162.612   86.194    0.320    0.198    5.102
  316.264  161.875   83.835    0.306    0.188    5.460
  316.514  161.242   71.173    0.299    0.173    6.285
