~VERSION INFORMATION
 VERS.                 2.0:   CWLS LOG ASCII STANDARD -VERSION 2.0
 WRAP.                  NO:   ONE LINE PER DEPTH STEP
~WELL INFORMATION BLOCK
#MNEM.UNIT           DATA                    DESCRIPTION OF MNEMONIC
#---------    -------------------            -------------------------------
# Generated from Intellog Unique Number	CW_70_72/WELL/620
NULL.         -999.25                        : NULL_VALUE
WELL.         SUNDANCE ET AL CALLS 06-11     : Well_name    - WELL              
LOC .         06-11-071-22W4                 : Location     - LOCATION          
UWI .         00/06-11-071-22W4/0            : Uwi          - UNIQUE WELL ID    
ENTR.         JAYE                           : Entered      - ENTERED BY        
SRVC.         SCHLUMBERGER                   : Scn          - SERVICE COMPANY   
DATE.         4 FEB 71                       : Date         - LOG DATE          
STRT.M        402.336                        : top_depth    - START DEPTH       
STOP.M        647.336                        : bot_depth    - STOP DEPTH        
STEP.M        0.25                           : increment    - STEP LENGTH       
~CURVE INFORMATION BLOCK
#MNEM UNIT       ERCB CURVE CODE    CURVE DESCRIPTION
#-----------   ------------------   ----------------------------------
DEPT.M        00 001 00 00         : DEPTH        - DEPTH                       
DPHI.V/V      00 890 00 00         : PHID         - DENSITY POROSITY (SANDSTONE)
NPHI.V/V      00 330 00 00         : PHIN         - NEUTRON POROSITY (SANDSTONE)
GR  .API      00 310 00 00         : GR           - GAMMA RAY                   
CALI.IN       00 280 01 00         : CAL          - CALIPER                     
ILD .OHMM     00 120 00 00         : RESD         - DEEP RESISTIVITY (DIL)      
~PARAMETER INFORMATION       
#MNEM.UNIT           DATA             DESCRIPTION OF MNEMONIC
#---------         -----------     ------------------------------
GL  .F        2232.5               : gl           - GROUND LEVEL ELEVATION      
EREF.F        2245                 : kb           - ELEVATION OF DEPTH REFERENCE
DATM.F        2232.5               : datum        - DATUM ELEVATION             
TDD .F        2156                 : tdd          - TOTAL DEPTH DRILLER         
RUN .         ONE                  : Run          - RUN NUMBER                  
ENG .         LANGTON/WILLIAMS     : Engineer     - RECORDING ENGINEER          
WIT .         GREENE               : Witness      - WITNESSED BY                
BASE.         EDM                  : Branch       - HOME BASE OF LOGGING UNIT   
MATR.         SANDSTONE            : Logunit      - NEUTRON MATRIX              
TMAX.C        24.4444              : BHT          - MAXIMUM RECORDED TEMPERATURE
BHTD.M        649.224              : BHTDEP       - MAXIMUM RECORDED TEMPERATURE
RMT .C        -17.7778             : MDTP         - TEMPERATURE OF MUD          
MUDD.KG/M     960                  : MWT          - MUD DENSITY                 
NEUT.         1                    : NEUTRON      - NEUTRON TYPE                
RESI.         0                    : RESIST       - RESISTIVITY TYPE            
RM  .OHMM     0                    : RM           - RESISTIVITY OF MUD          
RMC .OHMM     0                    : RMC          - RESISTIVITY OF MUD CAKE     
RMF .OHMM     0                    : RMF          - RESISTIVITY OF MUD FILTRATE 
SUFT.C        0                    : SUFT         - SURFACE TEMPERATURE         
~A  DEPTH     PHID     PHIN       GR      CAL     RESD
# ...
  548.336    0.312    0.450   60.988    6.946    3.346
  548.586    0.318    0.469   62.263    6.925    3.456
  548.836    0.332    0.494   64.215    6.739    3.630
  549.086    0.318    0.496   65.027    6.725    3.577
  549.336    0.291    0.419   61.947    6.734    3.394
  549.586    0.269    0.396   60.935    6.740    3.540
  549.836    0.270    0.383   61.685    6.769    3.996
  550.086    0.346    0.410   62.866    6.807    4.534
  550.336    0.360    0.462   64.466    6.776    5.108
  550.586    0.353    0.510   67.039    6.616    5.262
  550.836    0.347    0.500   69.799    6.641    4.811
  551.086    0.336    0.487   71.704    6.776    4.274
  551.336    0.304    0.488   75.982    6.851    4.054
  551.586    0.283    0.500   80.382    6.897    4.048
  551.836    0.272    0.503   84.844    6.914    3.971
  552.086    0.268    0.500   84.377    6.916    3.898
  552.336    0.263    0.491   82.272    6.901    3.837
  552.586    0.259    0.482   81.443    6.890    3.795
  552.836    0.256    0.470   83.164    6.892    3.776
  553.086    0.252    0.466   83.672    6.905    3.762
  553.336    0.249    0.469   83.389    6.927    3.725
  553.586    0.249    0.484   82.986    6.978    3.724
  553.836    0.265    0.511   82.702    7.027    3.719
  554.086    0.291    0.532   84.001    7.081    3.713
  554.336    0.360    0.549   87.064    7.164    3.679
  554.586    0.542    0.580   83.862    7.299    3.634
  554.836    0.606    0.597   80.965    7.592    3.562
  555.086    0.609    0.609   80.684    8.145    3.229
  555.336    0.592    0.599   83.930    9.002    2.686
  555.586    0.536    0.515   87.780    7.633    2.389
  555.836    0.239    0.486   90.110    7.225    2.119
  556.086    0.215    0.444   91.165    7.040    2.131
  556.336    0.203    0.422   89.914    6.786    2.564
  556.586    0.200    0.415   88.897    6.642    3.486
  556.836    0.204    0.408   89.771    6.554    4.007
  557.086    0.208    0.404   93.017    6.503    4.368
  557.336    0.196    0.410   95.408    6.460    4.558
  557.586    0.184    0.415   94.155    6.453    4.651
  557.836    0.188    0.419   93.505    6.450    4.678
  558.086    0.193    0.424   94.320    6.468    4.767
  558.336    0.197    0.428   95.009    6.482    4.836
  558.586    0.218    0.434   95.884    6.495    4.892
  558.836    0.226    0.440   95.903    6.513    4.928
  559.086    0.228    0.444   95.559    6.555    5.040
  559.336    0.225    0.449   94.061    6.580    5.125
  559.586    0.219    0.454   91.709    6.631    5.155
  559.836    0.208    0.454   87.903    6.668    5.064
  560.086    0.202    0.436   85.671    6.710    4.963
  560.336    0.209    0.418   85.693    6.724    4.779
  560.586    0.209    0.404   88.086    6.717    4.781
  560.836    0.207    0.393   90.358    6.707    4.851
  561.086    0.203    0.394   93.301    6.708    4.989
  561.336    0.200    0.409   94.839    6.722    5.073
  561.586    0.195    0.424   93.585    6.739    5.076
  561.836    0.189    0.437   91.967    6.737    5.047
  562.086    0.199    0.436   92.658    6.734    5.030
  562.336    0.208    0.438   94.075    6.731    4.967
  562.586    0.216    0.449   95.189    6.733    4.891
  562.836    0.220    0.444   95.212    6.738    4.866
  563.086    0.220    0.432   94.626    6.752    4.875
  563.336    0.216    0.415   93.492    6.757    4.885
  563.586    0.205    0.408   91.629    6.759    4.931
  563.836    0.212    0.427   90.189    6.764    4.978
  564.086    0.220    0.434   90.636    6.766    4.979
  564.336    0.220    0.431   92.483    6.763    4.981
  564.586    0.215    0.420   93.904    6.753    4.954
  564.836    0.207    0.411   95.140    6.742    4.919
  565.086    0.204    0.410   96.621    6.743    4.868
  565.336    0.215    0.415   96.519    6.761    4.816
  565.586    0.213    0.419   93.623    6.799    4.756
  565.836    0.208    0.414   91.517    6.832    4.696
  566.086    0.203    0.414   90.504    6.668    4.620
  566.336    0.197    0.412   89.555    6.150    4.571
  566.586    0.203    0.412   89.270    6.204    4.507
  566.836    0.211    0.410   89.478    6.676    4.483
  567.086    0.213    0.421   89.616    6.742    4.469
  567.336    0.215    0.432   89.458    6.740    4.469
  567.586    0.216    0.429   87.592    6.717    4.462
  567.836    0.216    0.416   84.330    6.706    4.507
  568.086    0.215    0.407   80.583    6.704    4.506
  568.336    0.212    0.410   80.725    6.705    4.475
  568.586    0.207    0.419   82.570    6.682    4.460
  568.836    0.203    0.432   81.621    6.679    4.404
  569.086    0.199    0.437   80.972    6.657    4.398
  569.336    0.200    0.437   81.358    6.654    4.398
  569.586    0.204    0.434   83.630    6.655    4.408
  569.836    0.209    0.437   85.779    6.632    4.515
  570.086    0.218    0.446   81.240    6.597    4.634
  570.336    0.212    0.448   74.452    6.578    4.332
  570.586    0.201    0.428   68.088    6.572    3.723
  570.836    0.185    0.383   60.447    6.581    3.545
  571.086    0.192    0.360   54.205    6.595    3.693
  571.336    0.207    0.367   54.533    6.621    3.874
  571.586    0.244    0.389   56.563    6.634    4.123
  571.836    0.231    0.414   58.528    6.644    4.526
  572.086    0.221    0.396   59.705    6.649    5.024
  572.336    0.234    0.377   60.395    6.647    5.330
  572.586    0.260    0.388   60.661    6.652    5.225
  572.836    0.264    0.416   60.437    6.649    5.019
  573.086    0.266    0.434   59.182    6.647    4.524
  573.336    0.273    0.431   57.804    6.632    4.206
  573.586    0.272    0.420   56.855    6.617    3.998
  573.836    0.269    0.410   56.450    6.619    3.856
  574.086    0.263    0.402   56.532    6.637    3.773
  574.336    0.257    0.397   57.345    6.658    3.726
  574.586    0.249    0.390   58.276    6.684    3.782
  574.836    0.242    0.385   60.244    6.718    3.874
  575.086    0.234    0.388   61.727    6.731    4.027
  575.336    0.224    0.388   62.051    6.554    4.186
  575.586    0.234    0.382   61.584    6.418    4.327
  575.836    0.250    0.385   60.876    6.318    4.336
  576.086    0.264    0.397   62.236    6.238    4.145
  576.336    0.270    0.404   63.293    6.171    3.989
  576.586    0.251    0.390   60.820    6.209    3.939
  576.836    0.231    0.369   57.255    6.320    4.096
  577.086    0.217    0.350   55.388    6.536    4.488
  577.336    0.170    0.304   52.494    6.768    5.196
  577.586    0.168    0.288   50.202    6.847    6.040
  577.836    0.175    0.309   47.366    6.873    6.582
  578.086    0.173    0.334   52.190    6.874    7.254
  578.336    0.173    0.340   59.388    6.880    7.878
  578.586    0.182    0.340   61.417    6.881    7.101
  578.836    0.196    0.343   61.256    6.878    6.283
  579.086    0.214    0.345   61.096    6.880    5.604
  579.336    0.218    0.351   61.059    6.881    5.229
  579.586    0.224    0.360   62.353    6.879    4.915
  579.836    0.237    0.371   64.624    6.860    4.587
  580.086    0.242    0.379   65.862    6.825    4.257
  580.336    0.235    0.390   68.680    6.790    4.023
  580.586    0.229    0.396   67.853    6.795    3.844
  580.836    0.234    0.404   66.901    6.809    3.700
  581.086    0.247    0.408   70.023    6.831    3.667
  581.336    0.243    0.405   75.212    6.840    3.791
  581.586    0.239    0.409   82.895    6.854    3.955
  581.836    0.231    0.416   90.456    6.875    4.074
  582.086    0.221    0.424   98.446    6.925    3.980
  582.336    0.208    0.441  101.080    7.032    3.838
  582.586    0.234    0.457   98.245    7.151    3.655
  582.836    0.238    0.472   97.415    7.254    3.556
  583.086    0.229    0.484   97.620    7.324    3.493
  583.336    0.226    0.487   98.673    7.435    3.482
  583.586    0.239    0.493  100.032    7.619    3.528
  583.836    0.248    0.503  102.243    7.904    3.573
  584.086    0.255    0.512   98.861    7.691    3.642
  584.336    0.265    0.464   95.657    7.100    3.697
  584.586    0.182    0.433   96.531    6.810    3.730
