~VERSION INFORMATION
 VERS.                 2.0:   CWLS LOG ASCII STANDARD -VERSION 2.0
 WRAP.                  NO:   ONE LINE PER DEPTH STEP
~WELL INFORMATION BLOCK
#MNEM.UNIT           DATA                    DESCRIPTION OF MNEMONIC
#---------    -------------------            -------------------------------
# Generated from Intellog Unique Number	CW_73_75/WELL/637
WELL.         MANNVILL MESA MITSKE 07-01     : Well_name    - WELL
LOC .         00/07-01-074-03W5/0            : Location     - LOCATION
UWI .         00/07-01-074-03W5/0            : Uwi          - UNIQUE WELL ID
ENTR.         JAYE                           : Entered      - ENTERED BY
SRVC.         SCHLUMBERGER                   : Scn          - SERVICE COMPANY
DATE.         1 MAR 79                       : Date         - LOG DATE
STRT.M        440                            : top_depth    - START DEPTH
STOP.M        675                            : bot_depth    - STOP DEPTH
STEP.M        0.25                           : increment    - STEP LENGTH
 NULL. -999.2500:NULL Value
~CURVE INFORMATION BLOCK
#MNEM UNIT       ERCB CURVE CODE    CURVE DESCRIPTION
#-----------   ------------------   ----------------------------------
DEPT.M        00 001 00 00         : DEPTH        - DEPTH
ILD .OHMM     00 120 00 00         : RESD         - DEEP RESISTIVITY (DIL)
NPHI.V/V      00 330 00 00         : PHIN         - NEUTRON POROSITY (SANDSTONE)
DPHI.V/V      00 890 00 00         : PHID         - DENSITY POROSITY (SANDSTONE)
CALI.MM       00 280 01 00         : CAL          - CALIPER
GR  .API      00 310 00 00         : GR           - GAMMA RAY
~PARAMETER INFORMATION
#MNEM.UNIT           DATA             DESCRIPTION OF MNEMONIC
#---------         -----------     ------------------------------
GL  .M        685.4                : gl           - GROUND LEVEL ELEVATION
EREF.M        688.4                : kb           - ELEVATION OF DEPTH REFERENCE
DATM.M        685.4                : datum        - DATUM ELEVATION
TDD .M        675                  : tdd          - TOTAL DEPTH DRILLER
RUN .         ONE                  : Run          - RUN NUMBER
ENG .         KESTER               : Engineer     - RECORDING ENGINEER
WIT .         MURYNKA              : Witness      - WITNESSED BY
BASE.         EDM                  : Branch       - HOME BASE OF LOGGING UNIT
MUD .         GEL GELEX            : Mud_type     - MUD TYPE
MATR.         SANDSTONE            : Logunit      - NEUTRON MATRIX
TMAX.C        17.5                 : BHT          - MAXIMUM RECORDED TEMPERATURE
BHTD.M        674                  : BHTDEP       - MAXIMUM RECORDED TEMPERATURE
RMT .C        16.7                 : MDTP         - TEMPERATURE OF MUD
MUDD.KG/M     1110                 : MWT          - MUD DENSITY
NEUT.         1                    : NEUTRON      - NEUTRON TYPE
RESI.         0                    : RESIST       - RESISTIVITY TYPE
RM  .OHMM     4.07                 : RM           - RESISTIVITY OF MUD
RMC .OHMM     0                    : RMC          - RESISTIVITY OF MUD CAKE
RMF .OHMM     4.68                 : RMF          - RESISTIVITY OF MUD FILTRATE
SUFT.C        0                    : SUFT         - SURFACE TEMPERATURE
~A  DEPTH     RESD     PHIN     PHID      CAL       GR
  440.000    2.271    0.511    0.179  181.592    0.000
  440.250    2.278    0.530    0.183  183.447   99.921
  440.500    2.286    0.546    0.194  185.613  108.962
  440.750    2.294    0.557    0.173  187.365  106.330
  441.000    2.297    0.550    0.173  189.637  106.070
  441.250    2.331    0.538    0.164  191.181  108.869
  441.500    2.370    0.534    0.173  191.891  109.045
  441.750    2.401    0.521    0.177  191.768  110.346
  442.000    2.414    0.510    0.178  191.024  111.022
  442.250    2.417    0.504    0.186  188.404  110.574
  442.500    2.389    0.505    0.196  186.100  109.066
  442.750    2.344    0.508    0.205  184.106  107.558
  443.000    2.326    0.518    0.186  183.566  106.673
  443.250    2.317    0.536    0.194  182.822  106.039
  443.500    2.321    0.555    0.193  182.390  105.778
  443.750    2.355    0.555    0.189  181.122  104.207
  444.000    2.486    0.521    0.171  179.753  102.636
  444.250    2.697    0.499    0.174  177.343   99.006
  444.500    3.113    0.484    0.181  173.581   95.250
  444.750    3.668    0.465    0.206  170.754   90.309
  445.000    4.011    0.420    0.212  168.136   83.932
  445.250    4.101    0.420    0.216  165.206   83.297
  445.500    3.913    0.432    0.225  154.787   86.221
  445.750    3.603    0.451    0.211  152.894   90.704
  446.000    3.305    0.469    0.184  155.791   92.255
  446.250    3.027    0.500    0.202  158.999   90.995
  446.500    3.112    0.520    0.196  161.789   89.860
  446.750    3.302    0.479    0.197  163.230   90.724
  447.000    3.479    0.457    0.184  164.461   88.779
  447.250    3.685    0.412    0.222  165.588   84.712
  447.500    3.940    0.426    0.203  159.744   87.511
  447.750    4.181    0.480    0.204  161.287   90.559
  448.000    4.164    0.491    0.216  163.247   76.378
  448.250    4.034    0.478    0.233  163.125   67.880
  448.500    3.958    0.469    0.269  161.026   70.802
  448.750    3.905    0.479    0.249  161.114   80.343
  449.000    3.867    0.491    0.213  162.657   79.519
  449.250    3.874    0.503    0.230  164.304   75.640
  449.500    3.865    0.472    0.247  163.871   70.573
  449.750    3.807    0.434    0.231  161.876   72.247
  450.000    3.749    0.450    0.227  161.132   74.985
  450.250    3.558    0.457    0.232  159.968   81.341
  450.500    3.337    0.464    0.218  159.119   87.011
  450.750    3.102    0.474    0.206  158.791   91.993
  451.000    2.841    0.486    0.208  163.038   94.480
  451.250    2.602    0.503    0.197  168.222   95.843
  451.500    2.496    0.524    0.187  173.405   96.769
  451.750    2.426    0.554    0.197  177.756   96.508
  452.000    2.494    0.568    0.198  180.655   94.688
  452.250    2.617    0.573    0.232  183.446   90.495
  452.500    2.809    0.549    0.270  183.324   83.993
  452.750    3.135    0.468    0.268  177.170   74.931
  453.000    3.546    0.426    0.259  161.028   67.120
  453.250    3.965    0.443    0.233  157.887   68.108
  453.500    4.130    0.461    0.256  156.725   69.221
  453.750    4.294    0.473    0.268  155.253   66.027
  454.000    4.600    0.466    0.254  152.321   64.080
  454.250    4.918    0.446    0.271  151.158   63.320
  454.500    5.104    0.414    0.278  151.351   62.438
  454.750    5.055    0.358    0.144  153.307   57.809
  455.000    4.760    0.307    0.091  154.125   55.799
  455.250    4.425    0.382    0.132  155.564   57.474
  455.500    4.151    0.421    0.199  155.651   60.212
  455.750    3.910    0.452    0.265  155.218   65.007
  456.000    3.779    0.441    0.278  154.265   69.366
  456.250    3.674    0.450    0.272  152.478   74.037
  456.500    3.598    0.471    0.250  150.485   76.649
  456.750    3.517    0.479    0.263  149.323   78.074
  457.000    3.438    0.462    0.251  148.993   79.748
  457.250    3.349    0.473    0.242  149.600   83.670
  457.500    3.316    0.485    0.228  154.159   89.900
  457.750    3.272    0.520    0.162  160.592   94.573
  458.000    3.277    0.534    0.201  165.050   99.368
  458.250    3.344    0.491    0.212  168.046  104.976
  458.500    3.426    0.459    0.184  168.343  112.268
  458.750    3.629    0.453    0.186  167.078  112.196
  459.000    3.851    0.462    0.203  166.120  104.882
  459.250    4.034    0.461    0.198  166.523   99.192
  459.500    4.132    0.463    0.194  166.817   92.751
  459.750    4.130    0.474    0.214  166.072   85.439
  460.000    4.098    0.474    0.210  164.180   75.629
  460.250    4.029    0.465    0.201  162.603   65.132
  460.500    3.938    0.434    0.221  160.610   55.197
  460.750    3.800    0.429    0.256  157.055   48.882
  461.000    3.701    0.427    0.271  154.541   48.061
  461.250    3.632    0.427    0.259  153.588   48.611
  461.500    3.597    0.427    0.272  153.777   48.664
  461.750    3.582    0.428    0.280  155.113   48.964
  462.000    3.581    0.431    0.288  156.135   50.141
  462.250    3.600    0.437    0.276  156.535   57.246
  462.500    3.633    0.450    0.262  156.101   59.670
  462.750    3.652    0.460    0.239  155.875   55.975
  463.000    3.687    0.458    0.264  155.546   53.906
  463.250    3.692    0.450    0.282  155.526   53.023
  463.500    3.704    0.443    0.272  155.406   53.636
  463.750    3.710    0.435    0.270  155.284   55.061
  464.000    3.744    0.431    0.278  154.957   55.862
  464.250    3.750    0.450    0.269  154.940   56.788
  464.500    3.741    0.467    0.283  155.443   56.716
  464.750    3.727    0.476    0.303  156.564   55.144
  465.000    3.733    0.463    0.293  157.071   53.573
  465.250    3.746    0.448    0.281  157.783   54.874
  465.500    3.766    0.417    0.292  157.766   58.484
  465.750    3.799    0.409    0.304  156.707   61.719
  466.000    3.834    0.416    0.300  155.650   63.332
  466.250    3.862    0.428    0.276  155.318   63.819
  466.500    3.896    0.429    0.279  155.823   63.997
  466.750    3.903    0.427    0.287  157.364   64.486
  467.000    3.880    0.434    0.272  157.764   66.411
  467.250    3.835    0.440    0.266  156.916   70.020
  467.500    3.791    0.433    0.275  157.210   78.999
  467.750    3.645    0.431    0.243  159.481   91.410
  468.000    3.497    0.442    0.224  161.962  115.493
  468.250    3.287    0.476    0.177  166.521  124.970
  468.500    3.090    0.499    0.173  174.306  127.831
  468.750    2.948    0.491    0.148  180.427  124.075
  469.000    2.986    0.488    0.146  182.489  121.318
  469.250    3.087    0.478    0.151  183.201  119.996
  469.500    3.270    0.443    0.173  177.149  117.803
  469.750    3.616    0.377    0.155  175.362  106.245
  470.000    3.866    0.369    0.168  170.352   89.194
  470.250    3.960    0.380    0.210  164.925   76.388
  470.500    3.981    0.396    0.240  159.707   71.072
  470.750    3.966    0.423    0.244  154.800   76.054
  471.000    3.949    0.439    0.226  157.798   83.410
  471.250    3.883    0.430    0.196  160.176   81.215
  471.500    3.816    0.410    0.240  159.430   71.591
  471.750    3.738    0.385    0.268  157.540   58.910
  472.000    3.655    0.376    0.280  156.271   53.094
  472.250    3.592    0.366    0.266  156.983   56.205
  472.500    3.512    0.372    0.265  159.047   70.239
  472.750    3.478    0.404    0.260  160.278   89.578
  473.000    3.451    0.443    0.169  161.613  106.172
  473.250    3.489    0.463    0.169  162.428  106.973
  473.500    3.587    0.444    0.209  161.162  105.589
  473.750    3.694    0.437    0.216  158.751  104.079
  474.000    3.820    0.439    0.190  157.069  101.636
  474.250    3.897    0.446    0.192  157.054   99.378
  474.500    3.911    0.468    0.190  158.907   96.869
  474.750    3.896    0.489    0.227  160.140   96.299
  475.000    3.858    0.464    0.248  157.106   99.347
  475.250    3.729    0.442    0.242  153.968  105.516
  475.500    3.578    0.461    0.185  160.086  113.432
  475.750    3.301    0.522    0.156  165.271  117.479
  476.000    2.743    0.549    0.153  168.687  120.340
  476.250    2.474    0.567    0.164  168.980  124.699
