~VERSION INFORMATION
 VERS.                 2.0:   CWLS LOG ASCII STANDARD -VERSION 2.0
 WRAP.                  NO:   ONE LINE PER DEPTH STEP
~WELL INFORMATION BLOCK
#MNEM.UNIT           DATA                    DESCRIPTION OF MNEMONIC
#---------    -------------------            -------------------------------
# Generated from Intellog Unique Number	CS_69_70/WELL/810
WELL.         HUSKY OIL OPERATIONS           : Well_name    - WELL
LOC .         00/06-36-069-06W4/0            : Location     - LOCATION
UWI .         00/06-36-069-06W4/0            : Uwi          - UNIQUE WELL ID
ENTR.         SP                             : Entered      - ENTERED BY
SRVC.         SCHLUMBERGER                   : Scn          - SERVICE COMPANY
STRT.M        340                            : top_depth    - START DEPTH
STOP.M        585                            : bot_depth    - STOP DEPTH
STEP.M        0.25                           : increment    - STEP LENGTH
 NULL. -999.2500:NULL Value
~CURVE INFORMATION BLOCK
#MNEM UNIT       ERCB CURVE CODE    CURVE DESCRIPTION
#-----------   ------------------   ----------------------------------
DEPT.M        00 001 00 00         : DEPTH        - DEPTH
ILD .OHMM     00 120 00 00         : RESD         - DEEP RESISTIVITY (DIL)
DPHI.V/V      00 890 00 00         : PHID         - DENSITY POROSITY (LIMESTONE)
NPHI.V/V      00 330 00 00         : PHIN         - NEUTRON POROSITY (LIMESTONE)
GR  .API      00 310 00 00         : GR           - GAMMA RAY
~PARAMETER INFORMATION
#MNEM.UNIT           DATA             DESCRIPTION OF MNEMONIC
#---------         -----------     ------------------------------
GL  .M        692.4                : gl           - GROUND LEVEL ELEVATION
EREF.M        696                  : kb           - ELEVATION OF DEPTH REFERENCE
DATM.M        692.4                : datum        - DATUM ELEVATION
TDD .M        592                  : tdd          - TOTAL DEPTH DRILLER
RUN .         ONE                  : Run          - RUN NUMBER
ENG .         BILL                 : Engineer     - RECORDING ENGINEER
WIT .         JIM                  : Witness      - WITNESSED BY
MUD .         GEL                  : Mud_type     - MUD TYPE
MATR.         LIMESTONE            : Logunit      - NEUTRON MATRIX
TMAX.C        25                   : BHT          - MAXIMUM RECORDED TEMPERATURE
BHTD.M        592                  : BHTDEP       - MAXIMUM RECORDED TEMPERATURE
MATR.         1                    : LOGUNIT      - NEUTRON MATRIX
RMT .C        25                   : MDTP         - TEMPERATURE OF MUD
NEUT.         1                    : NEUTRON      - NEUTRON TYPE
RESI.         0                    : RESIST       - RESISTIVITY TYPE
RMC .OHMM     0.25                 : RMC          - RESISTIVITY OF MUD CAKE
RMF .OHMM     0.25                 : RMF          - RESISTIVITY OF MUD FILTRATE
SUFT.C        15                   : SUFT         - SURFACE TEMPERATURE
~A  DEPTH     RESD     PHID     PHIN       GR
# ...
  427.000    4.406    0.315    0.485   72.120
  427.250    4.151    0.323    0.471   75.461
  427.500    3.767    0.313    0.463   79.771
  427.750    3.497    0.308    0.474   86.503
  428.000    3.288    0.305    0.500   97.293
  428.250    3.035    0.304    0.530  104.631
  428.500    2.865    0.304    0.560  100.887
  428.750    2.704    0.305    0.582   98.958
  429.000    2.596    0.307    0.571   97.335
  429.250    2.540    0.314    0.551   98.615
  429.500    2.527    0.309    0.525  100.745
  429.750    2.533    0.297    0.512  100.633
  430.000    2.543    0.293    0.535   96.890
  430.250    2.568    0.299    0.553   92.538
  430.500    2.632    0.304    0.565   87.282
  430.750    2.855    0.307    0.557   84.385
  431.000    3.090    0.308    0.535   82.153
  431.250    3.326    0.312    0.521   79.861
  431.500    3.487    0.317    0.504   80.719
  431.750    3.279    0.314    0.481   93.144
  432.000    2.960    0.309    0.466  102.177
  432.250    2.858    0.303    0.471  104.549
  432.500    2.874    0.296    0.511   95.294
  432.750    3.507    0.286    0.575   85.314
  433.000    3.719    0.276    0.502   80.659
  433.250    4.093    0.269    0.465   75.582
  433.500    4.373    0.280    0.431   73.048
  433.750    4.689    0.276    0.429   71.727
  434.000    4.981    0.273    0.435   72.827
  434.250    5.144    0.274    0.447   73.442
  434.500    5.156    0.285    0.459   69.455
  434.750    5.149    0.291    0.450   66.377
  435.000    5.141    0.289    0.447   68.264
  435.250    5.106    0.288    0.444   72.514
  435.500    5.098    0.288    0.439   72.887
  435.750    5.082    0.291    0.433   70.353
  436.000    5.102    0.296    0.430   69.394
  436.250    5.143    0.296    0.444   68.193
  436.500    5.281    0.302    0.459   63.602
  436.750    5.506    0.294    0.459   59.312
  437.000    5.860    0.267    0.394   57.566
  437.250    6.190    0.237    0.349   61.271
  437.500    6.442    0.268    0.405   63.944
  437.750    6.628    0.295    0.435   64.438
  438.000    6.769    0.322    0.446   60.996
  438.250    6.671    0.322    0.362   59.372
  438.500    6.453    0.317    0.351   59.383
  438.750    6.241    0.314    0.387   61.331
  439.000    5.914    0.317    0.414   62.309
  439.250    5.646    0.315    0.449   63.227
  439.500    5.553    0.311    0.467   64.993
  439.750    5.403    0.313    0.462   69.364
  440.000    5.394    0.323    0.453   73.129
  440.250    5.427    0.329    0.453   74.955
  440.500    5.501    0.333    0.470   78.720
  440.750    5.544    0.336    0.459   81.758
  441.000    5.557    0.337    0.467   82.495
  441.250    5.560    0.319    0.486   82.445
  441.500    5.532    0.286    0.476   83.061
  441.750    5.544    0.265    0.456   84.162
  442.000    5.546    0.259    0.446   85.383
  442.250    5.508    0.262    0.442   86.300
  442.500    5.489    0.260    0.440   87.280
  442.750    5.471    0.258    0.459   87.895
  443.000    5.372    0.268    0.475   86.149
  443.250    5.215    0.274    0.479   84.040
  443.500    5.007    0.269    0.471   82.959
  443.750    4.870    0.263    0.463   84.181
  444.000    4.632    0.265    0.456   85.160
  444.250    4.539    0.272    0.452   86.138
  444.500    4.390    0.276    0.474   87.784
  444.750    4.231    0.282    0.503   89.974
  445.000    4.146    0.287    0.494   92.590
  445.250    4.056    0.293    0.490   94.414
  445.500    3.975    0.299    0.500   93.880
  445.750    3.903    0.298    0.486   92.073
  446.000    3.705    0.285    0.481   91.902
  446.250    3.491    0.274    0.483   95.486
  446.500    3.326    0.268    0.479   98.584
  446.750    3.223    0.278    0.473  100.471
  447.000    3.207    0.278    0.481   98.785
  447.250    3.275    0.274    0.495   94.919
  447.500    3.357    0.272    0.492   94.384
  447.750    3.532    0.273    0.471   93.609
  448.000    3.676    0.273    0.453   92.709
  448.250    3.643    0.271    0.473   95.747
  448.500    3.524    0.278    0.481   97.998
  448.750    3.364    0.290    0.491   97.160
  449.000    3.248    0.307    0.515   94.142
  449.250    3.159    0.337    0.534   87.672
  449.500    3.149    0.342    0.557   81.447
  449.750    3.234    0.348    0.545   78.427
  450.000    3.371    0.337    0.517   77.589
  450.250    3.521    0.324    0.498   78.326
  450.500    3.664    0.312    0.481   77.791
  450.750    3.820    0.317    0.469   76.529
  451.000    4.005    0.332    0.467   78.174
  451.250    4.183    0.351    0.479   82.424
  451.500    4.321    0.350    0.500   86.309
  451.750    4.513    0.309    0.518   85.896
  452.000    4.949    0.295    0.495   78.034
  452.250    5.551    0.284    0.486   72.290
  452.500    6.214    0.270    0.443   65.638
  452.750    6.639    0.230    0.369   60.683
  453.000    6.960    0.151    0.332   62.209
  453.250    7.175    0.150    0.391   64.639
  453.500    7.044    0.157    0.420   64.407
  453.750    6.321    0.188    0.441   64.781
  454.000    5.343    0.226    0.455   67.395
  454.250    4.904    0.327    0.455   69.524
  454.500    4.560    0.351    0.448   69.838
  454.750    4.289    0.346    0.445   67.547
  455.000    4.132    0.343    0.452   65.135
  455.250    4.035    0.338    0.446   64.236
  455.500    4.037    0.336    0.440   63.338
  455.750    4.091    0.333    0.451   62.681
  456.000    4.194    0.329    0.461   62.206
  456.250    4.381    0.325    0.458   62.277
  456.500    4.542    0.322    0.450   77.427
  456.750    4.708    0.321    0.439   83.917
  457.000    4.854    0.315    0.453   86.713
  457.250    4.975    0.295    0.464   87.997
  457.500    5.091    0.281    0.453   88.247
  457.750    5.189    0.276    0.432   88.016
  458.000    5.280    0.271    0.419   87.844
  458.250    5.382    0.265    0.418   86.945
  458.500    5.466    0.260    0.423   85.139
  458.750    5.551    0.257    0.419   81.090
  459.000    5.574    0.255    0.415   75.107
  459.250    5.504    0.266    0.416   71.906
  459.500    5.384    0.275    0.422   68.403
  459.750    5.121    0.288    0.429   67.868
  460.000    4.990    0.298    0.436   69.393
  460.250    4.781    0.304    0.435   71.887
  460.500    4.633    0.301    0.424   73.894
  460.750    4.465    0.292    0.417   76.329
  461.000    4.223    0.285    0.417   78.154
  461.250    3.840    0.290    0.423   79.677
  461.500    3.673    0.305    0.455   79.446
  461.750    3.539    0.329    0.485   78.607
  462.000    3.230    0.345    0.486   83.646
  462.250    2.866    0.335    0.510   87.106
  462.500    2.501    0.321    0.528   90.628
  462.750    2.321    0.311    0.545   93.606
  463.000    2.187    0.304    0.552   90.952
  463.250    2.119    0.298    0.549   89.205
  463.500    2.124    0.295    0.525   91.698
  463.750    2.202    0.293    0.516   93.284
  464.000    2.266    0.291    0.514   94.383
  464.250    2.296    0.292    0.514   95.302
  464.500    2.328    0.295    0.518   95.070
  464.750    2.338    0.300    0.533   92.235
  465.000    2.352    0.311    0.546   91.942
  465.250    2.366    0.319    0.558   93.101
  465.500    2.412    0.305    0.550   94.383
  465.750    2.572    0.297    0.543   94.756
  466.000    2.799    0.289    0.551   95.008
  466.250    3.199    0.285    0.548   94.716
  466.500    3.595    0.285    0.519   87.278
  466.750    4.077    0.298    0.500   82.382
  467.000    5.474    0.313    0.487   78.455
  467.250    8.012    0.326    0.474   85.795
  467.500   11.065    0.287    0.456   77.206
  467.750   13.152    0.237    0.429   70.068
  468.000   15.200    0.197    0.336   59.603
  468.250   16.795    0.173    0.307   52.526
  468.500   17.975    0.159    0.300   49.447
  468.750   18.530    0.224    0.385   54.972
  469.000   16.352    0.288    0.420   57.280
  469.250   15.551    0.316    0.440   59.956
  469.500   15.412    0.329    0.445   59.117
  469.750   15.419    0.336    0.439   55.130
  470.000   15.571    0.327    0.439   51.749
  470.250   15.548    0.320    0.445   52.607
