~VERSION INFORMATION
 VERS.                 2.0:   CWLS LOG ASCII STANDARD -VERSION 2.0
 WRAP.                  NO:   ONE LINE PER DEPTH STEP
~WELL INFORMATION BLOCK
#MNEM.UNIT           DATA                    DESCRIPTION OF MNEMONIC
#---------    -------------------            -------------------------------
# Generated from Intellog Unique Number	CW_73_75/WELL/3521
WELL.         G&W ET AL SPUR                 : Well_name    - WELL
LOC .         00/08-05-073-02W5/0            : Location     - LOCATION
UWI .         00/08-05-073-02W5/0            : Uwi          - UNIQUE WELL ID
ENTR.         TOM                            : Entered      - ENTERED BY
SRVC.         SCHLUMBERGER                   : Scn          - SERVICE COMPANY
STRT.M        350                            : top_depth    - START DEPTH
STOP.M        600                            : bot_depth    - STOP DEPTH
STEP.M        0.25                           : increment    - STEP LENGTH
 NULL. -999.2500:NULL Value
~CURVE INFORMATION BLOCK
#MNEM UNIT       ERCB CURVE CODE    CURVE DESCRIPTION
#-----------   ------------------   ----------------------------------
DEPT.M        00 001 00 00         : DEPTH        - DEPTH
GR  .API      00 310 00 00         : GR           - GAMMA RAY
NPHI.V/V      00 330 00 00         : PHIN         - NEUTRON POROSITY (SANDSTONE)
DPHI.V/V      00 890 00 00         : PHID         - DENSITY POROSITY (SANDSTONE)
ILD .OHMM     00 120 00 00         : RESD         - DEEP RESISTIVITY (DIL)
~PARAMETER INFORMATION
#MNEM.UNIT           DATA             DESCRIPTION OF MNEMONIC
#---------         -----------     ------------------------------
GL  .M        601.5                : gl           - GROUND LEVEL ELEVATION
EREF.M        604.3                : kb           - ELEVATION OF DEPTH REFERENCE
DATM.M        604.3                : datum        - DATUM ELEVATION
TDD .M        604                  : tdd          - TOTAL DEPTH DRILLER
RUN .         ONE                  : Run          - RUN NUMBER
ENG .         BILL                 : Engineer     - RECORDING ENGINEER
WIT .         JIM                  : Witness      - WITNESSED BY
MUD .         GEL                  : Mud_type     - MUD TYPE
MATR.         SANDSTONE            : Logunit      - NEUTRON MATRIX
TMAX.C        28                   : BHT          - MAXIMUM RECORDED TEMPERATURE
BHTD.M        604                  : BHTDEP       - MAXIMUM RECORDED TEMPERATURE
RMT .C        17                   : MDTP         - TEMPERATURE OF MUD
MUDD.KG/M     1100                 : MWT          - MUD DENSITY
NEUT.         1                    : NEUTRON      - NEUTRON TYPE
RESI.         0                    : RESIST       - RESISTIVITY TYPE
RM  .OHMM     4.5                  : RM           - RESISTIVITY OF MUD
RMC .OHMM     0                    : RMC          - RESISTIVITY OF MUD CAKE
RMF .OHMM     2.744                : RMF          - RESISTIVITY OF MUD FILTRATE
SUFT.C        15                   : SUFT         - SURFACE TEMPERATURE
~A  DEPTH       GR     PHIN     PHID     RESD
# ...
  567.500   95.350    0.441    0.070    3.621
  567.750   89.306    0.349    0.060    4.272
  568.000   86.231    0.342    0.109    4.768
  568.250   89.128    0.336    0.113    5.322
  568.500   92.079    0.330    0.118    6.049
  568.750   97.384    0.327    0.112    6.271
  569.000   97.312    0.329    0.104    6.618
  569.250   97.241    0.334    0.098    6.731
  569.500   94.184    0.327    0.087    6.853
  569.750   88.737    0.313    0.044    6.969
  570.000   89.263    0.308    0.027    6.960
  570.250   94.568    0.330    0.060    6.578
  570.500  100.452    0.336    0.087    6.212
  570.750   97.992    0.327    0.090    6.204
  571.000   98.518    0.319    0.081    6.080
  571.250  101.433    0.334    0.080    6.074
  571.500  102.574    0.337    0.126    5.955
  571.750  100.114    0.333    0.124    5.949
  572.000   96.424    0.329    0.124    5.833
  572.250   95.176    0.324    0.119    5.716
  572.500   94.525    0.318    0.112    5.711
  572.750   93.821    0.316    0.107    6.029
  573.000   93.786    0.311    0.098    6.606
  573.250   94.891    0.309    0.090    6.974
  573.500   96.033    0.313    0.101    7.093
  573.750   99.528    0.320    0.107    7.216
  574.000  103.058    0.325    0.110    7.207
  574.250  107.150    0.330    0.115    6.938
  574.500  109.486    0.334    0.119    6.196
  574.750  111.804    0.328    0.117    6.075
  575.000  108.149    0.310    0.120    6.655
  575.250   88.350    0.249    0.162    7.569
  575.500   76.315    0.245    0.197    8.934
  575.750   70.868    0.255    0.219   11.351
  576.000   55.847    0.261    0.227   12.208
  576.250   52.789    0.271    0.224   12.648
  576.500   55.705    0.279    0.184   12.872
  576.750   59.815    0.281   -0.015   13.091
  577.000   57.354    0.242   -0.011   14.080
  577.250   51.907    0.153   -0.003   14.597
  577.500   48.832    0.156    0.003   15.689
  577.750   48.761    0.157    0.007   15.972
  578.000   49.305    0.165    0.011   16.553
  578.250   51.026    0.169    0.013   17.155
  578.500   51.552    0.172    0.017   17.448
  578.750   52.078    0.175    0.028   17.425
  579.000   51.392    0.185    0.028   17.408
  579.250   48.932    0.190    0.028   16.748
  579.500   47.033    0.193    0.028   16.425
  579.750   47.595    0.195    0.028   16.097
  580.000   48.701    0.196    0.029   15.486
  580.250   49.245    0.195    0.029   15.188
  580.500   50.930    0.192    0.029   14.889
  580.750   50.894    0.189    0.029   14.592
  581.000   50.823    0.187    0.028   14.578
  581.250   50.752    0.182    0.028   14.287
  581.500   51.876    0.179    0.031   14.003
  581.750   52.981    0.179    0.032   13.737
  582.000   53.508    0.180    0.032   13.458
  582.250   53.454    0.183    0.032   13.450
  582.500   53.963    0.184    0.034   12.944
  582.750   55.104    0.185    0.035   12.685
  583.000   57.404    0.185    0.038   12.441
  583.250   57.948    0.185    0.039   12.420
  583.500   58.474    0.185    0.039   12.408
  583.750   58.386    0.185    0.039   12.157
  584.000   58.929    0.187    0.041   11.918
  584.250   60.633    0.189    0.045   11.688
  584.500   61.176    0.192    0.050   11.459
  584.750   61.703    0.193    0.047   11.234
  585.000   62.229    0.194    0.041   11.014
  585.250   63.335    0.201    0.035   10.794
  585.500   63.861    0.202    0.036   10.585
  585.750   63.790    0.204    0.043   10.371
  586.000   64.316    0.205    0.049   10.171
  586.250   65.439    0.206    0.053   10.158
  586.500   66.581    0.207    0.056   10.148
  586.750   69.460    0.206    0.055   10.134
  587.000   70.620    0.205    0.053   10.118
  587.250   72.323    0.204    0.050    9.916
  587.500   73.464    0.202    0.047    9.728
  587.750   75.764    0.201    0.050    9.359
  588.000   76.923    0.199    0.056    9.007
  588.250   80.436    0.201    0.082    8.827
  588.500  113.831    0.209    0.095    8.492
  588.750  119.751    0.244    0.112    8.176
  589.000  123.843    0.268    0.110    8.015
  589.250  123.175    0.278    0.107    7.714
  589.500  121.312    0.278    0.106    7.290
  589.750  118.219    0.277    0.105    6.882
  590.000  117.586    0.278    0.107    6.749
  590.250  117.497    0.281    0.116    6.619
  590.500  117.426    0.286    0.112    6.489
  590.750  117.952    0.289    0.110    6.362
  591.000  118.478    0.292    0.111    6.121
  591.250  120.778    0.296    0.115    5.885
  591.500  121.937    0.301    0.119    5.771
  591.750  125.432    0.313    0.121    5.661
  592.000  128.945    0.316    0.123    5.548
  592.250  130.701    0.316    0.125    5.438
  592.500  134.811    0.316    0.128    5.433
  592.750  139.501    0.315    0.130    5.324
  593.000  141.819    0.314    0.134    5.319
  593.250  137.585    0.312    0.134    5.410
  593.500  135.704    0.309    0.131    5.404
  593.750  139.234    0.303    0.125    5.599
  594.000  142.729    0.301    0.119    5.698
  594.250  140.287    0.299    0.115    5.908
  594.500  131.836    0.297    0.114    6.121
  594.750  132.362    0.298    0.114    6.229
  595.000  137.684    0.302    0.120    6.572
  595.250  142.989    0.303    0.130    6.688
  595.500  140.528    0.301    0.131    6.805
  595.750  135.046    0.297    0.131    6.925
  596.000  134.975    0.295    0.131    7.045
  596.250  135.519    0.289    0.131    7.163
  596.500  136.045    0.287    0.134    7.154
  596.750  137.169    0.292    0.137    7.149
  597.000  138.292    0.302    0.140    7.140
  597.250  139.416    0.310    0.141    7.264
  597.500  140.521    0.314    0.139    7.385
  597.750  140.468    0.318    0.142    7.381
  598.000  141.592    0.319    0.146    7.369
  598.250  140.923    0.321    0.151    7.497
  598.500  136.074    0.321    0.156    7.487
  598.750  131.804    0.321    0.159    7.340
  599.000  130.538    0.320    0.155    7.196
  599.250  130.467    0.318    0.119    7.184
  599.500  130.396    0.315    0.068    7.175
  599.750  129.727    0.311   -0.000    7.577
  600.000  129.656    0.307   -0.004    9.451
