~VERSION INFORMATION
 VERS.                 2.0:   CWLS LOG ASCII STANDARD -VERSION 2.0
 WRAP.                  NO:   ONE LINE PER DEPTH STEP
~WELL INFORMATION BLOCK
#MNEM.UNIT           DATA                    DESCRIPTION OF MNEMONIC
#---------    -------------------            -------------------------------
# Generated from Intellog Unique Number	CX_WELLS/WELL/4044
WELL.         AMOCO KERBRY                   : Well_name    - WELL
LOC .         00/07-19-074-05W4/0            : Location     - LOCATION
UWI .         00/07-19-074-05W4/0            : Uwi          - UNIQUE WELL ID
ENTR.         T                              : Entered      - ENTERED BY
SRVC.         SCHLUMBERGER                   : Scn          - SERVICE COMPANY
STRT.F        850                            : top_depth    - START DEPTH
STOP.F        1630.02                        : bot_depth    - STOP DEPTH
STEP.F        0.82                           : increment    - STEP LENGTH
 NULL. -999.2500:NULL Value
~CURVE INFORMATION BLOCK
#MNEM UNIT       ERCB CURVE CODE    CURVE DESCRIPTION
#-----------   ------------------   ----------------------------------
DEPT.F        00 001 00 00         : DEPTH        - DEPTH
GR  .API      00 310 00 00         : GR           - GAMMA RAY
NPHI.V/V      00 330 00 00         : PHIN         - NEUTRON POROSITY (SANDSTONE)
DPHI.V/V      00 890 00 00         : PHID         - DENSITY POROSITY (SANDSTONE)
ILD .OHMM     00 120 00 00         : RESD         - DEEP RESISTIVITY (DIL)
~PARAMETER INFORMATION
#MNEM.UNIT           DATA             DESCRIPTION OF MNEMONIC
#---------         -----------     ------------------------------
GL  .F        2144                 : gl           - GROUND LEVEL ELEVATION
EREF.F        2156                 : kb           - ELEVATION OF DEPTH REFERENCE
DATM.F        2156                 : datum        - DATUM ELEVATION
TDD .F        1677                 : tdd          - TOTAL DEPTH DRILLER
RUN .         ONE                  : Run          - RUN NUMBER
ENG .         BILL                 : Engineer     - RECORDING ENGINEER
WIT .         JIM                  : Witness      - WITNESSED BY
MUD .         GEL                  : Mud_type     - MUD TYPE
MATR.         SANDSTONE            : Logunit      - NEUTRON MATRIX
TMAX.F        62.6                 : BHT          - MAXIMUM RECORDED TEMPERATURE
BHTD.F        1677                 : BHTDEP       - MAXIMUM RECORDED TEMPERATURE
MATR.         1                    : LOGUNIT      - NEUTRON MATRIX
RMT .F        77                   : MDTP         - TEMPERATURE OF MUD
NEUT.         1                    : NEUTRON      - NEUTRON TYPE
RESI.         5.6                  : RESIST       - RESISTIVITY TYPE
RMC .OHMM     5.2                  : RMC          - RESISTIVITY OF MUD CAKE
RMF .OHMM     4.2                  : RMF          - RESISTIVITY OF MUD FILTRATE
SUFT.F        59                   : SUFT         - SURFACE TEMPERATURE
~A  DEPTH       GR     PHIN     PHID     RESD
# ...
 1135.430   81.529    0.370    0.284    2.192
 1136.250   82.801    0.376    0.279    2.233
 1137.070   85.353    0.384    0.267    2.234
 1137.890   89.815    0.387    0.261    2.154
 1138.710   90.457    0.379    0.263    2.040
 1139.530   91.108    0.371    0.261    1.967
 1140.350   91.118    0.366    0.254    1.967
 1141.170   91.767    0.364    0.247    1.968
 1141.990   89.880    0.363    0.244    2.005
 1142.810   87.986    0.366    0.243    2.199
 1143.640   84.199    0.368    0.241    2.456
 1144.460   83.575    0.368    0.239    2.596
 1145.280   84.223    0.370    0.244    2.693
 1146.100   85.502    0.374    0.249    2.795
 1146.920   88.696    0.383    0.255    2.848
 1147.740   89.975    0.390    0.264    2.849
 1148.560   91.889    0.396    0.263    2.903
 1149.380   95.079    0.397    0.252    2.903
 1150.200   98.899    0.397    0.245    2.958
 1151.020  101.448    0.397    0.247    2.959
 1151.840  104.634    0.395    0.247    2.960
 1152.660  105.282    0.394    0.243    3.016
 1153.480  105.303    0.395    0.245    3.130
 1154.300  105.309    0.395    0.250    3.248
 1155.120  105.961    0.387    0.259    3.371
 1155.940  106.613    0.379    0.259    3.435
 1156.760  106.626    0.376    0.246    3.436
 1157.580  106.633    0.375    0.235    3.437
 1158.400  103.474    0.371    0.230    3.502
 1159.220  105.398    0.368    0.228    3.568
 1160.040  106.039    0.364    0.225    3.703
 1160.860  107.329    0.362    0.219    3.914
 1161.680  107.339    0.364    0.212    3.988
 1162.500  104.176    0.366    0.207    4.294
 1163.320   98.479    0.372    0.208    4.374
 1164.140   94.688    0.374    0.209    4.457
 1164.960   94.702    0.376    0.212    4.541
 1165.780   97.888    0.377    0.215    4.460
 1166.600   99.802    0.380    0.219    4.380
 1167.420  102.354    0.381    0.218    4.303
 1168.240  104.271    0.382    0.210    4.225
 1169.060  105.557    0.386    0.213    4.228
 1169.880  106.840    0.386    0.215    4.228
 1170.700  106.219    0.388    0.213    4.230
 1171.520  102.422    0.389    0.211    4.231
 1172.340   99.266    0.392    0.213    4.233
 1173.160  102.449    0.394    0.215    4.158
 1173.980  106.270    0.398    0.225    4.159
 1174.800  111.360    0.400    0.229    4.085
 1175.620  114.553    0.404    0.225    3.797
 1176.440  115.194    0.409    0.219    3.662
 1177.260  117.753    0.410    0.220    3.404
 1178.080  118.394    0.410    0.226    3.283
 1178.900  119.046    0.409    0.235    3.165
 1179.720  118.421    0.406    0.241    3.053
 1180.540  115.266    0.404    0.244    2.998
 1181.360  114.013    0.400    0.252    2.944
 1182.190  113.389    0.399    0.259    2.945
 1183.010  113.399    0.395    0.267    2.947
 1183.830  112.144    0.390    0.273    2.948
 1184.650  108.353    0.380    0.279    3.003
 1185.470  107.094    0.368    0.280    3.004
 1186.290  103.301    0.367    0.276    3.061
 1187.110  100.776    0.364    0.271    3.119
 1187.930   96.989    0.359    0.270    3.120
 1188.750   95.727    0.357    0.269    3.238
 1189.570   94.475    0.360    0.263    3.299
 1190.390   94.488    0.363    0.258    3.361
 1191.210   97.040    0.368    0.258    3.488
 1192.030   97.688    0.378    0.264    3.620
 1192.850   95.798    0.379    0.268    3.688
 1193.670   93.904    0.374    0.275    3.689
 1194.490   89.480    0.371    0.286    3.759
 1195.310   87.586    0.363    0.295    3.692
 1196.130   82.523    0.349    0.300    3.626
 1196.950   79.364    0.344    0.302    3.497
 1197.770   74.301    0.333    0.303    3.372
 1198.590   74.321    0.332    0.308    3.373
 1199.410   74.963    0.332    0.311    3.253
 1200.230   79.421    0.332    0.306    3.195
 1201.050   81.339    0.332    0.303    3.196
 1201.870   83.256    0.334    0.299    3.197
 1202.690   84.535    0.336    0.289    3.198
 1203.510   85.187    0.339    0.283    3.200
 1204.330   85.835    0.341    0.280    3.200
 1205.150   83.317    0.343    0.276    3.201
 1205.970   82.686    0.341    0.272    3.203
 1206.790   80.796    0.341    0.270    3.204
 1207.610   79.540    0.340    0.267    3.205
 1208.430   82.096    0.339    0.265    3.206
 1209.250   84.644    0.336    0.261    3.207
 1210.070   87.834    0.335    0.256    3.209
 1210.890   89.751    0.334    0.246    3.209
 1211.710   91.665    0.334    0.227    3.270
 1212.530   92.948    0.334    0.154    3.332
 1213.350   94.237    0.331    0.090    3.395
 1214.170   94.247    0.262    0.063    3.588
 1214.990   94.261    0.256    0.090    3.934
 1215.810   92.367    0.285    0.117    4.236
 1216.630   83.497    0.306    0.163    4.560
 1217.450   79.703    0.331    0.202    4.999
 1218.270   85.428    0.348    0.222    5.686
 1219.090   93.691    0.361    0.221    5.688
 1219.910   96.249    0.370    0.217    5.289
 1220.730   96.266    0.375    0.217    5.194
 1221.560   95.642    0.377    0.216    4.917
 1222.380   95.652    0.377    0.212    4.742
 1223.200   95.666    0.377    0.215    4.572
 1224.020   95.679    0.367    0.221    4.410
 1224.840   95.693    0.362    0.222    4.330
 1225.660   95.710    0.353    0.226    4.254
 1226.480   96.358    0.349    0.231    4.255
 1227.300   97.006    0.353    0.233    4.257
 1228.120   98.289    0.360    0.232    4.258
 1228.940   98.937    0.366    0.222    4.260
 1229.760   98.954    0.375    0.218    4.261
 1230.580  100.230    0.380    0.221    4.342
 1231.400  100.247    0.381    0.227    4.343
 1232.220   97.722    0.377    0.229    4.344
 1233.040   98.374    0.377    0.237    4.346
 1233.860  100.287    0.374    0.243    4.348
 1234.680  103.474    0.370    0.254    4.270
 1235.500  105.388    0.366    0.257    4.194
 1236.320  108.574    0.365    0.257    3.898
 1237.140  108.591    0.360    0.262    3.692
 1237.960  104.794    0.374    0.272    3.625
 1238.780   98.462    0.381    0.277    3.560
 1239.600   92.771    0.390    0.277    3.497
 1240.420   94.681    0.380    0.277    3.498
 1241.240   98.502    0.355    0.278    3.374
 1242.060  100.420    0.346    0.282    3.194
 1242.880  101.702    0.339    0.286    3.024
 1243.700  101.719    0.341    0.294    2.811
 1244.520   99.826    0.335    0.299    2.662
 1245.340   96.670    0.324    0.300    3.083
 1246.160   98.587    0.330    0.295    4.137
 1246.980  101.136    0.336    0.292    5.253
 1247.800  102.418    0.342    0.283    6.430
 1248.620   95.455    0.350    0.277    7.872
 1249.440   85.312    0.348    0.272    7.317
 1250.260   82.788    0.350    0.266    6.802
 1251.080   82.801    0.356    0.259    6.322
 1251.900   87.257    0.358    0.256    5.877
 1252.720   88.540    0.363    0.253    5.267
 1253.540   89.826    0.363    0.251    4.634
 1254.360   89.843    0.363    0.247    4.387
 1255.180   86.680    0.363    0.245    4.004
 1256.000   85.421    0.363    0.240    3.933
 1256.820   84.165    0.364    0.235    3.862
 1257.640   85.448    0.367    0.228    3.935
 1258.460   89.269    0.370    0.227    4.084
 1259.280   93.090    0.368    0.223    4.161
 1260.100   97.549    0.365    0.221    4.162
 1260.930   99.466    0.363    0.220    4.241
 1261.750  100.111    0.360    0.221    4.242
 1262.570  100.124    0.358    0.227    4.322
 1263.390  100.141    0.355    0.229    4.324
 1264.210   99.517    0.353    0.231    4.325
 1265.030   97.627    0.350    0.233    4.408
 1265.850   91.933    0.352    0.226    4.408
 1266.670   89.408    0.355    0.222    4.575
 1267.490   90.694    0.353    0.216    4.662
 1268.310   92.605    0.349    0.213    4.749
 1269.130   96.429    0.343    0.214    4.751
 1269.950   98.343    0.343    0.217    4.753
 1270.770   98.356    0.347    0.219    4.755
 1271.590   98.374    0.349    0.224    4.670
 1272.410   98.390    0.356    0.228    4.671
 1273.230   98.397    0.359    0.229    4.589
 1274.050   99.052    0.363    0.228    4.589
 1274.870   99.694    0.359    0.223    4.591
 1275.690   99.707    0.354    0.217    4.509
 1276.510   95.279    0.355    0.214    4.430
 1277.330   94.027    0.360    0.217    4.431
