~VERSION INFORMATION
 VERS.                 2.0:   CWLS LOG ASCII STANDARD -VERSION 2.0
 WRAP.                  NO:   ONE LINE PER DEPTH STEP
~WELL INFORMATION BLOCK
#MNEM.UNIT           DATA                    DESCRIPTION OF MNEMONIC
#---------    -------------------            -------------------------------
# Generated from Intellog Unique Number	CS_77_79/WELL/3299
WELL.         ATCOR LTD.                     : Well_name    - WELL
LOC .         00/08-34-077-13W4/0            : Location     - LOCATION
UWI .         00/08-34-077-13W4/0            : Uwi          - UNIQUE WELL ID
ENTR.         JO                             : Entered      - ENTERED BY
SRVC.         SCHLUMBERGER                   : Scn          - SERVICE COMPANY
DATE.         05/22/92                       : Date         - LOG DATE
STRT.M        270                            : top_depth    - START DEPTH
STOP.M        495                            : bot_depth    - STOP DEPTH
STEP.M        0.25                           : increment    - STEP LENGTH
 NULL. -999.2500:NULL Value
~CURVE INFORMATION BLOCK
#MNEM UNIT       ERCB CURVE CODE    CURVE DESCRIPTION
#-----------   ------------------   ----------------------------------
DEPT.M        00 001 00 00         : DEPTH        - DEPTH
GR  .API      00 310 00 00         : GR           - GAMMA RAY
NPHI.V/V      00 330 00 00         : PHIN         - NEUTRON POROSITY (SANDSTONE)
DPHI.V/V      00 890 00 00         : PHID         - DENSITY POROSITY (SANDSTONE)
ILD .OHMM     00 120 00 00         : RESD         - DEEP RESISTIVITY (DIL)
~PARAMETER INFORMATION
#MNEM.UNIT           DATA             DESCRIPTION OF MNEMONIC
#---------         -----------     ------------------------------
GL  .M        670.6                : gl           - GROUND LEVEL ELEVATION
EREF.M        674.2                : kb           - ELEVATION OF DEPTH REFERENCE
DATM.M        674.2                : datum        - DATUM ELEVATION
TDD .M        503                  : tdd          - TOTAL DEPTH DRILLER
RUN .         ONE                  : Run          - RUN NUMBER
ENG .         BILL                 : Engineer     - RECORDING ENGINEER
WIT .         JIM                  : Witness      - WITNESSED BY
MUD .         GEL                  : Mud_type     - MUD TYPE
MATR.         SANDSTONE            : Logunit      - NEUTRON MATRIX
TMAX.C        21                   : BHT          - MAXIMUM RECORDED TEMPERATURE
BHTD.M        503                  : BHTDEP       - MAXIMUM RECORDED TEMPERATURE
RMT .C        20                   : MDTP         - TEMPERATURE OF MUD
MUDD.KG/M     1130                 : MWT          - MUD DENSITY
NEUT.         1                    : NEUTRON      - NEUTRON TYPE
RESI.         0                    : RESIST       - RESISTIVITY TYPE
RM  .OHMM     4.81                 : RM           - RESISTIVITY OF MUD
RMC .OHMM     0                    : RMC          - RESISTIVITY OF MUD CAKE
RMF .OHMM     5.58                 : RMF          - RESISTIVITY OF MUD FILTRATE
SUFT.C        15                   : SUFT         - SURFACE TEMPERATURE
~A  DEPTH       GR     PHIN     PHID     RESD
# ...
  313.500   45.066    0.371    0.305   14.086
  313.750   43.908    0.375    0.289   15.803
  314.000   41.591    0.376    0.291   16.153
  314.250   40.486    0.371    0.295   16.175
  314.500   39.987    0.369    0.299   16.241
  314.750   40.700    0.384    0.307   16.566
  315.000   44.524    0.386    0.319   16.944
  315.250   45.789    0.391    0.331   16.967
  315.500   47.714    0.397    0.332   17.354
  315.750   47.242    0.398    0.336   17.714
  316.000   44.293    0.382    0.341   18.431
  316.250   41.397    0.386    0.350   18.826
  316.500   39.686    0.386    0.351   19.256
  316.750   41.005    0.383    0.343   19.295
  317.000   42.930    0.401    0.342   19.334
  317.250   44.249    0.396    0.348   19.413
  317.500   44.329    0.389    0.354   19.084
  317.750   43.224    0.389    0.354   19.135
  318.000   41.540    0.392    0.355   18.836
  318.250   42.833    0.394    0.358   18.554
  318.500   47.814    0.386    0.364   18.604
  318.750   49.133    0.385    0.367   18.300
  319.000   49.240    0.392    0.367   18.375
  319.250   50.559    0.376    0.364   18.413
  319.500   52.511    0.373    0.362   18.450
  319.750   53.197    0.381    0.359   18.174
  320.000   53.304    0.387    0.355   18.210
  320.250   51.594    0.378    0.354   17.950
  320.500   49.910    0.380    0.354   17.999
  320.750   48.805    0.392    0.355   18.023
  321.000   48.912    0.411    0.359   17.753
  321.250   48.440    0.422    0.364   17.475
  321.500   48.493    0.442    0.374   17.202
  321.750   47.995    0.437    0.369   16.921
  322.000   48.102    0.409    0.351   16.679
  322.250   50.080    0.409    0.353   16.406
  322.500   52.584    0.399    0.363   16.139
  322.750   56.960    0.383    0.377   15.886
  323.000   56.461    0.404    0.376   15.669
  323.250   54.117    0.446    0.377   15.414
  323.500   49.983    0.416    0.380   15.445
  323.750   56.150    0.407    0.369   15.203
  324.000   55.651    0.398    0.361   15.245
  324.250   50.331    0.389    0.355   15.276
  324.500   51.650    0.378    0.355   15.317
  324.750   49.939    0.369    0.355   15.656
  325.000   46.990    0.373    0.353   15.991
  325.250   48.941    0.383    0.345   16.057
  325.500   50.867    0.393    0.342   16.078
  325.750   50.341    0.400    0.353   15.848
  326.000   55.322    0.413    0.363   15.590
  326.250   57.274    0.435    0.366   15.335
  326.500   55.590    0.436    0.369   14.557
  326.750   54.432    0.429    0.373   14.057
  327.000   55.751    0.433    0.382   13.837
  327.250   57.097    0.442    0.381   13.620
  327.500   55.386    0.443    0.374   13.407
  327.750   53.069    0.438    0.382   13.444
  328.000   50.779    0.440    0.380   13.489
  328.250   50.227    0.418    0.377   13.788
  328.500   48.516    0.398    0.383   13.807
  328.750   44.987    0.421    0.392   13.854
  329.000   46.333    0.439    0.396   13.882
  329.250   48.258    0.443    0.392   13.919
  329.500   46.520    0.435    0.384   13.711
  329.750   42.386    0.433    0.377   13.487
  330.000   44.311    0.432    0.373   13.042
  330.250   40.782    0.425    0.373   13.086
  330.500   45.737    0.416    0.373   13.113
  330.750   47.689    0.428    0.374   13.384
  331.000   44.739    0.431    0.373   13.936
  331.250   39.392    0.434    0.374   13.974
  331.500   39.526    0.444    0.375   14.273
  331.750   40.819    0.451    0.374   14.312
  332.000   42.164    0.447    0.373   14.351
  332.250   41.639    0.434    0.375   14.390
  332.500   39.928    0.427    0.368   14.439
  332.750   38.823    0.428    0.369   14.213
  333.000   37.718    0.444    0.378   14.261
  333.250   38.431    0.446    0.381   14.280
  333.500   40.356    0.439    0.381   14.329
  333.750   39.252    0.427    0.378   14.368
  334.000   36.356    0.436    0.378   14.397
  334.250   36.436    0.423    0.385   14.446
  334.500   38.388    0.438    0.386   14.229
  334.750   37.889    0.448    0.381   14.249
  335.000   37.363    0.438    0.376   14.307
  335.250   38.076    0.430    0.371   14.073
  335.500   37.577    0.432    0.377   14.102
  335.750   35.867    0.438    0.385   14.150
  336.000   32.944    0.440    0.386   14.179
  336.250   30.627    0.429    0.380   13.966
  336.500   31.367    0.417    0.372   13.995
  336.750   32.053    0.415    0.371   13.785
  337.000   32.766    0.416    0.374   13.813
  337.250   34.085    0.417    0.376   13.606
  337.500   37.276    0.421    0.377   13.643
  337.750   38.016    0.430    0.375   13.680
  338.000   38.069    0.433    0.371   13.717
  338.250   35.752    0.416    0.371   13.764
  338.500   34.042    0.408    0.373   13.792
  338.750   34.755    0.421    0.375   13.595
  339.000   35.468    0.428    0.369   13.613
  339.250   33.784    0.411    0.367   13.659
  339.500   32.046    0.401    0.369   13.696
  339.750   30.941    0.404    0.373   13.734
  340.000   31.075    0.412    0.375   13.771
  340.250   30.576    0.411    0.380   13.808
  340.500   28.260    0.411    0.382   13.836
  340.750   32.002    0.428    0.384   13.874
  341.000   32.083    0.416    0.377   13.912
  341.250   32.190    0.405    0.376   13.959
  341.500   32.324    0.406    0.376   13.987
  341.750   33.643    0.414    0.369   13.778
  342.000   36.780    0.419    0.367   13.825
  342.250   38.099    0.410    0.377   13.843
  342.500   37.021    0.398    0.380   13.645
  342.750   35.310    0.382    0.379   13.664
  343.000   34.205    0.384    0.376   13.710
  343.250   36.763    0.393    0.378   13.738
  343.500   36.816    0.407    0.382   13.785
  343.750   38.741    0.414    0.384   13.832
  344.000   40.060    0.424    0.386   13.606
  344.250   41.406    0.430    0.383   13.652
  344.500   41.486    0.441    0.378   13.429
  344.750   40.382    0.433    0.375   13.219
  345.000   37.486    0.446    0.377   13.012
  345.250   36.381    0.433    0.384   12.809
  345.500   37.094    0.424    0.388   12.625
  345.750   40.864    0.433    0.386   12.411
  346.000   41.577    0.452    0.382   12.677
  346.250   41.078    0.448    0.390   13.190
  346.500   38.128    0.384    0.341   13.980
  346.750   33.967    0.304    0.233   14.818
  347.000   30.438    0.357    0.148   15.145
  347.250   39.661    0.453    0.256   14.377
  347.500   46.434    0.466    0.334   13.883
  347.750   50.204    0.452    0.388   13.170
  348.000   51.550    0.446    0.399   12.501
  348.250   54.660    0.441    0.397   12.289
  348.500   57.191    0.449    0.393   11.883
  348.750   56.692    0.472    0.385   12.130
  349.000   59.276    0.448    0.376   12.874
  349.250   58.145    0.396    0.351   13.636
  349.500   52.771    0.360    0.247   15.007
  349.750   48.031    0.215    0.115   16.505
  350.000   49.350    0.192    0.018   18.492
  350.250   53.093    0.197    0.019   22.724
  350.500   57.468    0.243    0.054   31.783
  350.750   59.999    0.273    0.148   27.002
  351.000   61.924    0.454    0.232   19.398
  351.250   62.058    0.463    0.273   15.570
  351.500   62.139    0.443    0.301   11.622
  351.750   67.147    0.441    0.354   10.624
  352.000   66.015    0.455    0.340   10.253
  352.250   70.364    0.471    0.334    9.201
  352.500   71.077    0.436    0.335    8.417
  352.750   71.817    0.437    0.357    8.446
  353.000   72.530    0.445    0.361    9.283
  353.250   72.637    0.444    0.362   10.414
  353.500   75.195    0.435    0.357   11.023
  353.750   77.093    0.444    0.343   12.131
  354.000   76.594    0.466    0.317   12.391
  354.250   79.125    0.456    0.312   12.416
  354.500   77.414    0.416    0.323   11.359
  354.750   73.306    0.421    0.335   10.187
  355.000   77.023    0.469    0.325    8.182
  355.250   85.034    0.531    0.308    5.774
  355.500   92.413    0.559    0.295    5.083
  355.750   95.576    0.586    0.296    3.789
  356.000   93.260    0.574    0.299    2.722
  356.250   90.943    0.565    0.291    2.108
  356.500   89.811    0.529    0.262    2.276
  356.750   87.548    0.487    0.252    2.456
