~VERSION INFORMATION
 VERS.                 2.0:   CWLS LOG ASCII STANDARD -VERSION 2.0
 WRAP.                  NO:   ONE LINE PER DEPTH STEP
~WELL INFORMATION BLOCK
#MNEM.UNIT           DATA                    DESCRIPTION OF MNEMONIC
#---------    -------------------            -------------------------------
# Generated from Intellog Unique Number	CC_84_87/WELL/1069
NULL.         -999.25                        : NULL_VALUE
WELL.         PARA ET AL SALESKI             : Well_name    - WELL
LOC .         06-19-086-18W4                 : Location     - LOCATION          
UWI .         00/06-19-086-18W400            : Uwi          - UNIQUE WELL ID    
ENTR.         DW                             : Entered      - ENTERED BY        
SRVC.         SCHLUMBERGER                   : Scn          - SERVICE COMPANY   
DATE.         26 JAN 86                      : Date         - LOG DATE
STRT.M        85                             : top_depth    - START DEPTH       
STOP.M        237.102                        : bot_depth    - STOP DEPTH        
STEP.M        0.3                            : increment    - STEP LENGTH       
~CURVE INFORMATION BLOCK
#MNEM UNIT       ERCB CURVE CODE    CURVE DESCRIPTION
#-----------   ------------------   ----------------------------------
DEPT.M        00 001 00 00         : DEPTH        - DEPTH                       
DPHI.V/V      00 890 00 00         : PHID         - DENSITY POROSITY (LIMESTONE)
NPHI.V/V      00 330 00 00         : PHIN         - NEUTRON POROSITY (LIMESTONE)
GR  .API      00 310 00 00         : GR           - GAMMA RAY                   
ILD .OHMM     00 120 00 00         : RESD         - DEEP RESISTIVITY (DIL)      
~PARAMETER INFORMATION       
#MNEM.UNIT           DATA             DESCRIPTION OF MNEMONIC
#---------         -----------     ------------------------------
GL  .M        522.5                : gl           - GROUND LEVEL ELEVATION      
EREF.M        526.2                : kb           - ELEVATION OF DEPTH REFERENCE
DATM.M        526.2                : datum        - DATUM ELEVATION             
TDD .M        239                  : tdd          - TOTAL DEPTH DRILLER         
RUN .         ONE                  : Run          - RUN NUMBER                  
ENG .         BILL                 : Engineer     - RECORDING ENGINEER          
WIT .         JIM                  : Witness      - WITNESSED BY                
MUD .         GEL                  : Mud_type     - MUD TYPE                    
MATR.         LIMESTONE            : Logunit      - NEUTRON MATRIX              
TMAX.C        20                   : BHT          - MAXIMUM RECORDED TEMPERATURE
BHTD.M        239                  : BHTDEP       - MAXIMUM RECORDED TEMPERATURE
MATR.         1                    : LOGUNIT      - NEUTRON MATRIX              
RMT .C        25                   : MDTP         - TEMPERATURE OF MUD          
NEUT.         1                    : NEUTRON      - NEUTRON TYPE                
RESI.         0                    : RESIST       - RESISTIVITY TYPE            
RMC .OHMM     0.25                 : RMC          - RESISTIVITY OF MUD CAKE     
RMF .OHMM     0.25                 : RMF          - RESISTIVITY OF MUD FILTRATE 
SUFT.C        15                   : SUFT         - SURFACE TEMPERATURE         
~A  DEPTH     PHID     PHIN       GR     RESD
   85.000    0.338    0.495   46.275   45.175
   85.300    0.354    0.481   45.660   46.017
   85.600    0.264    0.480   45.042   45.996
   85.900    0.218    0.527   45.677   45.074
   86.200    0.273    0.534   47.564   44.195
   86.500    0.304    0.513   51.953   43.322
   86.800    0.342    0.431   56.341   41.653
   87.100    0.332    0.400   59.476   37.063
   87.400    0.346    0.391   61.364   32.981
   87.700    0.357    0.391   62.622   27.694
   88.000    0.358    0.371   63.879   21.110
   88.300    0.351    0.370   66.391   13.520
   88.600    0.334    0.415   72.653   10.108
   88.900    0.270    0.451   87.670    7.856
   89.200    0.247    0.462  118.946    5.989
   89.500    0.243    0.473  123.959    4.654
   89.800    0.243    0.487  124.594    3.984
   90.100    0.238    0.492  125.230    3.905
   90.400    0.227    0.483  128.364    3.827
   90.700    0.228    0.477  130.249    3.752
   91.000    0.229    0.482  127.134    3.822
   91.300    0.224    0.478  124.643    3.895
   91.600    0.226    0.454  122.149    4.206
   91.900    0.257    0.447  114.030    5.002
   92.200    0.279    0.467  108.411    5.724
   92.500    0.275    0.471   95.915    6.942
   92.800    0.276    0.464   94.675    9.093
   93.100    0.311    0.452   89.056   10.610
   93.400    0.332    0.445   76.560   13.373
   93.700    0.337    0.431   68.442   15.008
   94.000    0.337    0.412   68.453   14.429
   94.300    0.324    0.400   73.463   13.092
   94.600    0.290    0.420   85.980    9.059
   94.900    0.225    0.450  105.998    6.774
   95.200    0.236    0.471  112.886    5.579
   95.500    0.235    0.479  113.524    5.466
   95.800    0.238    0.483  114.781    5.679
   96.100    0.254    0.464  111.666    5.901
   96.400    0.268    0.463  104.797    7.434
   96.700    0.277    0.463   97.928    7.875
   97.000    0.296    0.438   93.562    8.181
   97.300    0.285    0.415   92.318    8.175
   97.600    0.268    0.425   91.704    7.712
   97.900    0.288    0.458  102.969    5.992
   98.200    0.285    0.507  117.361    4.935
   98.500    0.259    0.535  121.123    4.478
   98.800    0.245    0.523  123.014    3.983
   99.100    0.254    0.454  124.273    3.905
   99.400    0.250    0.448  126.156    3.828
   99.700    0.225    0.492  126.788    3.825
  100.000    0.220    0.521  126.800    4.212
  100.300    0.231    0.531  118.680    5.518
  100.600    0.239    0.490  101.180    7.513
  100.900    0.216    0.442   89.308    8.767
  101.200    0.023    0.348  118.082   18.273
  101.500    0.010    0.250  144.355   22.590
  101.800    0.102    0.241  138.113   21.714
  102.100    0.230    0.404   81.219   19.324
  102.400    0.306    0.420   71.225   16.867
  102.700    0.310    0.425   68.731   15.300
  103.000    0.313    0.425   61.865   15.292
  103.300    0.334    0.430   56.251   16.193
  103.600    0.342    0.414   55.631   16.824
  103.900    0.344    0.416   56.896   17.478
  104.200    0.342    0.427   57.528   18.868
  104.500    0.335    0.437   58.159   19.227
  104.800    0.315    0.441   57.550   19.207
  105.100    0.304    0.426   57.557   18.828
  105.400    0.312    0.407   57.565   19.183
  105.700    0.331    0.422   58.825   19.548
  106.000    0.345    0.429   65.714   19.919
  106.300    0.331    0.408   71.975   20.692
  106.600    0.332    0.404   75.112   21.489
  106.900    0.354    0.409   67.618   21.480
  107.200    0.373    0.413   59.498   21.881
  107.500    0.362    0.419   55.132   22.301
  107.800    0.345    0.421   51.392   24.547
  108.100    0.312    0.398   52.023   25.500
  108.400    0.163    0.298   50.783   25.482
  108.700    0.173    0.283   46.416   24.032
  109.000    0.293    0.304   57.056   22.229
  109.300    0.341    0.352   62.069   20.962
  109.600    0.346    0.401   57.701   20.149
  109.900    0.329    0.423   55.209   19.755
  110.200    0.334    0.408   54.594   19.738
  110.500    0.332    0.403   57.103   19.730
  110.800    0.323    0.418   54.616   20.098
  111.100    0.324    0.418   52.119   20.082
  111.400    0.334    0.414   51.506   20.066
  111.700    0.346    0.413   53.392   22.103
  112.000    0.352    0.413   55.278   24.329
  112.300    0.357    0.414   55.911   27.306
  112.600    0.338    0.405   57.172   34.416
  112.900    0.257    0.413   54.684   43.386
  113.200    0.068    0.255   53.438   54.682
  113.500    0.051    0.186   50.321   60.196
  113.800    0.030    0.157   47.205   61.336
  114.100    0.020    0.150   45.965   61.286
  114.400    0.023    0.147   47.229   60.084
  114.700    0.030    0.154   48.486   50.447
  115.000    0.052    0.171   48.497   39.973
  115.300    0.100    0.202   48.504   33.564
  115.600    0.199    0.236   49.768   27.114
  115.900    0.310    0.315   52.902   23.666
  116.200    0.347    0.364   56.038   21.467
  116.500    0.339    0.406   58.550   20.642
  116.800    0.324    0.434   59.187   19.847
  117.100    0.313    0.414   59.818   19.830
  117.400    0.337    0.395   57.952   19.819
  117.700    0.344    0.387   55.463   19.802
  118.000    0.348    0.381   55.469   19.794
  118.300    0.337    0.411   57.984   18.662
  118.600    0.337    0.388   59.867   18.653
  118.900    0.342    0.378   62.380   18.644
  119.200    0.352    0.388   62.387   17.924
  119.500    0.355    0.410   63.022   17.910
  119.800    0.350    0.429   66.161   16.566
  120.100    0.340    0.443   68.045   15.930
  120.400    0.338    0.455   66.177   14.730
  120.700    0.339    0.419   63.686   14.438
  121.000    0.325    0.413   68.701   14.155
  121.300    0.317    0.410   71.837   14.706
  121.600    0.329    0.405   71.844   15.571
  121.900    0.334    0.396   70.603   15.261
  122.200    0.336    0.397   73.115   15.257
  122.500    0.322    0.387   75.000   13.315
  122.800    0.312    0.392   75.636   11.622
  123.100    0.300    0.418   76.271   10.542
  123.400    0.281    0.436   81.285   10.953
  123.700    0.252    0.473   83.169   12.055
  124.000    0.247    0.432   83.178   11.592
  124.300    0.298    0.439   95.693    9.184
  124.600    0.307    0.464  105.082    7.565
  124.900    0.296    0.474   95.088    4.940
  125.200    0.268    0.444   88.844    4.841
  125.500    0.262    0.440   83.227    5.540
  125.800    0.291    0.459   85.737    6.983
  126.100    0.337    0.470   86.998    8.305
  126.400    0.368    0.471   75.751    8.141
  126.700    0.361    0.454   62.633    7.243
  127.000    0.332    0.418   68.269    6.572
  127.300    0.306    0.431   77.033    5.963
  127.600    0.293    0.440   82.668    5.733
  127.900    0.291    0.430   87.055    5.619
  128.200    0.290    0.416   82.066    6.067
  128.500    0.296    0.466   82.698    6.810
  128.800    0.309    0.472   86.460    8.100
  129.100    0.313    0.471   81.467   10.409
  129.400    0.316    0.469   68.344   11.682
  129.700    0.322    0.453   59.600   11.900
  130.000    0.327    0.431   68.991   10.591
  130.300    0.328    0.437   75.253    8.891
  130.600    0.321    0.439   73.385    8.386
  130.900    0.287    0.436   84.026    8.063
  131.200    0.280    0.429   88.413    8.704
  131.500    0.293    0.434   72.792    9.583
  131.800    0.316    0.441   67.172   10.346
  132.100    0.318    0.446   78.440   10.338
  132.400    0.297    0.455   80.949   10.535
  132.700    0.290    0.465   80.958   10.528
  133.000    0.302    0.466   70.962   10.728
  133.300    0.298    0.444   67.220   10.719
  133.600    0.294    0.447   77.865   10.309
  133.900    0.304    0.466   80.370    9.172
  134.201    0.320    0.492   84.132    8.650
  134.501    0.303    0.487   81.018    8.000
  134.801    0.284    0.467   81.027    7.997
  135.101    0.283    0.449   84.787    8.305
  135.401    0.296    0.443   82.299    8.301
  135.701    0.304    0.451   81.054    8.792
  136.001    0.305    0.463   78.564   10.059
  136.301    0.271    0.481   73.570   11.511
  136.601    0.250    0.461   55.447   13.957
  136.901    0.314    0.389   46.702   15.972
