~VERSION INFORMATION
 VERS.                 2.0:   CWLS LOG ASCII STANDARD -VERSION 2.0
 WRAP.                  NO:   ONE LINE PER DEPTH STEP
~WELL INFORMATION BLOCK
#MNEM.UNIT           DATA                    DESCRIPTION OF MNEMONIC
#---------    -------------------            -------------------------------
# Generated from Intellog Unique Number	CC_80_83/WELL/1184
NULL.         -999.25                        : NULL_VALUE
WELL.         CWWE KEANE                     : Well_name    - WELL
LOC .         07-15-080-14W4                 : Location     - LOCATION          
UWI .         00/07-15-080-14W4/0            : Uwi          - UNIQUE WELL ID    
ENTR.         DW                             : Entered      - ENTERED BY        
SRVC.         SCHLUMBERGER                   : Scn          - SERVICE COMPANY   
DATE.         23 DEC 84                      : Date         - LOG DATE
STRT.M        255                            : top_depth    - START DEPTH       
STOP.M        494.99                         : bot_depth    - STOP DEPTH        
STEP.M        0.3                            : increment    - STEP LENGTH       
~CURVE INFORMATION BLOCK
#MNEM UNIT       ERCB CURVE CODE    CURVE DESCRIPTION
#-----------   ------------------   ----------------------------------
DEPT.M        00 001 00 00         : DEPTH        - DEPTH                       
DPHI.V/V      00 890 00 00         : PHID         - DENSITY POROSITY (LIMESTONE)
NPHI.V/V      00 330 00 00         : PHIN         - NEUTRON POROSITY (LIMESTONE)
GR  .API      00 310 00 00         : GR           - GAMMA RAY                   
ILD .OHMM     00 120 00 00         : RESD         - DEEP RESISTIVITY (DIL)      
~PARAMETER INFORMATION       
#MNEM.UNIT           DATA             DESCRIPTION OF MNEMONIC
#---------         -----------     ------------------------------
GL  .M        674.75               : gl           - GROUND LEVEL ELEVATION      
EREF.M        678.8                : kb           - ELEVATION OF DEPTH REFERENCE
DATM.M        678.8                : datum        - DATUM ELEVATION             
TDD .M        504                  : tdd          - TOTAL DEPTH DRILLER         
RUN .         ONE                  : Run          - RUN NUMBER                  
ENG .         BILL                 : Engineer     - RECORDING ENGINEER          
WIT .         JIM                  : Witness      - WITNESSED BY                
MUD .         GEL                  : Mud_type     - MUD TYPE                    
MATR.         LIMESTONE            : Logunit      - NEUTRON MATRIX              
TMAX.C        20                   : BHT          - MAXIMUM RECORDED TEMPERATURE
BHTD.M        503                  : BHTDEP       - MAXIMUM RECORDED TEMPERATURE
MATR.         1                    : LOGUNIT      - NEUTRON MATRIX              
RMT .C        25                   : MDTP         - TEMPERATURE OF MUD          
NEUT.         1                    : NEUTRON      - NEUTRON TYPE                
RESI.         0                    : RESIST       - RESISTIVITY TYPE            
RMC .OHMM     0.25                 : RMC          - RESISTIVITY OF MUD CAKE     
RMF .OHMM     0.25                 : RMF          - RESISTIVITY OF MUD FILTRATE 
SUFT.C        15                   : SUFT         - SURFACE TEMPERATURE         
~A  DEPTH     PHID     PHIN       GR     RESD
# ...
  307.198    0.259    0.441   85.438    8.996
  307.498    0.249    0.436   86.670    8.494
  307.798    0.268    0.438   88.521    8.492
  308.098    0.283    0.437   82.939    9.340
  308.398    0.276    0.431   82.931   10.471
  308.698    0.298    0.433   85.401   11.737
  308.998    0.295    0.417   81.675   11.962
  309.298    0.305    0.389   80.428   12.425
  309.598    0.313    0.380   81.661   11.730
  309.898    0.271    0.391   76.696   10.867
  310.198    0.239    0.409   74.830   10.066
  310.498    0.242    0.394   83.497    8.976
  310.798    0.244    0.420   90.926    7.852
  311.098    0.238    0.435   95.876    7.414
  311.398    0.215    0.455   94.629    7.701
  311.698    0.248    0.419   75.412    8.153
  311.998    0.278    0.383   62.391    9.140
  312.298    0.308    0.419   52.468   10.850
  312.598    0.329    0.465   41.306   13.128
  312.898    0.335    0.417   40.058   15.883
  313.198    0.344    0.381   41.911   17.140
  313.498    0.355    0.410   46.859   16.811
  313.798    0.355    0.419   49.332   16.490
  314.098    0.337    0.419   44.986   16.487
  314.398    0.330    0.435   44.979   16.485
  314.698    0.325    0.405   48.068   16.797
  314.998    0.329    0.386   48.062   17.118
  315.298    0.325    0.393   41.858   17.779
  315.598    0.332    0.390   39.372   17.776
  315.898    0.322    0.386   41.223   18.113
  316.198    0.328    0.383   42.454   17.768
  316.498    0.327    0.374   41.827   17.765
  316.798    0.319    0.374   41.819   17.763
  317.098    0.323    0.380   43.052   17.758
  317.398    0.340    0.390   45.523   17.755
  317.698    0.337    0.413   43.657   17.415
  317.997    0.338    0.405   44.888   17.413
  318.297    0.352    0.410   46.119   17.080
  318.597    0.350    0.402   45.492   16.754
  318.897    0.339    0.393   44.246   17.400
  319.197    0.267    0.375   43.618   17.732
  319.497    0.272    0.370   43.609   18.071
  319.797    0.298    0.394   42.364   18.416
  320.097    0.296    0.412   43.596   19.129
  320.397    0.306    0.427   44.828   21.444
  320.697    0.152    0.448   41.722   23.140
  320.997    0.124    0.302   34.897   24.967
  321.297    0.172    0.327   37.988   24.965
  321.597    0.321    0.393   42.938   23.571
  321.897    0.339    0.406   46.647   21.422
  322.197    0.343    0.407   47.879   19.102
  322.497    0.344    0.417   48.492   17.360
  322.797    0.337    0.421   49.106   17.027
  323.097    0.362    0.407   48.478   17.025
  323.397    0.347    0.393   44.752   18.024
  323.697    0.307    0.414   45.982   20.206
  323.997    0.310    0.475   47.216   23.089
  324.297    0.128    0.459   43.490   28.473
  324.597    0.001    0.166   35.427   40.905
  324.897    0.104    0.226   28.603   54.444
  325.197    0.229    0.295   36.650   50.435
  325.497    0.322    0.351   41.601   33.780
  325.797    0.360    0.438   42.831   28.445
  326.097    0.341    0.447   41.586   24.884
  326.397    0.346    0.426   44.675   19.414
  326.697    0.338    0.412   39.712   18.330
  326.997    0.348    0.421   42.183   17.640
  327.297    0.350    0.405   44.034   16.977
  327.597    0.346    0.406   41.548   16.651
  327.897    0.347    0.425   41.539   16.648
  328.197    0.347    0.416   41.532   16.645
  328.497    0.349    0.401   41.525   16.642
  328.797    0.355    0.392   41.518   16.637
  329.097    0.356    0.402   39.651   16.634
  329.397    0.356    0.421   41.500   16.317
  329.697    0.362    0.432   41.495   16.315
  329.997    0.370    0.461   41.488   16.004
  330.297    0.356    0.460   42.099   15.697
  330.597    0.341    0.432   37.754   15.398
  330.897    0.334    0.408   43.323   15.395
  331.197    0.331    0.412   38.359   15.100
  331.497    0.347    0.401   37.732   15.098
  331.797    0.354    0.402   42.060   15.386
  332.097    0.342    0.419   43.913   15.382
  332.397    0.345    0.431   45.764   15.676
  332.697    0.357    0.440   45.756   15.974
  332.997    0.348    0.445   43.888   15.971
  333.297    0.341    0.445   43.261   16.275
  333.597    0.349    0.437   44.496   16.585
  333.897    0.333    0.434   46.965   16.899
  334.197    0.298    0.417   48.199   17.222
  334.497    0.289    0.426   50.049   17.219
  334.797    0.318    0.441   50.042   17.548
  335.097    0.326    0.416   45.075   17.543
  335.397    0.331    0.430   42.588   17.541
  335.697    0.333    0.415   43.822   17.204
  335.997    0.328    0.406   47.532   17.201
  336.297    0.325    0.400   51.863   17.198
  336.597    0.320    0.404   49.377   16.871
  336.897    0.309    0.415   51.848   16.549
  337.197    0.303    0.419   58.657   16.543
  337.497    0.315    0.424   54.311   16.540
  337.797    0.329    0.406   51.205   16.538
  338.097    0.320    0.403   50.579   16.535
  338.397    0.310    0.426   51.191   16.532
  338.697    0.318    0.451   51.802   16.527
  338.997    0.303    0.470   53.034   16.843
  339.297    0.313    0.458   53.025   17.165
  339.597    0.309    0.441   51.781   17.489
  339.897    0.286    0.420   49.293   17.486
  340.197    0.297    0.424   50.525   17.484
  340.497    0.316    0.430   52.995   17.150
  340.797    0.316    0.431   54.229   17.146
  341.097    0.321    0.422   56.081   17.144
  341.397    0.318    0.436   57.312   16.815
  341.697    0.318    0.445   56.685   16.812
  341.997    0.316    0.430   53.576   16.492
  342.297    0.318    0.414   52.952   16.804
  342.596    0.323    0.394   52.323   16.801
  342.896    0.313    0.408   54.175   17.123
  343.196    0.297    0.413   56.647   17.119
  343.496    0.308    0.415   52.922   16.164
  343.796    0.314    0.400   51.674   14.412
  344.096    0.312    0.398   59.103   13.099
  344.396    0.292    0.424   58.475   11.680
  344.696    0.296    0.415   57.229   11.902
  344.996    0.292    0.393   57.221   12.130
  345.296    0.291    0.379   61.551   13.088
  345.596    0.290    0.412   63.402   13.595
  345.896    0.291    0.419   63.395   13.853
  346.196    0.266    0.412   67.726   13.850
  346.496    0.269    0.434   66.475   13.586
  346.796    0.285    0.442   66.471   12.348
  347.096    0.275    0.434   65.843   11.659
  347.396    0.274    0.441   68.316   11.007
  347.696    0.256    0.447   69.547   11.006
  347.996    0.222    0.426   70.159   11.003
  348.296    0.240    0.417   76.968   10.389
  348.596    0.270    0.419   70.143    9.263
  348.896    0.270    0.448   62.700    9.262
  349.196    0.267    0.439   50.299    9.805
  349.496    0.299    0.415   43.475   10.992
  349.796    0.291    0.410   45.326   12.089
  350.096    0.270    0.403   51.514   12.800
  350.396    0.282    0.401   52.128   14.076
  350.696    0.300    0.405   45.924   14.621
  350.996    0.309    0.400   42.818   14.618
  351.296    0.302    0.402   44.050   14.897
  351.596    0.286    0.410   47.138   14.895
  351.896    0.294    0.390   48.371   14.611
  352.196    0.310    0.390   51.462   14.607
  352.496    0.310    0.401   52.075   14.885
  352.796    0.319    0.421   49.588   14.883
  353.096    0.316    0.437   50.201   15.165
  353.396    0.275    0.391   43.996   15.162
  353.696    0.190    0.351   43.370   15.160
  353.996    0.240    0.406   47.700   15.157
  354.296    0.294    0.417   48.311   14.586
  354.596    0.286    0.415   51.402   13.772
  354.896    0.283    0.414   56.353   13.004
  355.196    0.254    0.404   65.019   10.743
  355.496    0.218    0.401   71.830    8.876
  355.796    0.213    0.449   77.398    7.058
  356.096    0.187    0.424   82.968    6.538
  356.396    0.214    0.426   87.297    6.057
  356.696    0.263    0.490   84.812    5.829
  356.996    0.273    0.491   85.424    5.503
  357.296    0.249    0.497   88.515    4.814
  357.596    0.250    0.546   81.691    4.212
  357.896    0.238    0.558   82.923    3.480
  358.196    0.237    0.526   87.873    3.044
  358.496    0.242    0.497   95.301    2.929
  358.796    0.245    0.537   90.956    2.929
  359.096    0.258    0.530   84.133    2.928
