~VERSION INFORMATION
 VERS.                 2.0:   CWLS LOG ASCII STANDARD -VERSION 2.0
 WRAP.                  NO:   ONE LINE PER DEPTH STEP
~WELL INFORMATION BLOCK
#MNEM.UNIT           DATA                    DESCRIPTION OF MNEMONIC
#---------    -------------------            -------------------------------
# Generated from Intellog Unique Number	CW_79_81/WELL/194
NULL.         -999.25                        : NULL_VALUE
WELL.         SHELL MISTAHAE 06-12           : Well_name    - WELL              
LOC .         06-12-081-04W5                 : Location     - LOCATION          
UWI .         00/06-12-081-04W5/0            : Uwi          - UNIQUE WELL ID    
ENTR.         JJ                             : Entered      - ENTERED BY        
SRVC.         SCHLUMBERGER                   : Scn          - SERVICE COMPANY   
DATE.         3 MAR 78                       : Date         - LOG DATE          
STRT.M        368.808                        : top_depth    - START DEPTH       
STOP.M        496.808                        : bot_depth    - STOP DEPTH        
STEP.M        0.25                           : increment    - STEP LENGTH       
~CURVE INFORMATION BLOCK
#MNEM UNIT       ERCB CURVE CODE    CURVE DESCRIPTION
#-----------   ------------------   ----------------------------------
DEPT.M        00 001 00 00         : DEPTH        - DEPTH                       
ILD .OHMM     00 120 00 00         : RESD         - DEEP RESISTIVITY (DIL)      
GR  .API      00 310 00 00         : GR           - GAMMA RAY                   
DELT.US/F     00 520 00 00         : DELT         - SONIC TRAVEL TIME           
~PARAMETER INFORMATION       
#MNEM.UNIT           DATA             DESCRIPTION OF MNEMONIC
#---------         -----------     ------------------------------
GL  .M        593.872              : gl           - GROUND LEVEL ELEVATION      
EREF.M        598.048              : kb           - ELEVATION OF DEPTH REFERENCE
DATM.M        598.048              : datum        - DATUM ELEVATION             
TDD .M        498.653              : tdd          - TOTAL DEPTH DRILLER         
RUN .         ONE                  : Run          - RUN NUMBER                  
MATR.         SANDSTONE            : Logunit      - NEUTRON MATRIX              
TMAX.C        25.5556              : BHT          - MAXIMUM RECORDED TEMPERATURE
BHTD.M        500.177              : BHTDEP       - MAXIMUM RECORDED TEMPERATURE
RMT .C        12.2222              : MDTP         - TEMPERATURE OF MUD          
MUDD.KG/M     1128                 : MWT          - MUD DENSITY                 
NEUT.         1                    : NEUTRON      - NEUTRON TYPE                
RESI.         0                    : RESIST       - RESISTIVITY TYPE            
RM  .OHMM     5.56                 : RM           - RESISTIVITY OF MUD          
RMC .OHMM     0                    : RMC          - RESISTIVITY OF MUD CAKE     
RMF .OHMM     6.24                 : RMF          - RESISTIVITY OF MUD FILTRATE 
SUFT.C        5                    : SUFT         - SURFACE TEMPERATURE         
~A  DEPTH     RESD       GR     DELT
# ...
  423.058    4.091   85.215  414.276
  423.308    4.429   85.153  401.857
  423.558    4.708   88.347  390.542
  423.808    4.950   92.708  397.025
  424.058    5.035   94.120  399.989
  424.308    5.075   88.775  397.504
  424.558    5.096   83.738  398.882
  424.808    5.117   79.315  402.674
  425.058    5.110   74.523  398.050
  425.308    5.122   72.557  380.803
  425.558    5.144   76.242  336.651
  425.808    5.175   88.957  361.345
  426.058    5.216   96.266  393.697
  426.308    5.180   93.379  411.975
  426.558    5.089   90.921  406.800
  426.808    5.008   92.948  395.898
  427.058    4.946   95.650  392.241
  427.308    4.886   99.273  398.516
  427.558    4.915  100.071  403.481
  427.808    5.093   96.877  404.169
  428.058    5.443   93.621  402.373
  428.308    5.958   89.198  395.887
  428.558    6.704   87.477  387.952
  428.808    7.271   85.450  375.809
  429.058    7.786   84.159  368.978
  429.308    7.876   83.545  366.631
  429.558    7.527   83.728  368.422
  429.808    6.721   84.772  372.628
  430.058    5.990   88.027  380.284
  430.308    5.419   90.545  397.252
  430.558    5.168   91.405  407.321
  430.808    5.143   92.756  414.287
  431.058    5.578   95.335  419.873
  431.308    6.754   94.413  423.113
  431.558    8.786   88.639  422.973
  431.808   10.561   83.233  416.694
  432.058   12.859   77.335  390.892
  432.308   14.765   75.738  373.437
  432.558   15.896   75.553  362.122
  432.808   16.560   74.877  357.567
  433.058   17.000   68.857  351.426
  433.308   17.103   64.618  333.557
  433.558   16.988   64.495  343.765
  433.808   16.779   67.013  366.597
  434.058   16.481   71.251  371.907
  434.308   16.012   71.434  364.454
  434.558   15.024   70.328  361.900
  434.808   13.816   71.004  366.175
  435.058   12.404   72.907  363.207
  435.308   10.482   75.487  357.618
  435.558    8.602   83.041  366.377
  435.808    7.007   88.815  380.585
  436.058    5.687   93.667  402.865
  436.308    4.904   96.001  412.314
  436.558    4.518   96.123  416.451
  436.808    4.406   96.184  416.380
  437.058    4.448   96.245  413.136
  437.308    4.755   94.524  408.029
  437.558    4.999   93.787  401.267
  437.808    5.198   94.216  396.712
  438.058    5.258   95.137  405.402
  438.308    4.915   96.242  408.781
  438.558    4.629   96.549  411.331
  438.808    4.597   95.750  406.845
  439.058    4.780   93.231  401.049
  439.308    5.243   90.466  386.630
  439.558    5.749   88.378  376.763
  439.808    6.823   83.709  367.310
  440.058    7.762   80.821  364.135
  440.308    8.945   81.927  363.857
  440.558    9.991   85.489  362.890
  440.808   10.465   80.820  360.474
  441.058   10.529   78.915  355.988
  441.308   10.399   79.406  351.088
  441.558   10.215   82.170  350.327
  441.808    9.763   84.565  369.986
  442.058    9.194   84.933  384.401
  442.308    8.224   81.616  382.882
  442.558    7.196   83.397  389.157
  442.808    6.229   85.423  397.158
  443.058    5.592   89.538  391.982
  443.308    5.218   94.451  388.738
  443.558    5.135   96.847  392.392
  443.808    5.157   94.389  399.840
  444.058    5.198   91.379  400.459
  444.308    5.258   90.457  399.492
  444.558    5.328   86.587  395.281
  444.808    5.264   85.481  392.314
  445.058    5.228   84.374  387.276
  445.308    5.288   81.057  383.480
  445.558    5.281   80.872  383.202
  445.808    5.323   87.199  385.408
  446.058    5.277   90.945  387.820
  446.308    5.279   93.524  391.199
  446.558    5.282   91.374  396.302
  446.808    5.314   91.128  396.852
  447.058    5.386   92.909  393.055
  447.308    5.590   96.225  391.605
  447.558    5.877   94.259  393.121
  447.808    6.011   90.327  393.188
  448.058    6.080   90.818  389.185
  448.308    6.117   91.248  385.251
  448.558    6.154   94.626  378.006
  448.808    6.180   98.126  366.346
  449.058    6.229   98.679  374.898
  449.308    6.243   98.371  384.002
  449.558    6.315   97.511  382.344
  449.808    6.318   97.572  379.100
  450.058    6.276   98.124  377.374
  450.308    6.119   99.598  377.579
  450.558    5.923  100.396  381.785
  450.808    5.724   99.965  380.817
  451.058    5.769  100.763  373.848
  451.308    5.988  103.589  374.260
  451.558    6.341  107.704  391.504
  451.808    6.929  101.929  383.776
  452.058    7.626   82.948  353.421
  452.308    8.661   67.899  313.202
  452.558    9.240   60.466  247.114
  452.808    8.781   69.802  257.736
  453.058    7.656   79.507  307.333
  453.308    6.639   88.781  356.792
  453.558    6.251   90.931  382.866
  453.808    6.255   87.797  391.625
  454.058    6.456   82.085  375.205
  454.308    6.939   75.757  339.815
  454.558    7.229   75.204  309.322
  454.808    7.140   82.759  339.397
  455.058    6.811   85.645  371.886
  455.308    6.240   84.293  374.091
  455.558    5.855   86.934  375.884
  455.808    5.667   88.715  379.952
  456.058    5.506   89.329  375.742
  456.308    5.469   89.881  376.085
  456.558    5.472   90.679  377.324
  456.808    5.484   91.969  372.632
  457.058    5.487   93.135  369.043
  457.308    5.490   93.565  376.215
  457.558    5.493   94.608  382.422
  457.808    5.526   95.652  379.798
  458.058    5.508   96.020  378.072
  458.308    5.501   95.651  376.897
  458.558    5.535   93.624  377.586
  458.808    5.578   91.105  372.617
  459.058    5.633   89.139  367.441
  459.308    5.646   89.323  369.302
  459.558    5.649   90.919  378.199
  459.808    5.651   91.656  379.991
  460.058    5.665   91.348  380.955
  460.308    5.699   90.918  379.780
  460.558    5.702   90.671  371.293
  460.808    5.715   90.917  365.497
  461.058    5.824   90.793  364.460
  461.308    5.935   89.196  370.736
  461.558    5.982   86.616  366.319
  461.808    6.051   84.772  357.004
  462.058    6.189   86.799  351.966
  462.308    6.272   88.027  345.480
  462.558    6.345   88.088  340.442
  462.808    6.442   87.780  337.888
  463.058    6.638   85.630  335.057
  463.308    6.638   82.128  333.331
  463.558    7.584   76.600  331.467
  463.808    8.075   70.886  319.255
  464.058    9.204   65.358  300.835
  464.308   10.509   63.453  278.344
  464.558   11.913   66.217  263.718
  464.808   12.872   65.971  268.476
  465.058   13.584   64.557  268.129
  465.308   13.442   63.636  263.298
  465.558   12.360   63.696  260.675
  465.808   10.976   66.276  267.640
  466.058    9.746   72.479  283.781
  466.308    8.847   76.471  302.335
  466.558    7.973   79.665  321.235
  466.808    7.028   80.402  338.824
  467.058    6.391   80.094  351.515
  467.308    6.075   83.165  356.066
  467.558    5.945   85.560  357.788
  467.808    5.938   86.296  358.752
  468.058    5.973   86.726  355.301
  468.308    5.943   84.698  355.851
  468.558    5.947   85.865  362.334
  468.808    5.950   85.803  368.540
  469.058    5.953   82.916  372.057
  469.308    5.956   80.397  364.673
  469.558    6.036   80.335  356.670
  469.808    6.334   80.089  358.530
  470.058    6.635   74.130  345.767
  470.308    6.886   72.225  327.829
  470.558    7.227   74.743  322.860
  470.808    7.640   74.681  343.416
  471.058    7.814   72.961  342.517
  471.308    7.648   72.101  338.307
  471.558    7.512   73.329  332.373
  471.808    7.353   75.785  335.889
  472.058    7.249   78.365  345.752
  472.308    7.108   81.189  357.339
  472.558    6.881   83.462  350.093
  472.808    6.661   88.191  345.884
  473.058    6.377   88.436  345.675
  473.308    6.173   86.654  356.089
  473.558    5.942   87.760  364.641
  473.808    5.795   89.663  375.746
  474.058    5.692   92.181  368.570
  474.308    5.561   94.576  369.120
  474.558    5.463   96.603  373.878
  474.808    5.416   98.384  370.565
  475.058    5.320  100.042  370.287
  475.308    5.160  101.823  377.666
  475.558    5.143  103.603  385.942
  475.808    5.164  106.613  399.737
  476.058    5.350  107.411  377.660
  476.308    5.604  108.147  360.689
  476.558    6.135  109.928  351.788
  476.808    6.605  106.795  352.821
  477.058    6.633  103.723  343.644
