~VERSION INFORMATION
 VERS.                 2.0:   CWLS LOG ASCII STANDARD -VERSION 2.0
 WRAP.                  NO:   ONE LINE PER DEPTH STEP
~WELL INFORMATION BLOCK
#MNEM.UNIT           DATA                    DESCRIPTION OF MNEMONIC
#---------    -------------------            -------------------------------
# Generated from Intellog Unique Number	CW_76_78/WELL/416
WELL.         RR CHIEFCO PELICAN 06-03       : Well_name    - WELL
LOC .         00/06-03-077-22W4/0            : Location     - LOCATION
UWI .         00/06-03-077-22W4/0            : Uwi          - UNIQUE WELL ID
ENTR.         os                             : Entered      - ENTERED BY
SRVC.         SCHLUMBERGER                   : Scn          - SERVICE COMPANY
DATE.         25 JAN 1974                    : Date         - LOG DATE
STRT.M        438.912                        : top_depth    - START DEPTH
STOP.M        661.412                        : bot_depth    - STOP DEPTH
STEP.M        0.25                           : increment    - STEP LENGTH
 NULL. -999.2500:NULL Value
~CURVE INFORMATION BLOCK
#MNEM UNIT       ERCB CURVE CODE    CURVE DESCRIPTION
#-----------   ------------------   ----------------------------------
DEPT.M        00 001 00 00         : DEPTH        - DEPTH
ILD .OHMM     00 120 00 00         : RESD         - DEEP RESISTIVITY (DIL)
NPHI.V/V      00 330 00 00         : PHIN         - NEUTRON POROSITY (SANDSTONE)
DPHI.V/V      00 890 00 00         : PHID         - DENSITY POROSITY (SANDSTONE)
GR  .API      00 310 00 00         : GR           - GAMMA RAY
CALI.MM       00 280 01 00         : CAL          - CALIPER
~PARAMETER INFORMATION
#MNEM.UNIT           DATA             DESCRIPTION OF MNEMONIC
#---------         -----------     ------------------------------
GL  .M        756.94               : gl           - GROUND LEVEL ELEVATION
EREF.M        760.293              : kb           - ELEVATION OF DEPTH REFERENCE
DATM.M        756.94               : datum        - DATUM ELEVATION
TDD .M        675.742              : tdd          - TOTAL DEPTH DRILLER
RUN .         ONE                  : Run          - RUN NUMBER
ENG .         SIROIS & SMILEY      : Engineer     - RECORDING ENGINEER
WIT .         TAHMAZIAN            : Witness      - WITNESSED BY
BASE.         EDMONTON             : Branch       - HOME BASE OF LOGGING UNIT
MUD .         GEL CHEM             : Mud_type     - MUD TYPE
MATR.         SANDSTONE            : Logunit      - NEUTRON MATRIX
TMAX.C        28.8889              : BHT          - MAXIMUM RECORDED TEMPERATURE
BHTD.M        675.742              : BHTDEP       - MAXIMUM RECORDED TEMPERATURE
RMT .C        8.88889              : MDTP         - TEMPERATURE OF MUD
MUDD.KG/M     1080                 : MWT          - MUD DENSITY
NEUT.         1                    : NEUTRON      - NEUTRON TYPE
RESI.         0                    : RESIST       - RESISTIVITY TYPE
RM  .OHMM     4.42                 : RM           - RESISTIVITY OF MUD
RMC .OHMM     2.5                  : RMC          - RESISTIVITY OF MUD CAKE
RMF .OHMM     4.8                  : RMF          - RESISTIVITY OF MUD FILTRATE
SUFT.C        4.5                  : SUFT         - SURFACE TEMPERATURE
~A  DEPTH     RESD     PHIN     PHID       GR      CAL
# ...
  475.412    4.954    0.470    0.201  114.757  177.315
  475.662    5.383    0.456    0.224  108.530  175.195
  475.912    5.979    0.459    0.234  105.376  174.949
  476.162    6.412    0.478    0.268  101.176  169.509
  476.412    6.491    0.496    0.301   96.117  170.617
  476.662    6.308    0.497    0.316   91.058  166.317
  476.912    6.030    0.474    0.302   95.275  160.769
  477.162    5.838    0.460    0.285   96.911  158.442
  477.412    5.822    0.454    0.279   97.568  159.969
  477.662    5.851    0.459    0.285   99.880  162.426
  477.912    5.922    0.469    0.276  102.076  160.510
  478.162    6.065    0.479    0.269  102.729  161.421
  478.412    6.149    0.490    0.286   98.778  165.760
  478.662    6.294    0.499    0.307   88.188  163.020
  478.912    6.279    0.480    0.313   87.180  160.895
  479.162    6.238    0.466    0.328   85.319  161.482
  479.412    5.986    0.469    0.334   90.828  159.580
  479.662    5.784    0.478    0.327   93.198  160.687
  479.912    5.527    0.462    0.327   96.253  161.907
  480.162    5.283    0.458    0.330  101.397  160.827
  480.412    5.369    0.465    0.302  105.922  159.537
  480.662    5.598    0.460    0.286  107.250  158.259
  480.912    6.026    0.452    0.284  104.161  157.801
  481.162    6.437    0.460    0.283   95.227  160.476
  481.412    6.803    0.463    0.279   85.561  162.933
  481.662    6.978    0.473    0.287   75.709  161.550
  481.912    7.049    0.470    0.305   68.499  162.245
  482.162    7.095    0.463    0.321   67.923  160.748
  482.412    7.105    0.469    0.323   68.825  160.094
  482.662    7.072    0.475    0.319   68.929  160.993
  482.912    6.989    0.483    0.323   70.443  160.338
  483.162    6.906    0.481    0.327   70.546  159.056
  483.412    6.774    0.478    0.325   72.119  160.579
  483.662    6.584    0.474    0.329   72.839  160.852
  483.912    6.481    0.465    0.337   72.082  162.064
  484.162    6.264    0.477    0.332   72.430  163.068
  484.412    6.065    0.476    0.327   73.082  161.366
  484.662    5.972    0.465    0.334   72.202  161.437
  484.912    5.966    0.460    0.336   73.595  162.435
  485.162    6.176    0.458    0.312   73.390  161.579
  485.412    6.710    0.465    0.311   73.616  161.338
  485.662    7.778    0.477    0.313   75.002  161.825
  485.912    9.307    0.480    0.314   74.067  160.850
  486.162   10.830    0.469    0.301   69.372  161.225
  486.412   13.523    0.433    0.247   67.571  163.064
  486.662   15.245    0.356    0.182   62.203  166.044
  486.912   14.277    0.280    0.087   60.581  168.924
  487.162   10.386    0.252    0.084   61.546  171.701
  487.412    8.152    0.286    0.097   64.539  172.078
  487.662    6.996    0.344    0.112   69.250  170.488
  487.912    6.231    0.387    0.180   73.409  168.476
  488.162    5.934    0.428    0.210   74.062  168.651
  488.412    5.863    0.452    0.277   73.366  167.265
  488.662    5.805    0.458    0.346   70.392  162.123
  488.912    5.801    0.459    0.325   69.146  162.401
  489.162    5.828    0.453    0.324   69.674  161.851
  489.412    5.945    0.445    0.332   68.430  160.454
  489.662    6.131    0.440    0.331   65.701  161.978
  489.912    6.478    0.434    0.336   62.489  161.745
  490.162    6.768    0.445    0.334   62.403  161.083
  490.412    6.940    0.449    0.338   63.429  161.981
  490.662    7.079    0.431    0.328   61.377  160.906
  490.912    7.115    0.422    0.314   59.209  160.352
  491.162    7.107    0.414    0.270   55.990  160.208
  491.412    7.038    0.410    0.258   53.513  162.046
  491.662    6.889    0.413    0.278   54.047  164.724
  491.912    6.671    0.418    0.304   55.807  167.915
  492.162    6.422    0.423    0.319   54.498  165.482
  492.412    6.117    0.429    0.323   56.255  162.019
  492.662    5.976    0.437    0.322   60.475  160.202
  492.912    5.797    0.453    0.332   62.790  161.736
  493.162    5.762    0.482    0.344   64.184  163.159
  493.412    5.693    0.510    0.356   66.127  163.119
  493.662    5.584    0.498    0.356   65.922  163.498
  493.912    5.406    0.463    0.360   64.797  162.015
  494.162    4.915    0.457    0.356   66.188  161.977
  494.412    4.417    0.471    0.353   69.362  161.416
  494.662    3.742    0.475    0.347   74.319  159.720
  494.912    3.176    0.472    0.336   81.551  159.995
  495.162    2.751    0.466    0.322   90.316  160.686
  495.412    2.624    0.480    0.284  102.647  161.178
  495.662    2.681    0.503    0.250  110.124  163.433
  495.912    2.848    0.509    0.246  111.884  169.224
  496.162    3.117    0.506    0.253  111.493  172.101
  496.412    3.437    0.502    0.258  108.767  169.777
  496.662    3.539    0.490    0.252  109.363  163.603
  496.912    3.433    0.481    0.218  112.294  167.931
  497.162    3.323    0.488    0.212  114.421  172.274
  497.412    3.297    0.489    0.213  116.426  175.153
  497.662    3.503    0.485    0.211  116.960  172.932
  497.912    3.741    0.490    0.217  114.297  172.480
  498.162    4.094    0.496    0.223  108.562  173.169
  498.412    4.677    0.495    0.251   94.165  173.450
  498.662    5.215    0.481    0.282   83.266  172.991
  498.912    5.592    0.455    0.322   73.599  170.048
  499.162    5.767    0.439    0.340   67.494  163.768
  499.412    5.849    0.436    0.328   65.876  162.171
  499.662    5.867    0.440    0.331   64.318  162.973
  499.912    5.852    0.439    0.335   63.253  161.899
  500.162    5.793    0.437    0.345   63.047  160.916
  500.412    5.800    0.438    0.333   63.271  163.591
  500.662    5.797    0.446    0.343   62.393  162.097
  500.912    5.858    0.461    0.352   63.166  163.412
  501.162    5.940    0.462    0.351   63.765  163.279
  501.412    6.048    0.457    0.354   63.310  161.576
  501.662    6.098    0.453    0.338   64.517  161.847
  501.912    6.151    0.459    0.324   62.592  161.607
  502.162    6.205    0.452    0.326   60.793  161.461
  502.412    6.269    0.450    0.338   58.375  161.740
  502.662    6.384    0.454    0.338   59.031  161.194
  502.912    6.474    0.454    0.342   58.763  160.011
  503.162    6.529    0.444    0.334   58.309  161.117
  503.412    6.524    0.432    0.336   58.353  161.607
  503.662    6.497    0.425    0.343   57.166  160.949
  503.912    6.443    0.431    0.333   57.264  161.849
  504.162    6.400    0.439    0.325   58.784  160.882
  504.412    6.351    0.449    0.330   60.791  162.090
  504.662    6.332    0.453    0.330   59.845  163.308
  504.912    6.281    0.449    0.323   60.928  165.667
  505.162    6.198    0.439    0.322   62.261  165.628
  505.412    6.158    0.438    0.331   62.731  163.924
  505.662    6.108    0.444    0.341   61.176  164.411
  505.912    6.069    0.444    0.349   59.127  164.276
  506.162    6.020    0.451    0.340   58.922  164.645
  506.412    5.971    0.447    0.333   60.433  165.140
  506.662    5.890    0.446    0.346   61.766  164.996
  506.912    5.819    0.445    0.358   61.929  164.755
  507.162    5.793    0.443    0.350   62.404  165.351
  507.412    5.779    0.450    0.339   61.519  165.419
  507.662    5.723    0.449    0.343   60.700  164.543
  507.912    5.653    0.456    0.328   61.849  164.094
  508.162    5.474    0.472    0.342   63.613  163.441
  508.412    5.050    0.478    0.357   67.458  163.296
  508.662    4.677    0.489    0.341   70.943  162.848
  508.912    4.588    0.503    0.347   76.700  163.635
  509.162    4.575    0.510    0.322   87.247  163.922
  509.412    4.632    0.518    0.284   96.628  164.614
  509.662    4.794    0.497    0.262  100.106  166.758
  509.912    4.981    0.489    0.251   97.999  167.874
  510.162    5.254    0.502    0.246   93.553  168.466
  510.412    5.418    0.505    0.267   81.858  169.368
  510.662    5.578    0.489    0.293   74.649  167.668
  510.912    5.688    0.475    0.326   69.097  163.572
  511.162    5.759    0.468    0.339   73.254  161.766
  511.412    5.841    0.464    0.321   73.849  161.837
  511.662    5.879    0.460    0.310   73.828  161.799
