~VERSION INFORMATION
 VERS.                 2.0:   CWLS LOG ASCII STANDARD -VERSION 2.0
 WRAP.                  NO:   ONE LINE PER DEPTH STEP
~WELL INFORMATION BLOCK
#MNEM.UNIT           DATA                    DESCRIPTION OF MNEMONIC
#---------    -------------------            -------------------------------
# Generated from Intellog Unique Number	CS_67_68/WELL/768
WELL.         FISHER CREEK                   : Well_name    - WELL
LOC .         00/07-01-068-06W4/0            : Location     - LOCATION
UWI .         00/07-01-068-06W4/0            : Uwi          - UNIQUE WELL ID
ENTR.         SP                             : Entered      - ENTERED BY
SRVC.         SCHLUMBERGER                   : Scn          - SERVICE COMPANY
STRT.M        335                            : top_depth    - START DEPTH
STOP.M        550                            : bot_depth    - STOP DEPTH
STEP.M        0.25                           : increment    - STEP LENGTH
 NULL. -999.2500:NULL Value
~CURVE INFORMATION BLOCK
#MNEM UNIT       ERCB CURVE CODE    CURVE DESCRIPTION
#-----------   ------------------   ----------------------------------
DEPT.M        00 001 00 00         : DEPTH        - DEPTH
ILD .OHMM     00 120 00 00         : RESD         - DEEP RESISTIVITY (DIL)
DPHI.V/V      00 890 00 00         : PHID         - DENSITY POROSITY (LIMESTONE)
NPHI.V/V      00 330 00 00         : PHIN         - NEUTRON POROSITY (LIMESTONE)
GR  .API      00 310 00 00         : GR           - GAMMA RAY
~PARAMETER INFORMATION
#MNEM.UNIT           DATA             DESCRIPTION OF MNEMONIC
#---------         -----------     ------------------------------
GL  .M        672.57               : gl           - GROUND LEVEL ELEVATION
EREF.M        675.6                : kb           - ELEVATION OF DEPTH REFERENCE
DATM.M        672.57               : datum        - DATUM ELEVATION
TDD .M        554                  : tdd          - TOTAL DEPTH DRILLER
RUN .         ONE                  : Run          - RUN NUMBER
ENG .         BILL                 : Engineer     - RECORDING ENGINEER
WIT .         JIM                  : Witness      - WITNESSED BY
MUD .         GEL                  : Mud_type     - MUD TYPE
MATR.         LIMESTONE            : Logunit      - NEUTRON MATRIX
TMAX.C        20                   : BHT          - MAXIMUM RECORDED TEMPERATURE
BHTD.M        554                  : BHTDEP       - MAXIMUM RECORDED TEMPERATURE
MATR.         1                    : LOGUNIT      - NEUTRON MATRIX
RMT .C        25                   : MDTP         - TEMPERATURE OF MUD
NEUT.         1                    : NEUTRON      - NEUTRON TYPE
RESI.         0                    : RESIST       - RESISTIVITY TYPE
RMC .OHMM     0.25                 : RMC          - RESISTIVITY OF MUD CAKE
RMF .OHMM     0.25                 : RMF          - RESISTIVITY OF MUD FILTRATE
SUFT.C        15                   : SUFT         - SURFACE TEMPERATURE
~A  DEPTH     RESD     PHID     PHIN       GR
  335.000    2.940    0.224    0.504  101.129
  335.250    3.113    0.240    0.533  100.942
  335.500    3.169    0.242    0.528  103.013
  335.750    3.200    0.232    0.497   99.061
  336.000    3.276    0.225    0.484   94.105
  336.250    3.277    0.218    0.483   90.907
  336.500    3.255    0.218    0.492   93.479
  336.750    3.226    0.212    0.510   99.942
  337.000    3.180    0.205    0.496  101.134
  337.250    3.157    0.212    0.467   99.002
  337.500    3.135    0.222    0.470   98.061
  337.750    3.090    0.219    0.499   97.748
  338.000    2.994    0.206    0.525   97.121
  338.250    2.935    0.207    0.539   94.550
  338.500    2.970    0.213    0.556   89.720
  338.750    3.644    0.184    0.453   85.141
  339.000    4.138    0.160    0.429   81.691
  339.250    4.690    0.215    0.443   88.906
  339.500    4.975    0.256    0.459   84.390
  339.750    5.170    0.273    0.446   78.681
  340.000    5.281    0.272    0.425   76.486
  340.250    5.098    0.249    0.409   89.787
  340.500    4.857    0.225    0.442  101.770
  340.750    4.566    0.216    0.470  106.162
  341.000    4.341    0.223    0.486  105.221
  341.250    4.159    0.213    0.493  102.210
  341.500    3.985    0.205    0.474   98.949
  341.750    3.862    0.201    0.464   98.259
  342.000    3.864    0.198    0.486   98.636
  342.250    4.201    0.187    0.508   99.703
  342.500    4.491    0.183    0.522  100.457
  342.750    4.640    0.184    0.479  100.081
  343.000    4.821    0.185    0.467   97.886
  343.250    4.972    0.180    0.466   93.809
  343.500    5.061    0.211    0.459   91.362
  343.750    5.112    0.223    0.441   89.105
  344.000    5.143    0.211    0.427   88.102
  344.250    5.185    0.191    0.444   88.667
  344.500    5.025    0.187    0.450   90.675
  344.750    4.797    0.191    0.445   93.687
  345.000    4.727    0.189    0.445   96.761
  345.250    4.667    0.211    0.451   99.648
  345.500    4.643    0.223    0.451   99.648
  345.750    4.734    0.228    0.465   95.759
  346.000    4.920    0.221    0.477   93.564
  346.250    5.162    0.212    0.470   94.757
  346.500    5.116    0.205    0.463   97.769
  346.750    4.966    0.203    0.467   94.821
  347.000    4.821    0.200    0.444   92.437
  347.250    4.680    0.193    0.427   96.516
  347.500    4.630    0.186    0.454   99.716
  347.750    4.669    0.193    0.479   95.199
  348.000    4.805    0.198    0.451   95.137
  348.250    4.955    0.190    0.442  101.035
  348.500    4.902    0.187    0.440  103.482
  348.750    4.697    0.207    0.476  104.047
  349.000    4.577    0.227    0.506  102.166
  349.250    4.443    0.233    0.493  103.547
  349.500    4.488    0.215    0.483  104.363
  349.750    4.629    0.201    0.497  103.234
  350.000    4.657    0.193    0.505  100.976
  350.250    4.678    0.197    0.488   98.530
  350.500    4.681    0.204    0.472   97.088
  350.750    4.756    0.195    0.477   98.280
  351.000    4.793    0.186    0.496   98.155
  351.250    4.962    0.207    0.507   92.886
  351.500    5.274    0.253    0.487   79.901
  351.750    5.543    0.296    0.441   70.428
  352.000    5.749    0.274    0.418   62.712
  352.250    5.817    0.260    0.401   69.175
  352.500    5.854    0.246    0.388   62.713
  352.750    5.836    0.235    0.403   55.499
  353.000    5.916    0.243    0.419   53.743
  353.250    6.171    0.237    0.431   56.316
  353.500    6.376    0.197    0.382   57.634
  353.750    6.190    0.193    0.355   56.380
  354.000    5.908    0.227    0.345   53.307
  354.250    5.597    0.260    0.375   47.096
  354.500    5.423    0.294    0.389   42.141
  354.750    5.285    0.312    0.398   37.185
  355.000    4.572    0.310    0.335   65.480
  355.250    4.531    0.275    0.344   80.976
  355.500    4.603    0.248    0.419   72.946
  355.750    4.641    0.244    0.445   41.140
  356.000    4.618    0.300    0.485   31.166
  356.250    4.551    0.332    0.528   27.653
  356.500    4.426    0.339    0.381   26.650
  356.750    4.305    0.338    0.388   29.662
  357.000    4.227    0.332    0.402   33.050
  357.250    4.198    0.327    0.422   35.184
  357.500    4.192    0.322    0.405   36.125
  357.750    4.250    0.313    0.400   34.746
  358.000    4.293    0.324    0.388   29.978
  358.250    4.370    0.326    0.370   36.190
  358.500    4.422    0.313    0.393   40.958
  358.750    4.450    0.302    0.426   38.575
  359.000    4.470    0.304    0.444   32.365
  359.250    4.455    0.320    0.367   46.794
  359.500    4.391    0.306    0.341   66.682
  359.750    4.393    0.275    0.374   65.240
  360.000    4.480    0.247    0.458   42.091
  360.250    4.593    0.283    0.439   32.430
  360.500    4.782    0.307    0.394   40.336
  360.750    5.007    0.320    0.371   53.260
  361.000    5.312    0.322    0.358   62.608
  361.250    5.593    0.310    0.368   69.760
  361.500    5.900    0.281    0.408   75.219
  361.750    6.143    0.245    0.448   81.744
  362.000    6.299    0.222    0.472   86.951
  362.250    6.423    0.240    0.477   89.712
  362.500    6.342    0.259    0.476   84.757
  362.750    6.251    0.266    0.470   79.174
  363.000    6.218    0.269    0.463   78.610
  363.250    6.211    0.268    0.462   81.559
  363.500    6.250    0.268    0.469   79.991
  363.750    6.265    0.268    0.461   76.102
  364.000    6.293    0.276    0.451   73.092
  364.250    6.274    0.282    0.445   73.469
  364.500    6.300    0.278    0.447   76.230
  364.750    6.316    0.272    0.448   77.422
  365.000    6.343    0.279    0.453   78.489
  365.250    6.407    0.290    0.463   79.556
  365.500    6.521    0.295    0.472   79.996
  365.750    6.661    0.283    0.477   79.557
  366.000    6.766    0.264    0.421   77.613
  366.250    6.848    0.262    0.389   75.293
  366.500    6.813    0.280    0.419   77.740
  366.750    6.689    0.277    0.442   77.489
  367.000    6.482    0.271    0.461   75.922
  367.250    6.364    0.276    0.486   74.103
  367.500    6.285    0.288    0.462   71.280
  367.750    6.324    0.293    0.450   67.831
  368.000    6.376    0.288    0.432   67.078
  368.250    6.355    0.275    0.423   77.305
  368.500    6.182    0.276    0.420   82.889
  368.750    5.990    0.265    0.459   88.473
  369.000    5.782    0.260    0.487   92.990
  369.250    5.509    0.249    0.480   97.006
  369.500    5.358    0.239    0.471   99.641
  369.750    5.221    0.260    0.495  102.967
  370.000    5.165    0.283    0.490  105.101
  370.250    5.218    0.294    0.484  103.909
  370.500    5.299    0.285    0.509  100.397
  370.750    5.476    0.274    0.522   95.316
  371.000    5.636    0.275    0.461   85.655
  371.250    5.835    0.283    0.431   78.566
  371.500    5.995    0.285    0.447   86.723
  371.750    6.090    0.284    0.466   90.864
  372.000    6.174    0.281    0.473   92.558
  372.250    6.295    0.275    0.464   91.931
  372.500    6.358    0.272    0.458   86.976
  372.750    6.362    0.272    0.458   82.209
  373.000    6.306    0.276    0.471   80.013
  373.250    6.251    0.284    0.481   79.638
  373.500    6.254    0.292    0.470   83.591
  373.750    6.318    0.289    0.472   85.285
  374.000    6.369    0.288    0.482   82.274
  374.250    6.421    0.303    0.490   73.492
  374.500    6.376    0.314    0.492   64.835
  374.750    6.249    0.321    0.483   59.378
  375.000    6.066    0.324    0.468   56.931
  375.250    5.968    0.326    0.459   56.179
  375.500    5.972    0.329    0.484   58.313
  375.750    6.100    0.329    0.507   63.583
  376.000    6.196    0.320    0.494   66.532
  376.250    6.095    0.306    0.476   65.780
  376.500    5.731    0.302    0.466   62.142
  376.750    5.854    0.304    0.481   58.692
  377.000    8.198    0.329    0.459   55.807
  377.250   10.565    0.208    0.318   55.117
  377.500   12.988    0.137    0.221   53.550
  377.750   13.989    0.035    0.184   51.919
  378.000   14.480    0.019    0.160   50.602
  378.250   12.791    0.013    0.237   51.732
