~VERSION INFORMATION
 VERS.                 2.0:   CWLS LOG ASCII STANDARD -VERSION 2.0
 WRAP.                  NO:   ONE LINE PER DEPTH STEP
~WELL INFORMATION BLOCK
#MNEM.UNIT           DATA                    DESCRIPTION OF MNEMONIC
#---------    -------------------            -------------------------------
# Generated from Intellog Unique Number	CS_77_79/WELL/2978
WELL.         CDNOXY VINEFRED                : Well_name    - WELL
LOC .         00/06-03-077-03W4/0            : Location     - LOCATION
UWI .         00/06-03-077-03W4/0            : Uwi          - UNIQUE WELL ID
ENTR.         TIM                            : Entered      - ENTERED BY
SRVC.         SCHLUMBERGER                   : Scn          - SERVICE COMPANY
STRT.M        210                            : top_depth    - START DEPTH
STOP.M        485                            : bot_depth    - STOP DEPTH
STEP.M        0.25                           : increment    - STEP LENGTH
 NULL. -999.2500:NULL Value
~CURVE INFORMATION BLOCK
#MNEM UNIT       ERCB CURVE CODE    CURVE DESCRIPTION
#-----------   ------------------   ----------------------------------
DEPT.M        00 001 00 00         : DEPTH        - DEPTH
GR  .API      00 310 00 00         : GR           - GAMMA RAY
NPHI.V/V      00 330 00 00         : PHIN         - NEUTRON POROSITY (DOLOMITE)
DPHI.V/V      00 890 00 00         : PHID         - DENSITY POROSITY (DOLOMITE)
ILD .OHMM     00 120 00 00         : RESD         - DEEP RESISTIVITY (DIL)
~PARAMETER INFORMATION
#MNEM.UNIT           DATA             DESCRIPTION OF MNEMONIC
#---------         -----------     ------------------------------
GL  .M        587.4                : gl           - GROUND LEVEL ELEVATION
EREF.M        590.4                : kb           - ELEVATION OF DEPTH REFERENCE
DATM.M        590.4                : datum        - DATUM ELEVATION
TDD .M        492.2                : tdd          - TOTAL DEPTH DRILLER
RUN .         ONE                  : Run          - RUN NUMBER
ENG .         BILL                 : Engineer     - RECORDING ENGINEER
WIT .         JIM                  : Witness      - WITNESSED BY
MUD .         GEL                  : Mud_type     - MUD TYPE
MATR.         DOLOMITE             : Logunit      - NEUTRON MATRIX
TMAX.C        20                   : BHT          - MAXIMUM RECORDED TEMPERATURE
BHTD.M        492                  : BHTDEP       - MAXIMUM RECORDED TEMPERATURE
MATR.         1                    : LOGUNIT      - NEUTRON MATRIX
RMT .C        20                   : MDTP         - TEMPERATURE OF MUD
NEUT.         1                    : NEUTRON      - NEUTRON TYPE
RESI.         4.33                 : RESIST       - RESISTIVITY TYPE
RMC .OHMM     3.65                 : RMC          - RESISTIVITY OF MUD CAKE
RMF .OHMM     3.62                 : RMF          - RESISTIVITY OF MUD FILTRATE
SUFT.C        15                   : SUFT         - SURFACE TEMPERATURE
~A  DEPTH       GR     PHIN     PHID     RESD
# ...
  427.500   60.894    0.385    0.333    2.291
  427.750   53.528    0.374    0.336    2.293
  428.000   51.690    0.364    0.339    2.293
  428.250   51.691    0.358    0.342    2.339
  428.500   51.694    0.364    0.343    2.383
  428.750   47.398    0.362    0.346    2.475
  429.000   46.173    0.359    0.330    2.571
  429.250   57.845    0.350    0.300    2.572
  429.500   63.989    0.384    0.272    2.622
  429.750   49.254    0.401    0.285    2.673
  430.000   45.571    0.395    0.296    2.674
  430.250   43.119    0.385    0.318    2.676
  430.500   46.191    0.376    0.324    2.677
  430.750   53.563    0.365    0.286    2.677
  431.000   62.164    0.371    0.280    2.679
  431.250   69.536    0.396    0.298    2.680
  431.500   68.924    0.404    0.321    2.681
  431.750   54.189    0.397    0.331    2.683
  432.000   49.893    0.389    0.329    2.634
  432.250   51.738    0.393    0.321    2.587
  432.500   58.497    0.414    0.314    2.587
  432.750   59.115    0.407    0.321    2.541
  433.000   60.960    0.399    0.346    2.541
  433.250   64.647    0.393    0.345    2.450
  433.500   67.720    0.406    0.335    2.450
  433.750   66.495    0.409    0.334    2.406
  434.000   63.427    0.402    0.340    2.362
  434.250   62.202    0.393    0.347    2.320
  434.500   62.205    0.387    0.343    2.278
  434.750   62.209    0.386    0.337    2.279
  435.000   61.596    0.388    0.336    2.280
  435.250   60.372    0.390    0.337    2.281
  435.500   59.761    0.390    0.336    2.282
  435.750   59.763    0.391    0.336    2.283
  436.000   59.766    0.396    0.336    2.372
  436.250   59.769    0.397    0.336    2.417
  436.500   59.158    0.397    0.336    2.464
  436.750   58.547    0.397    0.332    2.512
  437.000   58.550    0.396    0.331    2.560
  437.250   57.938    0.394    0.330    2.561
  437.500   56.715    0.390    0.329    2.563
  437.750   56.102    0.386    0.325    2.564
  438.000   57.334    0.387    0.318    2.565
  438.250   62.249    0.392    0.313    2.567
  438.500   70.849    0.391    0.304    2.520
  438.750   80.063    0.394    0.296    2.521
  439.000   64.100    0.407    0.340    2.522
  439.250   57.348    0.404    0.340    2.476
  439.500   60.421    0.397    0.330    2.477
  439.750   66.565    0.396    0.336    2.388
  440.000   69.025    0.398    0.347    2.345
  440.250   67.800    0.402    0.353    2.302
  440.500   65.960    0.403    0.353    2.303
  440.750   62.279    0.407    0.353    2.347
  441.000   61.668    0.411    0.354    2.438
  441.250   64.127    0.410    0.353    2.580
  441.500   67.200    0.401    0.326    2.835
  441.750   74.572    0.402    0.312    2.944
  442.000   83.786    0.407    0.275    3.116
  442.250   95.458    0.408    0.265    3.176
  442.500   84.407    0.413    0.288    3.119
  442.750   69.671    0.415    0.293    3.062
  443.000   59.234    0.405    0.301    2.896
  443.250   54.325    0.394    0.308    2.844
  443.500   42.045    0.375    0.315    2.899
  443.750   37.135    0.341    0.291    3.011
  444.000   32.840    0.318    0.283    3.128
  444.250   46.967    0.297    0.264    3.188
  444.500   48.198    0.273    0.249    3.250
  444.750   52.499    0.268    0.252    3.313
  445.000   48.203    0.330    0.293    3.075
  445.250   38.995    0.372    0.302    2.698
  445.500   40.227    0.372    0.320    2.699
  445.750   42.686    0.364    0.333    2.651
  446.000   45.759    0.365    0.326    2.652
  446.250   49.448    0.386    0.320    2.653
  446.500   46.380    0.389    0.330    2.654
  446.750   42.698    0.381    0.337    2.656
  447.000   40.859    0.374    0.311    2.657
  447.250   40.247    0.382    0.297    2.609
  447.500   39.636    0.391    0.304    2.610
  447.750   39.025    0.381    0.320    2.661
  448.000   37.800    0.375    0.319    2.712
  448.250   39.031    0.375    0.316    2.765
  448.500   41.489    0.376    0.308    2.818
  448.750   45.791    0.376    0.307    2.819
  449.000   48.865    0.377    0.304    2.768
  449.250   50.096    0.380    0.304    2.770
  449.500   50.714    0.385    0.307    2.771
  449.750   49.488    0.386    0.313    2.772
  450.000   47.035    0.384    0.330    2.826
  450.250   45.809    0.381    0.332    2.827
  450.500   43.970    0.380    0.330    2.829
  450.750   42.130    0.375    0.319    2.830
  451.000   41.520    0.377    0.311    2.831
  451.250   46.435    0.380    0.308    2.833
  451.500   50.123    0.381    0.308    2.834
  451.750   50.740    0.380    0.309    2.782
  452.000   47.057    0.380    0.316    2.732
  452.250   40.305    0.380    0.334    2.682
  452.500   34.168    0.381    0.342    2.683
  452.750   33.557    0.382    0.342    2.635
  453.000   34.788    0.382    0.342    2.588
  453.250   38.475    0.380    0.342    2.541
  453.500   41.549    0.377    0.342    2.542
  453.750   42.780    0.372    0.341    2.543
  454.000   40.941    0.359    0.325    2.544
  454.250   38.487    0.366    0.317    2.545
  454.500   36.647    0.373    0.317    2.595
  454.750   36.038    0.375    0.317    2.595
  455.000   36.040    0.369    0.317    2.646
  455.250   35.428    0.360    0.314    2.697
  455.500   35.431    0.355    0.306    2.801
  455.750   35.435    0.347    0.302    2.856
  456.000   36.051    0.342    0.288    3.197
  456.250   37.283    0.333    0.277    3.785
  456.500   37.900    0.316    0.258    4.654
  456.750   39.744    0.292    0.097    5.510
  457.000   38.519    0.286    0.048    6.168
  457.250   39.750    0.312    0.075    7.168
  457.500   44.052    0.336    0.099    6.409
  457.750   44.669    0.355    0.147    5.731
  458.000   43.445    0.373    0.197    5.124
  458.250   43.447    0.383    0.299    4.582
  458.500   44.065    0.368    0.270    4.173
  458.750   44.680    0.351    0.250    3.732
  459.000   43.456    0.354    0.275    3.464
  459.250   39.774    0.377    0.282    3.277
  459.500   35.478    0.384    0.305    3.099
  459.750   31.182    0.384    0.314    2.931
  460.000   26.887    0.389    0.322    2.825
  460.250   23.820    0.399    0.332    2.774
  460.500   21.366    0.394    0.344    2.673
  460.750   18.298    0.383    0.345    2.624
  461.000   17.073    0.372    0.345    2.529
  461.250   18.304    0.371    0.344    2.484
  461.500   19.535    0.377    0.336    2.484
  461.750   21.380    0.384    0.315    2.580
  462.000   21.997    0.383    0.307    2.680
  462.250   25.072    0.377    0.300    2.836
  462.500   26.302    0.371    0.298    2.946
  462.750   29.376    0.362    0.298    3.060
  463.000   30.608    0.356    0.293    3.061
  463.250   31.223    0.357    0.288    3.063
  463.500   31.228    0.359    0.290    3.064
  463.750   31.230    0.357    0.294    3.065
  464.000   31.232    0.356    0.292    3.183
  464.250   33.077    0.356    0.289    3.564
  464.500   34.922    0.365    0.287    3.701
  464.750   38.610    0.374    0.284    4.222
  465.000   50.281    0.394    0.288    4.468
  465.250   71.777    0.445    0.289    5.001
  465.500  124.593    0.480    0.288    5.599
  465.750  135.036    0.491    0.292    6.386
  466.000  125.827    0.484    0.298    7.283
  466.250  107.407    0.466    0.295    8.153
  466.500   89.601    0.432    0.290    9.299
  466.750   79.164    0.409    0.151   10.218
  467.000   71.185    0.303    0.134   11.226
  467.250   74.257    0.270    0.127   11.880
  467.500   81.015    0.273    0.121   11.885
  467.750   89.001    0.277    0.114   11.242
  468.000   95.145    0.279    0.110   11.037
  468.250  101.903    0.287    0.119   10.439
  468.500  108.661    0.294    0.142    9.512
  468.750   98.839    0.304    0.148    9.338
  469.000   81.033    0.309    0.168    8.196
  469.250   52.788    0.307    0.173    7.751
  469.500   38.052    0.305    0.224    7.061
  469.750   37.441    0.302    0.260    6.314
  470.000   36.215    0.311    0.265    5.645
  470.250   36.832    0.327    0.266    5.240
  470.500   38.063    0.332    0.272    4.773
  470.750   39.909    0.332    0.267    4.515
