~VERSION INFORMATION
 VERS.                 2.0:   CWLS LOG ASCII STANDARD -VERSION 2.0
 WRAP.                  NO:   ONE LINE PER DEPTH STEP
~WELL INFORMATION BLOCK
#MNEM.UNIT           DATA                    DESCRIPTION OF MNEMONIC
#---------    -------------------            -------------------------------
# Generated from Intellog Unique Number	CC_80_83/WELL/2305
NULL.         -999.25                        : NULL_VALUE
WELL.         HOMESTEAD ET AL COWPAR         : WELL_NAME
LOC .         07-29-080-04W4                 : Location     - LOCATION          
UWI .         00/07-29-080-04W400            : Uwi          - UNIQUE WELL ID    
ENTR.         DW                             : Entered      - ENTERED BY        
SRVC.         SCHLUMBERGER                   : Scn          - SERVICE COMPANY   
DATE.         18 JAN 74                      : Date         - LOG DATE
STRT.M        64.008                         : top_depth    - START DEPTH       
STOP.M        277.367                        : bot_depth    - STOP DEPTH        
STEP.M        0.3048                         : increment    - STEP LENGTH       
~CURVE INFORMATION BLOCK
#MNEM UNIT       ERCB CURVE CODE    CURVE DESCRIPTION
#-----------   ------------------   ----------------------------------
DEPT.M        00 001 00 00         : DEPTH        - DEPTH                       
DPHI.V/V      00 890 00 00         : PHID         - DENSITY POROSITY (LIMESTONE)
GR  .API      00 310 00 00         : GR           - GAMMA RAY                   
NPHI.V/V      00 330 00 00         : PHIN         - NEUTRON POROSITY (LIMESTONE)
ILD .OHMM     00 120 00 00         : RESD         - DEEP RESISTIVITY (DIL)      
~PARAMETER INFORMATION       
#MNEM.UNIT           DATA             DESCRIPTION OF MNEMONIC
#---------         -----------     ------------------------------
GL  .M        461.498              : gl           - GROUND LEVEL ELEVATION      
EREF.M        465.033              : kb           - ELEVATION OF DEPTH REFERENCE
DATM.M        465.033              : datum        - DATUM ELEVATION             
TDD .M        292.608              : tdd          - TOTAL DEPTH DRILLER         
RUN .         ONE                  : Run          - RUN NUMBER                  
ENG .         BILL                 : Engineer     - RECORDING ENGINEER          
WIT .         JIM                  : Witness      - WITNESSED BY                
MUD .         GEL                  : Mud_type     - MUD TYPE                    
MATR.         LIMESTONE            : Logunit      - NEUTRON MATRIX              
TMAX.C        25                   : BHT          - MAXIMUM RECORDED TEMPERATURE
BHTD.M        292.608              : BHTDEP       - MAXIMUM RECORDED TEMPERATURE
MATR.         1                    : LOGUNIT      - NEUTRON MATRIX              
RMT .C        25                   : MDTP         - TEMPERATURE OF MUD          
NEUT.         0                    : NEUTRON      - NEUTRON TYPE                
RESI.         0                    : RESIST       - RESISTIVITY TYPE            
RMC .OHMM     0.25                 : RMC          - RESISTIVITY OF MUD CAKE     
RMF .OHMM     0.25                 : RMF          - RESISTIVITY OF MUD FILTRATE 
SUFT.C        15                   : SUFT         - SURFACE TEMPERATURE         
~A  DEPTH     PHID       GR     PHIN     RESD
# ...
  117.044    0.389   49.443    0.399   13.583
  117.348    0.389   50.260    0.408   12.849
  117.653    0.384   51.477    0.403   12.851
  117.958    0.376   60.366    0.393   12.853
  118.263    0.360   59.570    0.406   12.854
  118.568    0.336   56.751    0.385   13.343
  118.872    0.347   55.952    0.370   13.850
  119.177    0.364   59.593    0.378   13.598
  119.482    0.360   55.970    0.383   13.600
  119.787    0.337   56.785    0.363   13.352
  120.092    0.327   53.567    0.378   13.109
  120.396    0.332   50.748    0.372   12.869
  120.701    0.358   49.142    0.378   12.174
  121.006    0.366   58.031    0.383   11.515
  121.311    0.361   57.233    0.373   10.893
  121.616    0.355   54.013    0.371   10.115
  121.920    0.355   55.232    0.412    7.801
  122.225    0.360   70.577    0.425    6.016
  122.530    0.341   83.502    0.435    4.471
  122.835    0.331   96.830    0.473    3.578
  123.140    0.352   89.171    0.474    3.085
  123.444    0.337   90.795    0.482    2.973
  123.749    0.349   93.224    0.472    3.086
  124.054    0.364   84.352    0.488    3.450
  124.359    0.342   86.785    0.500    3.648
  124.664    0.317   90.427    0.484    3.930
  124.968    0.319   90.029    0.476    4.079
  125.273    0.329   82.772    0.460    4.157
  125.578    0.306   81.570    0.446    4.314
  125.883    0.291   80.369    0.457    4.648
  126.188    0.326   79.973    0.423    4.915
  126.492    0.300   84.018    0.387    5.008
  126.797    0.295   86.045    0.405    5.103
  127.102    0.311   86.862    0.438    5.396
  127.407    0.318   83.641    0.445    6.146
  127.712    0.324   79.210    0.402    6.871
  128.016    0.303   76.392    0.362    7.001
  128.321    0.284   73.576    0.362    7.002
  128.626    0.267   72.778    0.388    6.624
  128.931    0.288   76.014    0.407    6.503
  129.236    0.298   80.868    0.390    6.384
  129.540    0.296   80.471    0.402    6.505
  129.845    0.321   80.481    0.413    6.506
  130.150    0.311   78.874    0.405    6.507
  130.455    0.304   74.848    0.401    6.630
  130.760    0.312   71.223    0.446    6.882
  131.064    0.303   67.598    0.428    7.838
  131.369    0.329   63.570    0.473    9.797
  131.674    0.356   53.489    0.453   11.797
  131.979    0.345   51.480    0.411   14.473
  132.284    0.348   52.295    0.378   15.024
  132.588    0.368   53.919    0.389   14.749
  132.893    0.374   55.137    0.392   14.752
  133.198    0.358   52.724    0.382   14.216
  133.503    0.347   45.872    0.403   13.700
  133.807    0.367   50.724    0.399   13.701
  134.112    0.375   55.173    0.406   14.222
  134.417    0.377   58.007    0.383   14.226
  134.722    0.379   58.418    0.407   14.227
  135.027    0.373   51.162    0.405   14.229
  135.331    0.364   53.189    0.391   13.970
  135.636    0.364   52.796    0.422   13.715
  135.941    0.369   51.592    0.390   13.718
  136.246    0.369   51.600    0.412   13.719
  136.551    0.365   56.856    0.398   13.979
  136.855    0.359   56.865    0.385   13.980
  137.160    0.361   53.644    0.384   14.784
  137.465    0.350   49.617    0.364   17.804
  137.770    0.315   44.782    0.385   21.842
  138.075    0.270   39.542    0.279   23.530
  138.379    0.124   43.589    0.176   24.425
  138.684    0.187   48.440    0.092   23.978
  138.989    0.274   46.430    0.200   21.453
  139.294    0.299   47.246    0.305   16.855
  139.599    0.334   52.502    0.291   14.263
  139.903    0.378   50.493    0.348   13.745
  140.208    0.371   47.676    0.407   13.748
  140.513    0.370   49.703    0.403   14.008
  140.818    0.370   50.119    0.384   14.010
  141.123    0.378   50.527    0.382   14.012
  141.427    0.383   51.746    0.395   14.277
  141.732    0.378   54.986    0.376   14.280
  142.037    0.370   56.204    0.385   14.283
  142.342    0.368   55.407    0.387   14.285
  142.647    0.371   53.799    0.380   14.286
  142.951    0.372   49.772    0.397   14.026
  143.256    0.372   50.184    0.394   14.028
  143.561    0.374   52.214    0.402   14.561
  143.866    0.378   51.009    0.424   15.114
  144.171    0.378   50.213    0.436   15.689
  144.475    0.377   49.412    0.401   15.691
  144.780    0.383   49.421    0.390   15.121
  145.085    0.385   56.693    0.402   14.305
  145.390    0.381   58.720    0.404   14.044
  145.694    0.375   55.500    0.404   13.788
  145.999    0.363   50.666    0.405   13.536
  146.304    0.364   47.849    0.390   13.538
  146.609    0.369   45.435    0.383   13.291
  146.914    0.374   50.691    0.398   13.543
  147.218    0.376   54.736    0.404   13.798
  147.523    0.368   54.342    0.408   14.323
  147.828    0.374   51.929    0.403   14.062
  148.133    0.381   57.185    0.397   13.805
  148.438    0.378   58.404    0.388   13.303
  148.742    0.365   58.011    0.381   13.061
  149.047    0.365   58.017    0.395   13.308
  149.352    0.367   56.007    0.410   13.560
  149.657    0.367   51.575    0.428   13.816
  149.962    0.370   51.989    0.408   13.818
  150.266    0.373   49.172    0.408   13.316
  150.571    0.368   49.988    0.406   12.138
  150.876    0.362   54.839    0.392   11.697
  151.181    0.351   52.830    0.392   11.918
  151.486    0.366   54.858    0.392   11.920
  151.790    0.363   57.286    0.387   10.665
  152.095    0.363   64.561    0.388    6.461
  152.400    0.347   79.103    0.371    3.771
  152.705    0.332   79.512    0.428    2.803
  153.010    0.326   87.190    0.449    2.651
  153.314    0.324   90.428    0.483    2.752
  153.619    0.353   89.629    0.496    2.856
  153.924    0.339   84.795    0.490    3.504
  154.229    0.334   78.749    0.489    4.220
  154.534    0.325   73.510    0.491    4.807
  154.838    0.313   69.482    0.490    5.897
  155.143    0.302   71.913    0.438    6.121
  155.448    0.319   80.397    0.462    6.473
  155.753    0.316   77.581    0.478    6.718
  156.057    0.282   71.938    0.450    7.104
  156.362    0.236   61.452    0.411    8.555
  156.667    0.144   54.196    0.384   10.303
  156.972    0.176   53.802    0.333   11.519
  157.277    0.232   55.827    0.260   12.181
  157.581    0.294   64.716    0.267   11.739
  157.886    0.342   69.568    0.273   10.699
  158.191    0.333   68.367    0.357    9.055
  158.496    0.323   71.200    0.413    8.889
  158.801    0.330   72.016    0.413    8.891
  159.105    0.340   65.567    0.400    8.892
  159.410    0.344   66.383    0.390    9.060
  159.715    0.336   67.199    0.417    9.062
  160.020    0.321   70.437    0.407    9.063
  160.325    0.318   72.464    0.408    9.234
  160.629    0.328   73.280    0.402    9.236
  160.934    0.322   67.234    0.397    9.411
  161.239    0.296   69.663    0.393    9.411
  161.544    0.305   76.535    0.394    9.590
  161.849    0.312   79.368    0.379    9.591
  162.153    0.322   83.412    0.374    9.593
  162.458    0.323   80.193    0.383    9.595
  162.763    0.299   82.624    0.391    9.247
  163.068    0.301   80.612    0.386    8.747
  163.373    0.292   80.622    0.397    7.972
  163.677    0.279   85.070    0.411    6.622
  163.982    0.281   85.482    0.448    6.382
  164.287    0.289   80.648    0.482    6.383
  164.592    0.319   77.832    0.485    7.005
  164.897    0.308   76.226    0.463    7.547
  165.201    0.304   75.831    0.394    7.547
  165.506    0.332   78.664    0.426    6.269
  165.811    0.306   90.378    0.403    4.659
  166.116    0.303   93.616    0.380    4.092
  166.420    0.312   93.220    0.394    4.017
  166.725    0.301   91.615    0.408    4.018
  167.030    0.318   86.780    0.430    4.170
  167.335    0.329   89.210    0.395    4.750
  167.640    0.335   83.568    0.403    4.930
  167.944    0.338   82.365    0.440    4.330
  168.249    0.314   80.760    0.470    4.021
  168.554    0.315   83.594    0.467    4.022
  168.859    0.330   82.392    0.479    4.332
  169.164    0.347   75.942    0.473    4.754
  169.468    0.361   81.198    0.475    5.218
  169.773    0.338   88.875    0.454    4.254
