~VERSION INFORMATION
 VERS.                 2.0:   CWLS LOG ASCII STANDARD -VERSION 2.0
 WRAP.                  NO:   ONE LINE PER DEPTH STEP
~WELL INFORMATION BLOCK
#MNEM.UNIT           DATA                    DESCRIPTION OF MNEMONIC
#---------    -------------------            -------------------------------
# Generated from Intellog Unique Number	CS_73_76/WELL/2163
WELL.         DOME PETROLEUM LIMITED         : Well_name    - WELL
LOC .         00/06-09-074-05W4/0            : Location     - LOCATION
UWI .         00/06-09-074-05W4/0            : Uwi          - UNIQUE WELL ID
ENTR.         SP                             : Entered      - ENTERED BY
SRVC.         SCHLUMBERGER                   : Scn          - SERVICE COMPANY
STRT.M        225                            : top_depth    - START DEPTH
STOP.M        475                            : bot_depth    - STOP DEPTH
STEP.M        0.25                           : increment    - STEP LENGTH
 NULL. -999.2500:NULL Value
~CURVE INFORMATION BLOCK
#MNEM UNIT       ERCB CURVE CODE    CURVE DESCRIPTION
#-----------   ------------------   ----------------------------------
DEPT.M        00 001 00 00         : DEPTH        - DEPTH
ILD .OHMM     00 120 00 00         : RESD         - DEEP RESISTIVITY (DIL)
DPHI.V/V      00 890 00 00         : PHID         - DENSITY POROSITY (LIMESTONE)
NPHI.V/V      00 330 00 00         : PHIN         - NEUTRON POROSITY (LIMESTONE)
GR  .API      00 310 00 00         : GR           - GAMMA RAY
~PARAMETER INFORMATION
#MNEM.UNIT           DATA             DESCRIPTION OF MNEMONIC
#---------         -----------     ------------------------------
GL  .M        618.6                : gl           - GROUND LEVEL ELEVATION
EREF.M        623.1                : kb           - ELEVATION OF DEPTH REFERENCE
DATM.M        618.6                : datum        - DATUM ELEVATION
TDD .M        483                  : tdd          - TOTAL DEPTH DRILLER
RUN .         ONE                  : Run          - RUN NUMBER
ENG .         BILL                 : Engineer     - RECORDING ENGINEER
WIT .         JIM                  : Witness      - WITNESSED BY
MUD .         GEL                  : Mud_type     - MUD TYPE
MATR.         LIMESTONE            : Logunit      - NEUTRON MATRIX
TMAX.C        20                   : BHT          - MAXIMUM RECORDED TEMPERATURE
BHTD.M        483                  : BHTDEP       - MAXIMUM RECORDED TEMPERATURE
MATR.         1                    : LOGUNIT      - NEUTRON MATRIX
RMT .C        25                   : MDTP         - TEMPERATURE OF MUD
NEUT.         1                    : NEUTRON      - NEUTRON TYPE
RESI.         0                    : RESIST       - RESISTIVITY TYPE
RMC .OHMM     0.25                 : RMC          - RESISTIVITY OF MUD CAKE
RMF .OHMM     0.25                 : RMF          - RESISTIVITY OF MUD FILTRATE
SUFT.C        15                   : SUFT         - SURFACE TEMPERATURE
~A  DEPTH     RESD     PHID     PHIN       GR
# ...
  268.500    5.055    0.238    0.456  124.626
  268.750    5.056    0.212    0.444  120.376
  269.000    5.056    0.208    0.445  120.377
  269.250    4.870    0.222    0.447  119.163
  269.500    4.691    0.210    0.467  112.483
  269.750    4.518    0.213    0.476  108.233
  270.000    4.434    0.218    0.483  107.627
  270.250    4.352    0.234    0.493  108.842
  270.500    4.271    0.223    0.497  110.665
  270.750    4.192    0.234    0.492  111.273
  271.000    4.114    0.240    0.488  108.844
  271.250    4.115    0.228    0.500  102.165
  271.500    4.039    0.260    0.478   99.737
  271.750    3.890    0.279    0.468  104.596
  272.000    3.890    0.290    0.458  107.026
  272.250    3.818    0.271    0.452  107.634
  272.500    3.747    0.261    0.452  111.278
  272.750    3.892    0.233    0.453  116.744
  273.000    4.118    0.234    0.462  113.101
  273.250    4.197    0.224    0.474   99.742
  273.500    4.198    0.235    0.482   96.099
  273.750    4.120    0.229    0.472   96.707
  274.000    4.043    0.234    0.465  100.959
  274.250    3.822    0.248    0.481  100.352
  274.500    3.751    0.258    0.474   97.316
  274.750    3.613    0.248    0.488   92.459
  275.000    3.613    0.235    0.503   94.889
  275.250    3.614    0.229    0.484   97.319
  275.500    3.547    0.195    0.474   96.105
  275.750    3.547    0.179    0.503   99.142
  276.000    3.417    0.175    0.516  100.965
  276.250    3.229    0.243    0.499  100.965
  276.500    3.052    0.239    0.487   97.323
  276.750    2.885    0.217    0.482   85.785
  277.000    2.779    0.260    0.482   79.713
  277.250    2.727    0.285    0.471   78.499
  277.500    2.677    0.286    0.462   80.321
  277.750    2.677    0.298    0.456   82.144
  278.000    2.728    0.275    0.451   82.752
  278.250    2.833    0.262    0.456   83.360
  278.500    2.998    0.272    0.456   84.575
  278.750    3.173    0.257    0.450   87.613
  279.000    3.295    0.250    0.455   91.257
  279.250    3.487    0.248    0.466   93.080
  279.500    3.487    0.254    0.479   91.259
  279.750    3.488    0.248    0.485   87.616
  280.000    3.423    0.233    0.478   85.794
  280.250    3.175    0.254    0.452   82.152
  280.500    3.001    0.254    0.445   74.865
  280.750    2.681    0.244    0.435   70.007
  281.000    2.534    0.259    0.436   67.579
  281.250    2.350    0.305    0.454   71.224
  281.500    2.222    0.313    0.462   73.046
  281.750    2.140    0.302    0.482   73.654
  282.000    2.140    0.299    0.494   74.262
  282.250    2.140    0.312    0.484   76.692
  282.500    2.141    0.293    0.459   79.122
  282.750    2.141    0.286    0.446   80.945
  283.000    2.182    0.293    0.436   81.553
  283.250    2.266    0.298    0.433   80.946
  283.500    2.398    0.304    0.436   77.303
  283.750    2.444    0.298    0.438   70.624
  284.000    2.444    0.299    0.442   65.159
  284.250    2.354    0.289    0.445   60.908
  284.500    2.267    0.281    0.447   54.229
  284.750    2.184    0.314    0.448   49.979
  285.000    2.025    0.324    0.441   46.943
  285.250    1.879    0.321    0.424   46.944
  285.500    1.810    0.313    0.415   48.767
  285.750    1.776    0.300    0.400   50.589
  286.000    1.776    0.293    0.394   53.019
  286.250    1.777    0.310    0.410   54.842
  286.500    1.777    0.316    0.419   55.450
  286.750    1.777    0.321    0.421   52.414
  287.000    1.777    0.326    0.428   52.415
  287.250    1.777    0.303    0.435   56.060
  287.500    1.811    0.305    0.431   58.489
  287.750    1.846    0.293    0.426   63.349
  288.000    1.881    0.257    0.459   66.385
  288.250    1.881    0.272    0.474   68.208
  288.500    1.954    0.278    0.479   62.743
  288.750    2.029    0.311    0.472   56.064
  289.000    2.068    0.314    0.457   57.887
  289.250    2.068    0.334    0.436   62.139
  289.500    1.955    0.320    0.449   66.390
  289.750    1.919    0.319    0.439   69.427
  290.000    2.405    0.338    0.451   68.213
  290.250    2.744    0.368    0.497   75.502
  290.500    2.959    0.398    0.554   82.183
  290.750    3.251    0.447    0.585   87.649
  291.000    3.191    0.395    0.613   87.042
  291.250    2.745    0.246    0.539   82.185
  291.500    1.957    0.299    0.457   69.433
  291.750    1.652    0.305    0.454   63.968
  292.000    1.561    0.308    0.444   67.005
  292.250    1.476    0.319    0.441   70.649
  292.500    1.422    0.306    0.434   67.614
  292.750    1.395    0.316    0.431   62.756
  293.000    1.344    0.322    0.436   57.899
  293.250    1.319    0.332    0.447   57.900
  293.500    1.294    0.327    0.452   57.900
  293.750    1.270    0.327    0.439   57.901
  294.000    1.271    0.336    0.426   57.294
  294.250    1.271    0.327    0.432   57.295
  294.500    1.271    0.322    0.446   57.296
  294.750    1.271    0.343    0.455   57.297
  295.000    1.271    0.338    0.460   57.298
  295.250    1.271    0.326    0.466   57.298
  295.500    1.296    0.326    0.471   57.299
  295.750    1.346    0.328    0.469   57.300
  296.000    1.397    0.338    0.455   57.908
  296.250    1.451    0.335    0.447   57.301
  296.500    1.625    0.315    0.432   57.302
  296.750    1.595    0.182    0.428   54.874
  297.000    1.507    0.288    0.421   54.874
  297.250    1.425    0.336    0.464   57.304
  297.500    1.372    0.348    0.493   57.305
  297.750    1.322    0.346    0.497   57.913
  298.000    1.273    0.353    0.500   60.343
  298.250    1.249    0.328    0.502   61.558
  298.500    1.226    0.312    0.498   60.345
  298.750    1.204    0.322    0.490   57.916
  299.000    1.204    0.323    0.486   54.880
  299.250    1.204    0.335    0.477   53.666
  299.500    1.204    0.327    0.485   56.096
  299.750    1.227    0.343    0.490   57.312
  300.000    1.250    0.331    0.487   57.313
  300.250    1.274    0.325    0.470   56.706
  300.500    1.400    0.321    0.455   54.885
  300.750    1.690    0.310    0.449   54.278
  301.000    2.242    0.290    0.443   52.457
  301.250    2.974    0.257    0.357   51.244
  301.500    5.640    0.164    0.273   51.244
  301.750    8.220    0.024    0.248   51.852
  302.000   10.902    0.137    0.258   51.246
  302.250   13.162    0.208    0.269   48.210
  302.500   13.163    0.215    0.279   44.567
  302.750   11.982    0.061    0.166   43.353
  303.000   10.116    0.005    0.180   48.820
  303.250    6.562    0.040    0.227   50.642
  303.500    4.338    0.102    0.277   53.072
  303.750    2.761    0.219    0.328   56.110
  304.000    1.825    0.265    0.413   57.325
  304.250    1.277    0.305    0.454   59.147
  304.500    1.184    0.302    0.461   60.363
  304.750    1.141    0.327    0.450   59.756
  305.000    1.120    0.341    0.450   60.364
  305.250    1.120    0.350    0.451   63.401
  305.500    1.141    0.333    0.471   65.224
  305.750    1.163    0.308    0.479   66.439
  306.000    1.208    0.299    0.483   68.869
  306.250    1.231    0.329    0.497   71.299
  306.500    1.254    0.324    0.491   71.907
  306.750    1.278    0.331    0.518   64.013
  307.000    1.278    0.326    0.515   61.585
  307.250    1.279    0.338    0.509   64.622
  307.500    1.255    0.337    0.498   65.837
  307.750    1.232    0.318    0.499   67.660
  308.000    1.209    0.297    0.498   67.661
  308.250    1.209    0.323    0.502   70.091
  308.500    1.232    0.316    0.514   72.520
  308.750    1.256    0.319    0.529   74.343
  309.000    1.329    0.295    0.525   73.737
  309.250    1.354    0.281    0.502   73.737
  309.500    1.460    0.274    0.488   77.989
  309.750    1.545    0.278    0.483   82.848
  310.000    1.666    0.291    0.477   84.064
  310.250    1.797    0.285    0.466   84.672
  310.500    1.831    0.262    0.465   88.924
  310.750    1.831    0.264    0.465   90.746
  311.000    1.831    0.260    0.455   87.103
  311.250    1.797    0.275    0.456   83.460
  311.500    1.764    0.295    0.459   85.283
  311.750    1.764    0.266    0.455   87.106
