~VERSION INFORMATION
 VERS.                 2.0:   CWLS LOG ASCII STANDARD -VERSION 2.0
 WRAP.                  NO:   ONE LINE PER DEPTH STEP
~WELL INFORMATION BLOCK
#MNEM.UNIT           DATA                    DESCRIPTION OF MNEMONIC
#---------    -------------------            -------------------------------
# Generated from Intellog Unique Number	CN_91_93/WELL/3007
WELL.         05-25-093-20W4                 : Well_name    - WELL
LOC .         00/05-25-093-20W4/0            : Location     - LOCATION
UWI .         00/05-25-093-20W4/0            : Uwi          - UNIQUE WELL ID
ENTR.         JOETTE                         : Entered      - ENTERED BY
SRVC.         SCHLUMBERGER                   : Scn          - SERVICE COMPANY
DATE.         04/09/92                       : Date         - LOG DATE
STRT.F        350                            : top_depth    - START DEPTH
STOP.F        850.328                        : bot_depth    - STOP DEPTH
STEP.F        0.82                           : increment    - STEP LENGTH
 NULL. -999.2500:NULL Value
~CURVE INFORMATION BLOCK
#MNEM UNIT       ERCB CURVE CODE    CURVE DESCRIPTION
#-----------   ------------------   ----------------------------------
DEPT.F        00 001 00 00         : DEPTH        - DEPTH
CALI.IN       00 280 01 00         : CAL          - CALIPER
GR  .API      00 310 00 00         : GR           - GAMMA RAY
NPHI.V/V      00 330 00 00         : PHIN         - NEUTRON POROSITY (SANDSTONE)
DPHI.V/V      00 890 00 00         : PHID         - DENSITY POROSITY (SANDSTONE)
ILD .OHMM     00 120 00 00         : RESD         - DEEP RESISTIVITY (DIL)
~PARAMETER INFORMATION
#MNEM.UNIT           DATA             DESCRIPTION OF MNEMONIC
#---------         -----------     ------------------------------
GL  .M        534.01               : gl           - GROUND LEVEL ELEVATION
EREF.M        535.534              : kb           - ELEVATION OF DEPTH REFERENCE
DATM.M        535.534              : datum        - DATUM ELEVATION
TDD .M        261.518              : tdd          - TOTAL DEPTH DRILLER
RUN .         ONE                  : Run          - RUN NUMBER
ENG .         BILL                 : Engineer     - RECORDING ENGINEER
WIT .         JIM                  : Witness      - WITNESSED BY
MUD .         GEL                  : Mud_type     - MUD TYPE
MATR.         SANDSTONE            : Logunit      - NEUTRON MATRIX
TMAX.F        84                   : BHT          - MAXIMUM RECORDED TEMPERATURE
BHTD.F        858                  : BHTDEP       - MAXIMUM RECORDED TEMPERATURE
RMT .F        98                   : MDTP         - TEMPERATURE OF MUD
MUDD.LB/G     9.5                  : MWT          - MUD DENSITY
NEUT.         1                    : NEUTRON      - NEUTRON TYPE
RESI.         0                    : RESIST       - RESISTIVITY TYPE
RM  .OHMM     1.4                  : RM           - RESISTIVITY OF MUD
RMC .OHMM     1.4                  : RMC          - RESISTIVITY OF MUD CAKE
RMF .OHMM     1.4                  : RMF          - RESISTIVITY OF MUD FILTRATE
SUFT.F        -4                   : SUFT         - SURFACE TEMPERATURE
~A  DEPTH      CAL       GR     PHIN     PHID     RESD
  350.000    6.892   80.184    0.605    0.322   12.309
  350.820    6.916   79.945    0.596    0.299   10.175
  351.640    6.706   77.090    0.603    0.282    9.497
  352.461    6.495   74.804    0.612    0.269    9.256
  353.281    6.577   71.064    0.615    0.263    9.754
  354.101    6.524   67.917    0.612    0.264   11.345
  354.921    6.352   65.346    0.620    0.275   13.633
  355.741    6.590   65.400    0.616    0.274   16.395
  356.562    6.477   67.507    0.597    0.240   19.709
  357.382    6.286   71.085    0.575    0.216   23.177
  358.202    6.310   72.900    0.557    0.199   29.116
  359.022    6.334   71.799    0.539    0.175   31.023
  359.843    6.611   72.738    0.504    0.206   28.005
  360.663    6.986   71.344    0.522    0.267   22.646
  361.483    6.834   69.067    0.517    0.285   19.341
  362.303    6.682   69.997    0.502    0.305   19.066
  363.123    6.550   72.397    0.534    0.298   20.322
  363.944    6.476   76.567    0.562    0.313   22.127
  364.764    6.363   78.675    0.583    0.341   23.819
  365.584    6.330   81.668    0.579    0.309   24.808
  366.404    6.255   82.614    0.568    0.275   18.169
  367.224    6.395   82.075    0.545    0.261   13.911
  368.045    6.341   80.089    0.537    0.236   12.284
  368.865    6.306   75.472    0.529    0.195   13.229
  369.685    6.505   72.609    0.514    0.201   13.185
  370.505    6.607   71.508    0.504    0.251   12.993
  371.325    6.552   70.692    0.499    0.262   13.547
  372.146    6.597   66.660    0.496    0.271   15.245
  372.966    6.620   70.522    0.519    0.282   13.762
  373.786    6.448   80.540    0.549    0.279   10.763
  374.606    6.317   82.347    0.595    0.252    9.940
  375.427    6.534   84.170    0.599    0.259    8.489
  376.247    6.753   85.409    0.573    0.283    7.751
  377.067    6.816   87.817    0.576    0.296    7.152
  377.887    6.684   83.769    0.592    0.296    8.319
  378.707    6.845   70.965    0.593    0.290   11.164
  379.528    6.614   67.802    0.568    0.271   13.279
  380.348    6.345   69.333    0.552    0.273   17.247
  381.168    6.349   74.957    0.537    0.285   19.841
  381.988    6.646   77.365    0.520    0.260   19.551
  382.808    6.807   73.032    0.511    0.247   17.656
  383.629    6.869   71.339    0.515    0.248   15.597
  384.449    6.990   71.992    0.539    0.280   13.036
  385.269    7.287   72.646    0.564    0.254   10.541
  386.089    7.311   73.292    0.585    0.248   10.054
  386.909    6.710   74.230    0.608    0.243   10.357
  387.730    6.715   78.385    0.626    0.246    9.995
  388.550    6.583   85.171    0.639    0.247    9.223
  389.370    6.626   80.554    0.629    0.243    9.606
  390.190    6.786   82.669    0.613    0.250   10.235
  391.010    6.596   86.824    0.571    0.254   11.014
  391.831    6.599   90.401    0.506    0.278   11.480
  392.651    6.759   92.809    0.460    0.236   11.825
  393.471    6.627   89.938    0.444    0.196   11.795
  394.291    6.865   89.138    0.463    0.160   11.374
  395.112    7.005   90.961    0.541    0.181   10.848
  395.932    6.834   92.184    0.569    0.195   10.350
  396.752    6.702   92.530    0.596    0.257    9.872
  397.572    6.804   92.898    0.597    0.260    9.625
  398.392    6.847   93.244    0.592    0.285    9.495
  399.213    6.773   96.529    0.592    0.299    9.463
  400.033    6.602   95.713    0.609    0.312    9.332
  400.853    6.391   95.205    0.619    0.336    9.102
  401.673    6.240   93.789    0.626    0.324    8.681
  402.493    6.341   90.926    0.610    0.307    8.653
  403.314    6.365   88.940    0.604    0.309    8.816
  404.134    6.662   89.009    0.591    0.288    9.287
  404.954    6.666   90.232    0.585    0.265    9.259
  405.774    6.651   92.940    0.605    0.252    8.639
  406.594    6.791   95.332    0.620    0.258    8.155
  407.415    6.893   96.563    0.609    0.240    7.778
  408.235    6.760   93.708    0.564    0.213    7.498
  409.055    6.804   94.946    0.517    0.185    7.476
  409.875    6.964   95.300    0.541    0.212    7.454
  410.696    6.773   93.899    0.536    0.238    7.429
  411.516    6.563   89.859    0.532    0.246    7.492
  412.336    6.567   86.119    0.550    0.263    7.633
  413.156    6.415   87.357    0.563    0.267    7.780
  413.976    6.380   85.656    0.563    0.253    7.843
  414.797    6.424   75.776    0.559    0.237    8.169
  415.617    6.525   72.028    0.566    0.244    8.329
  416.437    6.842   70.058    0.578    0.220    8.871
  417.257    6.690   70.111    0.564    0.223    9.553
  418.077    6.850   69.010    0.560    0.227   10.508
  418.898    6.834   70.826    0.563    0.230   10.249
  419.718    6.468   74.696    0.582    0.234    9.458
  420.538    6.687   75.049    0.595    0.240    9.124
  421.358    6.438   76.272    0.589    0.232    9.300
  422.178    6.481   78.103    0.592    0.232    9.371
  422.999    6.407   76.410    0.606    0.239    9.450
  423.819    6.625   76.171    0.623    0.239    9.214
  424.639    6.356   79.163    0.639    0.237    8.503
  425.459    6.362   82.148    0.622    0.239    7.426
  426.280    6.327   89.527    0.617    0.240    6.630
  427.100    6.584   90.180    0.603    0.204    5.924
  427.920    6.784   86.140    0.593    0.189    5.523
  428.740    6.749   82.400    0.578    0.182    5.449
  429.560    6.694   80.122    0.588    0.184    5.615
  430.381    6.464   76.967    0.597    0.220    5.915
  431.201    6.702   70.296    0.595    0.238    6.511
  432.021    7.018   73.288    0.598    0.241    7.012
  432.841    6.477   80.959    0.602    0.235    6.325
  433.661    6.481   80.151    0.613    0.245    6.381
  434.482    6.777   79.042    0.620    0.257    7.175
  435.302    6.880   79.388    0.614    0.251    7.645
  436.122    6.689   81.219    0.611    0.265    8.416
  436.942    6.634   80.688    0.614    0.271    8.964
  437.762    7.126   78.994    0.621    0.287    9.238
  438.583    6.701   81.102    0.596    0.272    8.622
  439.403    6.588   89.358    0.588    0.258    7.525
  440.223    6.495   87.665    0.600    0.254    7.182
  441.043    6.557   84.509    0.608    0.256    7.240
  441.864    6.542   81.646    0.607    0.265    7.299
  442.684    6.546   77.914    0.596    0.262    7.436
  443.504    6.609   77.383    0.599    0.268    7.414
  444.324    6.652   75.982    0.600    0.292    7.390
  445.144    6.598   78.982    0.590    0.302    7.365
  445.965    6.778   82.260    0.565    0.236    7.427
  446.785    6.782   83.498    0.560    0.192    7.322
  447.605    6.611   83.266    0.544    0.177    7.300
  448.425    6.479   83.320    0.505    0.183    7.441
  449.245    6.443   83.681    0.500    0.208    7.257
  450.066    7.052   83.457    0.535    0.249    7.230
  450.886    6.569   84.096    0.556    0.245    7.133
  451.706    6.787   86.796    0.575    0.252    7.104
  452.526    6.968   84.810    0.576    0.256    7.104
  453.346    7.011   82.525    0.564    0.255    7.214
  454.167    7.210   80.839    0.574    0.248    7.522
  454.987    7.038   80.608    0.555    0.248    7.837
  455.807    6.535   78.337    0.535    0.268    8.076
  456.627    6.559   76.936    0.540    0.273    8.141
  457.448    6.681   75.828    0.548    0.265    8.117
  458.268    6.723   77.059    0.556    0.281    8.090
  459.088    6.435   77.120    0.550    0.296    7.888
  459.908    6.595   81.867    0.554    0.295    7.123
  460.728    6.424   87.483    0.561    0.298    6.086
  461.549    6.584   92.823    0.557    0.327    5.436
  462.369    6.589   90.245    0.556    0.323    4.963
  463.189    6.651   87.089    0.568    0.279    4.528
  464.009    6.869   86.866    0.568    0.299    4.464
  464.829    7.244   90.135    0.561    0.273    4.500
  465.650    7.620   93.128    0.545    0.225    4.688
  466.470    7.448   94.366    0.540    0.231    4.887
  467.290    7.179   93.843    0.544    0.238    5.199
  468.110    6.969   89.218    0.573    0.198    5.419
  468.930    6.837   86.070    0.603    0.262    5.584
