~VERSION INFORMATION
 VERS.                 2.0:   CWLS LOG ASCII STANDARD -VERSION 2.0
 WRAP.                  NO:   ONE LINE PER DEPTH STEP
~WELL INFORMATION BLOCK
#MNEM.UNIT           DATA                    DESCRIPTION OF MNEMONIC
#---------    -------------------            -------------------------------
# Generated from Intellog Unique Number	CN_94_101/WELL/2765
WELL.         PARAMOUNT LTD.                 : Well_name    - WELL
LOC .         00/07-15-094-21W4/0            : Location     - LOCATION
UWI .         00/07-15-094-21W4/0            : Uwi          - UNIQUE WELL ID
ENTR.         JOETTE                         : Entered      - ENTERED BY
SRVC.         COMPUTALOG                     : Scn          - SERVICE COMPANY
DATE.         07\03\92                       : Date         - LOG DATE
STRT.M        210                            : top_depth    - START DEPTH
STOP.M        380                            : bot_depth    - STOP DEPTH
STEP.M        0.25                           : increment    - STEP LENGTH
 NULL. -999.2500:NULL Value
~CURVE INFORMATION BLOCK
#MNEM UNIT       ERCB CURVE CODE    CURVE DESCRIPTION
#-----------   ------------------   ----------------------------------
DEPT.M        00 001 00 00         : DEPTH        - DEPTH
CALI.MM       00 280 01 00         : CAL          - CALIPER
GR  .API      00 310 00 00         : GR           - GAMMA RAY
NPHI.V/V      00 330 00 00         : PHIN         - NEUTRON POROSITY (SANDSTONE)
DPHI.V/V      00 890 00 00         : PHID         - DENSITY POROSITY (SANDSTONE)
ILD .OHMM     00 120 00 00         : RESD         - DEEP RESISTIVITY (DIL)
~PARAMETER INFORMATION
#MNEM.UNIT           DATA             DESCRIPTION OF MNEMONIC
#---------         -----------     ------------------------------
GL  .M        690.4                : gl           - GROUND LEVEL ELEVATION
EREF.M        693.5                : kb           - ELEVATION OF DEPTH REFERENCE
DATM.M        693.5                : datum        - DATUM ELEVATION
TDD .M        383.5                : tdd          - TOTAL DEPTH DRILLER
RUN .         ONE                  : Run          - RUN NUMBER
ENG .         JO                   : Engineer     - RECORDING ENGINEER
WIT .         TIM                  : Witness      - WITNESSED BY
MUD .         GEL                  : Mud_type     - MUD TYPE
MATR.         SANDSTONE            : Logunit      - NEUTRON MATRIX
TMAX.C        35                   : BHT          - MAXIMUM RECORDED TEMPERATURE
BHTD.M        383.5                : BHTDEP       - MAXIMUM RECORDED TEMPERATURE
RMT .C        13                   : MDTP         - TEMPERATURE OF MUD
MUDD.KG/M     1070                 : MWT          - MUD DENSITY
NEUT.         1                    : NEUTRON      - NEUTRON TYPE
RESI.         0                    : RESIST       - RESISTIVITY TYPE
RM  .OHMM     2.6                  : RM           - RESISTIVITY OF MUD
RMC .OHMM     2.6                  : RMC          - RESISTIVITY OF MUD CAKE
RMF .OHMM     3.7                  : RMF          - RESISTIVITY OF MUD FILTRATE
SUFT.C        4                    : SUFT         - SURFACE TEMPERATURE
~A  DEPTH      CAL       GR     PHIN     PHID     RESD
# ...
  283.000  162.856  111.498    0.472    0.210    4.516
  283.250  163.924  110.934    0.464    0.199    4.518
  283.500  163.997  111.586    0.464    0.183    4.520
  283.750  160.018  113.442    0.471    0.191    4.523
  284.000  155.025  111.055    0.486    0.195    4.526
  284.250  154.085  110.491    0.485    0.192    4.528
  284.500  162.300  111.750    0.473    0.189    4.532
  284.750  162.373  113.629    0.481    0.197    4.534
  285.000  161.451  113.672    0.499    0.203    4.454
  285.250  160.474  113.097    0.493    0.202    4.373
  285.500  160.547  114.379    0.489    0.191    4.296
  285.750  161.651  116.235    0.488    0.192    4.218
  286.000  161.706  117.495    0.502    0.201    4.142
  286.250  161.816  113.284    0.507    0.204    3.994
  286.500  161.870  110.896    0.503    0.206    3.995
  286.750  161.944  109.746    0.497    0.208    3.923
  287.000  161.998  109.171    0.485    0.207    3.926
  287.250  161.095  107.999    0.472    0.210    3.928
  287.500  160.136  107.446    0.475    0.216    3.930
  287.750  159.214  111.126    0.489    0.225    4.009
  288.000  159.269  114.198    0.501    0.230    4.164
  288.250  161.350  113.634    0.492    0.235    4.324
  288.500  165.512  108.815    0.487    0.235    4.663
  288.750  167.593  104.603    0.488    0.235    4.934
  289.000  168.698  101.000    0.488    0.238    5.422
  289.250  166.744   96.180    0.474    0.240    5.325
  289.500  164.773   93.793    0.434    0.242    4.763
  289.750  159.798   95.052    0.420    0.243    4.260
  290.000  158.840  101.175    0.455    0.244    3.809
  290.250  157.936  106.701    0.488    0.246    3.471
  290.500  160.017  103.694    0.517    0.246    3.674
  290.750  164.161   99.505    0.524    0.242    4.114
  291.000  165.229   99.526    0.489    0.235    4.354
  291.250  165.284   99.592    0.472    0.236    4.523
  291.500  164.362  100.222    0.462    0.238    4.786
  291.750  161.396  100.885    0.457    0.232    4.882
  292.000  158.429   99.713    0.450    0.226    4.793
  292.250  155.463  102.796    0.456    0.221    4.619
  292.500  154.504  110.753    0.472    0.226    4.369
  292.750  154.577  109.581    0.467    0.233    4.134
  293.000  158.721  107.193    0.483    0.233    4.137
  293.250  160.820  105.414    0.506    0.227    4.139
  293.500  161.907  106.054    0.500    0.221    4.220
  293.750  162.993  107.922    0.489    0.216    4.222
  294.000  165.110  105.534    0.485    0.223    4.305
  294.250  166.178  103.754    0.485    0.225    4.307
  294.500  165.238  103.809    0.472    0.228    4.309
  294.750  161.295  104.450    0.481    0.230    4.395
  295.000  158.310  106.925    0.481    0.234    4.480
  295.250  156.339  107.588    0.473    0.236    4.567
  295.500  153.391  103.973    0.470    0.229    4.656
  295.750  155.490  100.999    0.476    0.219    4.837
  296.000  161.642  100.413    0.481    0.221    5.025
  296.250  164.772  100.479    0.453    0.233    5.219
  296.500  165.822  100.523    0.444    0.240    5.734
  296.750  164.900   98.124    0.441    0.239    8.187
  297.000  163.960   92.686    0.465    0.223    8.346
  297.250  163.020   89.083    0.436    0.211    8.046
  297.500  160.054   91.569    0.426    0.217    7.899
  297.750  156.056   91.005    0.416    0.222    7.337
  298.000  157.160   86.793    0.420    0.230    6.939
  298.250  164.325   86.240    0.420    0.240    6.564
  298.500  159.351   88.705    0.415    0.244    5.872
  298.750  155.353   90.583    0.413    0.238    5.659
  299.000  155.426   91.235    0.420    0.239    5.062
  299.250  157.562   94.915    0.439    0.254    4.788
  299.500  157.598  104.685    0.478    0.248    4.530
  299.750  157.689  105.337    0.481    0.241    4.448
  300.000  157.762   98.694    0.470    0.237    4.209
  300.250  156.804  101.180    0.466    0.235    4.210
  300.500  156.877  101.224    0.475    0.228    4.060
  300.750  154.942   98.825    0.486    0.181    3.912
  301.000  154.002  102.527    0.512    0.155    3.770
  301.250  153.080  107.434    0.527    0.132    3.567
  301.500  153.116  111.733    0.532    0.191    3.504
  301.750  153.244  113.601    0.527    0.214    3.572
  302.000  153.299  114.860    0.517    0.215    3.711
  302.250  154.349  116.739    0.500    0.214    4.155
  302.500  155.435  113.732    0.480    0.220    4.396
  302.750  155.526  108.913    0.467    0.244    4.921
  303.000  156.612  101.662    0.459    0.243    5.407
  303.250  156.722   97.461    0.444    0.240    5.513
  303.500  156.776   98.124    0.443    0.245    5.024
  303.750  156.868   99.970    0.448    0.249    4.842
  304.000  156.904  105.495    0.459    0.248    4.666
  304.250  157.014  107.971    0.481    0.247    4.498
  304.500  157.050  108.015    0.498    0.243    4.417
  304.750  158.155  106.235    0.498    0.242    4.420
  305.000  158.246  103.250    0.491    0.241    4.423
  305.250  158.301  108.754    0.481    0.237    4.509
  305.500  158.374  114.887    0.472    0.232    4.429
  305.750  157.415  116.744    0.475    0.225    4.431
  306.000  156.475  115.572    0.487    0.215    4.271
  306.250  158.593  111.361    0.494    0.217    4.117
  306.500  162.700  113.858    0.503    0.222    4.043
  306.750  163.804  115.096    0.508    0.227    3.971
  307.000  162.901  115.139    0.505    0.227    3.972
  307.250  161.924  113.359    0.498    0.227    3.976
  307.500  162.034  110.972    0.490    0.224    3.978
  307.750  162.088  107.379    0.485    0.219    4.133
  308.000  161.130  106.218    0.490    0.217    4.135
  308.250  161.221  106.240    0.496    0.217    4.215
  308.500  160.263  109.953    0.504    0.219    4.461
  308.750  161.385  108.781    0.509    0.221    4.811
  309.000  163.448  106.990    0.513    0.216    5.285
  309.250  166.561  108.250    0.502    0.213    5.389
  309.500  165.639  106.470    0.481    0.216    5.194
  309.750  160.628   99.816    0.458    0.223    4.733
  310.000  156.648  105.950    0.450    0.226    4.314
  310.250  153.700  113.896    0.448    0.224    4.236
  310.500  153.755  113.332    0.444    0.223    4.083
  310.750  153.846  111.563    0.449    0.223    4.086
  311.000  155.945  111.596    0.505    0.228    4.166
  311.250  158.045  112.866    0.473    0.228    4.409
  311.500  161.157  111.694    0.470    0.225    4.666
  311.750  163.256  108.080    0.461    0.225    4.937
  312.000  161.321  102.045    0.447    0.231    5.632
  312.250  156.329   96.010    0.434    0.242    6.189
  312.500  152.331   91.799    0.452    0.249    6.309
  312.750  149.401   87.587    0.486    0.254    5.860
  313.000  148.443   82.171    0.496    0.258    5.542
  313.250  148.534   82.226    0.507    0.239    5.146
  313.500  148.570   84.071    0.507    0.197    4.868
  313.750  152.696   88.370    0.503    0.154    4.606
  314.000  157.853   96.924    0.497    0.143    4.438
  314.250  160.965  113.392    0.490    0.171    4.360
  314.500  163.046  117.691    0.490    0.188    4.281
  314.750  165.146  115.922    0.502    0.178    4.283
  315.000  168.295  119.613    0.500    0.180    4.287
  315.250  167.354  123.294    0.495    0.195    4.289
  315.500  164.406  124.564    0.495    0.196    4.292
  315.750  163.448  122.176    0.503    0.190    4.375
  316.000  161.476  119.778    0.500    0.178    4.460
  316.250  159.560  121.656    0.498    0.158    4.547
  316.500  158.601  121.103    0.500    0.171    4.636
  316.750  157.643  119.931    0.500    0.177    4.638
  317.000  157.734  119.964    0.482    0.170    4.642
  317.250  158.802  124.871    0.479    0.183    4.732
  317.500  159.925  119.443    0.480    0.215    4.732
  317.750  160.992  104.887    0.470    0.225    8.003
  318.000  162.060   95.812    0.434    0.233    8.790
  318.250  161.139   90.396    0.428    0.243    9.659
  318.500  160.180   91.048    0.416    0.253    9.845
  318.750  157.232   91.711    0.418    0.254   10.226
  319.000  156.274   91.125    0.422    0.254   10.825
  319.250  154.339   89.964    0.419    0.256   10.829
