~VERSION INFORMATION
 VERS.                 2.0:   CWLS LOG ASCII STANDARD -VERSION 2.0
 WRAP.                  NO:   ONE LINE PER DEPTH STEP
~WELL INFORMATION BLOCK
#MNEM.UNIT           DATA                    DESCRIPTION OF MNEMONIC
#---------    -------------------            -------------------------------
# Generated from Intellog Unique Number	CS_67_68/WELL/2170
WELL.         06-16-067-05W4                 : Well_name    - WELL
LOC .         00/06-16-067-05W4/0            : Location     - LOCATION
UWI .         00/06-16-067-05W4/0            : Uwi          - UNIQUE WELL ID
ENTR.         SP                             : Entered      - ENTERED BY
SRVC.         SCHLUMBERGER                   : Scn          - SERVICE COMPANY
STRT.M        325                            : top_depth    - START DEPTH
STOP.M        545                            : bot_depth    - STOP DEPTH
STEP.M        0.25                           : increment    - STEP LENGTH
 NULL. -999.2500:NULL Value
~CURVE INFORMATION BLOCK
#MNEM UNIT       ERCB CURVE CODE    CURVE DESCRIPTION
#-----------   ------------------   ----------------------------------
DEPT.M        00 001 00 00         : DEPTH        - DEPTH
ILD .OHMM     00 120 00 00         : RESD         - DEEP RESISTIVITY (DIL)
DPHI.V/V      00 890 00 00         : PHID         - DENSITY POROSITY (LIMESTONE)
NPHI.V/V      00 330 00 00         : PHIN         - NEUTRON POROSITY (LIMESTONE)
GR  .API      00 310 00 00         : GR           - GAMMA RAY
CALI.MM       00 280 01 00         : CAL          - CALIPER
~PARAMETER INFORMATION
#MNEM.UNIT           DATA             DESCRIPTION OF MNEMONIC
#---------         -----------     ------------------------------
GL  .M        656.66               : gl           - GROUND LEVEL ELEVATION
EREF.M        660.02               : kb           - ELEVATION OF DEPTH REFERENCE
DATM.M        660.02               : datum        - DATUM ELEVATION
TDD .M        550                  : tdd          - TOTAL DEPTH DRILLER
RUN .         ONE                  : Run          - RUN NUMBER
ENG .         BILL                 : Engineer     - RECORDING ENGINEER
WIT .         JIM                  : Witness      - WITNESSED BY
MUD .         GEL                  : Mud_type     - MUD TYPE
MATR.         LIMESTONE            : Logunit      - NEUTRON MATRIX
TMAX.C        24                   : BHT          - MAXIMUM RECORDED TEMPERATURE
BHTD.M        550.4                : BHTDEP       - MAXIMUM RECORDED TEMPERATURE
MATR.         1                    : LOGUNIT      - NEUTRON MATRIX
RMT .C        25                   : MDTP         - TEMPERATURE OF MUD
NEUT.         1                    : NEUTRON      - NEUTRON TYPE
RESI.         0                    : RESIST       - RESISTIVITY TYPE
RMC .OHMM     0.25                 : RMC          - RESISTIVITY OF MUD CAKE
RMF .OHMM     0.25                 : RMF          - RESISTIVITY OF MUD FILTRATE
SUFT.C        15                   : SUFT         - SURFACE TEMPERATURE
~A  DEPTH     RESD     PHID     PHIN       GR      CAL
# ...
  434.500    7.439    0.326    0.434   58.405  204.295
  434.750    7.933    0.333    0.420   59.526  204.024
  435.000    8.302    0.332    0.436   60.159  204.056
  435.250    8.432    0.323    0.457   60.361  203.989
  435.500    8.434    0.318    0.433   60.812  204.022
  435.750    8.312    0.321    0.413   62.175  204.162
  436.000    7.993    0.327    0.417   62.623  204.911
  436.250    7.586    0.337    0.427   62.643  205.453
  436.500    7.186    0.342    0.441   63.948  205.899
  436.750    6.989    0.338    0.453   65.742  206.025
  437.000    6.759    0.330    0.446   68.639  205.859
  437.250    6.524    0.329    0.455   70.800  205.484
  437.500    6.309    0.331    0.461   72.349  205.211
  437.750    6.113    0.344    0.467   71.695  203.923
  438.000    5.968    0.353    0.474   68.657  201.506
  438.250    5.925    0.351    0.475   66.050  201.130
  438.500    5.883    0.346    0.471   67.109  201.063
  438.750    5.852    0.342    0.472   69.391  202.523
  439.000    5.854    0.333    0.468   69.044  203.780
  439.250    5.979    0.328    0.453   69.249  204.938
  439.500    6.509    0.311    0.435   69.455  205.378
  439.750    7.386    0.278    0.418   69.655  204.596
  440.000    8.148    0.253    0.400   69.614  202.591
  440.250    8.105    0.238    0.383   67.805  201.910
  440.500    7.809    0.265    0.399   67.331  201.845
  440.750    7.481    0.302    0.445   70.409  201.577
  441.000    7.087    0.329    0.472   69.144  201.507
  441.250    6.369    0.329    0.478   69.532  201.641
  441.500    5.713    0.328    0.471   71.573  202.185
  441.750    5.241    0.328    0.467   73.737  202.115
  442.000    4.882    0.327    0.463   75.404  201.846
  442.250    4.874    0.322    0.452   77.874  201.877
  442.500    4.932    0.324    0.445   79.542  201.813
  442.750    5.008    0.313    0.447   79.323  202.043
  443.000    5.153    0.303    0.471   78.850  202.586
  443.250    5.303    0.294    0.492   78.686  203.435
  443.500    5.315    0.285    0.513   80.602  204.490
  443.750    5.228    0.275    0.487   84.292  205.750
  444.000    5.094    0.261    0.454   88.166  206.905
  444.250    4.889    0.255    0.510   90.695  207.858
  444.500    4.361    0.258    0.532   85.821  209.110
  444.750    3.587    0.287    0.548   85.902  211.999
  445.000    3.152    0.303    0.569   91.309  214.071
  445.250    2.881    0.305    0.578   94.384  210.229
  445.500    2.699    0.302    0.556   96.791  211.386
  445.750    2.556    0.302    0.546   92.530  214.681
  446.000    2.486    0.305    0.557   92.488  210.842
  446.250    2.441    0.311    0.591   91.651  207.714
  446.500    2.465    0.313    0.608   89.653  207.137
  446.750    2.508    0.310    0.626   88.389  208.191
  447.000    2.571    0.305    0.608   87.615  211.179
  447.250    2.696    0.294    0.574   86.229  212.539
  447.500    2.902    0.280    0.532   83.862  211.246
  447.750    3.219    0.269    0.505   83.209  210.566
  448.000    5.067    0.282    0.482   82.068  209.990
  448.250    6.559    0.295    0.463   79.579  210.634
  448.500    8.716    0.304    0.453   72.812  205.777
  448.750   11.627    0.310    0.457   67.817  204.484
  449.000   14.277    0.331    0.490   64.348  205.036
  449.250   17.205    0.344    0.483   61.494  205.469
  449.500   20.310    0.350    0.470   59.312  206.013
  449.750   22.916    0.351    0.459   57.924  206.455
  450.000   24.855    0.350    0.448   57.822  206.795
  450.250   25.529    0.353    0.440   60.047  207.234
  450.500   25.490    0.352    0.431   62.389  207.573
  450.750   25.261    0.345    0.443   64.673  208.117
  451.000   24.523    0.350    0.463   64.265  209.374
  451.250   23.893    0.349    0.472   64.899  210.735
  451.500   23.150    0.348    0.460   65.162  211.685
  451.750   22.222    0.346    0.448   62.307  212.229
  452.000   21.693    0.343    0.438   61.838  211.345
  452.250   21.295    0.334    0.443   62.715  210.767
  452.500   20.867    0.328    0.458   61.880  210.497
  452.750   20.294    0.328    0.450   62.208  210.327
  453.000   19.924    0.334    0.440   63.203  209.850
  453.250   19.487    0.333    0.457   65.303  209.575
  453.500   19.276    0.335    0.486   62.021  209.303
  453.750   19.282    0.343    0.499   62.959  209.339
  454.000   19.291    0.349    0.479   65.367  209.472
  454.250   19.553    0.353    0.462   65.812  209.512
  454.500   19.232    0.349    0.449   64.611  209.543
  454.750   16.615    0.343    0.457   64.691  209.573
  455.000   14.763    0.336    0.468   65.201  209.711
  455.250   13.193    0.331    0.474   64.119  209.846
  455.500   14.283    0.344    0.475   63.040  209.779
  455.750   15.492    0.357    0.475   62.692  209.917
  456.000   17.382    0.363    0.460   62.346  209.643
  456.250   19.356    0.362    0.475   61.998  208.348
  456.500   21.113    0.352    0.484   61.410  206.955
  456.750   22.643    0.348    0.480   61.122  205.975
  457.000   25.072    0.020    0.452   58.389  205.292
  457.250   30.386    0.000    0.392   53.029  204.506
  457.500   37.104    0.000    0.136   48.398  205.459
  457.750   48.389    0.000    0.129   44.686  207.124
  458.000   66.394    0.013    0.135   41.284  207.973
  458.250   86.587    0.026    0.133   40.017  207.908
  458.500   84.688    0.015    0.127   45.299  207.431
  458.750   66.346    0.003    0.130   53.272  206.955
  459.000   49.773    0.000    0.256   59.836  206.274
  459.250   35.493    0.250    0.334   64.322  205.185
  459.500   25.839    0.303    0.396   66.790  204.098
  459.750   18.184    0.313    0.435   67.177  203.420
  460.000   15.272    0.321    0.469   66.645  202.743
  460.250   14.413    0.332    0.469   66.482  203.179
  460.500   14.256    0.342    0.463   66.136  204.131
  460.750   13.917    0.352    0.458   65.910  204.775
  461.000   13.689    0.340    0.457   65.931  205.012
  461.250   13.114    0.323    0.466   66.379  203.315
  461.500   12.471    0.313    0.480   67.321  202.331
  461.750   12.128    0.310    0.482   67.948  203.178
  462.000   11.773    0.310    0.482   68.825  204.646
  462.250   11.514    0.314    0.464   70.191  205.486
  462.500   11.220    0.321    0.452   70.213  206.339
  462.750   10.932    0.309    0.448   69.619  206.066
  463.000   10.493    0.304    0.463   69.702  205.389
  463.250    9.809    0.298    0.476   72.354  205.010
  463.500    9.275    0.306    0.500   72.800  205.044
  463.750    9.419    0.315    0.487   70.924  205.587
  464.000    9.601    0.320    0.470   67.335  205.723
  464.250    9.843    0.322    0.484   66.438  205.145
  464.500    9.902    0.333    0.483   69.702  203.960
  464.750    9.648    0.342    0.471   71.740  203.385
  465.000    9.123    0.321    0.484   69.802  203.106
  465.250    8.626    0.301    0.483   68.721  203.139
  465.500    7.989    0.294    0.482   69.658  203.377
  465.750    7.525    0.303    0.487   72.678  204.021
  466.000    6.737    0.295    0.493   75.328  209.052
  466.250    6.032    0.274    0.487   77.549  216.630
  466.500    5.565    0.263    0.486   79.773  226.041
  466.750    5.372    0.275    0.489   80.588  227.706
  467.000    5.304    0.284    0.481   78.221  216.527
  467.250    4.802    0.295    0.475   74.391  208.303
  467.500    3.928    0.303    0.488   72.267  207.419
  467.750    3.356    0.297    0.509   71.983  212.549
  468.000    2.861    0.307    0.530   72.982  222.783
  468.250    2.407    0.322    0.529   74.347  229.848
  468.500    2.029    0.332    0.553   76.385  228.147
  468.750    1.803    0.332    0.556   78.364  219.824
  469.000    1.873    0.326    0.532   79.178  212.015
  469.250    1.972    0.328    0.511   79.137  208.068
  469.500    2.013    0.323    0.517   77.263  205.343
  469.750    2.014    0.316    0.536   74.591  203.848
  470.000    2.019    0.304    0.535   73.755  204.289
  470.250    2.101    0.302    0.523   74.386  205.036
  470.500    2.174    0.313    0.555   75.570  208.438
  470.750    2.453    0.343    0.584   76.322  215.096
