~VERSION INFORMATION
 VERS.                 2.0:   CWLS LOG ASCII STANDARD -VERSION 2.0
 WRAP.                  NO:   ONE LINE PER DEPTH STEP
~WELL INFORMATION BLOCK
#MNEM.UNIT           DATA                    DESCRIPTION OF MNEMONIC
#---------    -------------------            -------------------------------
# Generated from Intellog Unique Number	CW_76_78/WELL/416
WELL.         RR CHIEFCO PELICAN 06-03       : Well_name    - WELL
LOC .         00/06-03-077-22W4/0            : Location     - LOCATION
UWI .         00/06-03-077-22W4/0            : Uwi          - UNIQUE WELL ID
ENTR.         os                             : Entered      - ENTERED BY
SRVC.         SCHLUMBERGER                   : Scn          - SERVICE COMPANY
DATE.         25 JAN 1974                    : Date         - LOG DATE
STRT.M        438.912                        : top_depth    - START DEPTH
STOP.M        661.412                        : bot_depth    - STOP DEPTH
STEP.M        0.25                           : increment    - STEP LENGTH
 NULL. -999.2500:NULL Value
~CURVE INFORMATION BLOCK
#MNEM UNIT       ERCB CURVE CODE    CURVE DESCRIPTION
#-----------   ------------------   ----------------------------------
DEPT.M        00 001 00 00         : DEPTH        - DEPTH
ILD .OHMM     00 120 00 00         : RESD         - DEEP RESISTIVITY (DIL)
NPHI.V/V      00 330 00 00         : PHIN         - NEUTRON POROSITY (SANDSTONE)
DPHI.V/V      00 890 00 00         : PHID         - DENSITY POROSITY (SANDSTONE)
GR  .API      00 310 00 00         : GR           - GAMMA RAY
CALI.MM       00 280 01 00         : CAL          - CALIPER
~PARAMETER INFORMATION
#MNEM.UNIT           DATA             DESCRIPTION OF MNEMONIC
#---------         -----------     ------------------------------
GL  .M        756.94               : gl           - GROUND LEVEL ELEVATION
EREF.M        760.293              : kb           - ELEVATION OF DEPTH REFERENCE
DATM.M        756.94               : datum        - DATUM ELEVATION
TDD .M        675.742              : tdd          - TOTAL DEPTH DRILLER
RUN .         ONE                  : Run          - RUN NUMBER
ENG .         SIROIS & SMILEY      : Engineer     - RECORDING ENGINEER
WIT .         TAHMAZIAN            : Witness      - WITNESSED BY
BASE.         EDMONTON             : Branch       - HOME BASE OF LOGGING UNIT
MUD .         GEL CHEM             : Mud_type     - MUD TYPE
MATR.         SANDSTONE            : Logunit      - NEUTRON MATRIX
TMAX.C        28.8889              : BHT          - MAXIMUM RECORDED TEMPERATURE
BHTD.M        675.742              : BHTDEP       - MAXIMUM RECORDED TEMPERATURE
RMT .C        8.88889              : MDTP         - TEMPERATURE OF MUD
MUDD.KG/M     1080                 : MWT          - MUD DENSITY
NEUT.         1                    : NEUTRON      - NEUTRON TYPE
RESI.         0                    : RESIST       - RESISTIVITY TYPE
RM  .OHMM     4.42                 : RM           - RESISTIVITY OF MUD
RMC .OHMM     2.5                  : RMC          - RESISTIVITY OF MUD CAKE
RMF .OHMM     4.8                  : RMF          - RESISTIVITY OF MUD FILTRATE
SUFT.C        4.5                  : SUFT         - SURFACE TEMPERATURE
~A  DEPTH     RESD     PHIN     PHID       GR      CAL
# ...
  548.412    4.052    0.457    0.213  104.379  168.270
  548.662    4.102    0.460    0.222  103.131  165.745
  548.912    4.222    0.469    0.201  101.453  167.267
  549.162    4.461    0.478    0.186  100.939  168.588
  549.412    4.628    0.471    0.217   98.460  166.993
  549.662    4.852    0.464    0.217   95.492  163.005
  549.912    5.002    0.456    0.192   92.273  159.324
  550.162    5.495    0.432    0.148   93.361  160.645
  550.412    5.574    0.361    0.122   90.569  168.921
  550.662    5.437    0.415    0.093   92.574  171.080
  550.912    5.244    0.449    0.165   95.387  170.524
  551.162    4.957    0.458    0.196   99.851  167.162
  551.412    4.711    0.445    0.218  100.811  163.999
  551.662    4.780    0.451    0.222  102.266  166.564
  551.912    4.873    0.444    0.214  105.627  169.034
  552.162    5.093    0.440    0.201  105.604  169.932
  552.412    5.155    0.445    0.185  103.187  168.334
  552.662    4.846    0.439    0.181  102.920  171.217
  552.912    4.762    0.440    0.185  103.823  174.095
  553.162    4.678    0.459    0.197  103.003  174.477
  553.412    4.356    0.474    0.199  103.721  171.527
  553.662    4.034    0.477    0.216  104.804  169.200
  553.912    3.820    0.466    0.231  107.056  166.874
  554.162    3.803    0.472    0.231  105.621  166.211
  554.412    4.003    0.482    0.221  106.525  168.059
  554.662    4.245    0.480    0.216  106.872  172.082
  554.912    4.476    0.468    0.219  104.393  173.503
  555.162    4.661    0.459    0.222  103.453  170.864
  555.412    4.735    0.449    0.225  104.596  167.812
  555.662    4.749    0.455    0.222  104.453  167.462
  555.912    4.711    0.455    0.215  101.547  168.153
  556.162    4.941    0.450    0.232  102.263  168.744
  556.412    5.229    0.455    0.218  101.562  168.500
  556.662    5.587    0.467    0.204   99.639  169.395
  556.912    5.849    0.459    0.198   96.056  170.192
  557.162    5.867    0.425    0.178   88.969  171.625
  557.412    5.785    0.309    0.091   80.100  171.481
  557.662    5.114    0.362    0.085   77.617  169.681
  557.912    4.512    0.436    0.153   93.453  170.889
  558.162    3.766    0.467    0.180   99.391  171.483
  558.412    3.735    0.477    0.185  101.645  169.680
  558.662    4.188    0.478    0.191  103.161  170.681
  558.912    4.722    0.490    0.192  105.906  168.465
  559.162    5.255    0.469    0.212  103.365  165.514
  559.412    5.871    0.398    0.205   97.936  163.809
  559.662    5.988    0.372    0.174   90.604  164.718
  559.912    6.017    0.383    0.136   86.955  167.388
  560.162    5.902    0.437    0.139   91.361  168.171
  560.412    5.756    0.452    0.195  100.615  167.211
  560.662    5.491    0.453    0.197  103.548  164.887
  560.912    5.467    0.448    0.216  105.062  164.417
  561.162    5.284    0.444    0.212  104.672  164.399
  561.412    5.126    0.435    0.208  103.853  163.743
  561.662    5.028    0.439    0.215  105.244  161.624
  561.912    5.032    0.445    0.205  107.866  160.964
  562.162    5.143    0.447    0.212  110.735  161.968
  562.412    5.294    0.446    0.216  110.833  161.927
  562.662    5.299    0.454    0.228  107.927  160.538
  562.912    5.229    0.468    0.217  104.404  161.114
  563.162    5.253    0.475    0.215  102.779  161.198
  563.412    5.211    0.467    0.207  104.235  161.377
  563.662    5.131    0.462    0.210  106.302  161.657
  563.912    5.052    0.460    0.206  107.148  165.360
  564.162    5.000    0.456    0.194  106.574  168.140
  564.412    4.978    0.459    0.199  105.262  171.123
  564.662    5.011    0.463    0.195  106.347  172.229
  564.912    4.907    0.464    0.196  108.541  171.361
  565.162    4.840    0.454    0.199  108.949  169.452
  565.412    4.827    0.445    0.194  106.164  169.718
  565.662    4.859    0.436    0.182  107.368  169.383
  565.912    4.893    0.433    0.176  106.674  167.578
  566.162    5.101    0.437    0.169  102.902  168.891
  566.412    5.763    0.438    0.171   98.825  171.455
  566.662    6.485    0.425    0.146   94.136  171.318
  566.912    6.639    0.337    0.113   82.871  167.749
  567.162    6.429    0.324    0.090   73.512  167.302
  567.412    6.065    0.348    0.079   73.181  167.371
  567.662    5.678    0.403    0.112   81.582  168.054
  567.912    5.498    0.444    0.167   93.298  166.250
  568.162    5.453    0.450    0.205   99.601  164.033
  568.412    5.408    0.437    0.212  101.367  162.128
  568.662    5.508    0.413    0.203  101.345  161.877
  568.912    5.574    0.397    0.190  100.035  161.536
  569.162    5.750    0.406    0.156  101.182  160.254
  569.412    5.854    0.440    0.172  103.250  160.214
  569.662    5.936    0.434    0.188  102.797  160.808
  569.912    5.930    0.431    0.180  100.688  161.482
  570.162    5.840    0.418    0.155   98.271  161.676
  570.412    5.622    0.397    0.136   95.361  161.848
  570.662    5.256    0.402    0.152   98.228  160.874
  570.912    5.050    0.436    0.198  104.477  161.248
  571.162    4.918    0.438    0.216  108.695  162.256
  571.412    4.914    0.444    0.202  111.255  164.302
  571.662    4.995    0.452    0.210  113.385  165.624
  571.912    5.017    0.466    0.201  113.612  166.938
  572.162    5.013    0.477    0.194  111.806  167.742
  572.412    4.964    0.468    0.185  107.669  168.534
  572.662    4.997    0.455    0.197  106.665  168.390
  572.912    5.013    0.445    0.191  107.812  167.111
  573.162    5.084    0.448    0.190  108.952  168.120
  573.412    5.184    0.461    0.191  108.816  168.797
  573.662    5.348    0.458    0.198  106.397  168.666
  573.912    5.424    0.449    0.202  104.530  169.253
  574.162    5.490    0.439    0.202  108.012  168.697
  574.412    5.516    0.434    0.206  109.409  167.945
  574.662    5.493    0.435    0.207  108.774  166.763
  574.912    5.438    0.432    0.209  108.814  165.789
  575.162    5.425    0.429    0.198  110.880  164.090
  575.412    5.429    0.434    0.190  113.072  163.117
  575.662    5.415    0.435    0.205  113.419  163.914
  575.912    5.382    0.441    0.205  111.679  165.023
  576.162    5.367    0.450    0.210  109.076  164.574
  576.412    5.072    0.453    0.201  109.731  164.749
  576.662    4.759    0.446    0.197  111.923  165.755
  576.912    4.669    0.443    0.202  114.358  168.525
  577.162    4.699    0.454    0.191  115.877  172.969
  577.412    4.801    0.451    0.187  118.561  175.938
  577.662    5.111    0.454    0.194  118.172  175.917
  577.912    5.523    0.451    0.198  119.561  173.900
  578.162    5.844    0.442    0.199  118.804  169.080
  578.412    6.504    0.409    0.180  114.851  164.988
  578.662    7.471    0.379    0.131  106.843  164.734
  578.912    8.160    0.332    0.098   99.140  166.472
  579.162    7.846    0.311    0.092   92.350  169.322
  579.412    6.889    0.281    0.076   92.615  171.227
  579.662    6.185    0.279    0.062   91.781  170.748
  579.912    5.472    0.339    0.070   93.092  170.893
  580.162    5.042    0.379    0.098   96.740  168.752
  580.412    4.477    0.378    0.142   96.700  164.111
  580.662    4.274    0.415    0.158   98.441  160.818
  580.912    4.727    0.443    0.201  100.675  161.176
  581.162    4.889    0.471    0.237   99.593  160.483
  581.412    4.890    0.480    0.241   98.574  160.733
  581.662    4.836    0.457    0.254   95.465  162.018
  581.912    4.828    0.442    0.258   94.874  161.847
  582.162    4.811    0.450    0.244   91.829  162.410
  582.412    4.821    0.465    0.252   90.995  162.555
  582.662    4.751    0.465    0.245   93.164  162.695
  582.912    4.707    0.470    0.241   94.047  162.213
  583.162    4.700    0.474    0.236   94.195  159.351
  583.412    4.666    0.480    0.226   95.689  157.521
  583.662    4.640    0.467    0.231   94.240  158.066
  583.912    4.650    0.445    0.244   94.383  160.614
  584.162    4.686    0.445    0.250   95.085  160.853
  584.412    4.873    0.464    0.251   94.927  158.917
  584.662    5.241    0.463    0.256   93.903  156.772
