~VERSION INFORMATION
 VERS.                 2.0:   CWLS LOG ASCII STANDARD -VERSION 2.0
 WRAP.                  NO:   ONE LINE PER DEPTH STEP
~WELL INFORMATION BLOCK
#MNEM.UNIT           DATA                    DESCRIPTION OF MNEMONIC
#---------    -------------------            -------------------------------
# Generated from Intellog Unique Number	CW_82_90/WELL/3064
WELL.         CHEVRON ET AL WABASCA          : Well_name    - WELL
LOC .         00/07-19-085-24W4/0            : Location     - LOCATION
UWI .         00/07-19-085-24W4/0            : Uwi          - UNIQUE WELL ID
ENTR.         JAYE                           : Entered      - ENTERED BY
SRVC.         SCHLUMBERGER                   : Scn          - SERVICE COMPANY
DATE.         26 FEB 73                      : Date         - LOG DATE
STRT.M        167.64                         : top_depth    - START DEPTH
STOP.M        365.64                         : bot_depth    - STOP DEPTH
STEP.M        0.25                           : increment    - STEP LENGTH
 NULL. -999.2500:NULL Value
~CURVE INFORMATION BLOCK
#MNEM UNIT       ERCB CURVE CODE    CURVE DESCRIPTION
#-----------   ------------------   ----------------------------------
DEPT.M        00 001 00 00         : DEPTH        - DEPTH
DPHI.V/V      00 890 00 00         : PHID         - DENSITY POROSITY (SANDSTONE)
ILD .OHMM     00 120 00 00         : RESD         - DEEP RESISTIVITY (DIL)
CALI.MM       00 280 01 00         : CAL          - CALIPER
GR  .API      00 310 00 00         : GR           - GAMMA RAY
NPHI.V/V      00 330 00 00         : PHIN         - NEUTRON POROSITY (SANDSTONE)
~PARAMETER INFORMATION
#MNEM.UNIT           DATA             DESCRIPTION OF MNEMONIC
#---------         -----------     ------------------------------
GL  .M        543.794              : gl           - GROUND LEVEL ELEVATION
EREF.M        546.08               : kb           - ELEVATION OF DEPTH REFERENCE
DATM.M        543.794              : datum        - DATUM ELEVATION
TDD .M        366.979              : tdd          - TOTAL DEPTH DRILLER
RUN .         ONE                  : Run          - RUN NUMBER
ENG .         SIROIS & SIMPSON     : Engineer     - RECORDING ENGINEER
WIT .         LEWIS                : Witness      - WITNESSED BY
BASE.         EDMONTON             : Branch       - HOME BASE OF LOGGING UNIT
MUD .         FGM                  : Mud_type     - MUD TYPE
MATR.         SANDSTONE            : Logunit      - NEUTRON MATRIX
TMAX.C        18.8889              : BHT          - MAXIMUM RECORDED TEMPERATURE
BHTD.M        366.979              : BHTDEP       - MAXIMUM RECORDED TEMPERATURE
RMT .C        -17.7778             : MDTP         - TEMPERATURE OF MUD
MUDD.KG/M     9400                 : MWT          - MUD DENSITY
NEUT.         1                    : NEUTRON      - NEUTRON TYPE
RESI.         0                    : RESIST       - RESISTIVITY TYPE
RM  .OHMM     0.25                 : RM           - RESISTIVITY OF MUD
RMC .OHMM     0.25                 : RMC          - RESISTIVITY OF MUD CAKE
RMF .OHMM     5.45                 : RMF          - RESISTIVITY OF MUD FILTRATE
SUFT.C        4                    : SUFT         - SURFACE TEMPERATURE
~A  DEPTH     PHID     RESD      CAL       GR     PHIN
# ...
  240.640    0.304   13.579  194.017   59.684    0.509
  240.890    0.282   13.174  194.039   63.364    0.490
  241.140    0.273   11.485  194.085   64.467    0.495
  241.390    0.276   10.370  195.145   67.103    0.473
  241.640    0.255    9.572  196.843   69.556    0.482
  241.890    0.261    8.453  199.688   72.438    0.486
  242.140    0.268    7.051  201.598   80.046    0.477
  242.390    0.256    6.179  204.860   76.728    0.446
  242.640    0.228    5.569  213.018   76.419    0.461
  242.890    0.241    5.218  205.444   75.188    0.473
  243.140    0.248    5.440  197.971   74.573    0.449
  243.390    0.209    5.985  202.277   72.483    0.437
  243.640    0.214    6.535  200.328   67.877    0.427
  243.890    0.207    7.121  194.946   59.588    0.421
  244.140    0.201    8.188  191.636   59.464    0.430
  244.390    0.212    9.295  193.232   61.425    0.425
  244.640    0.202   10.077  195.046   64.736    0.420
  244.890    0.224   10.014  195.186   66.698    0.467
  245.140    0.252    9.626  195.620   68.659    0.476
  245.390    0.265    9.288  196.490   71.664    0.485
  245.640    0.260    9.162  196.309   72.091    0.479
  245.890    0.248    9.292  196.133   70.432    0.454
  246.140    0.236    9.834  199.501   72.577    0.443
  246.390    0.226    9.631  203.910   73.863    0.439
  246.640    0.219    9.139  206.442   73.431    0.437
  246.890    0.212    8.467  201.889   69.869    0.436
  247.140    0.229    8.124  196.713   67.779    0.446
  247.390    0.221    7.682  194.240   66.303    0.440
  247.640    0.203    7.157  199.273   69.308    0.413
  247.890    0.181    6.355  202.431   72.927    0.432
  248.140    0.257    5.781  203.506   73.660    0.462
  248.390    0.247    5.985  197.911   73.290    0.465
  248.640    0.247    6.284  195.232   72.551    0.470
  248.890    0.243    7.527  194.639   67.086    0.464
  249.140    0.235    8.996  194.670   65.364    0.454
  249.390    0.220   10.692  194.701   65.300    0.432
  249.640    0.199   12.641  194.839   64.867    0.419
  249.890    0.208   11.841  196.227   64.006    0.425
  250.140    0.218   10.576  197.715   63.820    0.446
  250.390    0.209    9.870  199.727   67.192    0.430
  250.640    0.187    9.349  202.268   69.891    0.408
  250.890    0.160    9.037  203.439   72.404    0.391
  251.140    0.153    8.851  203.158   73.383    0.388
  251.390    0.167    9.109  201.627   74.301    0.383
  251.640    0.150    9.658  201.454   75.588    0.339
  251.890    0.123   10.277  201.694   78.654    0.386
  252.140    0.170   10.081  202.142   81.168    0.383
  252.390    0.162    9.391  202.384   79.508    0.363
  252.640    0.143    9.230  202.209   77.909    0.358
  252.890    0.167    9.192  202.233   76.925    0.407
  253.140    0.191    8.967  202.681   75.265    0.416
  253.390    0.192    8.896  203.031   76.060    0.408
  253.640    0.179    8.956  203.480   78.574    0.399
  253.890    0.161    9.000  203.196   81.640    0.385
  254.140    0.154    8.714  202.807   84.031    0.391
  254.390    0.188    8.257  203.569   77.830    0.406
  254.640    0.172    8.069  204.023   79.975    0.390
  254.890    0.158    7.962  204.262   80.217    0.390
  255.140    0.167    7.940  204.711   78.006    0.383
  255.390    0.157    7.920  204.950   74.566    0.364
  255.640    0.133    8.033  204.880   72.599    0.337
  255.890    0.087    8.223  204.177   58.051    0.289
  256.140    0.033    8.765  203.065   50.130    0.247
  256.390    0.009    9.750  203.408   51.233    0.250
  256.640    0.096   10.725  205.318   57.306    0.340
  256.890    0.178   11.542  206.076   63.687    0.389
  257.140    0.168   11.726  205.483   75.714    0.398
  257.390    0.158   11.293  204.579   75.343    0.383
  257.640    0.164   10.158  203.774   74.602    0.389
  257.890    0.170    8.792  202.868   74.847    0.391
  258.140    0.163    8.190  202.488   73.186    0.384
  258.390    0.157    7.946  202.305   73.430    0.377
  258.640    0.127    8.363  202.758   76.495    0.345
  258.890    0.112    9.082  202.895   80.728    0.345
  259.140    0.124    9.790  203.343   84.531    0.373
  259.390    0.152   10.358  203.684   84.590    0.377
  259.640    0.132   10.660  204.339   86.059    0.364
  259.890    0.138   10.594  207.085   83.725    0.361
  260.140    0.153   10.074  209.092   81.636    0.382
  260.390    0.156    9.197  210.170   78.993    0.377
  260.640    0.152    8.841  209.685   80.894    0.378
  260.890    0.146    8.756  209.089   80.769    0.373
  261.140    0.161    8.700  208.490   76.715    0.380
  261.390    0.176    8.727  207.277   75.546    0.393
  261.640    0.190    8.802  206.365   73.027    0.406
  261.890    0.190    8.860  204.731   70.385    0.411
  262.140    0.193    8.969  204.243   70.444    0.417
  262.390    0.192    9.013  206.152   74.063    0.418
  262.640    0.189    9.141  202.952   75.226    0.406
  262.890    0.180    9.656  199.333   70.682    0.406
  263.140    0.215   10.200  193.844   72.827    0.435
  263.390    0.200   10.176  194.289   77.366    0.424
  263.640    0.166    9.835  196.197   81.537    0.391
  263.890    0.201    8.815  198.627   81.412    0.387
  264.140    0.220    7.814  199.183   77.788    0.435
  264.390    0.213    7.482  196.605   70.973    0.436
  264.640    0.200    7.114  199.140   63.421    0.429
  264.890    0.225    7.084  204.068   58.017    0.445
  265.140    0.217    7.319  196.391   53.288    0.431
  265.390    0.189    7.658  193.818   52.488    0.407
  265.640    0.170    8.226  193.432   58.255    0.384
  265.890    0.237    8.899  193.877   60.584    0.454
  266.140    0.253    9.771  194.847   59.661    0.471
  266.390    0.244   10.169  195.612   62.727    0.449
  266.640    0.228   10.370  195.746   67.880    0.433
  266.890    0.203   10.402  194.005   68.430    0.409
  267.140    0.174   10.242  192.689   71.925    0.391
  267.390    0.152   10.142  194.590   78.122    0.371
  267.640    0.168   10.044  200.666   84.134    0.392
  267.890    0.172    9.981  199.974   82.904    0.391
  268.140    0.158    9.793  201.776   80.017    0.381
  268.390    0.159    9.660  207.223   75.288    0.382
  268.640    0.153    9.547  207.150   73.751    0.370
  268.890    0.139    9.472  204.266   78.413    0.350
  269.140    0.164    9.465  207.528   82.400    0.383
  269.390    0.175    9.475  212.145   81.170    0.395
  269.640    0.169    9.575  207.488   78.282    0.400
  269.890    0.163    9.603  203.244   75.641    0.384
  270.140    0.161    9.740  201.195   79.321    0.391
  270.390    0.157   10.045  202.581   82.877    0.373
  270.640    0.139   10.223  205.636   81.647    0.364
  270.890    0.131   10.388  201.286   82.872    0.353
  271.140    0.159   10.615  195.380   85.938    0.387
  271.390    0.153   10.787  194.786   85.015    0.377
  271.640    0.174   10.877  197.631   83.908    0.386
  271.890    0.167   10.811  202.041   81.327    0.401
  272.140    0.186   10.432  203.634   80.220    0.411
  272.390    0.182   10.139  204.187   78.990    0.402
  272.640    0.174   10.003  202.655   78.435    0.396
  272.890    0.174    9.961  200.708   80.826    0.405
  273.140    0.181    9.916  198.865   83.033    0.408
  273.390    0.191    9.856  198.066   86.099    0.402
  273.640    0.197    9.903  197.572   83.703    0.420
  273.890    0.192   10.098  196.775   80.447    0.430
  274.140    0.204   10.415  196.390   80.138    0.429
  274.390    0.210   10.740  196.003   83.327    0.436
  274.640    0.210   11.177  196.031   80.071    0.429
  274.890    0.213   11.697  196.381   76.938    0.429
  275.140    0.194   12.087  196.515   82.337    0.415
  275.390    0.195   12.126  196.445   86.692    0.423
  275.640    0.203   12.047  196.581   80.367    0.454
  275.890    0.248   11.927  196.919   73.490    0.474
  276.140    0.254   11.683  197.160   69.253    0.472
  276.390    0.251   11.461  197.402   69.250    0.465
  276.640    0.240   11.327  197.953   71.764    0.443
  276.890    0.218   11.297  197.463   76.426    0.424
