~VERSION INFORMATION
 VERS.                 2.0:   CWLS LOG ASCII STANDARD -VERSION 2.0
 WRAP.                  NO:   ONE LINE PER DEPTH STEP
~WELL INFORMATION BLOCK
#MNEM.UNIT           DATA                    DESCRIPTION OF MNEMONIC
#---------    -------------------            -------------------------------
# Generated from Intellog Unique Number	CW_70_72/WELL/3304
NULL.         -999.25                        : NULL_VALUE
WELL.         CHEVRON MGSU 1 MITSUE          : Well_name    - WELL              
LOC .         07-30-071-04W5                 : Location     - LOCATION          
UWI .         00/07-30-071-04W5/0            : Uwi          - UNIQUE WELL ID    
ENTR.         CAMPBELL                       : Entered      - ENTERED BY        
SRVC.         SCHLUMBERGER                   : Scn          - SERVICE COMPANY   
DATE.         24 MARCH 1982                  : Date         - LOG DATE          
STRT.M        610                            : top_depth    - START DEPTH       
STOP.M        755                            : bot_depth    - STOP DEPTH        
STEP.M        0.25                           : increment    - STEP LENGTH       
~CURVE INFORMATION BLOCK
#MNEM UNIT       ERCB CURVE CODE    CURVE DESCRIPTION
#-----------   ------------------   ----------------------------------
DEPT.M        00 001 00 00         : DEPTH        - DEPTH                       
ILD .OHMM     00 120 00 00         : RESD         - DEEP RESISTIVITY (DIL)      
DELT.US/F     00 520 00 00         : DELT         - SONIC TRAVEL TIME           
GR  .API      00 310 00 00         : GR           - GAMMA RAY                   
CALI.MM       00 280 01 00         : CAL          - CALIPER                     
~PARAMETER INFORMATION       
#MNEM.UNIT           DATA             DESCRIPTION OF MNEMONIC
#---------         -----------     ------------------------------
GL  .M        719.4                : gl           - GROUND LEVEL ELEVATION      
EREF.M        725.4                : kb           - ELEVATION OF DEPTH REFERENCE
DATM.M        725.4                : datum        - DATUM ELEVATION             
TDD .M        1835                 : tdd          - TOTAL DEPTH DRILLER         
RUN .         ONE                  : Run          - RUN NUMBER                  
ENG .         LOEWEN               : Engineer     - RECORDING ENGINEER          
WIT .         HALAS                : Witness      - WITNESSED BY                
MUD .         GEL                  : Mud_type     - MUD TYPE                    
MATR.         SANDSTONE            : Logunit      - NEUTRON MATRIX              
TMAX.C        52.7                 : BHT          - MAXIMUM RECORDED TEMPERATURE
BHTD.M        1835                 : BHTDEP       - MAXIMUM RECORDED TEMPERATURE
RMT .C        22.2222              : MDTP         - TEMPERATURE OF MUD          
MUDD.KG/M     1130                 : MWT          - MUD DENSITY                 
NEUT.         1                    : NEUTRON      - NEUTRON TYPE                
RESI.         0                    : RESIST       - RESISTIVITY TYPE            
RM  .OHMM     1.1                  : RM           - RESISTIVITY OF MUD          
RMC .OHMM     1.27                 : RMC          - RESISTIVITY OF MUD CAKE     
RMF .OHMM     1.1                  : RMF          - RESISTIVITY OF MUD FILTRATE 
SUFT.C        10                   : SUFT         - SURFACE TEMPERATURE         
~A  DEPTH     RESD     DELT       GR      CAL
# ...
  697.000    2.689  143.453   62.155  248.952
  697.250    2.617  148.860   57.408  244.488
  697.500    2.546  151.252   52.064  242.545
  697.750    2.478  151.229   47.911  242.586
  698.000    2.411  151.011   50.935  242.634
  698.250    2.368  149.381   51.864  242.689
  698.500    2.436  147.152   50.703  243.253
  698.750    2.528  143.713   52.528  243.818
  699.000    2.649  138.267   55.250  245.375
  699.250    2.827  102.465   51.101  247.950
  699.500    3.016   90.785   48.150  250.010
  699.750    3.309   67.847   46.686  247.550
  700.000    3.665   61.999   46.723  244.099
  700.250    4.058   69.617   48.250  243.644
  700.500    4.135  105.378   47.391  242.700
  700.750    3.951   98.324   50.108  242.741
  701.000    3.739   96.294   52.535  242.796
  701.250    3.379  111.954   48.983  242.865
  701.500    3.140  137.664   47.224  242.913
  701.750    3.000  154.329   48.751  242.472
  702.000    3.001  155.111   51.170  242.037
  702.250    2.789  155.897   52.103  242.072
  702.500    2.544  157.485   50.941  242.127
  702.750    2.843  159.073   53.663  243.201
  703.000    3.582   79.850   53.696  244.248
  703.250    4.996   12.890   46.563  245.818
  703.500    7.572    1.612   44.203  247.388
  703.750    9.195   -1.626   41.846  249.950
  704.000   10.962   -1.244   41.580  251.011
  704.250   10.967    0.346   41.912  251.568
  704.500   10.573    1.329   42.244  251.630
  704.750   10.100    0.701   41.082  251.678
  705.000    9.472    0.078   38.729  252.236
  705.250    8.483    0.061   39.654  252.311
  705.500    6.991    0.845   41.185  252.869
  705.750    6.261    3.642   40.621  252.924
  706.000    5.019   27.143   41.849  252.965
  706.250    4.023   58.681   46.363  245.980
  706.500    3.440   73.538   50.877  242.522
  706.750    2.997   85.178   51.815  240.558
  707.000    2.734   96.615   52.138  239.621
  707.250    2.612  132.379   51.279  239.669
  707.500    2.449  142.610   50.416  239.717
  707.750    2.340  142.992   50.154  240.275
  708.000    2.277  143.972   50.183  240.833
  708.250    2.216  144.359   50.515  241.431
  708.500    2.136  144.940   53.237  242.478
  708.750    2.098  146.329   56.855  243.022
  709.000    2.060  150.329   60.776  243.580
  709.250    2.042  156.138   60.510  243.628
  709.500    2.024  159.334   56.659  243.683
  709.750    2.007  160.116   52.510  244.240
  710.000    1.989  159.694   50.755  244.805
  710.250    1.972  159.071   55.563  245.866
  710.500    1.954  157.645   61.277  245.927
  710.750    1.955  155.414   64.297  246.478
  711.000    1.956  153.183   60.741  246.533
  711.250    1.993  151.354   55.696  246.588
  711.500    2.107  148.521   50.953  246.154
  711.750    2.291  145.081   46.804  246.208
  712.000    2.356  143.049   47.132  245.747
  712.250    2.336  143.836   48.360  245.299
  712.500    2.294  146.429   49.895  244.362
  712.750    2.232  149.826   51.118  243.900
  713.000    2.192  152.622   52.952  243.452
  713.250    2.153  151.595   53.575  242.522
  713.500    2.134  148.962   51.222  242.563
  713.750    2.115  147.737   49.164  242.115
  714.000    2.116  147.717   50.388  242.170
  714.250    2.117  149.302   50.126  242.224
  714.500    2.118  148.074   47.765  242.789
  714.750    2.119  146.049   46.006  242.844
  715.000    2.120  146.831   46.935  243.395
  715.250    2.101  149.424   49.068  243.456
  715.500    2.083  151.414   51.192  243.518
  715.750    2.064  153.206   53.615  243.573
  716.000    2.027  154.992   57.228  243.628
  716.250    2.028  154.370   62.348  243.676
  716.500    2.011  153.543   61.182  243.731
  716.750    1.993  153.925   58.826  244.288
  717.000    1.994  155.916   57.070  244.288
  717.250    1.976  154.893   55.016  244.405
  717.500    1.977  152.258   53.253  244.963
  717.750    1.960  151.035   52.087  245.520
  718.000    1.942  150.409   50.933  245.582
  718.250    1.943  149.988   51.556  245.637
  718.500    1.926  149.968   53.086  246.188
  718.750    1.910  149.744   52.518  246.242
  719.000    1.910  151.134   51.953  246.800
  719.250    1.911  157.345   53.480  247.358
  719.500    1.912  160.744   55.608  248.425
  719.750    1.912  163.137   52.953  249.982
  720.000    1.931  160.501   54.484  252.578
  720.250    1.968  151.638   53.023  253.625
  720.500    1.987  132.320   49.169  254.196
  720.750    2.062   91.692   47.409  253.728
  721.000    2.141   82.424   45.654  252.784
  721.250    2.162   92.658   44.492  249.312
  721.500    2.162  107.313   46.919  247.355
  721.750    2.124  150.109   50.230  245.909
  722.000    2.048  145.866   57.437  245.461
  722.250    1.992  146.854   64.341  245.515
  722.500    1.993  150.851   68.258  245.563
  722.750    2.050  149.025   57.835  245.639
  723.000    2.128  145.988   56.673  245.680
  723.250    2.209  143.958   62.084  245.239
  723.500    2.251  141.124   64.809  245.239
  723.750    2.315  137.487   63.647  245.376
  724.000    2.381  133.445   63.681  245.397
  724.250    2.404  131.814   64.315  245.954
  724.500    2.450  134.008   64.946  246.512
  724.750    2.497  136.400   64.975  247.076
  725.000    2.568  138.388   65.311  247.641
  725.250    2.617  139.775   64.742  248.199
  725.500    2.667  139.554   63.879  249.259
  725.750    2.718  137.323   63.617  250.816
  726.000    2.744  131.876   60.368  252.882
  726.250    2.796  123.013   61.294  261.988
  726.500    2.824  122.790   63.422  277.135
  726.750    2.825  125.787   64.949  288.755
  727.000    2.905  129.988   66.770  294.858
  727.250    2.988  133.787   69.795  298.432
  727.500    3.045  135.375   74.010  299.493
  727.750    3.161  138.772   76.736  299.541
  728.000    3.251  142.971   79.752  300.105
  728.250    3.374  127.877   81.876  300.663
  728.500    3.568  121.224   78.325  300.718
  728.750    3.738  126.631   75.374  298.761
  729.000    3.916  130.227   75.109  294.304
  729.250    4.141  124.179   76.636  292.341
  729.500    4.298   92.197   77.868  289.875
  729.750    4.462   88.959   76.403  288.428
  730.000    4.589   87.931   74.349  288.483
  730.250    4.720   88.916   74.382  288.035
  730.500    4.722   93.120   74.411  285.569
  730.750    4.767   97.725   73.847  283.619
  731.000    4.769  103.534   72.983  281.669
  731.250    4.727  110.549   73.319  281.710
  731.500    4.600  118.572   74.543  276.234
  731.750    4.560  130.209   78.464  270.255
  732.000    4.604  132.802   80.294  263.270
  732.250    4.692   97.001   73.153  254.783
  732.500    4.737   99.594   59.440  253.323
  732.750    4.696  110.832   56.486  254.893
  733.000    4.654  116.641   58.908  255.967
  733.250    4.571  123.254   60.136  257.007
  733.500    4.448  129.063   62.564  258.584
  733.750    4.288  130.249   65.290  261.656
  734.000    4.173  129.224   69.799  269.757
  734.250    4.099  121.366   75.218  278.353
  734.500    4.025  114.912   73.156  289.491
  734.750    3.953  113.284   71.102  288.526
  735.000    3.883  118.691   70.243  291.095
  735.250    3.813  120.279   72.662  297.687
  735.500    3.643  127.899   74.782  300.263
  735.750    3.545  133.909   72.724  298.809
  736.000    3.748  124.038   70.068  300.875
  736.250    3.927  112.560   69.504  304.457
  736.500    4.152  108.118   70.736  307.529
  736.750    4.231  111.113   71.064  309.595
  737.000    4.233  116.922   70.204  311.654
  737.250    4.196  119.515   69.341  315.236
  737.500    4.159  118.088   72.665  319.816
  737.750    4.085  114.850   77.478  326.408
  738.000    4.011  113.426   77.814  329.983
  738.250    3.904  114.612   79.332  333.571
  738.500    3.695  122.230   82.357  336.643
  738.750    3.339  130.654   84.485  339.708
  739.000    2.936  159.781   84.817  341.271
  739.250    2.268  169.612   80.066  340.321
  739.500    1.958  177.833   77.419  333.839
  739.750    1.444  201.937   74.456  329.878
  740.000    1.201  249.758   72.999  331.441
  740.250    1.076  299.793   69.145  336.517
