~VERSION INFORMATION
 VERS.                 2.0:   CWLS LOG ASCII STANDARD -VERSION 2.0
 WRAP.                  NO:   ONE LINE PER DEPTH STEP
~WELL INFORMATION BLOCK
#MNEM.UNIT           DATA                    DESCRIPTION OF MNEMONIC
#---------    -------------------            -------------------------------
# Generated from Intellog Unique Number	CN_94_101/WELL/2586
WELL.         PARAMOUNT RESOURCES LTD.       : Well_name    - WELL
LOC .         00/09-01-094-19W4/0            : Location     - LOCATION
UWI .         00/09-01-094-19W4/0            : Uwi          - UNIQUE WELL ID
ENTR.         JOETTE                         : Entered      - ENTERED BY
SRVC.         COMPUTALOG                     : Scn          - SERVICE COMPANY
DATE.         06/12/92                       : Date         - LOG DATE
STRT.M        110                            : top_depth    - START DEPTH
STOP.M        245                            : bot_depth    - STOP DEPTH
STEP.M        0.25                           : increment    - STEP LENGTH
 NULL. -999.2500:NULL Value
~CURVE INFORMATION BLOCK
#MNEM UNIT       ERCB CURVE CODE    CURVE DESCRIPTION
#-----------   ------------------   ----------------------------------
DEPT.M        00 001 00 00         : DEPTH        - DEPTH
CALI.MM       00 280 01 00         : CAL          - CALIPER
GR  .API      00 310 00 00         : GR           - GAMMA RAY
NPHI.V/V      00 330 00 00         : PHIN         - NEUTRON POROSITY (SANDSTONE)
DPHI.V/V      00 890 00 00         : PHID         - DENSITY POROSITY (SANDSTONE)
ILD .OHMM     00 120 00 00         : RESD         - DEEP RESISTIVITY (DIL)
~PARAMETER INFORMATION
#MNEM.UNIT           DATA             DESCRIPTION OF MNEMONIC
#---------         -----------     ------------------------------
GL  .M        527.3                : gl           - GROUND LEVEL ELEVATION
EREF.M        530.7                : kb           - ELEVATION OF DEPTH REFERENCE
DATM.M        530.7                : datum        - DATUM ELEVATION
TDD .M        246.5                : tdd          - TOTAL DEPTH DRILLER
RUN .         ONE                  : Run          - RUN NUMBER
ENG .         BILL                 : Engineer     - RECORDING ENGINEER
WIT .         JIM                  : Witness      - WITNESSED BY
MUD .         GEL                  : Mud_type     - MUD TYPE
MATR.         SANDSTONE            : Logunit      - NEUTRON MATRIX
TMAX.C        0                    : BHT          - MAXIMUM RECORDED TEMPERATURE
BHTD.M        246.5                : BHTDEP       - MAXIMUM RECORDED TEMPERATURE
RMT .C        22.2                 : MDTP         - TEMPERATURE OF MUD
MUDD.KG/M     1060                 : MWT          - MUD DENSITY
NEUT.         1                    : NEUTRON      - NEUTRON TYPE
RESI.         0                    : RESIST       - RESISTIVITY TYPE
RM  .OHMM     1.9                  : RM           - RESISTIVITY OF MUD
RMC .OHMM     1.9                  : RMC          - RESISTIVITY OF MUD CAKE
RMF .OHMM     1.9                  : RMF          - RESISTIVITY OF MUD FILTRATE
SUFT.C        -15                  : SUFT         - SURFACE TEMPERATURE
~A  DEPTH      CAL       GR     PHIN     PHID     RESD
  110.000  174.773  101.398    0.468    0.271    5.311
  110.250  175.969   98.989    0.467    0.262    5.318
  110.500  177.133   95.959    0.461    0.252    5.528
  110.750  178.297   94.172    0.452    0.249    5.861
  111.000  178.393   93.666    0.440    0.259    5.978
  111.250  175.446   92.462    0.432    0.275    6.337
  111.500  170.364   90.675    0.428    0.286    6.462
  111.750  170.493   93.237    0.429    0.287    6.849
  112.000  172.724   87.081    0.434    0.284    6.988
  112.250  171.817   80.323    0.439    0.278    6.998
  112.500  165.731   84.147    0.433    0.293    7.005
  112.750  168.998   82.341    0.424    0.298    6.882
  113.000  172.266   77.447    0.421    0.285    6.889
  113.250  170.258   76.300    0.421    0.271    6.767
  113.500  168.315   76.377    0.439    0.266    6.650
  113.750  168.476   78.940    0.452    0.259    6.528
  114.000  169.640   84.647    0.448    0.254    6.415
  114.250  169.768   85.929    0.455    0.256    6.301
  114.500  169.864   87.889    0.456    0.269    6.190
  114.750  170.056   90.432    0.452    0.267    6.080
  115.000  170.120   89.285    0.450    0.262    5.975
  115.250  167.174   85.615    0.457    0.263    5.978
  115.500  172.512   87.575    0.464    0.281    5.874
  115.750  175.747   90.759    0.475    0.293    5.768
  116.000  173.836   92.700    0.461    0.294    5.666
  116.250  172.865   92.156    0.454    0.289    5.674
  116.500  171.989   89.126    0.472    0.282    5.682
  116.750  173.121   84.853    0.488    0.296    5.579
  117.000  174.317   83.066    0.464    0.300    5.481
  117.250  174.413   78.793    0.454    0.297    5.285
  117.500  173.506   75.161    0.453    0.292    5.093
  117.750  171.563   79.588    0.455    0.285    4.909
  118.000  171.691   83.995    0.456    0.277    4.731
  118.250  174.990   90.324    0.450    0.268    4.918
  118.500  175.086   93.489    0.454    0.257    5.313
  118.750  173.143   95.430    0.455    0.265    5.738
  119.000  173.272   92.400    0.451    0.279    6.318
  119.250  173.400   88.768    0.443    0.273    6.693
  119.500  173.560   91.330    0.439    0.260    6.960
  119.750  172.685   92.650    0.440    0.255    6.969
  120.000  172.781   90.241    0.449    0.251    6.973
  120.250  171.873   85.328    0.455    0.238    6.983
  120.500  165.788   81.677    0.461    0.274    6.989
  120.750  166.952   82.996    0.462    0.270    6.869
  121.000  170.155   86.802    0.466    0.255    6.873
  121.250  176.561   93.752    0.466    0.245    6.753
  121.500  176.721   93.829    0.458    0.230    6.632
  121.750  174.714   93.265    0.457    0.214    6.396
  122.000  170.732   92.138    0.463    0.195    6.281
  122.250  168.789   89.069    0.464    0.210    6.054
  122.500  168.917   84.816    0.455    0.222    5.945
  122.750  170.049   87.981    0.450    0.236    5.954
  123.000  171.245   91.786    0.457    0.245    5.959
  123.250  172.409   96.212    0.466    0.243    5.967
  123.500  172.505   96.968    0.463    0.234    5.972
  123.750  170.626   94.540    0.454    0.226    5.758
  124.000  169.686   92.132    0.450    0.234    5.656
  124.250  168.747   91.568    0.467    0.245    5.662
  124.500  170.978   94.131    0.482    0.242    5.775
  124.750  175.313   98.576    0.493    0.242    5.894
  125.000  177.481  101.119    0.489    0.244    5.899
  125.250  180.684  103.080    0.482    0.249    6.022
  125.500  182.883  103.778    0.475    0.257    5.915
  125.750  180.972  101.369    0.471    0.259    5.811
  126.000  177.993   98.942    0.461    0.256    5.706
  126.250  176.050   97.193    0.479    0.261    5.502
  126.500  177.214   99.736    0.493    0.264    5.305
  126.750  179.414  101.677    0.483    0.259    5.309
  127.000  180.577   97.405    0.469    0.255    5.313
  127.250  179.670   91.268    0.440    0.263    5.423
  127.500  177.727   90.102    0.434    0.264    5.638
  127.750  174.781   93.305    0.436    0.257    5.863
  128.000  174.941   95.227    0.472    0.250    6.212
  128.250  176.041   94.682    0.460    0.222    6.581
  128.500  177.268   93.536    0.444    0.194    6.843
  128.750  177.365   92.370    0.409    0.103    6.851
  129.000  176.425   90.564    0.400    0.140    6.607
  129.250  174.514   85.670    0.425    0.183    6.365
  129.500  173.575   80.776    0.455    0.230    5.580
  129.750  169.625   86.445    0.487    0.260    4.989
  130.000  168.685   96.483    0.487    0.271    4.807
  130.250  168.813  108.366    0.501    0.271    4.547
  130.500  172.049  111.569    0.497    0.256    4.384
  130.750  174.248  107.277    0.481    0.244    4.386
  131.000  174.408  104.868    0.474    0.243    4.476
  131.250  173.469  113.042    0.484    0.240    4.567
  131.500  172.593  118.109    0.496    0.241    4.661
  131.750  172.754  117.565    0.490    0.246    4.754
  132.000  171.814  113.292    0.467    0.245    4.758
  132.250  171.910  110.884    0.476    0.237    4.674
  132.500  171.003  111.601    0.487    0.237    4.505
  132.750  169.060  113.504    0.494    0.248    4.182
  133.000  167.149  116.085    0.479    0.261    4.107
  133.250  169.349  115.560    0.468    0.272    4.111
  133.500  172.616  116.861    0.464    0.282    4.195
  133.750  174.783  116.957    0.456    0.276    4.447
  134.000  174.943  113.286    0.459    0.270    4.895
  134.250  175.039  106.528    0.465    0.261    5.088
  134.500  175.168  101.615    0.470    0.254    5.496
  134.750  174.292  100.449    0.465    0.247    5.606
  135.000  174.421  102.390    0.462    0.237    5.612
  135.250  174.549  104.351    0.458    0.233    5.310
  135.500  174.677  105.049    0.462    0.240    5.419
  135.750  175.841  102.640    0.461    0.260    5.525
  136.000  175.969  102.717    0.466    0.279    5.747
  136.250  176.065  106.542    0.464    0.289    6.090
  136.500  175.158  105.376    0.455    0.252    6.211
  136.750  171.208   99.220    0.457    0.132    6.462
  137.000  169.201   89.957    0.451    0.145    6.467
  137.250  167.258   81.335    0.465    0.166    6.473
  137.500  170.525   83.897    0.478    0.246    6.482
  137.750  175.831  100.149    0.470    0.281    6.491
  138.000  180.134  102.090    0.453    0.295    6.500
  138.250  180.262   94.089    0.424    0.295    6.505
  138.500  177.283   86.710    0.413    0.257    6.388
  138.750  173.269   84.942    0.406    0.239    6.158
  139.000  171.294   89.990    0.433    0.212    5.502
  139.250  178.704   94.397    0.452    0.181    4.919
  139.500  180.903  106.299    0.469    0.187    4.740
  139.750  178.928  106.395    0.484    0.213    4.399
  140.000  170.803  103.346    0.501    0.252    4.322
  140.250  168.828  102.802    0.498    0.267    4.409
  140.500  176.238  112.840    0.491    0.270    4.413
  140.750  179.473  119.751    0.488    0.262    4.502
  141.000  179.633  121.071    0.490    0.244    4.682
  141.250  177.658  120.527    0.489    0.275    4.776
  141.500  175.779  116.875    0.480    0.283    4.967
  141.750  175.875  113.224    0.466    0.277    5.066
  142.000  176.004  113.922    0.470    0.265    5.073
  142.250  177.135  116.504    0.483    0.259    4.890
  142.500  177.360  116.581    0.487    0.261    4.712
  142.750  177.392  111.046    0.472    0.260    4.542
  143.000  177.520  108.017    0.466    0.260    4.547
  143.250  177.712  107.472    0.469    0.260    4.640
  143.500  177.841  113.180    0.478    0.256    4.917
  143.750  178.972  113.257    0.478    0.254    5.210
  144.000  179.133  108.344    0.471    0.251    5.733
  144.250  179.229  103.450    0.466    0.256    6.312
  144.500  177.318   97.934    0.451    0.260    6.563
  144.750  173.304   92.419    0.413    0.280    6.956
  145.000  170.325   88.127    0.405    0.290    7.095
  145.250  169.418   86.359    0.416    0.262    7.103
  145.500  170.581   87.659    0.439    0.202    7.113
  145.750  174.852   90.862    0.444    0.171    6.856
  146.000  179.091   92.163    0.448    0.135    6.733
  146.250  181.354   95.385    0.482    0.134    6.254
