~VERSION INFORMATION
 VERS.                 2.0:   CWLS LOG ASCII STANDARD -VERSION 2.0
 WRAP.                  NO:   ONE LINE PER DEPTH STEP
~WELL INFORMATION BLOCK
#MNEM.UNIT           DATA                    DESCRIPTION OF MNEMONIC
#---------    -------------------            -------------------------------
# Generated from Intellog Unique Number	CC_80_83/WELL/1174
NULL.         -999.25                        : NULL_VALUE
WELL.         GULF RESDLEN                   : Well_name    - WELL
LOC .         07-07-081-06W4                 : Location     - LOCATION          
UWI .         00/07-07-081-06W4/0            : Uwi          - UNIQUE WELL ID    
ENTR.         DW                             : Entered      - ENTERED BY        
SRVC.         SCHLUMBERGER                   : Scn          - SERVICE COMPANY   
DATE.         10 JAN 86                      : Date         - LOG DATE
STRT.M        130                            : top_depth    - START DEPTH       
STOP.M        309.999                        : bot_depth    - STOP DEPTH        
STEP.M        0.3                            : increment    - STEP LENGTH       
~CURVE INFORMATION BLOCK
#MNEM UNIT       ERCB CURVE CODE    CURVE DESCRIPTION
#-----------   ------------------   ----------------------------------
DEPT.M        00 001 00 00         : DEPTH        - DEPTH                       
DPHI.V/V      00 890 00 00         : PHID         - DENSITY POROSITY (LIMESTONE)
NPHI.V/V      00 330 00 00         : PHIN         - NEUTRON POROSITY (LIMESTONE)
GR  .API      00 310 00 00         : GR           - GAMMA RAY                   
ILD .OHMM     00 120 00 00         : RESD         - DEEP RESISTIVITY (DIL)      
~PARAMETER INFORMATION       
#MNEM.UNIT           DATA             DESCRIPTION OF MNEMONIC
#---------         -----------     ------------------------------
GL  .M        512.58               : gl           - GROUND LEVEL ELEVATION      
EREF.M        516.08               : kb           - ELEVATION OF DEPTH REFERENCE
DATM.M        516.08               : datum        - DATUM ELEVATION             
TDD .M        327                  : tdd          - TOTAL DEPTH DRILLER         
RUN .         ONE                  : Run          - RUN NUMBER                  
ENG .         BILL                 : Engineer     - RECORDING ENGINEER          
WIT .         JIM                  : Witness      - WITNESSED BY                
MUD .         GEL                  : Mud_type     - MUD TYPE                    
MATR.         LIMESTONE            : Logunit      - NEUTRON MATRIX              
TMAX.C        24                   : BHT          - MAXIMUM RECORDED TEMPERATURE
BHTD.M        327                  : BHTDEP       - MAXIMUM RECORDED TEMPERATURE
MATR.         1                    : LOGUNIT      - NEUTRON MATRIX              
RMT .C        25                   : MDTP         - TEMPERATURE OF MUD          
NEUT.         1                    : NEUTRON      - NEUTRON TYPE                
RESI.         0                    : RESIST       - RESISTIVITY TYPE            
RMC .OHMM     0.25                 : RMC          - RESISTIVITY OF MUD CAKE     
RMF .OHMM     0.25                 : RMF          - RESISTIVITY OF MUD FILTRATE 
SUFT.C        15                   : SUFT         - SURFACE TEMPERATURE         
~A  DEPTH     PHID     PHIN       GR     RESD
# ...
  182.201    0.293    0.464   76.159    8.919
  182.501    0.272    0.462   77.372    9.259
  182.801    0.279    0.485   79.191    9.434
  183.101    0.301    0.477   73.117    9.793
  183.401    0.281    0.451   72.508    9.978
  183.701    0.280    0.430   74.935    9.976
  184.001    0.291    0.430   75.540    9.974
  184.301    0.297    0.448   76.146   10.161
  184.601    0.279    0.462   76.751    9.784
  184.901    0.296    0.451   79.784    9.246
  185.201    0.292    0.458   82.819    8.414
  185.501    0.297    0.486   85.245    7.803
  185.801    0.308    0.497   85.243    7.656
  186.101    0.313    0.492   82.205    7.800
  186.401    0.295    0.460   80.989    8.251
  186.701    0.275    0.435   77.344    8.250
  187.001    0.317    0.431   76.735    8.564
  187.301    0.321    0.462   82.197    8.563
  187.601    0.301    0.476   83.410    8.402
  187.901    0.310    0.481   82.193    8.244
  188.201    0.309    0.476   80.977    7.938
  188.501    0.303    0.477   79.154    7.937
  188.801    0.308    0.482   79.759    8.085
  189.101    0.296    0.479   80.972    8.238
  189.401    0.291    0.469   79.148    8.393
  189.701    0.298    0.465   77.931    8.235
  190.001    0.295    0.470   81.572    8.080
  190.301    0.297    0.475   80.963    8.078
  190.601    0.298    0.469   79.747    8.230
  190.901    0.294    0.457   78.531    8.229
  191.201    0.292    0.453   76.708    8.384
  191.501    0.290    0.454   76.705    8.703
  191.801    0.290    0.458   77.918    8.702
  192.101    0.291    0.467   74.880    8.700
  192.401    0.292    0.479   71.843    8.536
  192.701    0.296    0.475   76.698    8.376
  193.001    0.303    0.473   76.089    8.533
  193.301    0.321    0.463   74.265    8.532
  193.601    0.323    0.458   73.656    8.692
  193.901    0.301    0.480   73.654    8.856
  194.201    0.298    0.492   75.473    9.022
  194.501    0.291    0.475   77.900    8.852
  194.801    0.283    0.451   80.934    8.686
  195.101    0.283    0.454   79.718    8.522
  195.401    0.285    0.467   77.287    8.362
  195.701    0.271    0.459   76.071    8.205
  196.001    0.249    0.453   73.640    8.844
  196.301    0.070    0.438   68.781   10.088
  196.601    0.038    0.373   59.672   12.881
  196.901    0.139    0.223   54.813   15.839
  197.201    0.269    0.245   56.632   17.398
  197.501    0.300    0.421   66.345   17.395
  197.801    0.323    0.467   84.558   13.877
  198.101    0.329    0.476   90.020    9.523
  198.401    0.302    0.463   91.232    7.598
  198.701    0.261    0.474   93.052    6.413
  199.001    0.251    0.480   96.693    5.727
  199.301    0.253    0.475   99.727    5.311
  199.601    0.261    0.497   99.117    5.211
  199.901    0.253    0.522   97.901    5.113
  200.201    0.250    0.527   97.292    5.017
  200.501    0.257    0.510  100.326    4.831
  200.801    0.268    0.517  105.181    4.651
  201.101    0.273    0.534  102.143    4.739
  201.401    0.265    0.533   99.105    4.563
  201.701    0.277    0.544   99.710    3.640
  202.001    0.307    0.559  100.923    2.745
  202.301    0.302    0.576  102.743    2.231
  202.601    0.326    0.590  102.133    2.030
  202.901    0.335    0.600   99.703    1.955
  203.201    0.330    0.622  100.308    1.955
  203.501    0.301    0.638  102.128    1.992
  203.801    0.284    0.544  100.911    2.271
  204.101    0.277    0.531   98.480    2.403
  204.401    0.251    0.548   98.479    2.793
  204.701    0.251    0.556   99.691    3.499
  205.001    0.271    0.550   96.046    4.144
  205.301    0.277    0.515   95.437    5.096
  205.601    0.253    0.492   96.650    5.923
  205.901    0.248    0.485   97.862    6.385
  206.201    0.277    0.489  101.502    6.628
  206.501    0.247    0.502  101.501    6.627
  206.801    0.236    0.504   96.034    6.880
  207.101    0.238    0.493   83.282    7.416
  207.401    0.285    0.487   82.066    7.700
  207.701    0.323    0.482   85.706    8.144
  208.001    0.311    0.475   88.133    8.144
  208.301    0.299    0.472   92.381    7.411
  208.601    0.272    0.495   95.415    6.872
  208.901    0.251    0.503  100.270    6.743
  209.201    0.254    0.462  102.090    6.742
  209.501    0.251    0.443  105.731    6.998
  209.801    0.248    0.447  107.551    7.266
  210.101    0.258    0.456  109.978    7.833
  210.401    0.274    0.466  111.797    7.831
  210.701    0.235    0.475   99.652    7.541
  211.001    0.231    0.461   97.221    6.993
  211.301    0.252    0.454   95.397    6.485
  211.601    0.262    0.513   95.396    6.014
  211.901    0.252    0.519   97.215    5.576
  212.201    0.239    0.486  101.463    5.369
  212.501    0.229    0.481  105.104    5.368
  212.801    0.236    0.479  105.709    5.367
  213.101    0.224    0.462  100.850    5.572
  213.401    0.216    0.446  100.241    6.355
  213.701    0.250    0.452   99.025    7.249
  214.001    0.271    0.468   91.130    7.814
  214.301    0.293    0.474   87.485    7.812
  214.601    0.301    0.467   85.662    7.382
  214.901    0.290    0.474   83.231    7.381
  215.201    0.307    0.463   82.622    7.380
  215.501    0.310    0.461   85.048    6.974
  215.801    0.296    0.481   92.332    5.776
  216.101    0.273    0.473  102.652    4.969
  216.401    0.253    0.486  100.221    4.273
  216.701    0.279    0.510   98.398    4.193
  217.001    0.279    0.526  100.218    4.272
  217.301    0.275    0.537  102.037    4.352
  217.601    0.298    0.538  104.463    4.036
  217.901    0.259    0.515  105.069    3.886
  218.201    0.259    0.521  102.638    4.111
  218.501    0.295    0.554   95.957    4.602
  218.801    0.311    0.550   86.848    5.987
  219.101    0.307    0.486   76.524    7.225
  219.401    0.273    0.471   78.344    7.643
  219.701    0.275    0.469   81.378    7.360
  220.001    0.277    0.465   84.412    6.212
  220.301    0.282    0.465   87.446    4.773
  220.601    0.255    0.481   92.908    4.105
  220.901    0.253    0.546   95.942    3.465
  221.201    0.277    0.562   97.761    3.094
  221.501    0.289    0.550   92.902    3.805
  221.801    0.295    0.513   86.221    4.859
  222.101    0.293    0.478   83.183    6.689
  222.401    0.270    0.477   83.182    8.541
  222.701    0.241    0.486   81.358    8.867
  223.001    0.142    0.429   75.892    8.700
  223.301    0.133    0.330   69.211    8.068
  223.601    0.288    0.354   76.495    7.071
  223.901    0.281    0.478   82.565    5.432
  224.201    0.276    0.496   87.420    5.038
  224.501    0.301    0.502   88.024    4.943
  224.801    0.323    0.475   88.630    5.132
  225.101    0.302    0.478   91.057    5.637
  225.401    0.249    0.462   95.912    5.963
  225.701    0.214    0.490   97.125    6.075
  226.001    0.197    0.474   94.694    5.961
  226.301    0.231    0.473   98.335    5.633
  226.601    0.237    0.491  101.369    5.424
  226.901    0.224    0.505   97.117    5.423
  227.201    0.217    0.513   95.293    5.524
  227.501    0.265    0.523   94.684    5.735
  227.801    0.271    0.527   98.325    5.954
  228.101    0.269    0.479  100.145    6.182
  228.401    0.241    0.461   95.285    6.790
  228.701    0.271    0.471   94.069    7.049
  229.001    0.278    0.476   94.067    7.047
  229.301    0.261    0.438   96.494    6.786
  229.601    0.258    0.455   96.492    5.621
  229.901    0.294    0.498   92.239    4.484
  230.201    0.261    0.521   89.809    2.855
  230.501    0.299    0.538   86.164    2.235
  230.801    0.356    0.551   83.126    1.851
  231.101    0.316    0.598   80.089    1.782
  231.401    0.297    0.578   78.265    1.850
  231.701    0.299    0.572   77.049    1.921
  232.001    0.290    0.580   82.511    2.110
  232.301    0.284    0.584   81.902    2.362
  232.601    0.254    0.589   83.115    2.644
  232.901    0.237    0.564   89.184    3.251
  233.201    0.245    0.522   89.182    3.850
  233.501    0.269    0.491   86.752    4.646
  233.801    0.276    0.454   86.142    5.607
  234.101    0.253    0.438   86.747    5.931
