~VERSION INFORMATION
 VERS.                 2.0:   CWLS LOG ASCII STANDARD -VERSION 2.0
 WRAP.                  NO:   ONE LINE PER DEPTH STEP
~WELL INFORMATION BLOCK
#MNEM.UNIT           DATA                    DESCRIPTION OF MNEMONIC
#---------    -------------------            -------------------------------
# Generated from Intellog Unique Number	CS_73_76/WELL/2178
WELL.         ASHLAND OIL CANADA LIMITED     : Well_name    - WELL
LOC .         00/07-32-074-18W4/0            : Location     - LOCATION
UWI .         00/07-32-074-18W4/0            : Uwi          - UNIQUE WELL ID
ENTR.         SP                             : Entered      - ENTERED BY
SRVC.         SCHLUMBERGER                   : Scn          - SERVICE COMPANY
STRT.M        335.280                        : top_depth    - START DEPTH
STOP.M        490.530                        : bot_depth    - STOP DEPTH
STEP.M        0.25                           : increment    - STEP LENGTH
 NULL. -999.2500:NULL Value
~CURVE INFORMATION BLOCK
#MNEM UNIT       ERCB CURVE CODE    CURVE DESCRIPTION
#-----------   ------------------   ----------------------------------
DEPT.M        00 001 00 00         : DEPTH        - DEPTH
GR  .API      00 310 00 00         : GR           - GAMMA RAY
DPHI.V/V      00 890 00 00         : PHID         - DENSITY POROSITY (SANDSTONE)
NPHI.V/V      00 330 00 00         : PHIN         - NEUTRON POROSITY (SANDSTONE)
ILD .OHMM     00 120 00 00         : RESD         - DEEP RESISTIVITY (DIL)
~PARAMETER INFORMATION
#MNEM.UNIT           DATA             DESCRIPTION OF MNEMONIC
#---------         -----------     ------------------------------
GL  .M        583.844              : gl           - GROUND LEVEL ELEVATION
EREF.M        586.892              : kb           - ELEVATION OF DEPTH REFERENCE
DATM.M        583.844              : datum        - DATUM ELEVATION
TDD .M        513.588              : tdd          - TOTAL DEPTH DRILLER
RUN .         ONE                  : Run          - RUN NUMBER
ENG .         BILL                 : Engineer     - RECORDING ENGINEER
WIT .         JIM                  : Witness      - WITNESSED BY
MUD .         GEL                  : Mud_type     - MUD TYPE
MATR.         SANDSTONE            : Logunit      - NEUTRON MATRIX
TMAX.C        60                   : BHT          - MAXIMUM RECORDED TEMPERATURE
BHTD.M        513.588              : BHTDEP       - MAXIMUM RECORDED TEMPERATURE
MATR.         1                    : LOGUNIT      - NEUTRON MATRIX
RMT .C        25                   : MDTP         - TEMPERATURE OF MUD
NEUT.         1                    : NEUTRON      - NEUTRON TYPE
RESI.         0                    : RESIST       - RESISTIVITY TYPE
RMC .OHMM     0.25                 : RMC          - RESISTIVITY OF MUD CAKE
RMF .OHMM     0.25                 : RMF          - RESISTIVITY OF MUD FILTRATE
SUFT.C        15                   : SUFT         - SURFACE TEMPERATURE
~A  DEPTH       GR     PHID     PHIN     RESD
# ...
  465.780   92.585    0.108    0.419   10.042
  466.030  102.270    0.090    0.389    9.836
  466.280   99.850    0.069    0.364    9.705
  466.530   95.315    0.052    0.346    9.759
  466.780   92.918    0.102    0.346    9.601
  467.030   90.110    0.103    0.351    9.538
  467.280   86.424    0.115    0.344    9.249
  467.530   82.892    0.116    0.348    9.136
  467.780   82.549    0.087    0.370    8.909
  468.030   89.135    0.103    0.354    8.740
  468.280   92.663    0.124    0.336    8.572
  468.530   91.988    0.129    0.337    8.545
  468.780   87.231    0.116    0.371    8.271
  469.030   88.222    0.152    0.397    8.270
  469.280   98.736    0.164    0.384    8.293
  469.530  106.328    0.123    0.367    8.403
  469.780  106.237    0.142    0.362    8.579
  470.030  101.627    0.136    0.357    8.571
  470.280   99.502    0.146    0.368    8.850
  470.530  102.686    0.148    0.370    8.859
  470.780  107.839    0.144    0.362    8.853
  471.030  109.264    0.134    0.395    8.688
  471.280  110.002    0.134    0.431    8.704
  471.530  106.985    0.141    0.410    8.532
  471.780  102.127    0.142    0.371    8.530
  472.030   99.280    0.160    0.352    8.524
  472.280   95.078    0.140    0.341    8.518
  472.530   91.773    0.130    0.333    8.498
  472.780   93.692    0.116    0.354    8.675
  473.030   97.879    0.109    0.382    8.806
  473.280  103.023    0.095    0.453    8.882
  473.530  105.044    0.060    0.472    9.165
  473.780  107.167    0.004    0.392    9.454
  474.030  101.201    0.076    0.363    9.474
  474.280   93.538    0.129    0.420    9.473
  474.530  101.100    0.163    0.423    9.488
  474.780  110.154    0.142    0.382    9.284
  475.030  115.439    0.116    0.355    9.126
  475.280  111.376    0.098    0.376    8.936
  475.530  112.250    0.141    0.397    8.909
  475.780  115.725    0.123    0.418    8.779
  476.030  117.429    0.117    0.425    8.865
  476.280  117.552    0.124    0.375    8.953
  476.530  115.626    0.138    0.351    9.086
  476.780  110.696    0.135    0.367    9.274
  477.030  112.412    0.128    0.416    9.246
  477.280  115.849    0.191    0.458    8.959
  477.530  117.886    0.115    0.401    8.697
  477.780  114.955    0.118    0.415    8.273
  478.030  110.034    0.113    0.445    7.266
  478.280  105.144    0.109    0.401    6.151
  478.530   92.711    0.149    0.368    5.738
  478.780   81.829    0.153    0.337    5.714
  479.030   72.862    0.165    0.313    5.986
  479.280   61.268    0.131    0.323    6.441
  479.530   74.308    0.104    0.346    7.220
  479.780   79.033    0.092    0.372    7.531
  480.030   97.849    0.125    0.395    7.428
  480.280  100.188    0.135    0.375    6.962
  480.530   97.753    0.127    0.341    6.351
  480.780   90.241    0.094    0.345    5.671
  481.030   82.544    0.126    0.351    5.443
  481.280   68.876    0.168    0.342    5.113
  481.530   58.317    0.191    0.335    4.908
  481.780   45.712    0.196    0.340    5.084
  482.030   31.102    0.200    0.346    5.287
  482.280   29.695    0.200    0.350    5.559
  482.530   35.458    0.176    0.368    5.574
  482.780   40.733    0.168    0.387    5.332
  483.030   44.312    0.183    0.384    4.956
  483.280   38.638    0.191    0.375    4.626
  483.530   31.044    0.210    0.370    4.435
  483.780   25.118    0.231    0.385    4.284
  484.030   23.045    0.239    0.393    4.153
  484.280   25.552    0.239    0.392    4.143
  484.530   28.738    0.253    0.384    4.226
  484.780   33.447    0.288    0.381    4.371
  485.030   38.537    0.309    0.401    4.638
  485.280   45.114    0.334    0.441    4.914
  485.530   52.208    0.376    0.478    5.488
  485.780   68.268    0.084    0.556    6.027
  486.030   87.148    0.079    0.579    6.617
  486.280   81.956    0.057    0.274    8.296
  486.530   63.745    0.041    0.216   10.858
  486.780   31.662    0.127    0.227   12.956
  487.030   30.086    0.011    0.211   15.159
  487.280   36.184    0.057    0.267   16.478
  487.530   45.075    0.111    0.308   16.610
  487.780   51.273    0.168    0.397   17.091
  488.030   58.930    0.094    0.391   19.867
  488.280   52.237    0.046    0.252   24.066
  488.530   40.227   -0.000    0.209   30.968
  488.780   27.822   -0.000    0.191   36.139
  489.030   20.404    0.000    0.175   37.662
  489.280   17.234    0.000    0.163   38.705
  489.530   15.655    0.000    0.157   35.379
  489.780   15.054   -0.000    0.152   30.314
  490.030   15.040   -0.000    0.153   27.342
  490.280   15.010   -0.000    0.159   25.162
  490.530   14.587    0.000    0.170   23.908
