~VERSION INFORMATION
 VERS.                 2.0:   CWLS LOG ASCII STANDARD -VERSION 2.0
 WRAP.                  NO:   ONE LINE PER DEPTH STEP
~WELL INFORMATION BLOCK
#MNEM.UNIT           DATA                    DESCRIPTION OF MNEMONIC
#---------    -------------------            -------------------------------
# Generated from Intellog Unique Number	CS_77_79/WELL/870
WELL.         NORCEN                         : Well_name    - WELL
LOC .         00/06-11-077-13W4/0            : Location     - LOCATION
UWI .         00/06-11-077-13W4/0            : Uwi          - UNIQUE WELL ID
ENTR.         SP                             : Entered      - ENTERED BY
SRVC.         SCHLUMBERGER                   : Scn          - SERVICE COMPANY
STRT.M        274.32                         : top_depth    - START DEPTH
STOP.M        517.82                         : bot_depth    - STOP DEPTH
STEP.M        0.25                           : increment    - STEP LENGTH
 NULL. -999.2500:NULL Value
~CURVE INFORMATION BLOCK
#MNEM UNIT       ERCB CURVE CODE    CURVE DESCRIPTION
#-----------   ------------------   ----------------------------------
DEPT.M        00 001 00 00         : DEPTH        - DEPTH
GR  .API      00 310 00 00         : GR           - GAMMA RAY
DPHI.V/V      00 890 00 00         : PHID         - DENSITY POROSITY (SANDSTONE)
NPHI.V/V      00 330 00 00         : PHIN         - NEUTRON POROSITY (SANDSTONE)
ILD .OHMM     00 120 00 00         : RESD         - DEEP RESISTIVITY (DIL)
~PARAMETER INFORMATION
#MNEM.UNIT           DATA             DESCRIPTION OF MNEMONIC
#---------         -----------     ------------------------------
GL  .M        677.692              : gl           - GROUND LEVEL ELEVATION
EREF.M        681.045              : kb           - ELEVATION OF DEPTH REFERENCE
DATM.M        677.692              : datum        - DATUM ELEVATION
TDD .M        524.256              : tdd          - TOTAL DEPTH DRILLER
RUN .         ONE                  : Run          - RUN NUMBER
ENG .         BILL                 : Engineer     - RECORDING ENGINEER
WIT .         JIM                  : Witness      - WITNESSED BY
MUD .         GEL                  : Mud_type     - MUD TYPE
MATR.         SANDSTONE            : Logunit      - NEUTRON MATRIX
TMAX.C        23.8889              : BHT          - MAXIMUM RECORDED TEMPERATURE
BHTD.M        524.256              : BHTDEP       - MAXIMUM RECORDED TEMPERATURE
MATR.         1                    : LOGUNIT      - NEUTRON MATRIX
RMT .C        25                   : MDTP         - TEMPERATURE OF MUD
NEUT.         1                    : NEUTRON      - NEUTRON TYPE
RESI.         0                    : RESIST       - RESISTIVITY TYPE
RMC .OHMM     0.25                 : RMC          - RESISTIVITY OF MUD CAKE
RMF .OHMM     0.25                 : RMF          - RESISTIVITY OF MUD FILTRATE
SUFT.C        15                   : SUFT         - SURFACE TEMPERATURE
~A  DEPTH       GR     PHID     PHIN     RESD
# ...
  404.820   63.144    0.291    0.431    7.932
  405.070   60.706    0.295    0.431    7.946
  405.320   58.487    0.296    0.430    7.944
  405.570   59.482    0.299    0.422    7.942
  405.820   59.848    0.311    0.417    7.953
  406.070   60.860    0.309    0.410    7.778
  406.320   61.856    0.300    0.420    7.791
  406.570   62.398    0.293    0.419    7.810
  406.820   62.343    0.286    0.413    7.697
  407.070   62.333    0.285    0.407    7.641
  407.320   60.235    0.289    0.411    7.631
  407.570   59.102    0.289    0.415    7.802
  407.820   58.647    0.298    0.418    7.785
  408.070   60.614    0.301    0.420    7.784
  408.320   62.479    0.302    0.420    7.785
  408.570   63.469    0.295    0.420    7.772
  408.820   61.957    0.299    0.414    7.942
  409.070   59.659    0.297    0.404    7.927
  409.320   57.663    0.309    0.412    7.925
  409.570   57.693    0.293    0.418    7.924
  409.820   60.476    0.283    0.420    7.922
  410.070   60.702    0.281    0.422    7.920
  410.320   59.018    0.288    0.417    7.905
  410.570   59.774    0.281    0.414    8.068
  410.820   60.162    0.295    0.405    7.899
  411.070   60.379    0.293    0.411    7.878
  411.320   59.779    0.295    0.422    7.766
  411.570   59.815    0.300    0.436    7.768
  411.820   59.075    0.302    0.438    7.772
  412.070   59.027    0.301    0.436    7.639
  412.320   60.670    0.301    0.431    7.623
  412.570   61.562    0.296    0.428    7.618
  412.820   61.010    0.281    0.429    7.618
  413.070   60.908    0.305    0.433    7.629
  413.320   60.885    0.298    0.437    7.470
  413.570   61.858    0.299    0.436    7.470
  413.820   62.507    0.306    0.423    7.420
  414.070   62.637    0.289    0.411    7.467
  414.320   61.792    0.292    0.404    7.515
  414.570   61.976    0.269    0.402    8.155
  414.820   58.627    0.243    0.398    9.235
  415.070   55.445    0.196    0.274   10.433
  415.320   54.688    0.076    0.224   12.135
  415.570   53.545    0.054    0.205   14.148
  415.820   53.281    0.057    0.198   16.313
  416.070   52.230    0.045    0.194   18.425
  416.320   52.294    0.042    0.186   20.898
  416.570   51.337    0.033    0.178   22.975
  416.820   51.001    0.043    0.158   25.200
  417.070   50.355    0.038    0.148   26.988
  417.320   50.508    0.043    0.158   27.561
  417.570   51.523    0.071    0.193   26.310
  417.820   53.559    0.129    0.215   20.276
  418.070   54.801    0.179    0.274   14.512
  418.320   56.840    0.229    0.328   10.859
  418.570   58.842    0.268    0.448    9.129
  418.820   60.880    0.297    0.448    8.245
  419.070   62.858    0.295    0.445    7.207
  419.320   65.261    0.292    0.449    6.842
  419.570   66.115    0.295    0.446    6.651
  419.820   66.344    0.288    0.442    6.656
  420.070   64.234    0.279    0.454    6.662
  420.320   61.818    0.291    0.452    6.530
  420.570   59.770    0.289    0.441    6.516
  420.820   58.669    0.290    0.436    6.661
  421.070   59.264    0.292    0.439    6.647
  421.320   60.566    0.302    0.445    6.650
  421.570   61.782    0.299    0.449    6.664
  421.820   61.225    0.309    0.441    6.775
  422.070   61.596    0.289    0.434    6.769
  422.320   63.690    0.287    0.427    6.766
  422.570   63.474    0.295    0.436    6.866
  422.820   61.302    0.295    0.454    6.894
  423.070   62.299    0.311    0.460    6.895
  423.320   63.255    0.300    0.453    7.032
  423.570   64.249    0.298    0.446    7.022
  423.820   65.267    0.295    0.446    7.021
  424.070   65.618    0.296    0.440    7.099
  424.320   65.829    0.304    0.428    7.154
  424.570   66.367    0.310    0.429    7.032
  424.820   67.363    0.301    0.437    7.020
  425.070   68.363    0.310    0.441    7.015
  425.320   66.359    0.316    0.445    7.014
  425.570   64.324    0.322    0.444    7.013
  425.820   64.045    0.306    0.438    7.012
  426.070   65.198    0.294    0.433    7.006
  426.320   65.846    0.295    0.441    6.962
  426.570   65.777    0.292    0.449    6.881
  426.820   64.840    0.278    0.453    6.380
  427.070   63.188    0.267    0.456    6.508
  427.320   63.854    0.282    0.447    6.608
  427.570   64.552    0.292    0.422    6.755
  427.820   64.477    0.287    0.426    6.746
  428.070   62.368    0.297    0.435    6.744
  428.320   60.368    0.294    0.424    6.731
  428.570   61.519    0.286    0.420    6.877
  428.820   60.984    0.298    0.413    6.873
  429.070   60.100    0.298    0.420    6.958
  429.320   60.807    0.290    0.432    7.268
  429.570   60.813    0.281    0.433    7.755
  429.820   59.836    0.244    0.385    8.100
  430.070   57.781    0.075    0.312    8.592
  430.320   57.099    0.074    0.260    8.685
  430.570   58.334    0.120    0.245    8.727
  430.820   61.317    0.182    0.364    8.326
  431.070   63.880    0.226    0.415    7.656
  431.320   65.698    0.259    0.431    7.207
  431.570   67.331    0.287    0.422    6.978
  431.820   67.362    0.302    0.428    6.984
  432.070   67.361    0.301    0.432    6.985
  432.320   67.342    0.299    0.428    6.983
  432.570   67.291    0.286    0.428    6.975
  432.820   67.932    0.293    0.431    7.112
  433.070   67.928    0.288    0.435    7.244
  433.320   66.830    0.282    0.440    7.433
  433.570   64.906    0.294    0.431    7.516
  433.820   64.215    0.293    0.424    7.680
  434.070   64.338    0.295    0.420    7.684
  434.320   64.818    0.292    0.435    7.904
  434.570   65.785    0.283    0.439    8.506
  434.820   66.016    0.291    0.433    8.941
  435.070   66.061    0.289    0.425    9.366
  435.320   65.091    0.274    0.415    9.599
  435.570   64.774    0.264    0.392    9.581
  435.820   63.709    0.256    0.399    9.612
  436.070   63.740    0.263    0.415    9.127
  436.320   64.138    0.273    0.425    8.270
  436.570   65.566    0.285    0.431    7.707
  436.820   66.105    0.289    0.440    7.327
  437.070   68.272    0.283    0.452    6.989
  437.320   69.855    0.272    0.449    6.700
  437.570   72.181    0.271    0.450    6.417
  437.820   76.287    0.261    0.444    5.913
  438.070   79.462    0.288    0.468    5.769
  438.320   80.251    0.302    0.480    5.783
  438.570   75.359    0.268    0.482    5.993
  438.820   72.549    0.257    0.466    6.145
  439.070   71.920    0.235    0.456    6.334
  439.320   71.652    0.213    0.444    6.375
  439.570   71.823    0.185    0.449    6.897
  439.820   69.582    0.125    0.442    7.588
  440.070   66.982    0.090    0.430    8.220
  440.320   62.991    0.078    0.388    9.136
  440.570   59.439    0.125    0.334    9.524
  440.820   59.501    0.182    0.323    9.767
  441.070   71.408    0.210    0.369    9.549
  441.320   80.358    0.213    0.424    9.165
  441.570   84.416    0.201    0.468    8.266
  441.820   88.904    0.182    0.466    7.604
  442.070   91.027    0.185    0.460    6.951
  442.320   92.657    0.187    0.463    6.723
  442.570   94.206    0.178    0.461    6.560
  442.820   95.168    0.165    0.464    6.558
  443.070   96.049    0.192    0.476    6.552
  443.320   96.594    0.170    0.490    6.674
  443.570   96.962    0.161    0.485    6.752
  443.820   97.362    0.186    0.477    6.836
  444.070   98.911    0.181    0.468    7.167
  444.320  100.850    0.190    0.458    7.538
  444.570  102.095    0.196    0.446    7.926
  444.820  102.889    0.190    0.435    8.042
  445.070   99.558    0.174    0.426    8.260
  445.320   98.365    0.165    0.436    8.514
  445.570   97.323    0.167    0.425    8.511
  445.820   97.287    0.160    0.407    8.529
  446.070   98.283    0.155    0.419    8.213
  446.320  100.169    0.145    0.432    7.820
  446.570  103.858    0.143    0.441    7.136
  446.820  107.792    0.157    0.450    7.046
  447.070  110.658    0.166    0.437    7.319
  447.320  109.536    0.175    0.422    7.603
  447.570  105.362    0.159    0.411    7.607
  447.820  104.143    0.170    0.401    7.392
  448.070  103.103    0.170    0.405    7.168
