~VERSION INFORMATION
 VERS.                 2.0:   CWLS LOG ASCII STANDARD -VERSION 2.0
 WRAP.                  NO:   ONE LINE PER DEPTH STEP
~WELL INFORMATION BLOCK
#MNEM.UNIT           DATA                    DESCRIPTION OF MNEMONIC
#---------    -------------------            -------------------------------
# Generated from Intellog Unique Number	CW_70_72/WELL/3015
NULL.         -999.25                        : NULL_VALUE
WELL.         CHIEFCO POR ET AL DANCING 07-0 : Well_name    - WELL              
LOC .         07-01-070-27W4                 : Location     - LOCATION          
UWI .         00/07-01-070-27W4/0            : Uwi          - UNIQUE WELL ID    
ENTR.         J                              : Entered      - ENTERED BY        
SRVC.         SCHLUMBERGER                   : Scn          - SERVICE COMPANY   
DATE.         20 DEC 75                      : Date         - LOG DATE          
STRT.M        484.632                        : top_depth    - START DEPTH       
STOP.M        737.632                        : bot_depth    - STOP DEPTH        
STEP.M        0.25                           : increment    - STEP LENGTH       
~CURVE INFORMATION BLOCK
#MNEM UNIT       ERCB CURVE CODE    CURVE DESCRIPTION
#-----------   ------------------   ----------------------------------
DEPT.M        00 001 00 00         : DEPTH        - DEPTH                       
ILD .OHMM     00 120 00 00         : RESD         - DEEP RESISTIVITY (DIL)      
CALI.MM       00 280 01 00         : CAL          - CALIPER                     
GR  .API      00 310 00 00         : GR           - GAMMA RAY                   
NPHI.V/V      00 330 00 00         : PHIN         - NEUTRON POROSITY (SANDSTONE)
DPHI.V/V      00 890 00 00         : PHID         - DENSITY POROSITY (SANDSTONE)
~PARAMETER INFORMATION       
#MNEM.UNIT           DATA             DESCRIPTION OF MNEMONIC
#---------         -----------     ------------------------------
GL  .M        648.005              : gl           - GROUND LEVEL ELEVATION      
EREF.M        650.748              : kb           - ELEVATION OF DEPTH REFERENCE
DATM.M        648.005              : datum        - DATUM ELEVATION             
TDD .M        754.38               : tdd          - TOTAL DEPTH DRILLER         
RUN .         ONE                  : Run          - RUN NUMBER                  
ENG .         ROBSON               : Engineer     - RECORDING ENGINEER          
BASE.         RD                   : Branch       - HOME BASE OF LOGGING UNIT   
MUD .         GEL                  : Mud_type     - MUD TYPE                    
MATR.         SANDSTONE            : Logunit      - NEUTRON MATRIX              
TMAX.C        27.7778              : BHT          - MAXIMUM RECORDED TEMPERATURE
BHTD.M        754.075              : BHTDEP       - MAXIMUM RECORDED TEMPERATURE
RMT .C        17.7778              : MDTP         - TEMPERATURE OF MUD          
MUDD.KG/M     1176                 : MWT          - MUD DENSITY                 
NEUT.         1                    : NEUTRON      - NEUTRON TYPE                
RESI.         0                    : RESIST       - RESISTIVITY TYPE            
RM  .OHMM     3.72                 : RM           - RESISTIVITY OF MUD          
RMC .OHMM     2.5                  : RMC          - RESISTIVITY OF MUD CAKE     
RMF .OHMM     4.21                 : RMF          - RESISTIVITY OF MUD FILTRATE 
SUFT.C        -17.7778             : SUFT         - SURFACE TEMPERATURE         
~A  DEPTH     RESD      CAL       GR     PHIN     PHID
# ...
  630.632    2.655  152.450   57.353    0.385    0.244
  630.882    2.486  152.986   55.304    0.371    0.223
  631.132    2.324  153.424   54.105    0.388    0.263
  631.382    2.161  154.059   54.419    0.373    0.254
  631.632    2.005  155.525   58.746    0.353    0.235
  631.882    1.874  157.090   60.641    0.372    0.206
  632.132    1.752  156.497   57.922    0.370    0.226
  632.382    1.643  154.976   57.758    0.363    0.220
  632.632    1.593  153.560   58.376    0.403    0.229
  632.882    1.581  152.248   58.999    0.420    0.265
  633.132    1.609  152.273   59.617    0.424    0.274
  633.382    1.666  153.017   61.031    0.426    0.275
  633.632    1.739  154.270   62.746    0.432    0.285
  633.882    1.887  155.839   64.517    0.434    0.275
  634.132    1.960  157.507   67.508    0.426    0.266
  634.382    1.991  158.248   69.101    0.412    0.270
  634.632    2.020  156.323   69.052    0.433    0.264
  634.882    2.011  155.932   63.480    0.445    0.258
  635.132    1.957  156.879   61.976    0.448    0.273
  635.382    1.863  158.761   63.689    0.434    0.278
  635.632    1.748  159.805   63.946    0.437    0.268
  635.882    1.700  160.864   59.832    0.438    0.263
  636.132    1.699  161.499   56.444    0.425    0.280
  636.382    1.769  162.242   59.130    0.409    0.269
  636.632    1.826  160.107   64.611    0.414    0.244
  636.882    1.943  158.796   66.385    0.417    0.212
  637.132    2.007  158.204   67.310    0.390    0.169
  637.382    2.064  158.326   66.533    0.414    0.197
  637.632    2.160  159.074   61.688    0.424    0.256
  637.882    2.326  159.713   56.056    0.314    0.245
  638.132    2.583  160.246   53.762    0.278    0.195
  638.382    2.698  160.375   54.747    0.249    0.130
  638.632    2.721  160.603   58.222    0.276    0.161
  638.882    2.484  160.422   64.188    0.384    0.206
  639.132    2.268  160.035   66.084    0.418    0.232
  639.382    2.097  159.954   66.037    0.438    0.259
  639.632    2.059  159.469   64.656    0.430    0.272
  639.882    2.115  159.282   65.761    0.443    0.278
  640.132    2.176  155.453   66.293    0.443    0.279
  640.382    2.141  154.564   66.375    0.437    0.275
  640.632    2.120  152.550   62.575    0.435    0.264
  640.882    2.010  151.666   60.782    0.448    0.257
  641.132    1.922  150.981   59.832    0.463    0.261
  641.382    1.882  150.295   60.093    0.435    0.269
  641.632    1.925  149.714   63.147    0.412    0.280
  641.882    2.006  149.345   68.812    0.423    0.280
  642.132    2.116  149.482   72.776    0.443    0.264
  642.382    2.212  150.138   71.039    0.447    0.256
  642.632    2.288  150.995   70.520    0.439    0.253
  642.882    2.357  151.239   70.782    0.437    0.261
  643.132    2.430  150.655   71.713    0.425    0.255
  643.382    2.449  148.644   72.397    0.421    0.245
  643.632    2.465  146.521   71.757    0.428    0.238
  643.882    2.468  145.120   69.592    0.417    0.231
  644.132    2.457  145.565   65.306    0.412    0.226
  644.382    2.458  147.249   64.539    0.413    0.229
  644.632    2.460  149.131   65.352    0.417    0.238
  644.882    2.490  151.428   67.254    0.415    0.247
  645.132    2.556  153.107   69.578    0.414    0.239
  645.382    2.630  153.348   71.482    0.406    0.225
  645.632    2.705  152.362   72.354    0.400    0.207
  645.882    2.797  152.602   73.466    0.396    0.200
  646.132    2.861  153.667   74.156    0.387    0.214
  646.382    2.932  154.318   74.543    0.386    0.219
  646.632    3.021  154.671   74.385    0.393    0.199
  646.882    3.124  155.110   74.220    0.386    0.187
  647.132    3.260  155.353   74.487    0.370    0.177
  647.382    3.433  155.597   74.932    0.369    0.169
  647.632    3.832  156.360   75.377    0.365    0.163
  647.882    4.315  157.725   76.854    0.356    0.154
  648.132    4.985  158.691   81.242    0.346    0.137
  648.382    5.906  159.143   82.357    0.330    0.121
  648.632    6.616  159.374   76.312    0.322    0.109
  648.882    6.515  159.926   69.239    0.296    0.095
  649.132    5.620  160.581   66.653    0.266    0.077
  649.382    4.954  161.031   76.988    0.259    0.059
  649.632    4.447  161.069   83.377    0.352    0.047
  649.882    4.269  161.102   80.244    0.385    0.135
  650.132    4.504  160.838   75.536    0.394    0.155
  650.382    4.813  160.568   71.495    0.373    0.168
  650.632    4.834  160.392   69.755    0.349    0.134
  650.882    4.443  160.230   73.056    0.364    0.098
  651.132    4.174  160.052   79.807    0.391    0.129
  651.382    3.971  159.788   83.710    0.403    0.136
  651.632    3.861  159.718   87.127    0.413    0.133
  651.882    3.788  160.069   86.544    0.402    0.136
  652.132    3.757  160.407   86.326    0.399    0.145
  652.382    3.776  161.058   86.409    0.397    0.151
  652.632    3.806  161.099   87.280    0.402    0.148
  652.882    3.816  161.238   87.721    0.408    0.134
  653.132    3.841  161.380   86.471    0.415    0.119
  653.382    3.859  160.182   84.794    0.422    0.130
  653.632    3.847  159.805   86.941    0.418    0.150
  653.882    3.830  160.048   91.146    0.410    0.149
  654.132    3.744  159.985   92.198    0.404    0.146
  654.382    3.734  160.025   88.642    0.393    0.153
  654.632    3.792  160.165   84.176    0.385    0.151
  654.882    3.845  159.994   80.984    0.383    0.146
  655.132    3.891  159.625   82.949    0.384    0.139
  655.382    3.915  158.940   85.636    0.377    0.140
  655.632    4.005  158.976   87.599    0.377    0.144
  655.882    4.112  159.010   86.045    0.386    0.142
  656.132    4.229  160.277   83.033    0.386    0.142
  656.382    4.287  162.060   84.449    0.383    0.143
  656.632    4.261  163.544   88.657    0.378    0.142
  656.882    4.195  164.193   91.650    0.370    0.150
  657.132    4.153  164.327   90.275    0.376    0.149
  657.382    4.104  163.964   86.721    0.381    0.146
  657.632    4.102  163.071   89.470    0.371    0.153
  657.882    4.150  161.664   92.039    0.377    0.145
  658.132    4.276  163.140   93.276    0.375    0.151
  658.382    4.375  164.003   94.997    0.369    0.140
  658.632    4.386  164.655   94.773    0.367    0.136
  658.882    4.327  164.689   94.130    0.377    0.122
  659.132    4.300  164.936   99.366    0.387    0.110
  659.382    4.281  165.078   98.357    0.393    0.143
  659.632    4.253  165.214   94.194    0.395    0.153
  659.882    4.128  165.146   90.576    0.391    0.151
  660.132    3.760  164.772   86.232    0.376    0.144
  660.382    3.185  164.501   82.553    0.367    0.148
  660.632    2.663  164.133   83.849    0.370    0.162
  660.882    2.207  164.470   91.269    0.396    0.184
  661.132    1.978  166.868   91.355    0.535    0.207
  661.382    1.906  173.070   87.980    0.507    0.226
  661.632    1.857  179.375   86.546    0.512    0.195
  661.882    1.865  182.901   88.932    0.535    0.173
  662.132    1.901  184.173   91.561    0.523    0.173
  662.382    2.083  181.638   90.191    0.527    0.194
  662.632    2.433  176.543   86.813    0.522    0.194
  662.882    2.831  176.784   80.530    0.495    0.186
  663.132    3.639  174.356   75.032    0.458    0.167
  663.382    4.941  167.721   69.836    0.405    0.126
  663.632    5.740  162.309   63.065    0.308    0.102
  663.882    5.694  159.678   62.178    0.255    0.060
  664.132    5.289  159.612   74.572    0.294    0.025
  664.382    4.646  160.679   84.056    0.328    0.060
  664.632    4.103  161.747   88.140    0.366    0.117
  664.882    3.932  162.088   88.526    0.362    0.128
  665.132    3.921  162.227   87.516    0.367    0.107
  665.382    4.019  162.272   86.693    0.382    0.112
  665.632    4.141  161.995   86.348    0.396    0.124
  665.882    4.252  161.819   85.459    0.382    0.107
  666.132    4.279  161.654   86.759    0.375    0.101
  666.382    4.252  161.284   88.358    0.391    0.091
  666.632    4.203  161.316   88.744    0.402    0.103
  666.882    4.094  161.559   88.459    0.393    0.115
