~VERSION INFORMATION
 VERS.                 2.0:   CWLS LOG ASCII STANDARD -VERSION 2.0
 WRAP.                  NO:   ONE LINE PER DEPTH STEP
~WELL INFORMATION BLOCK
#MNEM.UNIT           DATA                    DESCRIPTION OF MNEMONIC
#---------    -------------------            -------------------------------
# Generated from Intellog Unique Number	CS_69_70/WELL/851
WELL.         BOW VALLEY INDUSTRIES LTD      : Well_name    - WELL
LOC .         00/07-35-070-17W4/0            : Location     - LOCATION
UWI .         00/07-35-070-17W4/0            : Uwi          - UNIQUE WELL ID
ENTR.         SP                             : Entered      - ENTERED BY
SRVC.         SCHLUMBERGER                   : Scn          - SERVICE COMPANY
STRT.M        280                            : top_depth    - START DEPTH
STOP.M        473                            : bot_depth    - STOP DEPTH
STEP.M        0.25                           : increment    - STEP LENGTH
 NULL. -999.2500:NULL Value
~CURVE INFORMATION BLOCK
#MNEM UNIT       ERCB CURVE CODE    CURVE DESCRIPTION
#-----------   ------------------   ----------------------------------
DEPT.M        00 001 00 00         : DEPTH        - DEPTH
DPHI.V/V      00 890 00 00         : PHID         - DENSITY POROSITY (LIMESTONE)
NPHI.V/V      00 330 00 00         : PHIN         - NEUTRON POROSITY (LIMESTONE)
GR  .API      00 310 00 00         : GR           - GAMMA RAY
ILD .OHMM     00 120 00 00         : RESD         - DEEP RESISTIVITY (DIL)
~PARAMETER INFORMATION
#MNEM.UNIT           DATA             DESCRIPTION OF MNEMONIC
#---------         -----------     ------------------------------
GL  .M        520.17               : gl           - GROUND LEVEL ELEVATION
EREF.M        524.67               : kb           - ELEVATION OF DEPTH REFERENCE
DATM.M        520.17               : datum        - DATUM ELEVATION
TDD .M        476                  : tdd          - TOTAL DEPTH DRILLER
RUN .         ONE                  : Run          - RUN NUMBER
ENG .         BILL                 : Engineer     - RECORDING ENGINEER
WIT .         JIM                  : Witness      - WITNESSED BY
MUD .         GEL                  : Mud_type     - MUD TYPE
MATR.         LIMESTONE            : Logunit      - NEUTRON MATRIX
TMAX.C        221                  : BHT          - MAXIMUM RECORDED TEMPERATURE
BHTD.M        476                  : BHTDEP       - MAXIMUM RECORDED TEMPERATURE
MATR.         1                    : LOGUNIT      - NEUTRON MATRIX
RMT .C        25                   : MDTP         - TEMPERATURE OF MUD
NEUT.         1                    : NEUTRON      - NEUTRON TYPE
RESI.         0                    : RESIST       - RESISTIVITY TYPE
RMC .OHMM     0.25                 : RMC          - RESISTIVITY OF MUD CAKE
RMF .OHMM     0.25                 : RMF          - RESISTIVITY OF MUD FILTRATE
SUFT.C        15                   : SUFT         - SURFACE TEMPERATURE
~A  DEPTH     PHID     PHIN       GR     RESD
# ...
  323.500    0.272    0.327   84.212    5.250
  323.750    0.231    0.281   77.545    6.206
  324.000    0.083    0.138   68.118    7.187
  324.250    0.052    0.122   61.271    8.771
  324.500    0.046    0.114   54.005   10.388
  324.750    0.022    0.115   49.619   11.850
  325.000    0.016    0.147   56.758   12.610
  325.250    0.105    0.193   61.136   11.270
  325.500    0.145    0.249   65.274    9.665
  325.750    0.192    0.285   67.791    8.818
  326.000    0.254    0.303   69.648    7.955
  326.250    0.227    0.172   69.944    9.160
  326.500    0.151    0.133   63.157   11.893
  326.750    0.092    0.099   56.131   17.186
  327.000    0.035    0.075   51.145   24.011
  327.250    0.003    0.063   48.200   34.309
  327.500   -0.004    0.058   46.216   47.129
  327.750   -0.008    0.059   45.972   57.088
  328.000   -0.009    0.066   45.127   60.638
  328.250   -0.010    0.071   46.745   54.602
  328.500   -0.009    0.073   49.202   45.013
  328.750   -0.006    0.080   52.559   32.176
  329.000    0.003    0.094   59.698   24.150
  329.250    0.030    0.124   65.036   16.626
  329.500    0.090    0.155   70.015   10.901
  329.750    0.172    0.198   77.154    7.477
  330.000    0.206    0.271   86.034    6.004
  330.250    0.207    0.369   95.093    5.447
  330.500    0.208    0.391   99.772    5.083
  330.750    0.208    0.403  103.729    4.851
  331.000    0.211    0.409  105.886    4.771
  331.250    0.216    0.410  106.303    4.658
  331.500    0.218    0.408  105.758    4.589
  331.750    0.211    0.409  104.675    4.505
  332.000    0.203    0.414  101.429    4.448
  332.250    0.208    0.420   98.964    4.448
  332.500    0.250    0.424   96.320    4.450
  332.750    0.283    0.422   93.853    4.442
  333.000    0.307    0.417   91.749    4.418
  333.250    0.316    0.412   89.826    4.379
  333.500    0.291    0.407   86.040    4.380
  333.750    0.273    0.404   81.355    4.389
  334.000    0.261    0.404   87.713    4.423
  334.250    0.247    0.409   92.571    4.517
  334.500    0.235    0.418   97.970    4.543
  334.750    0.224    0.428  101.147    4.553
  335.000    0.218    0.437  102.884    4.571
  335.250    0.222    0.446  105.282    4.530
  335.500    0.222    0.455  107.618    4.430
  335.750    0.221    0.466  109.835    4.220
  336.000    0.229    0.474  111.212    4.150
  336.250    0.243    0.483  110.848    4.128
  336.500    0.244    0.481  108.323    4.168
  336.750    0.229    0.471  103.698    4.337
  337.000    0.226    0.461  100.933    4.186
  337.250    0.219    0.449   99.849    4.355
  337.500    0.208    0.441  100.986    4.722
  337.750    0.207    0.432  102.542    5.054
  338.000    0.207    0.426  104.339    5.439
  338.250    0.215    0.416  105.776    5.648
  338.500    0.243    0.411  101.330    5.811
  338.750    0.265    0.410   93.403    5.901
  339.000    0.284    0.412   86.377    5.792
  339.250    0.300    0.405   78.270    5.580
  339.500    0.298    0.391   72.504    5.006
  339.750    0.279    0.380   65.837    4.440
  340.000    0.288    0.369   70.275    4.074
  340.250    0.301    0.363   72.192    3.621
  340.500    0.309    0.360   73.509    3.443
  340.750    0.315    0.366   73.685    3.273
  341.000    0.320    0.369   73.801    3.189
  341.250    0.313    0.366   73.797    3.178
  341.500    0.311    0.366   73.671    3.173
  341.750    0.325    0.369   73.669    3.204
  342.000    0.334    0.377   74.086    3.241
  342.250    0.351    0.388   76.722    3.199
  342.500    0.365    0.395   77.500    3.206
  342.750    0.367    0.403   78.756    3.219
  343.000    0.363    0.407   77.672    3.232
  343.250    0.345    0.413   76.648    3.257
  343.500    0.327    0.420   76.764    3.258
  343.750    0.318    0.429   77.361    3.265
  344.000    0.313    0.435   77.657    3.278
  344.250    0.323    0.437   77.892    3.285
  344.500    0.339    0.437   77.769    3.305
  344.750    0.357    0.430   77.466    3.060
  345.000    0.357    0.422   76.381    3.072
  345.250    0.351    0.418   76.617    3.085
  345.500    0.339    0.416   76.614    3.092
  345.750    0.327    0.421   77.209    3.092
  346.000    0.321    0.420   77.745    3.093
  346.250    0.323    0.417   78.402    3.100
  346.500    0.325    0.416   78.698    3.106
  346.750    0.328    0.419   78.514    3.119
  347.000    0.336    0.420   78.332    3.120
  347.250    0.345    0.418   77.668    3.109
  347.500    0.349    0.417   76.103    3.109
  347.750    0.336    0.417   74.479    3.104
  348.000    0.328    0.418   73.275    3.088
  348.250    0.330    0.420   72.490    3.088
  348.500    0.344    0.425   72.067    3.083
  348.750    0.352    0.433   71.762    3.102
  349.000    0.351    0.440   71.759    3.109
  349.250    0.336    0.432   71.995    3.109
  349.500    0.322    0.425   72.652    3.110
  349.750    0.310    0.420   74.085    3.140
  350.000    0.300    0.419   74.204    3.176
  350.250    0.292    0.429   74.561    3.195
  350.500    0.292    0.434   74.735    3.220
  350.750    0.302    0.435   74.792    3.227
  351.000    0.314    0.436   74.789    3.234
  351.250    0.330    0.435   75.025    3.241
  351.500    0.336    0.431   75.441    3.241
  351.750    0.322    0.427   76.518    3.248
  352.000    0.326    0.423   77.896    3.280
  352.250    0.333    0.417   79.573    3.311
  352.500    0.330    0.412   82.030    3.375
  352.750    0.324    0.408   85.026    3.453
  353.000    0.307    0.405   87.183    3.532
  353.250    0.279    0.404   87.961    3.634
  353.500    0.265    0.408   86.216    3.760
  353.750    0.264    0.412   84.832    3.833
  354.000    0.293    0.416   83.447    3.840
  354.250    0.316    0.424   81.041    3.792
  354.500    0.322    0.428   79.898    3.750
  354.750    0.320    0.429   78.753    3.695
  355.000    0.293    0.431   78.750    3.648
  355.250    0.264    0.425   78.806    3.642
  355.500    0.280    0.423   78.741    3.677
  355.750    0.287    0.420   78.619    3.713
  356.000    0.295    0.418   78.675    3.728
  356.250    0.281    0.417   78.970    3.729
  356.500    0.265    0.415   79.627    3.715
  356.750    0.267    0.413   82.323    3.682
  357.000    0.273    0.413   85.442    3.669
  357.250    0.266    0.416   88.920    3.608
  357.500    0.257    0.417   91.617    3.602
  357.750    0.253    0.419   93.773    3.603
  358.000    0.258    0.421   94.431    3.618
  358.250    0.262    0.419   92.386    3.625
  358.500    0.260    0.419   90.582    3.633
  358.750    0.245    0.418   90.517    3.648
  359.000    0.256    0.418   91.175    3.656
  359.250    0.267    0.419   92.970    3.691
  359.500    0.278    0.423   93.747    3.699
  359.750    0.276    0.420   94.762    3.727
  360.000    0.264    0.413   95.060    3.771
  360.250    0.258    0.411   95.537    3.793
  360.500    0.254    0.414   96.493    3.773
  360.750    0.253    0.417   97.209    3.725
  361.000    0.259    0.418   97.386    3.656
  361.250    0.256    0.417   94.982    3.609
  361.500    0.251    0.414   90.656    3.523
  361.750    0.256    0.414   85.790    3.433
  362.000    0.259    0.419   80.084    3.433
  362.250    0.260    0.424   78.460    3.474
  362.500    0.289    0.432   82.296    3.514
  362.750    0.301    0.445   84.153    3.554
  363.000    0.304    0.464   85.111    3.622
  363.250    0.343    0.480   87.268    3.644
  363.500    0.389    0.508   88.885    3.597
  363.750    0.414    0.519   90.562    3.492
  364.000    0.438    0.523   92.239    3.421
  364.250    0.433    0.478   93.675    3.396
  364.500    0.407    0.438   94.931    3.436
  364.750    0.433    0.424   95.588    3.588
  365.000    0.457    0.411   95.645    3.840
  365.250    0.429    0.400   95.281    4.219
  365.500    0.354    0.388   93.955    4.348
  365.750    0.288    0.383   93.112    4.576
  366.000    0.227    0.403   91.968    4.770
  366.250    0.217    0.412   87.763    4.861
  366.500    0.201    0.420   87.038    4.928
  366.750    0.189    0.420   86.074    4.919
