~VERSION INFORMATION
 VERS.                 2.0:   CWLS LOG ASCII STANDARD -VERSION 2.0
 WRAP.                  NO:   ONE LINE PER DEPTH STEP
~WELL INFORMATION BLOCK
#MNEM.UNIT           DATA                    DESCRIPTION OF MNEMONIC
#---------    -------------------            -------------------------------
# Generated from Intellog Unique Number	CW_73_75/WELL/2736
WELL.         MANNVILLE ALGAS MARTEN S 09-30 : Well_name    - WELL
LOC .         00/09-30-073-24W4/0            : Location     - LOCATION
UWI .         00/09-30-073-24W4/0            : Uwi          - UNIQUE WELL ID
ENTR.         JAYE                           : Entered      - ENTERED BY
SRVC.         WESTERN ATLAS                  : Scn          - SERVICE COMPANY
DATE.         15 MAR 79                      : Date         - LOG DATE
STRT.M        375                            : top_depth    - START DEPTH
STOP.M        595                            : bot_depth    - STOP DEPTH
STEP.M        0.25                           : increment    - STEP LENGTH
 NULL. -999.2500:NULL Value
~CURVE INFORMATION BLOCK
#MNEM UNIT       ERCB CURVE CODE    CURVE DESCRIPTION
#-----------   ------------------   ----------------------------------
DEPT.M        00 001 00 00         : DEPTH        - DEPTH
DPHI.V/V      00 890 00 00         : PHID         - DENSITY POROSITY (SANDSTONE)
NPHI.V/V      00 330 00 00         : PHIN         - NEUTRON POROSITY (SANDSTONE)
GR  .API      00 310 00 00         : GR           - GAMMA RAY
CALI.MM       00 280 01 00         : CAL          - CALIPER
ILD .OHMM     00 120 00 00         : RESD         - DEEP RESISTIVITY (DIL)
~PARAMETER INFORMATION
#MNEM.UNIT           DATA             DESCRIPTION OF MNEMONIC
#---------         -----------     ------------------------------
GL  .M        633.3                : gl           - GROUND LEVEL ELEVATION
EREF.M        636.3                : kb           - ELEVATION OF DEPTH REFERENCE
DATM.M        633.3                : datum        - DATUM ELEVATION
TDD .M        593                  : tdd          - TOTAL DEPTH DRILLER
RUN .         ONE                  : Run          - RUN NUMBER
ENG .         GRIEVE               : Engineer     - RECORDING ENGINEER
WIT .         MURYNKA              : Witness      - WITNESSED BY
BASE.         R.D.                 : Branch       - HOME BASE OF LOGGING UNIT
MUD .         GEL-CHEM             : Mud_type     - MUD TYPE
MATR.         SANDSTONE            : Logunit      - NEUTRON MATRIX
TMAX.C        22                   : BHT          - MAXIMUM RECORDED TEMPERATURE
BHTD.M        594                  : BHTDEP       - MAXIMUM RECORDED TEMPERATURE
RMT .C        11.1                 : MDTP         - TEMPERATURE OF MUD
MUDD.KG/M     1120                 : MWT          - MUD DENSITY
NEUT.         1                    : NEUTRON      - NEUTRON TYPE
RESI.         0                    : RESIST       - RESISTIVITY TYPE
RM  .OHMM     4.4                  : RM           - RESISTIVITY OF MUD
RMC .OHMM     0                    : RMC          - RESISTIVITY OF MUD CAKE
RMF .OHMM     4                    : RMF          - RESISTIVITY OF MUD FILTRATE
SUFT.C        0                    : SUFT         - SURFACE TEMPERATURE
~A  DEPTH     PHID     PHIN       GR      CAL     RESD
# ...
  448.000    0.252    0.376   59.305  177.315    6.330
  448.250    0.251    0.386   57.459  177.258    5.472
  448.500    0.250    0.396   55.178  177.507    5.044
  448.750    0.261    0.393   53.831  178.070    4.694
  449.000    0.286    0.376   53.608  178.638    4.425
  449.250    0.271    0.385   54.322  178.157    4.260
  449.500    0.259    0.384   55.222  176.122    4.156
  449.750    0.250    0.359   55.684  173.152    4.076
  450.000    0.247    0.350   54.962  172.679    4.060
  450.250    0.265    0.352   55.239  172.723    4.089
  450.500    0.274    0.369   55.015  173.284    4.142
  450.750    0.277    0.365   54.544  176.344    4.172
  451.000    0.282    0.360   54.381  178.573    4.202
  451.250    0.290    0.355   53.285  178.517    4.232
  451.500    0.258    0.370   53.189  178.252    4.223
  451.750    0.239    0.371   54.213  178.399    4.166
  452.000    0.231    0.359   55.049  178.130    4.118
  452.250    0.221    0.359   54.889  177.967    4.002
  452.500    0.210    0.354   52.856  177.708    3.903
  452.750    0.201    0.347   52.883  177.534    3.887
  453.000    0.195    0.344   52.909  177.574    3.900
  453.250    0.186    0.339   52.873  176.895    3.929
  453.500    0.197    0.335   52.965  176.109    4.002
  453.750    0.216    0.343   53.552  175.732    4.100
  454.000    0.251    0.344   54.827  176.399    4.200
  454.250    0.267    0.338   56.412  175.300    4.287
  454.500    0.267    0.351   58.873  173.160    4.237
  454.750    0.262    0.358   62.270  172.998    4.079
  455.000    0.244    0.361   64.293  174.497    3.912
  455.250    0.222    0.352   66.689  176.209    3.773
  455.500    0.229    0.352   69.213  176.562    3.611
  455.750    0.233    0.357   69.115  175.045    3.529
  456.000    0.235    0.365   66.831  170.931    3.502
  456.250    0.239    0.371   65.862  170.873    3.567
  456.500    0.239    0.370   65.137  172.474    3.620
  456.750    0.249    0.380   64.541  174.289    3.667
  457.000    0.255    0.391   63.507  175.900    3.707
  457.250    0.243    0.372   62.972  176.145    3.741
  457.500    0.199    0.361   62.311  175.044    3.733
  457.750    0.140    0.335   60.778  173.635    3.710
  458.000    0.169    0.322   60.867  173.063    3.758
  458.250    0.222    0.332   63.016  172.996    3.778
  458.500    0.258    0.374   66.163  173.145    3.989
  458.750    0.249    0.388   69.559  173.705    4.284
  459.000    0.229    0.370   73.204  174.068    4.897
  459.250    0.216    0.357   81.468  174.313    5.093
  459.500    0.205    0.358   86.360  174.153    4.940
  459.750    0.168    0.371   90.630  174.301    4.368
  460.000    0.144    0.363   83.294  174.241    3.959
  460.250    0.142    0.327   79.766  174.183    3.507
  460.500    0.165    0.306   76.048  174.956    3.101
  460.750    0.192    0.308   73.576  175.419    3.153
  461.000    0.211    0.321   72.979  175.977    3.425
  461.250    0.231    0.327   75.003  176.648    4.080
  461.500    0.201    0.321   78.150  176.693    4.483
  461.750    0.069    0.309   79.737  176.733    5.066
  462.000    0.062    0.281   77.516  176.778    5.746
  462.250    0.099    0.255   69.557  178.279    6.276
  462.500    0.133    0.281   62.718  179.467    6.792
  462.750    0.144    0.280   63.682  176.392    7.955
  463.000    0.145    0.276   64.397  174.255    9.916
  463.250    0.126    0.286   63.922  173.673   10.669
  463.500    0.058    0.266   66.197  174.342   11.677
  463.750    0.110    0.254   68.718  175.634   13.071
  464.000    0.152    0.278   69.930  177.549   14.883
  464.250    0.225    0.349   72.389  175.620   15.626
  464.500    0.227    0.378   75.536  174.208   14.081
  464.750    0.228    0.401   78.931  174.978   10.547
  465.000    0.229    0.390   80.580  175.748    7.637
  465.250    0.221    0.383   80.484  177.041    5.840
  465.500    0.210    0.394   81.760  176.669    5.068
  465.750    0.205    0.394   83.659  177.863    4.645
  466.000    0.211    0.387   83.183  180.399    4.388
  466.250    0.223    0.380   84.459  180.757    4.280
  466.500    0.227    0.371   86.669  179.142    4.360
  466.750    0.233    0.369   87.443  177.206    4.433
  467.000    0.235    0.376   86.661  176.111    4.542
  467.250    0.210    0.378   85.564  174.798    4.635
  467.500    0.185    0.369   86.462  172.865    4.722
  467.750    0.162    0.372   89.796  174.054    4.810
  468.000    0.153    0.376   91.322  176.489    4.845
  468.250    0.144    0.383   91.972  177.887    4.825
  468.500    0.132    0.355   93.061  179.494    4.751
  468.750    0.135    0.355   94.087  180.469    4.660
  469.000    0.150    0.380   94.860  182.183    4.607
  469.250    0.160    0.404   95.572  182.954    4.536
  469.500    0.153    0.395   96.348  183.412    4.492
  469.750    0.173    0.390   96.873  183.662    4.431
  470.000    0.180    0.379   94.780  183.608    4.388
  470.250    0.186    0.364   94.996  184.270    4.329
  470.500    0.206    0.381   96.642  188.476    4.279
  470.750    0.250    0.398   93.173  186.856    4.238
  471.000    0.278    0.389   88.582  181.911    4.196
  471.250    0.254    0.378   83.179  174.259    4.211
  471.500    0.224    0.379   84.644  174.408    4.209
  471.750    0.164    0.376   86.104  177.991    4.215
  472.000    0.182    0.368   87.128  178.764    4.270
  472.250    0.197    0.360   86.846  177.868    4.334
  472.500    0.193    0.360   85.871  177.597    4.423
  472.750    0.192    0.366   85.212  178.270    4.472
  473.000    0.186    0.379   85.552  179.875    4.512
  473.250    0.171    0.382   87.386  181.384    4.528
  473.500    0.170    0.374   90.097  182.146    4.501
  473.750    0.191    0.379   89.251  182.716    4.499
  474.000    0.207    0.382   86.841  183.173    4.532
  474.250    0.218    0.370   86.187  183.525    4.556
  474.500    0.221    0.359   85.211  183.475    4.580
  474.750    0.205    0.350   81.869  183.721    4.613
  475.000    0.202    0.351   79.335  184.074    4.612
  475.250    0.209    0.356   80.235  184.433    4.575
  475.500    0.214    0.334   80.764  184.578    4.522
  475.750    0.203    0.313   80.415  184.210    4.462
  476.000    0.172    0.296   78.692  184.041    4.485
  476.250    0.055    0.269   74.852  183.465    4.535
  476.500    0.046    0.234   69.573  182.056    4.628
  476.750    0.049    0.236   65.919  181.263    4.989
  477.000    0.039    0.239   66.194  181.307    5.955
  477.250    0.015    0.235   68.219  182.082    7.522
  477.500    0.021    0.235   68.435  182.437   10.149
  477.750    0.075    0.247   67.771  181.655   13.262
  478.000    0.147    0.274   67.364  180.141   14.297
  478.250    0.205    0.300   69.261  178.617   12.666
  478.500    0.204    0.342   71.722  174.918   11.632
  478.750    0.203    0.357   74.368  173.612   10.344
  479.000    0.208    0.378   76.705  173.655    7.971
  479.250    0.197    0.392   78.040  174.947    6.711
  479.500    0.190    0.380   79.189  176.758    5.309
  479.750    0.203    0.362   75.911  178.989    4.941
  480.000    0.217    0.358   74.064  179.241    4.756
  480.250    0.230    0.356   73.155  177.308    4.630
  480.500    0.236    0.356   74.865  175.065    4.585
  480.750    0.221    0.361   77.764  172.303    4.515
  481.000    0.208    0.372   81.470  170.682    4.438
  481.250    0.200    0.376   82.684  170.206    4.345
  481.500    0.202    0.370   84.023  170.255    4.262
  481.750    0.218    0.364   84.548  170.193    4.165
  482.000    0.235    0.355   84.073  170.232    4.117
  482.250    0.233    0.358   84.538  171.422    4.062
  482.500    0.223    0.364   84.689  171.258    4.060
  482.750    0.218    0.378   83.093  172.343    4.066
  483.000    0.218    0.389   83.493  175.405    4.050
  483.250    0.227    0.388   84.893  177.946    4.033
  483.500    0.212    0.380   85.044  176.427    4.009
  483.750    0.192    0.373   84.509  173.663    3.992
  484.000    0.185    0.386   85.289  171.735    3.984
  484.250    0.172    0.382   86.371  172.196    3.982
