~VERSION INFORMATION
 VERS.                 2.0:   CWLS LOG ASCII STANDARD -VERSION 2.0
 WRAP.                  NO:   ONE LINE PER DEPTH STEP
~WELL INFORMATION BLOCK
#MNEM.UNIT           DATA                    DESCRIPTION OF MNEMONIC
#---------    -------------------            -------------------------------
# Generated from Intellog Unique Number	CW_82_90/WELL/3431
WELL.         CDN SUP                        : Well_name    - WELL
LOC .         00/07-26-090-22W4/0            : Location     - LOCATION
UWI .         00/07-26-090-22W4/0            : Uwi          - UNIQUE WELL ID
ENTR.         MAX                            : Entered      - ENTERED BY
SRVC.         SCHLUMBERGER                   : Scn          - SERVICE COMPANY
STRT.M        150                            : top_depth    - START DEPTH
STOP.M        240                            : bot_depth    - STOP DEPTH
STEP.M        0.25                           : increment    - STEP LENGTH
 NULL. -999.2500:NULL Value
~CURVE INFORMATION BLOCK
#MNEM UNIT       ERCB CURVE CODE    CURVE DESCRIPTION
#-----------   ------------------   ----------------------------------
DEPT.M        00 001 00 00         : DEPTH        - DEPTH
ILD .OHMM     00 120 00 00         : RESD         - DEEP RESISTIVITY (DIL)
NPHI.V/V      00 330 00 00         : PHIN         - NEUTRON POROSITY (SANDSTONE)
DPHI.V/V      00 890 00 00         : PHID         - DENSITY POROSITY (SANDSTONE)
CALI.MM       00 280 01 00         : CAL          - CALIPER
GR  .API      00 310 00 00         : GR           - GAMMA RAY
~PARAMETER INFORMATION
#MNEM.UNIT           DATA             DESCRIPTION OF MNEMONIC
#---------         -----------     ------------------------------
GL  .M        513.7                : gl           - GROUND LEVEL ELEVATION
EREF.M        516.8                : kb           - ELEVATION OF DEPTH REFERENCE
DATM.M        513                  : datum        - DATUM ELEVATION
TDD .M        244                  : tdd          - TOTAL DEPTH DRILLER
RUN .         ONE                  : Run          - RUN NUMBER
ENG .         BILL                 : Engineer     - RECORDING ENGINEER
WIT .         JIM                  : Witness      - WITNESSED BY
MUD .         GEL                  : Mud_type     - MUD TYPE
MATR.         SANDSTONE            : Logunit      - NEUTRON MATRIX
TMAX.C        17.1                 : BHT          - MAXIMUM RECORDED TEMPERATURE
BHTD.M        244                  : BHTDEP       - MAXIMUM RECORDED TEMPERATURE
MATR.         1                    : LOGUNIT      - NEUTRON MATRIX
RMT .C        16                   : MDTP         - TEMPERATURE OF MUD
NEUT.         1                    : NEUTRON      - NEUTRON TYPE
RESI.         0                    : RESIST       - RESISTIVITY TYPE
RMC .OHMM     2.8                  : RMC          - RESISTIVITY OF MUD CAKE
RMF .OHMM     2.8                  : RMF          - RESISTIVITY OF MUD FILTRATE
SUFT.C        -10                  : SUFT         - SURFACE TEMPERATURE
~A  DEPTH     RESD     PHIN     PHID      CAL       GR
# ...
  186.500    7.401    0.390    0.324  224.512   72.389
  186.750    6.577    0.381    0.310  224.958   72.365
  187.000    6.756    0.384    0.284  224.912   76.467
  187.250    7.261    0.384    0.270  224.376   84.403
  187.500    7.804    0.380    0.259  224.330   88.501
  187.750    8.387    0.375    0.258  224.279   89.067
  188.000    8.933    0.372    0.263  224.731   86.681
  188.250    9.601    0.372    0.284  224.686   83.704
  188.500   10.043    0.379    0.284  224.640   81.314
  188.750   10.505    0.382    0.268  224.595   80.402
  189.000   10.790    0.374    0.266  224.538   83.023
  189.250   10.787    0.358    0.264  224.493   85.063
  189.500   10.494    0.339    0.243  224.448   86.216
  189.750    9.758    0.328    0.208  224.408   85.894
  190.000    9.073    0.354    0.247  224.363   86.456
  190.250    8.437    0.406    0.270  226.284   87.019
  190.500    8.208    0.412    0.264  229.182   87.283
  190.750    8.431    0.407    0.258  229.628   86.965
  191.000    8.818    0.412    0.251  230.074   86.941
  191.250    8.896    0.408    0.242  230.035   87.799
  191.500    8.893    0.395    0.219  229.984   87.768
  191.750    8.971    0.385    0.204  229.447   87.151
  192.000    8.968    0.379    0.211  229.402   88.005
  192.250    8.885    0.388    0.229  229.848   88.279
  192.500    8.643    0.392    0.246  229.808   88.842
  192.750    8.486    0.392    0.242  227.299   90.578
  193.000    8.256    0.391    0.240  227.254   92.032
  193.250    7.816    0.390    0.246  228.683   93.480
  193.500    7.536    0.386    0.251  228.632   96.103
  193.750    6.758    0.385    0.256  227.604   97.256
  194.000    7.133    0.382    0.259  227.073   96.937
  194.250    7.949    0.379    0.266  226.044   92.777
  194.500    9.185    0.377    0.269  225.016   93.045
  194.750    9.872    0.371    0.275  224.971   91.543
  195.000   10.515    0.356    0.273  224.914   85.323
  195.250   11.405    0.344    0.266  224.377   83.231
  195.500   12.368    0.335    0.251  224.343   84.380
  195.750   12.820    0.319    0.237  224.298   84.061
  196.000   12.816    0.305    0.218  223.761   83.146
  196.250   12.697    0.285    0.194  223.224   84.892
  196.500   12.131    0.309    0.215  223.173   89.580
  196.750   11.802    0.325    0.268  223.128   91.916
  197.000   10.974    0.354    0.291  223.065   93.363
  197.250    9.930    0.361    0.282  223.037   94.221
  197.500    9.661    0.367    0.280  223.483   96.251
  197.750    9.399    0.369    0.269  223.426   97.410
  198.000    9.567    0.365    0.265  223.387   99.153
  198.250    9.739    0.360    0.270  223.341   97.353
  198.500    9.736    0.362    0.269  223.296   96.146
  198.750    9.645    0.362    0.252  223.251   94.641
  199.000    9.299    0.362    0.247  223.211   93.434
  199.250    9.047    0.367    0.229  223.166   92.817
  199.500    8.802    0.369    0.234  223.120   93.379
  199.750    8.563    0.368    0.247  223.075   94.237
  200.000    8.483    0.372    0.247  223.024   94.508
  200.250    8.481    0.380    0.236  222.967   93.294
  200.500    8.555    0.378    0.226  223.425   92.386
  200.750    8.552    0.363    0.220  224.363   90.297
  201.000    8.549    0.333    0.212  225.295   87.317
  201.250    8.469    0.339    0.210  225.741   89.053
  201.500    8.092    0.369    0.257  226.193   90.802
  201.750    6.393    0.362    0.250  226.634   93.724
  202.000    4.291    0.376    0.268  227.571   96.348
  202.250    3.546    0.421    0.299  229.492   98.979
  202.500    3.419    0.459    0.308  229.453  100.131
  202.750    3.609    0.457    0.294  229.402   98.629
  203.000    4.246    0.445    0.283  229.362   96.832
  203.250    5.276    0.431    0.271  229.317   93.853
  203.500    6.436    0.421    0.264  229.763   90.879
  203.750    7.782    0.412    0.254  230.209   87.900
  204.000    8.831    0.396    0.239  230.164   86.099
  204.250    9.321    0.391    0.226  229.627   86.072
  204.500    9.068    0.388    0.210  230.073   87.221
  204.750    8.822    0.388    0.225  232.485   88.676
  205.000    8.661    0.394    0.239  233.903   88.943
  205.250    8.580    0.400    0.231  229.920   89.506
  205.500    8.578    0.393    0.226  228.406   90.364
  205.750    8.497    0.402    0.237  229.835   91.513
  206.000    8.045    0.405    0.254  231.762   92.370
  206.250    7.898    0.403    0.244  230.236   92.933
  206.500    7.615    0.399    0.249  229.699   92.899
  206.750    7.543    0.396    0.258  229.654   93.174
  207.000    8.331    0.392    0.258  229.117   93.445
  207.250    9.454    0.381    0.250  228.580   92.824
  207.500   10.631    0.377    0.234  228.049   92.499
  207.750   11.742    0.349    0.217  227.506   91.888
  208.000   12.734    0.308    0.160  224.997   95.695
  208.250   13.080    0.359    0.184  223.477  102.157
  208.500   12.958    0.368    0.253  222.935  107.730
  208.750   12.722    0.363    0.272  222.895  109.767
  209.000   12.154    0.358    0.273  222.850  110.920
  209.250   11.718    0.359    0.271  222.810  110.008
  209.500   11.929    0.366    0.267  223.256  106.739
  209.750   12.365    0.373    0.262  224.183  102.583
  210.000   13.051    0.379    0.244  224.143   97.834
  210.250   14.545    0.365    0.193  224.104   93.677
  210.500   16.209    0.330    0.178  224.544   88.636
  210.750   17.901    0.312    0.172  224.499   82.121
  211.000   19.239    0.323    0.200  224.459   75.012
  211.250   20.123    0.322    0.213  224.414   71.151
  211.500   20.860    0.296    0.205  224.854   68.764
  211.750   22.016    0.277    0.195  224.809   66.967
  212.000   21.420    0.264    0.172  224.266   66.055
  212.250   20.652    0.282    0.156  224.221   66.618
  212.500   20.459    0.341    0.249  224.182   70.126
  212.750   18.681    0.391    0.274  224.136   74.822
  213.000   15.724    0.387    0.312  223.599   75.384
  213.250   13.235    0.379    0.317  223.543   75.645
  213.500   12.195    0.370    0.292  223.509   78.869
  213.750   12.755    0.363    0.267  223.949   80.018
  214.000   14.739    0.353    0.223  223.910   77.635
  214.250   15.416    0.324    0.092  224.356   74.062
  214.500   14.864    0.319    0.099  225.288   79.641
  214.750   13.946    0.348    0.249  227.209   84.038
  215.000   12.735    0.371    0.256  227.655   86.374
  215.250   11.317    0.371    0.239  227.615   86.638
  215.500   10.911    0.357    0.225  227.559   85.723
  215.750   10.907    0.350    0.213  228.005   85.106
  216.000   10.904    0.342    0.202  227.474   85.374
  216.250   11.100    0.343    0.198  226.440   86.228
  216.500   10.701    0.368    0.224  226.400   86.499
  216.750   10.132    0.392    0.259  226.355   85.882
  217.000    9.857    0.396    0.243  226.801   85.563
  217.250   10.218    0.391    0.228  227.241   87.302
  217.500   10.496    0.382    0.210  226.710   88.458
  217.750   10.492    0.373    0.211  226.665   88.431
  218.000   10.394    0.365    0.227  227.105   89.288
  218.250   10.204    0.356    0.218  227.060   90.143
  218.500   10.294    0.364    0.240  227.506   88.346
  218.750   10.478    0.377    0.216  228.936   86.841
  219.000   10.287    0.380    0.207  229.387   85.641
  219.250    9.918    0.372    0.189  228.845   84.430
  219.500    9.649    0.364    0.174  227.314   85.874
  219.750    9.558    0.381    0.199  227.771   87.027
  220.000    9.384    0.387    0.246  228.217   86.999
  220.250    9.048    0.393    0.238  228.172   85.793
  220.500    8.882    0.396    0.224  227.132   83.999
  220.750    8.961    0.390    0.211  226.601   82.494
  221.000    9.121    0.380    0.175  226.550   84.826
  221.250    9.118    0.392    0.145  226.505   87.453
  221.500    8.791    0.406    0.241  226.471   89.487
  221.750    8.631    0.401    0.240  226.425   89.460
  222.000    9.110    0.394    0.234  226.866   88.555
  222.250    9.529    0.385    0.230  227.798   90.884
  222.500   10.057    0.375    0.223  228.256   90.267
  222.750   10.809    0.370    0.214  228.205   89.358
