~VERSION INFORMATION
 VERS.                 2.0:   CWLS LOG ASCII STANDARD -VERSION 2.0
 WRAP.                  NO:   ONE LINE PER DEPTH STEP
~WELL INFORMATION BLOCK
#MNEM.UNIT           DATA                    DESCRIPTION OF MNEMONIC
#---------    -------------------            -------------------------------
# Generated from Intellog Unique Number	CS_71_72/WELL/3324
WELL.         AEC FOSTER CREEK 7-12          : Well_name    - WELL
LOC .         07-12-071-03W4                 : Location     - LOCATION
UWI .         00/07-12-071-03W4/0            : Uwi          - UNIQUE WELL ID
ENTR.         ANDERSEN                       : Entered      - ENTERED BY
SRVC.         COMPUTALOG                     : Scn          - SERVICE COMPANY
STRT.M        345                            : top_depth    - START DEPTH
STOP.M        571.75                         : bot_depth    - STOP DEPTH
STEP.M        0.25                           : increment    - STEP LENGTH
 NULL. -999.2500:NULL Value
~CURVE INFORMATION BLOCK
#MNEM UNIT       ERCB CURVE CODE    CURVE DESCRIPTION
#-----------   ------------------   ----------------------------------
DEPT.M        00 001 00 00         : DEPTH        - DEPTH
ILD .OHMM     00 120 00 00         : RESD         - DEEP RESISTIVITY (DIL)
CALI.MM       00 280 01 00         : CAL          - CALIPER
DPHI.V/V      00 890 00 00         : PHID         - DENSITY POROSITY (SANDSTONE)
NPHI.V/V      00 330 00 00         : PHIN         - NEUTRON POROSITY (SANDSTONE)
GR  .API      00 310 00 00         : GR           - GAMMA RAY
~PARAMETER INFORMATION
#MNEM.UNIT           DATA             DESCRIPTION OF MNEMONIC
#---------         -----------     ------------------------------
GL  .M        697.61               : gl           - GROUND LEVEL ELEVATION
EREF.M        701.01               : kb           - ELEVATION OF DEPTH REFERENCE
DATM.M        701.01               : datum        - DATUM ELEVATION
TDD .M        585.5                : tdd          - TOTAL DEPTH DRILLER
RUN .         ONE                  : Run          - RUN NUMBER
ENG .         BILL                 : Engineer     - RECORDING ENGINEER
WIT .         JIM                  : Witness      - WITNESSED BY
MUD .         GEL                  : Mud_type     - MUD TYPE
MATR.         SANDSTONE            : Logunit      - NEUTRON MATRIX
TMAX.C        31                   : BHT          - MAXIMUM RECORDED TEMPERATURE
BHTD.M        585.5                : BHTDEP       - MAXIMUM RECORDED TEMPERATURE
RMT .C        15                   : MDTP         - TEMPERATURE OF MUD
MUDD.KG/M     1100                 : MWT          - MUD DENSITY
NEUT.         1                    : NEUTRON      - NEUTRON TYPE
RESI.         0                    : RESIST       - RESISTIVITY TYPE
RM  .OHMM     2.7                  : RM           - RESISTIVITY OF MUD
RMC .OHMM     2.1                  : RMC          - RESISTIVITY OF MUD CAKE
RMF .OHMM     3.5                  : RMF          - RESISTIVITY OF MUD FILTRATE
SUFT.C        15                   : SUFT         - SURFACE TEMPERATURE
~A  DEPTH     RESD      CAL     PHID     PHIN       GR
# ...
  418.000    9.848  165.541    0.302    0.479   75.260
  418.250   10.034  165.519    0.303    0.477   68.869
  418.500   10.602  165.490    0.298    0.472   67.718
  418.750   10.799  165.461    0.308    0.465   73.546
  419.000   11.002  165.417    0.321    0.456   70.064
  419.250   11.414  165.417    0.329    0.460   63.091
  419.500   11.843  165.352    0.332    0.471   54.954
  419.750   11.848  165.344    0.333    0.447   51.473
  420.000   11.852  164.340    0.334    0.429   50.901
  420.250   11.855  164.311    0.337    0.416   50.912
  420.500   11.861  164.274    0.338    0.414   54.414
  420.750   11.866  164.238    0.337    0.417   52.678
  421.000   11.870  164.223    0.337    0.413   51.528
  421.250   11.660  163.219    0.337    0.420   53.284
  421.500   11.664  163.183    0.337    0.434   55.040
  421.750   11.670  163.154    0.336    0.434   55.630
  422.000   11.672  163.117    0.336    0.448   57.389
  422.250   11.466  163.095    0.337    0.471   57.981
  422.500   11.470  163.074    0.342    0.470   57.410
  422.750   11.475  163.037    0.343    0.453   57.418
  423.000   11.479  163.008    0.324    0.437   59.177
  423.250   11.483  162.979    0.252    0.430   62.682
  423.500   11.487  162.943    0.195    0.435   59.780
  423.750   11.491  162.914    0.261    0.430   55.134
  424.000   11.494  162.885    0.315    0.423   49.325
  424.250   11.499  162.856    0.329    0.425   44.098
  424.500   11.504  162.826    0.327    0.420   40.037
  424.750   11.509  162.790    0.330    0.422   40.630
  425.000   11.511  162.768    0.333    0.422   42.965
  425.250   11.515  162.747    0.333    0.417   49.959
  425.500   11.521  162.710    0.335    0.410   51.716
  425.750   11.526  162.674    0.336    0.406   54.054
  426.000   11.529  162.652    0.337    0.414   56.977
  426.250   11.120  162.630    0.334    0.425   56.403
  426.500   10.533  163.569    0.326    0.432   56.413
  426.750   10.159  163.548    0.310    0.429   58.754
  427.000    9.800  163.511    0.296    0.425   58.765
  427.250    9.454  163.482    0.279    0.443   58.775
  427.500    9.456  163.453    0.275    0.449   58.785
  427.750    9.460  163.431    0.283    0.446   59.378
  428.000    9.463  163.395    0.297    0.454   62.880
  428.250    9.642  163.366    0.300    0.455   68.128
  428.500    9.644  163.337    0.302    0.453   73.959
  428.750    9.648  163.300    0.307    0.440   71.641
  429.000    9.651  163.271    0.317    0.424   69.906
  429.250    9.656  163.242    0.312    0.427   69.334
  429.500    9.658  163.213    0.288    0.466   69.927
  429.750    9.316  163.177    0.287    0.471   69.355
  430.000    8.824  163.155    0.285    0.465   67.038
  430.250    8.207  163.119    0.288    0.473   68.212
  430.500    7.632  163.097    0.303    0.466   75.788
  430.750    7.229  163.075    0.282    0.484   86.274
  431.000    6.847  163.039    0.264    0.490   89.197
  431.250    6.141  163.017    0.232    0.506   92.699
  431.500    5.816  162.973    0.231    0.520   96.201
  431.750    5.509  162.952    0.235    0.500   97.376
  432.000    5.412  162.915    0.235    0.478   95.640
  432.250    5.414  162.893    0.235    0.475   92.162
  432.500    5.720  163.840    0.236    0.476   95.661
  432.750    5.934  163.811    0.237    0.479   94.508
  433.000    6.271  163.782    0.238    0.490   91.026
  433.250    6.388  163.760    0.241    0.496   86.384
  433.500    6.749  163.724    0.248    0.482   85.230
  433.750    7.001  163.695    0.262    0.477   77.672
  434.000    7.673  163.658    0.277    0.493   68.953
  434.250    7.959  163.629    0.280    0.501   77.111
  434.500    8.564  163.600    0.270    0.518   84.105
  434.750    9.049  163.571    0.275    0.508   80.042
  435.000    9.561  163.542    0.287    0.532   72.487
  435.250    9.919  163.513    0.296    0.536   67.842
  435.500   10.291  163.491    0.289    0.508   63.778
  435.750   10.677  163.462    0.291    0.461   60.297
  436.000   11.078  163.433    0.313    0.463   55.652
  436.250   11.285  163.404    0.337    0.464   51.588
  436.500   11.497  163.375    0.342    0.455   48.689
  436.750   11.502  163.338    0.342    0.451   48.699
  437.000   11.506  163.317    0.341    0.452   49.292
  437.250   11.302  164.263    0.343    0.446   49.884
  437.500   11.306  164.234    0.341    0.437   49.897
  437.750   11.107  164.198    0.335    0.437   50.490
  438.000   10.909  164.161    0.332    0.434   50.500
  438.250   10.913  164.140    0.329    0.439   49.349
  438.500   10.721  164.118    0.324    0.449   51.685
  438.750   10.725  164.074    0.317    0.459   57.515
  439.000   10.534  164.052    0.316    0.443   53.452
  439.250   10.539  164.009    0.310    0.442   55.208
  439.500   10.543  163.994    0.299    0.441   59.877
  439.750   10.545  164.933    0.293    0.435   57.557
  440.000   10.743  164.912    0.306    0.428   54.075
  440.250   10.747  164.875    0.318    0.436   51.761
  440.500   10.948  164.846    0.318    0.442   51.189
  440.750   10.954  164.824    0.316    0.436   52.364
  441.000   10.958  164.795    0.317    0.432   54.699
  441.250   10.963  164.766    0.310    0.433   54.128
  441.500   10.965  164.723    0.309    0.421   52.395
  441.750   10.969  164.701    0.308    0.409   51.241
  442.000   10.974  164.679    0.304    0.420   50.670
  442.250   10.978  164.643    0.307    0.442   50.680
  442.500   10.982  164.621    0.309    0.444   51.855
  442.750   11.187  164.584    0.309    0.435   55.360
  443.000   11.191  164.555    0.309    0.420   54.785
  443.250   11.196  164.526    0.312    0.421   54.214
  443.500   11.200  164.497    0.313    0.421   55.388
  443.750   11.204  164.461    0.309    0.430   54.235
  444.000   11.209  164.446    0.307    0.433   51.336
  444.250   10.812  164.403    0.309    0.426   49.603
  444.500   10.428  164.381    0.314    0.418   49.029
  444.750    9.877  164.337    0.310    0.427   50.785
  445.000    9.881  165.291    0.302    0.445   55.451
  445.250    9.884  165.269    0.293    0.447   59.535
  445.500    9.887  165.233    0.293    0.439   56.639
  445.750   10.073  165.204    0.299    0.446   56.067
  446.000   10.452  165.175    0.307    0.439   54.329
  446.250   10.267  165.153    0.318    0.446   51.432
  446.500    9.724  165.124    0.324    0.463   53.768
  446.750    8.720  165.095    0.313    0.488   58.437
  447.000    7.270  165.066    0.305    0.516   61.939
  447.250    5.953  165.037    0.298    0.542   70.679
  447.500    5.638  165.008    0.278    0.543   84.659
  447.750    4.965  164.971    0.255    0.524   84.667
  448.000    4.703  164.942    0.250    0.552   85.844
  448.250    4.536  164.920    0.249    0.543   88.764
  448.500    4.296  164.884    0.244    0.532   91.100
  448.750    4.069  165.823    0.237    0.579   96.348
  449.000    3.925  165.801    0.231    0.604   99.851
  449.250    3.786  165.780    0.236    0.626  101.025
  449.500    3.719  165.736    0.242    0.653  102.781
  449.750    3.789  165.714    0.249    0.663  106.286
  450.000    4.003  165.714    0.248    0.617  102.805
  450.250    4.307  165.642    0.245    0.600   93.504
  450.500    4.550  165.620    0.244    0.565   85.949
  450.750    5.363  165.598    0.242    0.537   80.142
  451.000    6.321  165.569    0.246    0.518   78.989
  451.250    7.316  165.533    0.248    0.501   81.327
  451.500    8.017  165.503    0.252    0.483   80.753
  451.750    8.168  165.474    0.263    0.469   77.274
  452.000    8.024  165.438    0.264    0.456   78.448
  452.250    7.738  165.416    0.262    0.462   72.636
  452.500    7.329  165.387    0.263    0.499   68.576
  452.750    5.786  165.358    0.269    0.529   73.821
  453.000    4.567  165.322    0.280    0.564   81.979
  453.250    3.352  165.307    0.265    0.586   88.391
  453.500    2.460  165.278    0.255    0.598   94.222
  453.750    2.417  166.217    0.244    0.596  100.634
  454.000    2.462  166.195    0.229    0.556  102.972
  454.250    2.554  166.159    0.207    0.535  100.073
