~VERSION INFORMATION
 VERS.                 2.0:   CWLS LOG ASCII STANDARD -VERSION 2.0
 WRAP.                  NO:   ONE LINE PER DEPTH STEP
~WELL INFORMATION BLOCK
#MNEM.UNIT           DATA                    DESCRIPTION OF MNEMONIC
#---------    -------------------            -------------------------------
# Generated from Intellog Unique Number	CS_69_70/WELL/853
WELL.         AMERICAN NATURAL GAS           : Well_name    - WELL
LOC .         00/08-09-070-18W4/0            : Location     - LOCATION
UWI .         00/08-09-070-18W4/0            : Uwi          - UNIQUE WELL ID
ENTR.         SP                             : Entered      - ENTERED BY
SRVC.         SCHLUMBERGER                   : Scn          - SERVICE COMPANY
STRT.M        280                            : top_depth    - START DEPTH
STOP.M        470                            : bot_depth    - STOP DEPTH
STEP.M        0.25                           : increment    - STEP LENGTH
 NULL. -999.2500:NULL Value
~CURVE INFORMATION BLOCK
#MNEM UNIT       ERCB CURVE CODE    CURVE DESCRIPTION
#-----------   ------------------   ----------------------------------
DEPT.M        00 001 00 00         : DEPTH        - DEPTH
DPHI.V/V      00 890 00 00         : PHID         - DENSITY POROSITY (LIMESTONE)
NPHI.V/V      00 330 00 00         : PHIN         - NEUTRON POROSITY (LIMESTONE)
GR  .API      00 310 00 00         : GR           - GAMMA RAY
ILD .OHMM     00 120 00 00         : RESD         - DEEP RESISTIVITY (DIL)
~PARAMETER INFORMATION
#MNEM.UNIT           DATA             DESCRIPTION OF MNEMONIC
#---------         -----------     ------------------------------
GL  .M        553.6                : gl           - GROUND LEVEL ELEVATION
EREF.M        556.9                : kb           - ELEVATION OF DEPTH REFERENCE
DATM.M        553.6                : datum        - DATUM ELEVATION
TDD .M        471                  : tdd          - TOTAL DEPTH DRILLER
RUN .         ONE                  : Run          - RUN NUMBER
ENG .         BILL                 : Engineer     - RECORDING ENGINEER
WIT .         JIM                  : Witness      - WITNESSED BY
MUD .         GEL                  : Mud_type     - MUD TYPE
MATR.         LIMESTONE            : Logunit      - NEUTRON MATRIX
TMAX.C        18                   : BHT          - MAXIMUM RECORDED TEMPERATURE
BHTD.M        471                  : BHTDEP       - MAXIMUM RECORDED TEMPERATURE
MATR.         1                    : LOGUNIT      - NEUTRON MATRIX
RMT .C        25                   : MDTP         - TEMPERATURE OF MUD
NEUT.         1                    : NEUTRON      - NEUTRON TYPE
RESI.         0                    : RESIST       - RESISTIVITY TYPE
RMC .OHMM     0.25                 : RMC          - RESISTIVITY OF MUD CAKE
RMF .OHMM     0.25                 : RMF          - RESISTIVITY OF MUD FILTRATE
SUFT.C        15                   : SUFT         - SURFACE TEMPERATURE
~A  DEPTH     PHID     PHIN       GR     RESD
# ...
  323.500    0.231    0.378   75.171    4.576
  323.750    0.246    0.364   69.039    4.546
  324.000    0.251    0.347   69.949    4.544
  324.250    0.216    0.332   73.828    4.731
  324.500    0.204    0.318   74.185    5.290
  324.750    0.207    0.301   66.319    5.971
  325.000    0.212    0.260   60.309    7.745
  325.250    0.152    0.184   52.692   12.726
  325.500    0.013    0.157   47.237   21.467
  325.750    0.026    0.144   45.490   29.568
  326.000    0.065    0.159   46.156   32.147
  326.250    0.110    0.192   50.158   22.443
  326.500    0.154    0.324   60.092   11.980
  326.750    0.189    0.396   68.543    8.618
  327.000    0.221    0.409   72.113    6.966
  327.250    0.229    0.403   76.606    6.277
  327.500    0.215    0.408   80.363    5.797
  327.750    0.206    0.413   84.984    5.485
  328.000    0.195    0.412   84.410    5.288
  328.250    0.189    0.410   76.177    5.166
  328.500    0.200    0.418   80.485    5.095
  328.750    0.209    0.413   84.736    5.150
  329.000    0.242    0.396   76.006    5.262
  329.250    0.235    0.381   69.749    5.428
  329.500    0.250    0.389   71.279    5.578
  329.750    0.245    0.415   73.485    5.714
  330.000    0.218    0.407   77.982    5.753
  330.250    0.220    0.391   81.181    5.755
  330.500    0.227    0.396   81.970    5.592
  330.750    0.222    0.404   83.376    5.184
  331.000    0.227    0.400   87.253    4.961
  331.250    0.235    0.414   88.660    4.758
  331.500    0.231    0.427   84.069    4.715
  331.750    0.220    0.438   85.044    4.607
  332.000    0.210    0.427   86.816    4.527
  332.250    0.231    0.429   86.992    4.530
  332.500    0.240    0.432   86.358    4.595
  332.750    0.246    0.420   77.689    4.678
  333.000    0.255    0.407   69.515    5.024
  333.250    0.264    0.392   65.854    5.220
  333.500    0.262    0.395   69.608    5.302
  333.750    0.251    0.399   73.301    5.230
  334.000    0.223    0.400   79.832    5.126
  334.250    0.201    0.393   83.159    4.879
  334.500    0.193    0.403   88.642    4.669
  334.750    0.209    0.410   92.831    4.476
  335.000    0.232    0.423   86.264    4.268
  335.250    0.236    0.441   90.266    4.038
  335.500    0.232    0.448   82.463    3.821
  335.750    0.226    0.452   83.684    3.664
  336.000    0.220    0.446   85.274    3.640
  336.250    0.218    0.417   85.013    3.916
  336.500    0.224    0.389   82.338    4.137
  336.750    0.227    0.398   86.093    4.522
  337.000    0.234    0.399   87.869    4.982
  337.250    0.230    0.408   87.731    5.449
  337.500    0.225    0.411   83.821    5.685
  337.750    0.225    0.452   77.936    5.864
  338.000    0.275    0.468   57.834    5.959
  338.250    0.402    0.458   49.723    5.564
  338.500    0.359    0.440   49.521    4.930
  338.750    0.302    0.401   50.433    4.393
  339.000    0.288    0.389   50.724    3.858
  339.250    0.289    0.387   50.897    3.725
  339.500    0.293    0.379   50.696    3.545
  339.750    0.297    0.376   47.775    3.450
  340.000    0.301    0.376   45.781    3.402
  340.250    0.305    0.380   44.776    3.399
  340.500    0.311    0.378   44.391    3.397
  340.750    0.305    0.393   43.508    3.396
  341.000    0.301    0.399   43.557    3.352
  341.250    0.299    0.380   44.901    3.394
  341.500    0.300    0.373   42.599    3.423
  341.750    0.300    0.366   43.819    3.459
  342.000    0.301    0.359   45.407    3.502
  342.250    0.300    0.354   45.149    3.480
  342.500    0.298    0.348   42.845    3.431
  342.750    0.296    0.353   43.877    3.359
  343.000    0.298    0.357   45.407    3.281
  343.250    0.304    0.366   47.435    3.235
  343.500    0.308    0.373   47.049    3.190
  343.750    0.308    0.382   47.960    3.170
  344.000    0.308    0.373   49.861    3.170
  344.250    0.308    0.366   50.030    3.165
  344.500    0.307    0.362   48.962    3.163
  344.750    0.306    0.369   48.947    3.161
  345.000    0.300    0.365   46.708    3.171
  345.250    0.297    0.347   45.395    3.169
  345.500    0.298    0.345   44.514    3.172
  345.750    0.299    0.346   47.093    3.176
  346.000    0.294    0.347   49.054    3.475
  346.250    0.291    0.353   49.906    3.486
  346.500    0.291    0.363   48.840    3.470
  346.750    0.293    0.371   47.712    3.441
  347.000    0.295    0.384   48.129    3.458
  347.250    0.292    0.369   49.165    3.534
  347.500    0.292    0.379   50.693    3.625
  347.750    0.294    0.389   50.058    3.782
  348.000    0.290    0.401   53.444    3.946
  348.250    0.286    0.400   57.446    4.100
  348.500    0.282    0.410   60.953    4.278
  348.750    0.277    0.401   63.225    4.365
  349.000    0.280    0.389   58.757    4.394
  349.250    0.285    0.379   55.530    4.375
  349.500    0.286    0.378   54.586    4.348
  349.750    0.283    0.384   55.993    4.318
  350.000    0.281    0.392   58.383    4.275
  350.250    0.281    0.399   58.805    4.262
  350.500    0.282    0.399   58.478    4.283
  350.750    0.286    0.383   59.574    4.495
  351.000    0.292    0.371   60.427    4.608
  351.250    0.290    0.377   60.226    5.291
  351.500    0.276    0.375   60.644    6.028
  351.750    0.258    0.352   63.283    6.505
  352.000    0.058    0.333   64.320    6.684
  352.250    0.057    0.234   46.135    6.350
  352.500    0.078    0.288   71.149    5.637
  352.750    0.123    0.350   75.336    4.865
  353.000    0.223    0.378   79.647    4.467
  353.250    0.240    0.379   82.351    4.227
  353.500    0.234    0.389   79.613    4.160
  353.750    0.229    0.401   82.814    4.126
  354.000    0.233    0.403   83.293    4.122
  354.250    0.223    0.399   81.175    4.175
  354.500    0.223    0.389   78.133    4.233
  354.750    0.241    0.375   70.824    4.511
  355.000    0.237    0.372   67.472    4.616
  355.250    0.228    0.383   73.883    4.817
  355.500    0.225    0.417   73.744    4.895
  355.750    0.225    0.420   74.656    4.863
  356.000    0.220    0.414   83.046    4.655
  356.250    0.230    0.423   80.001    4.563
  356.500    0.250    0.383   72.693    4.441
  356.750    0.278    0.371   64.083    4.315
  357.000    0.294    0.377   59.004    4.246
  357.250    0.290    0.384   58.556    4.212
  357.500    0.297    0.383   61.075    4.224
  357.750    0.299    0.399   62.785    4.358
  358.000    0.297    0.392   63.823    4.530
  358.250    0.290    0.387   65.108    4.645
  358.500    0.282    0.390   66.077    4.694
  358.750    0.276    0.402   66.680    4.639
  359.000    0.270    0.394   67.347    4.573
  359.250    0.266    0.401   66.589    4.460
  359.500    0.266    0.416   60.393    4.324
  359.750    0.274    0.397   55.496    4.146
  360.000    0.284    0.392   58.137    4.026
  360.250    0.288    0.385   59.726    3.897
  360.500    0.288    0.385   59.900    3.843
  360.750    0.289    0.379   59.761    3.818
  361.000    0.290    0.380   58.385    3.963
  361.250    0.276    0.371   60.904    4.102
  361.500    0.265    0.379   64.226    4.388
  361.750    0.260    0.378   62.233    4.448
  362.000    0.253    0.385   64.626    4.519
  362.250    0.245    0.387   65.785    4.533
  362.500    0.239    0.374   66.758    4.503
  362.750    0.236    0.382   67.237    4.384
  363.000    0.236    0.388   70.498    4.259
  363.250    0.257    0.394   66.526    4.152
  363.500    0.268    0.383   64.347    4.027
  363.750    0.273    0.383   64.952    3.980
  364.000    0.280    0.374   68.211    3.966
  364.250    0.292    0.367   66.651    3.922
  364.500    0.299    0.372   62.618    3.918
  364.750    0.302    0.383   59.388    3.915
  365.000    0.298    0.386   57.087    3.904
  365.250    0.295    0.401   56.700    3.899
  365.500    0.298    0.411   59.774    3.797
  365.750    0.286    0.410   63.279    3.689
  366.000    0.273    0.429   66.727    3.655
  366.250    0.260    0.429   74.437    3.421
  366.500    0.248    0.426   81.962    3.298
  366.750    0.246    0.448   84.419    3.121
