~VERSION INFORMATION
 VERS.                 2.0:   CWLS LOG ASCII STANDARD -VERSION 2.0
 WRAP.                  NO:   ONE LINE PER DEPTH STEP
~WELL INFORMATION BLOCK
#MNEM.UNIT           DATA                    DESCRIPTION OF MNEMONIC
#---------    -------------------            -------------------------------
# Generated from Intellog Unique Number	CS_67_68/WELL/714
WELL.         ET AL TWEEDIE                  : Well_name    - WELL
LOC .         00/06-31-068-12W4/0            : Location     - LOCATION
UWI .         00/06-31-068-12W4/0            : Uwi          - UNIQUE WELL ID
ENTR.         SP                             : Entered      - ENTERED BY
SRVC.         SCHLUMBERGER                   : Scn          - SERVICE COMPANY
STRT.M        289.56                         : top_depth    - START DEPTH
STOP.M        502.560                        : bot_depth    - STOP DEPTH
STEP.M        0.25                           : increment    - STEP LENGTH
 NULL. -999.2500:NULL Value
~CURVE INFORMATION BLOCK
#MNEM UNIT       ERCB CURVE CODE    CURVE DESCRIPTION
#-----------   ------------------   ----------------------------------
DEPT.M        00 001 00 00         : DEPTH        - DEPTH
GR  .API      00 310 00 00         : GR           - GAMMA RAY
DPHI.V/V      00 890 00 00         : PHID         - DENSITY POROSITY (SANDSTONE)
NPHI.V/V      00 330 00 00         : PHIN         - NEUTRON POROSITY (SANDSTONE)
ILD .OHMM     00 120 00 00         : RESD         - DEEP RESISTIVITY (DIL)
~PARAMETER INFORMATION
#MNEM.UNIT           DATA             DESCRIPTION OF MNEMONIC
#---------         -----------     ------------------------------
GL  .M        591.922              : gl           - GROUND LEVEL ELEVATION
EREF.M        594.665              : kb           - ELEVATION OF DEPTH REFERENCE
DATM.M        591.922              : datum        - DATUM ELEVATION
TDD .M        504.749              : tdd          - TOTAL DEPTH DRILLER
RUN .         ONE                  : Run          - RUN NUMBER
ENG .         BILL                 : Engineer     - RECORDING ENGINEER
WIT .         JIM                  : Witness      - WITNESSED BY
MUD .         GEL                  : Mud_type     - MUD TYPE
MATR.         SANDSTONE            : Logunit      - NEUTRON MATRIX
TMAX.C        22.2222              : BHT          - MAXIMUM RECORDED TEMPERATURE
BHTD.M        504.749              : BHTDEP       - MAXIMUM RECORDED TEMPERATURE
MATR.         1                    : LOGUNIT      - NEUTRON MATRIX
RMT .C        25                   : MDTP         - TEMPERATURE OF MUD
NEUT.         1                    : NEUTRON      - NEUTRON TYPE
RESI.         0                    : RESIST       - RESISTIVITY TYPE
RMC .OHMM     0.25                 : RMC          - RESISTIVITY OF MUD CAKE
RMF .OHMM     0.25                 : RMF          - RESISTIVITY OF MUD FILTRATE
SUFT.C        15                   : SUFT         - SURFACE TEMPERATURE
~A  DEPTH       GR     PHID     PHIN     RESD
# ...
  420.060  117.167    0.276    0.589    2.025
  420.310  118.124    0.293    0.577    2.012
  420.560  118.393    0.291    0.561    2.090
  420.810  117.570    0.267    0.535    2.181
  421.060  116.179    0.247    0.525    2.299
  421.310  114.712    0.228    0.535    2.437
  421.560  111.731    0.240    0.546    2.603
  421.810  108.177    0.261    0.501    2.760
  422.060  104.137    0.265    0.462    2.882
  422.310  100.793    0.238    0.452    3.042
  422.560   99.262    0.242    0.444    3.174
  422.810   97.813    0.240    0.436    3.302
  423.060   95.133    0.216    0.429    3.393
  423.310   93.350    0.181    0.420    3.489
  423.560   96.996    0.183    0.420    3.571
  423.810  100.918    0.200    0.429    3.622
  424.060  105.128    0.208    0.439    3.649
  424.310  104.998    0.172    0.448    3.710
  424.560   99.161    0.124    0.457    3.884
  424.810   92.124    0.087    0.413    4.151
  425.060   84.702    0.044    0.300    4.595
  425.310   76.557    0.024    0.270    5.247
  425.560   75.324    0.017    0.244    5.815
  425.810   91.844    0.052    0.320    6.255
  426.060  101.844    0.089    0.388    6.631
  426.310  105.480    0.138    0.442    6.229
  426.560  105.366    0.189    0.462    5.280
  426.810  101.873    0.188    0.475    4.553
  427.060   97.192    0.179    0.447    4.153
  427.310   95.313    0.165    0.421    4.156
  427.560   99.620    0.150    0.407    4.216
  427.810  105.118    0.138    0.424    4.177
  428.060  108.602    0.165    0.447    4.119
  428.310  110.941    0.180    0.462    4.087
  428.560  111.598    0.185    0.475    4.023
  428.810  111.723    0.180    0.482    3.945
  429.060  111.895    0.177    0.463    3.846
  429.310  112.698    0.175    0.451    3.767
  429.560  114.225    0.180    0.452    3.684
  429.810  114.480    0.194    0.469    3.618
  430.060  113.776    0.208    0.482    3.582
  430.310  112.480    0.208    0.473    3.567
  430.560  108.639    0.205    0.464    3.552
  430.810  111.343    0.212    0.455    3.547
  431.060  113.960    0.222    0.445    3.554
  431.310  113.921    0.224    0.454    3.564
  431.560  111.865    0.205    0.463    3.586
  431.810  109.742    0.194    0.469    3.622
  432.060  107.601    0.189    0.466    3.660
  432.310  104.305    0.189    0.460    3.678
  432.560  103.332    0.187    0.458    3.723
  432.810  106.313    0.182    0.461    3.763
  433.060  106.901    0.187    0.461    3.815
  433.310  104.765    0.186    0.455    3.848
  433.560  103.448    0.160    0.459    3.858
  433.810  108.570    0.163    0.468    3.866
  434.060  112.649    0.187    0.478    3.863
  434.310  114.515    0.199    0.479    3.845
  434.560  113.508    0.208    0.455    3.814
  434.810  112.053    0.213    0.442    3.791
  435.060  111.118    0.208    0.459    3.731
  435.310  111.089    0.209    0.466    3.678
  435.560  108.141    0.194    0.453    3.626
  435.810  106.138    0.176    0.458    3.586
  436.060  106.235    0.164    0.462    3.546
  436.310  106.771    0.175    0.455    3.337
  436.560  106.108    0.190    0.446    3.063
  436.810  102.634    0.188    0.427    2.799
  437.060   99.268    0.181    0.416    2.537
  437.310   99.952    0.224    0.467    2.336
  437.560  101.157    0.247    0.491    2.136
  437.810  102.942    0.250    0.546    1.962
  438.060  105.110    0.271    0.570    1.838
  438.310  106.713    0.269    0.557    1.763
  438.560  108.537    0.256    0.547    1.765
  438.810  111.469    0.243    0.538    1.800
  439.060  113.097    0.233    0.539    1.881
  439.310  114.363    0.221    0.543    2.018
  439.560  114.408    0.210    0.542    2.186
  439.810  109.489    0.200    0.524    2.475
  440.060   99.393    0.184    0.490    2.691
  440.310   94.584    0.170    0.449    3.005
  440.560   94.696    0.180    0.435    3.264
  440.810   94.023    0.155    0.419    3.606
  441.060   94.657    0.132    0.400    3.933
  441.310   98.783    0.180    0.393    4.096
  441.560  102.403    0.202    0.423    4.036
  441.810  105.821    0.202    0.435    3.926
  442.060  105.275    0.190    0.442    3.832
  442.310  100.332    0.173    0.452    3.754
  442.560   96.130    0.147    0.467    3.721
  442.810   98.631    0.154    0.456    3.691
  443.060  104.184    0.168    0.450    3.635
  443.310  108.231    0.166    0.467    3.539
  443.560  112.755    0.185    0.474    3.372
  443.810  114.342    0.175    0.463    3.198
  444.060  114.075    0.187    0.480    3.086
  444.310  113.711    0.202    0.470    3.021
  444.560  112.809    0.197    0.464    2.984
  444.810  111.130    0.196    0.469    2.979
  445.060  110.839    0.194    0.472    2.963
  445.310  112.773    0.182    0.482    2.945
  445.560  114.044    0.172    0.494    2.913
  445.810  117.191    0.167    0.506    2.839
  446.060  123.207    0.159    0.516    2.728
  446.310  127.541    0.153    0.524    2.602
  446.560  130.443    0.199    0.513    2.513
  446.810  129.407    0.200    0.504    2.460
  447.060  128.260    0.190    0.520    2.445
  447.310  127.135    0.208    0.536    2.477
  447.560  130.420    0.211    0.554    2.562
  447.810  132.540    0.202    0.486    2.613
  448.060  134.012    0.193    0.464    2.611
  448.310  128.382    0.193    0.465    2.579
  448.560  124.173    0.186    0.513    2.509
  448.810  127.591    0.202    0.538    2.446
  449.060  130.343    0.215    0.548    2.384
  449.310  129.105    0.209    0.535    2.360
  449.560  127.417    0.213    0.522    2.370
  449.810  130.850    0.204    0.541    2.446
  450.060  132.655    0.215    0.556    2.607
  450.310  131.896    0.224    0.532    2.940
  450.560  127.867    0.230    0.505    3.379
  450.810  121.823    0.211    0.444    4.047
  451.060  113.951    0.218    0.407    4.647
  451.310  100.693    0.220    0.392    5.400
  451.560   86.482    0.212    0.373    6.498
  451.810   70.187    0.215    0.352    7.346
  452.060   65.904    0.229    0.333    7.816
  452.310   69.296    0.221    0.341    7.993
  452.560   73.570    0.238    0.345    8.050
  452.810   75.265    0.251    0.346    8.011
  453.060   76.109    0.248    0.354    7.953
  453.310   77.164    0.245    0.366    7.814
  453.560   77.337    0.241    0.379    7.787
  453.810   76.978    0.233    0.392    7.741
  454.060   76.642    0.222    0.401    7.783
  454.310   77.524    0.206    0.383    8.300
  454.560   79.062    0.187    0.357    9.183
  454.810   78.426    0.078    0.314    9.443
  455.060   73.874    0.028    0.283    9.322
  455.310   69.998    0.004    0.284   10.034
  455.560   73.594   -0.001    0.321   10.458
  455.810   77.776    0.107    0.344   10.594
  456.060   80.794    0.182    0.350   10.370
  456.310   77.535    0.212    0.323    9.906
  456.560   66.582    0.241    0.302    9.740
  456.810   59.638    0.274    0.259    9.580
  457.060   57.312    0.316    0.267    8.557
  457.310   81.899    0.289    0.321    7.610
  457.560   91.072    0.266    0.363    6.624
  457.810  100.646    0.252    0.386    5.700
  458.060  107.903    0.236    0.397    4.743
  458.310  113.631    0.226    0.410    4.072
  458.560  116.311    0.235    0.414    3.889
  458.810  117.062    0.252    0.408    3.919
  459.060  119.088    0.206    0.408    4.083
  459.310  123.605    0.166    0.421    4.321
  459.560  126.004    0.177    0.432    4.690
  459.810  126.257    0.197    0.443    5.023
  460.060  123.055    0.206    0.455    5.451
  460.310  118.821    0.204    0.457    5.870
  460.560  115.313    0.197    0.438    6.396
  460.810  110.855    0.168    0.416    6.919
  461.060  100.905    0.154    0.388    7.501
  461.310   94.741    0.152    0.382    7.933
  461.560  102.761    0.169    0.393    7.890
  461.810  109.766    0.161    0.399    7.292
  462.060  114.577    0.147    0.401    6.707
  462.310  115.937    0.152    0.400    5.964
  462.560  113.661    0.168    0.400    5.718
  462.810  107.617    0.176    0.402    5.529
  463.060   98.479    0.192    0.393    5.493
  463.310   90.858    0.203    0.394    5.526
