~VERSION INFORMATION
 VERS.                 2.0:   CWLS LOG ASCII STANDARD -VERSION 2.0
 WRAP.                  NO:   ONE LINE PER DEPTH STEP
~WELL INFORMATION BLOCK
#MNEM.UNIT           DATA                    DESCRIPTION OF MNEMONIC
#---------    -------------------            -------------------------------
# Generated from Intellog Unique Number	CS_73_76/WELL/2161
WELL.         MANY ISLANDS PIPELINES         : Well_name    - WELL
LOC .         00/06-08-074-11W4/0            : Location     - LOCATION
UWI .         00/06-08-074-11W4/0            : Uwi          - UNIQUE WELL ID
ENTR.         SP                             : Entered      - ENTERED BY
SRVC.         SCHLUMBERGER                   : Scn          - SERVICE COMPANY
STRT.M        298.704                        : top_depth    - START DEPTH
STOP.M        536.204                        : bot_depth    - STOP DEPTH
STEP.M        0.25                           : increment    - STEP LENGTH
 NULL. -999.2500:NULL Value
~CURVE INFORMATION BLOCK
#MNEM UNIT       ERCB CURVE CODE    CURVE DESCRIPTION
#-----------   ------------------   ----------------------------------
DEPT.M        00 001 00 00         : DEPTH        - DEPTH
GR  .API      00 310 00 00         : GR           - GAMMA RAY
DPHI.V/V      00 890 00 00         : PHID         - DENSITY POROSITY (SANDSTONE)
NPHI.V/V      00 330 00 00         : PHIN         - NEUTRON POROSITY (SANDSTONE)
ILD .OHMM     00 120 00 00         : RESD         - DEEP RESISTIVITY (DIL)
~PARAMETER INFORMATION
#MNEM.UNIT           DATA             DESCRIPTION OF MNEMONIC
#---------         -----------     ------------------------------
GL  .M        661.416              : gl           - GROUND LEVEL ELEVATION
EREF.M        664.891              : kb           - ELEVATION OF DEPTH REFERENCE
DATM.M        661.416              : datum        - DATUM ELEVATION
TDD .M        553.517              : tdd          - TOTAL DEPTH DRILLER
RUN .         ONE                  : Run          - RUN NUMBER
ENG .         BILL                 : Engineer     - RECORDING ENGINEER
WIT .         JIM                  : Witness      - WITNESSED BY
MUD .         GEL                  : Mud_type     - MUD TYPE
MATR.         SANDSTONE            : Logunit      - NEUTRON MATRIX
TMAX.C        26.6667              : BHT          - MAXIMUM RECORDED TEMPERATURE
BHTD.M        553.517              : BHTDEP       - MAXIMUM RECORDED TEMPERATURE
MATR.         1                    : LOGUNIT      - NEUTRON MATRIX
RMT .C        25                   : MDTP         - TEMPERATURE OF MUD
NEUT.         1                    : NEUTRON      - NEUTRON TYPE
RESI.         0                    : RESIST       - RESISTIVITY TYPE
RMC .OHMM     0.25                 : RMC          - RESISTIVITY OF MUD CAKE
RMF .OHMM     0.25                 : RMF          - RESISTIVITY OF MUD FILTRATE
SUFT.C        15                   : SUFT         - SURFACE TEMPERATURE
~A  DEPTH       GR     PHID     PHIN     RESD
# ...
  472.704   86.771    0.197    0.391   10.732
  472.954   84.213    0.214    0.407   11.060
  473.204   84.062    0.226    0.409   11.623
  473.454   84.016    0.223    0.403   12.343
  473.704   84.932    0.225    0.396   13.076
  473.954   87.483    0.237    0.404   13.458
  474.204   89.993    0.230    0.418   13.869
  474.454   93.991    0.242    0.428   14.269
  474.704   95.655    0.259    0.423   14.268
  474.954  100.334    0.249    0.414   13.846
  475.204  104.233    0.244    0.404   13.726
  475.454  104.538    0.244    0.422   13.306
  475.704  102.159    0.241    0.435   12.981
  475.954   99.119    0.249    0.434   13.001
  476.204   96.945    0.253    0.438   13.435
  476.454   95.267    0.232    0.439   13.539
  476.704   94.940    0.239    0.429   13.982
  476.954   98.808    0.257    0.417   14.421
  477.204  106.322    0.243    0.424   13.947
  477.454  115.143    0.212    0.433   11.538
  477.704  121.399    0.206    0.442   10.194
  477.954  118.147    0.196    0.450    9.450
  478.204  113.875    0.185    0.440    9.000
  478.454  111.273    0.189    0.426    8.939
  478.704  106.878    0.202    0.419    8.663
  478.954  102.013    0.206    0.416    8.923
  479.204   95.003    0.215    0.403    9.390
  479.454   91.300    0.220    0.383    9.853
  479.704  100.387    0.215    0.388   10.159
  479.954   92.120    0.213    0.417   10.516
  480.204   81.384    0.238    0.433   11.630
  480.454   69.171    0.256    0.453   18.848
  480.704   73.408    0.289    0.398   23.425
  480.954   77.658    0.271    0.382   25.640
  481.204   82.171    0.260    0.376   26.295
  481.454   84.402    0.265    0.380   25.659
  481.704   89.081    0.252    0.390   24.320
  481.954   93.841    0.244    0.378   20.226
  482.204   97.981    0.231    0.366   18.795
  482.454   96.863    0.224    0.360   17.901
  482.704   94.337    0.219    0.368   17.455
  482.954   92.605    0.215    0.382   17.472
  483.204   92.924    0.215    0.390   17.898
  483.454   93.978    0.221    0.387   17.071
  483.704   93.936    0.231    0.387   16.289
  483.954   90.203    0.205    0.390   16.231
  484.204   84.865    0.198    0.385   16.608
  484.454   74.136    0.220    0.384   18.138
  484.704   69.795    0.236    0.387   20.730
  484.954   73.232    0.263    0.381   24.127
  485.204   66.275    0.244    0.390   29.384
  485.454   56.812    0.232    0.401   34.169
  485.704   51.640    0.244    0.396   35.931
  485.954   58.609    0.265    0.384   34.349
  486.204   62.852    0.229    0.384   35.130
  486.454   60.262    0.194    0.405   41.965
  486.704   40.324    0.201    0.415   52.858
  486.954   35.218    0.235    0.400   69.716
  487.204   35.001    0.307    0.392   88.422
  487.454   35.483    0.310    0.393  115.119
  487.704   39.347    0.316    0.390  139.650
  487.954   42.213    0.313    0.397  150.610
  488.204   41.013    0.310    0.405  154.395
  488.454   40.333    0.316    0.392  140.447
  488.704   49.593    0.313    0.371  113.408
  488.954   63.963    0.310    0.349   66.300
  489.204   69.178    0.254    0.351   48.725
  489.454   65.514    0.236    0.380   35.822
  489.704   58.883    0.247    0.393   29.581
  489.954   60.234    0.272    0.380   29.014
  490.204   61.815    0.293    0.379   33.920
  490.454   58.694    0.308    0.386   49.639
  490.704   56.841    0.308    0.379  105.562
  490.954   53.019    0.327    0.380  162.600
  491.204   49.873    0.321    0.390  186.923
  491.454   52.904    0.311    0.393  192.886
  491.704   56.356    0.303    0.404  196.362
  491.954   60.149    0.300    0.397  182.543
  492.204   61.577    0.293    0.418  148.378
  492.454   61.919    0.286    0.437  112.113
  492.704   61.968    0.282    0.425   77.714
  492.954   60.805    0.299    0.410   94.972
  493.204   66.675    0.293    0.415   99.347
  493.454   78.926    0.267    0.404   71.092
  493.704   85.800    0.255    0.396   47.115
  493.954   83.449    0.266    0.442   36.942
  494.204   81.347    0.287    0.457   31.750
  494.454   80.660    0.279    0.437   28.561
  494.704   79.369    0.274    0.432   28.863
  494.954   78.778    0.253    0.427   29.693
  495.204   83.174    0.269    0.420   30.470
  495.454   86.024    0.268    0.431   30.483
  495.704   87.904    0.252    0.441   28.077
  495.954   91.494    0.240    0.436   22.211
  496.204   96.431    0.217    0.427   16.560
  496.454  105.461    0.196    0.408   14.428
  496.704  106.494    0.185    0.395   12.638
  496.954  105.219    0.187    0.399   11.148
  497.204  102.950    0.203    0.393   10.833
  497.454  106.299    0.211    0.387   10.593
  497.704  113.430    0.206    0.395   10.245
  497.954  118.953    0.199    0.401   10.045
  498.204  120.416    0.202    0.417    9.870
  498.454  117.313    0.204    0.431    9.702
  498.704  111.933    0.202    0.419    9.497
  498.954   99.645    0.177    0.408    9.516
  499.204   92.108    0.169    0.405    9.483
  499.454   81.250    0.165    0.395    9.945
  499.704   65.411    0.160    0.399   10.785
  499.954   53.836    0.266    0.403   12.438
  500.204   48.619    0.283    0.372   15.993
  500.454   48.810    0.286    0.352   32.043
  500.704   48.950    0.269    0.357   50.682
  500.954   50.681    0.279    0.362   57.278
  501.204   53.551    0.286    0.374   61.355
  501.454   60.948    0.281    0.390   61.545
  501.704   71.591    0.274    0.395   59.327
  501.954   76.741    0.116    0.376   50.874
  502.204   75.360    0.057    0.327   36.403
  502.454   76.828    0.053    0.346   29.063
  502.704   81.359    0.097    0.376   25.568
  502.954   87.425    0.270    0.391   21.606
  503.204   92.826    0.247    0.387   19.858
  503.454  100.321    0.223    0.375   17.260
  503.704  106.416    0.187    0.386   15.236
  503.954   87.003    0.198    0.390   17.885
  504.204   70.950    0.234    0.403   20.182
  504.454   65.771    0.266    0.402   22.440
  504.704   71.467    0.291    0.375   24.839
  504.954   71.346    0.274    0.387   25.663
  505.204   68.240    0.261    0.393   25.969
  505.454   64.890    0.263    0.393   25.988
  505.704   62.569    0.281    0.385   26.135
  505.954   62.571    0.295    0.379   27.296
  506.204   66.948    0.301    0.371   29.129
  506.454   73.833    0.282    0.366   28.954
  506.704   85.067    0.254    0.373   25.031
  506.954   94.263    0.219    0.380   18.651
  507.204  106.004    0.171    0.376   15.310
  507.454  117.602    0.141    0.402   12.299
  507.704  110.277    0.148    0.412   11.193
  507.954   97.862    0.171    0.393   10.454
  508.204   86.484    0.228    0.384   10.367
  508.454   77.973    0.236    0.404   10.767
  508.704   71.100    0.255    0.413   11.990
  508.954   61.621    0.277    0.423   14.556
  509.204   63.888    0.290    0.410   16.944
  509.454   72.890    0.296    0.403   19.478
  509.704   80.014    0.279    0.390   19.212
  509.954   80.067    0.271    0.378   16.334
  510.204   74.980    0.269    0.362   13.118
  510.454   72.993    0.250    0.361   11.751
  510.704   72.023    0.259    0.370   10.798
  510.954   77.391    0.274    0.370   10.255
  511.204   81.673    0.265    0.354   10.219
  511.454   86.998    0.255    0.348   10.386
  511.704   90.370    0.234    0.337   11.124
  511.954   95.036    0.204    0.329   11.648
  512.204  100.222    0.166    0.347   10.862
  512.454   95.880    0.224    0.369   10.204
  512.704   87.517    0.232    0.379    9.591
  512.954   81.357    0.246    0.377    9.156
  513.204   80.054    0.254    0.370    8.888
  513.454   79.530    0.241    0.362    8.624
  513.704   86.876    0.236    0.359    8.628
  513.954   93.196    0.224    0.360    8.614
  514.204   97.392    0.212    0.370    8.783
  514.454   99.711    0.182    0.390    9.163
  514.704   98.820    0.169    0.422    9.495
  514.954   87.770    0.195    0.385    9.660
  515.204   97.302    0.179    0.344    8.317
  515.454  109.117    0.131    0.364    7.168
  515.704  110.940    0.217    0.395    6.454
  515.954   99.171    0.272    0.420    5.886
