~VERSION INFORMATION
 VERS.                 2.0:   CWLS LOG ASCII STANDARD -VERSION 2.0
 WRAP.                  NO:   ONE LINE PER DEPTH STEP
~WELL INFORMATION BLOCK
#MNEM.UNIT           DATA                    DESCRIPTION OF MNEMONIC
#---------    -------------------            -------------------------------
# Generated from Intellog Unique Number	CW_73_75/WELL/2723
WELL.         TRICENT ET AL MITSUE 02-26     : Well_name    - WELL
LOC .         00/02-26-073-05W5/0            : Location     - LOCATION
UWI .         00/02-26-073-05W5/0            : Uwi          - UNIQUE WELL ID
ENTR.         JAYE                           : Entered      - ENTERED BY
SRVC.         SCHLUMBERGER                   : Scn          - SERVICE COMPANY
DATE.         23 MAR 82                      : Date         - LOG DATE
STRT.M        350                            : top_depth    - START DEPTH
STOP.M        590                            : bot_depth    - STOP DEPTH
STEP.M        0.25                           : increment    - STEP LENGTH
 NULL. -999.2500:NULL Value
~CURVE INFORMATION BLOCK
#MNEM UNIT       ERCB CURVE CODE    CURVE DESCRIPTION
#-----------   ------------------   ----------------------------------
DEPT.M        00 001 00 00         : DEPTH        - DEPTH
DPHI.V/V      00 890 00 00         : PHID         - DENSITY POROSITY (SANDSTONE)
NPHI.V/V      00 330 00 00         : PHIN         - NEUTRON POROSITY (SANDSTONE)
GR  .API      00 310 00 00         : GR           - GAMMA RAY
CALI.MM       00 280 01 00         : CAL          - CALIPER
ILD .OHMM     00 120 00 00         : RESD         - DEEP RESISTIVITY (DIL)
~PARAMETER INFORMATION
#MNEM.UNIT           DATA             DESCRIPTION OF MNEMONIC
#---------         -----------     ------------------------------
GL  .M        576                  : gl           - GROUND LEVEL ELEVATION
EREF.M        583                  : kb           - ELEVATION OF DEPTH REFERENCE
DATM.M        576                  : datum        - DATUM ELEVATION
TDD .M        1695                 : tdd          - TOTAL DEPTH DRILLER
RUN .         ONE                  : Run          - RUN NUMBER
ENG .         HEATH                : Engineer     - RECORDING ENGINEER
WIT .         MACKASEY             : Witness      - WITNESSED BY
BASE.         EDM                  : Branch       - HOME BASE OF LOGGING UNIT
MUD .         GEL CHEM             : Mud_type     - MUD TYPE
MATR.         SANDSTONE            : Logunit      - NEUTRON MATRIX
TMAX.C        46.1                 : BHT          - MAXIMUM RECORDED TEMPERATURE
BHTD.M        1695.8               : BHTDEP       - MAXIMUM RECORDED TEMPERATURE
RMT .C        17.7                 : MDTP         - TEMPERATURE OF MUD
MUDD.KG/M     1090                 : MWT          - MUD DENSITY
NEUT.         1                    : NEUTRON      - NEUTRON TYPE
RESI.         0                    : RESIST       - RESISTIVITY TYPE
RM  .OHMM     1.08                 : RM           - RESISTIVITY OF MUD
RMC .OHMM     0                    : RMC          - RESISTIVITY OF MUD CAKE
RMF .OHMM     0.79                 : RMF          - RESISTIVITY OF MUD FILTRATE
SUFT.C        0                    : SUFT         - SURFACE TEMPERATURE
~A  DEPTH     PHID     PHIN       GR      CAL     RESD
# ...
  459.500    0.323    0.421   79.777  231.879    5.513
  459.750    0.335    0.448   78.783  233.418    5.436
  460.000    0.325    0.431   74.697  234.650    5.389
  460.250    0.316    0.409   72.900  235.777    5.373
  460.500    0.313    0.412   77.597  236.802    5.366
  460.750    0.312    0.437   78.830  237.621    5.381
  461.000    0.307    0.429   74.558  237.613    5.375
  461.250    0.304    0.434   72.637  237.402    5.420
  461.500    0.308    0.471   73.499  237.498    5.465
  461.750    0.312    0.441   76.712  237.080    5.521
  462.000    0.300    0.409   80.172  236.146    5.557
  462.250    0.287    0.400   83.509  235.316    5.572
  462.500    0.280    0.421   85.175  234.279    5.544
  462.750    0.277    0.456   81.645  233.345    5.466
  463.000    0.297    0.445   79.910  232.719    5.398
  463.250    0.296    0.403   78.608  232.197    5.292
  463.500    0.299    0.402   79.965  232.088    5.148
  463.750    0.309    0.416   81.383  231.773    4.888
  464.000    0.320    0.433   84.287  231.044    4.623
  464.250    0.314    0.421   83.418  230.523    4.514
  464.500    0.312    0.431   84.341  230.414    4.798
  464.750    0.298    0.446   84.090  230.924    5.417
  465.000    0.245    0.369   75.241  232.360    6.081
  465.250    0.130    0.233   70.228  233.798    7.062
  465.500    0.099    0.219   70.533  235.956    8.531
  465.750    0.080    0.218   69.910  236.982   10.287
  466.000    0.071    0.214   68.546  237.593   12.195
  466.250    0.061    0.231   68.975  237.896   10.963
  466.500    0.049    0.257   75.404  237.993    7.375
  466.750    0.118    0.455   82.143  237.988    5.855
  467.000    0.238    0.471   87.954  238.085    5.049
  467.250    0.309    0.458   83.992  235.501    4.380
  467.500    0.339    0.439   80.895  231.473    4.213
  467.750    0.343    0.422   82.932  231.881    4.130
  468.000    0.325    0.423   85.341  235.894    4.049
  468.250    0.296    0.440   87.007  238.260    4.037
  468.500    0.295    0.451   89.973  240.624    4.024
  468.750    0.303    0.466   91.639  241.753    4.051
  469.000    0.317    0.435   86.007  243.293    4.092
  469.250    0.339    0.425   81.426  245.039    4.142
  469.500    0.348    0.442   78.700  246.374    4.184
  469.750    0.331    0.450   76.903  248.428    4.211
  470.000    0.309    0.454   74.611  249.969    4.214
  470.250    0.288    0.468   83.947  251.612    4.273
  470.500    0.300    0.474   88.830  254.079    4.475
  470.750    0.281    0.453   90.496  255.724    4.623
  471.000    0.254    0.409   90.059  254.480    4.778
  471.250    0.238    0.398   92.839  249.938    4.826
  471.500    0.248    0.424   94.258  247.148    4.839
  471.750    0.270    0.445   92.832  245.080    4.816
  472.000    0.285    0.461   91.529  244.559    4.783
  472.250    0.295    0.487   91.711  244.449    4.725
  472.500    0.291    0.447   93.563  244.959    4.649
  472.750    0.278    0.431   95.353  246.911    4.574
  473.000    0.254    0.413   93.741  250.101    4.552
  473.250    0.233    0.403   89.902  254.631    4.642
  473.500    0.225    0.414   86.991  258.233    4.733
  473.750    0.222    0.424   87.421  259.670    4.873
  474.000    0.220    0.431   89.396  259.046    4.998
  474.250    0.218    0.437   92.176  258.008    5.049
  474.500    0.222    0.416   95.203  256.454    5.091
  474.750    0.233    0.417   98.292  254.697    5.114
  475.000    0.244    0.420   96.742  253.454    5.080
  475.250    0.250    0.407   95.810  256.025    4.998
  475.500    0.238    0.412   98.405  258.596    4.900
  475.750    0.226    0.432   99.205  260.755    4.831
  476.000    0.207    0.433   97.841  261.160    4.834
  476.250    0.194    0.414   95.610  258.268    4.893
  476.500    0.208    0.404   92.885  255.273    4.906
  476.750    0.222    0.410   93.005  251.967    4.891
  477.000    0.236    0.434   94.238  248.042    4.867
  477.250    0.254    0.430   96.523  245.769    4.816
  477.500    0.258    0.441   94.663  245.042    4.739
  477.750    0.257    0.473   95.031  245.551    4.576
  478.000    0.253    0.442   99.296  247.400    4.361
  478.250    0.224    0.435   97.560  249.662    4.242
  478.500    0.230    0.454   94.031  251.820    4.183
  478.750    0.245    0.466  100.212  252.330    4.170
  479.000    0.263    0.448   99.590  251.807    4.252
  479.250    0.276    0.426   93.834  251.390    4.427
  479.500    0.260    0.441   93.644  250.867    4.583
  479.750    0.262    0.456   97.043  250.346    4.692
  480.000    0.262    0.454  100.318  249.721    4.740
  480.250    0.249    0.440   97.530  249.303    4.725
  480.500    0.250    0.435   91.650  248.472    4.659
  480.750    0.273    0.440   87.812  247.125    4.593
  481.000    0.285    0.440   85.334  245.469    4.485
  481.250    0.280    0.439   83.226  244.123    4.372
  481.500    0.279    0.460   82.419  242.776    4.285
  481.750    0.289    0.482   81.920  241.947    4.217
  482.000    0.307    0.508   81.422  240.704    4.196
  482.250    0.316    0.473   82.037  239.460    4.176
  482.500    0.321    0.453   84.878  238.320    4.163
  482.750    0.320    0.445   87.906  237.385    4.174
  483.000    0.319    0.450   83.510  236.967    4.178
  483.250    0.326    0.455   78.682  236.445    4.236
  483.500    0.325    0.449   78.183  235.717    4.337
  483.750    0.317    0.424   80.344  234.680    4.430
  484.000    0.308    0.411   83.681  233.333    4.578
  484.250    0.292    0.414   86.832  232.813    4.802
  484.500    0.276    0.411   83.674  232.084    5.143
  484.750    0.256    0.416   88.000  231.459    5.645
  485.000    0.238    0.427   85.398  230.526    6.137
  485.250    0.223    0.259   78.157  230.005    6.850
  485.500    0.191    0.240   71.968  229.380    7.940
  485.750    0.122    0.242   64.480  228.135    9.430
  486.000    0.105    0.198   64.600  225.656   11.610
  486.250    0.091    0.157   66.514  222.248   13.894
  486.500    0.057    0.113   63.912  219.665   16.257
  486.750    0.031    0.102   60.383  217.184   18.423
  487.000    0.016    0.095   57.286  214.910   20.524
  487.250    0.009    0.090   56.231  214.079   22.312
  487.500   -0.003    0.090   56.784  214.073   19.280
  487.750    0.018    0.103   59.749  215.200   16.628
  488.000    0.052    0.132   64.199  218.080   14.235
  488.250    0.088    0.214   67.783  222.404   12.844
  488.500    0.096    0.215   71.367  226.935   11.677
  488.750    0.092    0.206   71.177  234.247   10.697
  489.000    0.117    0.248   67.153  239.705    9.817
  489.250    0.154    0.284   64.366  243.102    8.976
  489.500    0.177    0.309   65.105  246.394    8.130
  489.750    0.193    0.329   66.771  246.182    7.518
  490.000    0.220    0.358   68.438  245.969    7.111
  490.250    0.256    0.373   69.362  244.725    6.801
  490.500    0.283    0.383   70.533  244.101    6.531
  490.750    0.302    0.380   71.519  243.786    6.282
  491.000    0.299    0.381   71.825  244.810    6.089
  491.250    0.289    0.386   72.006  246.350    5.992
  491.500    0.285    0.401   71.817  247.890    5.940
  491.750    0.282    0.415   71.504  248.503    5.945
  492.000    0.284    0.410   71.748  249.012    5.938
  492.250    0.294    0.412   71.806  249.728    5.909
  492.500    0.294    0.412   71.926  249.928    5.837
  492.750    0.290    0.403   67.592  249.716    5.753
  493.000    0.285    0.391   64.125  248.576    5.609
  493.250    0.285    0.435   68.142  246.919    5.467
  493.500    0.297    0.463   70.241  245.677    5.359
  493.750    0.311    0.457   67.268  244.124    5.253
  494.000    0.315    0.442   66.770  242.984    5.091
  494.250    0.318    0.411   68.189  241.534    4.861
  494.500    0.325    0.403   63.855  240.394    4.641
  494.750    0.331    0.417   61.748  239.149    4.398
  495.000    0.329    0.433   63.044  238.217    4.255
  495.250    0.324    0.455   64.834  237.076    4.250
  495.500    0.319    0.449   65.819  235.833    4.492
  495.750    0.320    0.440   65.754  234.899    4.730
