~VERSION INFORMATION
 VERS.                 2.0:   CWLS LOG ASCII STANDARD -VERSION 2.0
 WRAP.                  NO:   ONE LINE PER DEPTH STEP
~WELL INFORMATION BLOCK
#MNEM.UNIT           DATA                    DESCRIPTION OF MNEMONIC
#---------    -------------------            -------------------------------
# Generated from Intellog Unique Number	CS_69_70/WELL/813
WELL.         ET AL TWEEDIE                  : Well_name    - WELL
LOC .         00/07-07-069-12W4/0            : Location     - LOCATION
UWI .         00/07-07-069-12W4/0            : Uwi          - UNIQUE WELL ID
ENTR.         SP                             : Entered      - ENTERED BY
SRVC.         SCHLUMBERGER                   : Scn          - SERVICE COMPANY
STRT.M        290                            : top_depth    - START DEPTH
STOP.M        499                            : bot_depth    - STOP DEPTH
STEP.M        0.25                           : increment    - STEP LENGTH
 NULL. -999.2500:NULL Value
~CURVE INFORMATION BLOCK
#MNEM UNIT       ERCB CURVE CODE    CURVE DESCRIPTION
#-----------   ------------------   ----------------------------------
DEPT.M        00 001 00 00         : DEPTH        - DEPTH
ILD .OHMM     00 120 00 00         : RESD         - DEEP RESISTIVITY (DIL)
DPHI.V/V      00 890 00 00         : PHID         - DENSITY POROSITY (LIMESTONE)
NPHI.V/V      00 330 00 00         : PHIN         - NEUTRON POROSITY (LIMESTONE)
GR  .API      00 310 00 00         : GR           - GAMMA RAY
~PARAMETER INFORMATION
#MNEM.UNIT           DATA             DESCRIPTION OF MNEMONIC
#---------         -----------     ------------------------------
GL  .M        598.64               : gl           - GROUND LEVEL ELEVATION
EREF.M        601.19               : kb           - ELEVATION OF DEPTH REFERENCE
DATM.M        598.64               : datum        - DATUM ELEVATION
TDD .M        495                  : tdd          - TOTAL DEPTH DRILLER
RUN .         ONE                  : Run          - RUN NUMBER
ENG .         BILL                 : Engineer     - RECORDING ENGINEER
WIT .         JIM                  : Witness      - WITNESSED BY
MUD .         GEL                  : Mud_type     - MUD TYPE
MATR.         LIMESTONE            : Logunit      - NEUTRON MATRIX
TMAX.C        27                   : BHT          - MAXIMUM RECORDED TEMPERATURE
BHTD.M        495                  : BHTDEP       - MAXIMUM RECORDED TEMPERATURE
MATR.         1                    : LOGUNIT      - NEUTRON MATRIX
RMT .C        25                   : MDTP         - TEMPERATURE OF MUD
NEUT.         1                    : NEUTRON      - NEUTRON TYPE
RESI.         0                    : RESIST       - RESISTIVITY TYPE
RMC .OHMM     0.25                 : RMC          - RESISTIVITY OF MUD CAKE
RMF .OHMM     0.25                 : RMF          - RESISTIVITY OF MUD FILTRATE
SUFT.C        15                   : SUFT         - SURFACE TEMPERATURE
~A  DEPTH     RESD     PHID     PHIN       GR
  290.000    2.228    0.025    0.379   88.260
  290.250    2.242    0.017    0.394   86.678
  290.500    2.243    0.007    0.398   89.424
  290.750    2.236    0.002    0.386   91.682
  291.000    2.246    0.073    0.377   93.636
  291.250    2.286    0.196    0.372   90.774
  291.500    2.343    0.251    0.367   83.524
  291.750    2.402    0.272    0.364   85.050
  292.000    2.458    0.294    0.361   89.137
  292.250    2.515    0.280    0.355   88.835
  292.500    2.549    0.291    0.369   92.374
  292.750    2.633    0.276    0.377   88.537
  293.000    2.694    0.266    0.381   88.845
  293.250    2.777    0.274    0.379   94.516
  293.500    2.857    0.284    0.377   95.860
  293.750    2.902    0.249    0.373   91.597
  294.000    2.920    0.181    0.372   89.771
  294.250    2.939    0.228    0.382   90.505
  294.500    2.946    0.262    0.393   90.326
  294.750    2.909    0.292    0.408   86.244
  295.000    2.796    0.314    0.367   79.543
  295.250    2.720    0.209    0.341   87.957
  295.500    2.632    0.235    0.347   94.116
  295.750    2.519    0.263    0.362   89.792
  296.000    2.420    0.270    0.370   83.821
  296.250    2.399    0.276    0.347   76.144
  296.500    2.410    0.285    0.349   68.224
  296.750    2.475    0.306    0.373   60.059
  297.000    2.523    0.323    0.381   52.564
  297.250    2.586    0.333    0.382   66.525
  297.500    2.651    0.308    0.380   85.363
  297.750    2.713    0.287    0.379   84.817
  298.000    2.766    0.271    0.382   76.714
  298.250    2.778    0.297    0.384   72.694
  298.500    2.765    0.305    0.372   76.963
  298.750    2.735    0.312    0.371   85.317
  299.000    2.677    0.302    0.379   86.539
  299.250    2.615    0.296    0.379   93.552
  299.500    2.588    0.307    0.369   97.760
  299.750    2.560    0.328    0.365   93.863
  300.000    2.534    0.351    0.368   91.793
  300.250    2.588    0.330    0.376   93.015
  300.500    2.749    0.296    0.387   96.980
  300.750    2.881    0.266    0.395  101.371
  301.000    3.129    0.300    0.387   96.742
  301.250    3.298    0.350    0.380   86.566
  301.500    3.528    0.366    0.395   78.218
  301.750    3.650    0.154    0.352   63.288
  302.000    3.735    0.160    0.311   51.161
  302.250    3.780    0.186    0.294   42.752
  302.500    3.839    0.201    0.338   48.363
  302.750    3.972    0.188    0.353   46.355
  303.000    4.149    0.208    0.353   45.687
  303.250    4.221    0.219    0.346   51.054
  303.500    4.271    0.226    0.338   58.249
  303.750    4.258    0.245    0.344   57.338
  304.000    4.237    0.258    0.349   49.356
  304.250    4.224    0.272    0.348   49.176
  304.500    4.211    0.274    0.340   59.907
  304.750    4.168    0.287    0.332   70.882
  305.000    4.101    0.247    0.331   75.639
  305.250    4.150    0.215    0.332   77.714
  305.500    4.334    0.195    0.342   79.363
  305.750    4.654    0.195    0.349   79.427
  306.000    4.340    0.209    0.338   75.773
  306.250    3.606    0.246    0.339   74.496
  306.500    2.986    0.273    0.351   80.533
  306.750    2.575    0.299    0.326   88.460
  307.000    2.370    0.287    0.298   95.350
  307.250    2.273    0.289    0.298   91.331
  307.500    2.212    0.302    0.337   88.469
  307.750    2.217    0.295    0.353   87.253
  308.000    2.264    0.305    0.343   83.355
  308.250    2.365    0.295    0.331   91.038
  308.500    2.573    0.304    0.323   97.563
  308.750    2.857    0.312    0.339  103.051
  309.000    3.202    0.277    0.345  102.262
  309.250    3.464    0.230    0.332   85.808
  309.500    3.564    0.214    0.320   75.266
  309.750    3.540    0.219    0.317   67.528
  310.000    3.465    0.226    0.326   61.070
  310.250    3.499    0.217    0.319   56.867
  310.500    3.627    0.223    0.313   55.102
  310.750    3.881    0.243    0.313   59.860
  311.000    4.038    0.259    0.340   66.323
  311.250    4.124    0.273    0.349   63.950
  311.500    4.128    0.251    0.349   60.357
  311.750    4.038    0.224    0.348   59.323
  312.000    3.601    0.211    0.329   65.238
  312.250    3.032    0.205    0.314   72.007
  312.500    2.654    0.185    0.302   79.812
  312.750    2.398    0.170    0.301   84.326
  313.000    2.207    0.196    0.341   86.706
  313.250    2.188    0.216    0.351   88.171
  313.500    2.346    0.230    0.373   82.262
  313.750    2.585    0.261    0.373   83.911
  314.000    2.786    0.280    0.385   93.300
  314.250    3.065    0.222    0.452  100.070
  314.500    3.335    0.188    0.428  103.912
  314.750    3.476    0.218    0.397  102.392
  315.000    3.511    0.248    0.378  102.760
  315.250    3.526    0.265    0.363  102.580
  315.500    3.529    0.269    0.354  100.694
  315.750    3.505    0.263    0.346   98.503
  316.000    3.443    0.260    0.339  101.371
  316.250    3.357    0.264    0.337  104.360
  316.500    3.310    0.275    0.336  103.814
  316.750    3.269    0.282    0.360  107.231
  317.000    3.284    0.281    0.373  111.622
  317.250    3.360    0.283    0.380  109.126
  317.500    3.522    0.264    0.388   98.828
  317.750    3.671    0.211    0.352   89.444
  318.000    3.848    0.204    0.354   81.767
  318.250    3.952    0.212    0.363   73.907
  318.500    3.969    0.233    0.347   67.205
  318.750    3.965    0.236    0.352   82.020
  319.000    3.909    0.217    0.364   90.069
  319.250    3.847    0.204    0.367   96.594
  319.500    3.786    0.210    0.366   88.063
  319.750    3.719    0.209    0.378   84.958
  320.000    3.673    0.200    0.373   81.364
  320.250    3.668    0.230    0.366   85.695
  320.500    3.726    0.253    0.366   91.367
  320.750    3.855    0.270    0.367   88.627
  321.000    4.132    0.296    0.374   81.132
  321.250    4.339    0.277    0.374   79.063
  321.500    4.286    0.255    0.358   85.222
  321.750    3.759    0.235    0.369   83.945
  322.000    3.371    0.218    0.350   82.485
  322.250    3.132    0.260    0.334   82.001
  322.500    2.893    0.287    0.339   83.710
  322.750    2.805    0.317    0.346   89.321
  323.000    2.891    0.319    0.349   95.114
  323.250    3.059    0.301    0.344   96.397
  323.500    3.335    0.289    0.336   96.158
  323.750    3.535    0.278    0.343   95.977
  324.000    3.643    0.275    0.333   93.907
  324.250    3.756    0.270    0.322   89.705
  324.500    3.851    0.264    0.320   90.012
  324.750    3.911    0.258    0.348   97.330
  325.000    3.951    0.256    0.364   94.468
  325.250    3.982    0.255    0.368   89.594
  325.500    4.015    0.252    0.357   90.146
  325.750    4.025    0.245    0.344   88.198
  326.000    4.013    0.242    0.322   89.238
  326.250    3.978    0.239    0.310   94.727
  326.500    3.907    0.236    0.306   93.937
  326.750    3.831    0.236    0.313   89.308
  327.000    3.714    0.241    0.342   90.469
  327.250    3.542    0.254    0.365   96.018
  327.500    3.453    0.271    0.374   94.376
  327.750    3.367    0.285    0.379   89.076
  328.000    3.313    0.287    0.386   90.603
  328.250    3.285    0.287    0.392   94.263
  328.500    3.280    0.294    0.365   97.801
  328.750    3.277    0.296    0.350  100.425
  329.000    3.279    0.290    0.348  105.304
  329.250    3.269    0.285    0.351  109.452
  329.500    3.271    0.293    0.331   96.167
  329.750    3.285    0.298    0.330   82.273
  330.000    3.312    0.303    0.364   71.731
  330.250    3.358    0.292    0.386   70.758
  330.500    3.392    0.280    0.390   69.482
  330.750    3.439    0.270    0.388   62.536
  331.000    3.499    0.277    0.391   55.407
  331.250    3.566    0.263    0.394   62.359
  331.500    3.629    0.255    0.398   69.982
  331.750    3.686    0.245    0.407   75.409
  332.000    3.688    0.255    0.411   79.008
  332.250    3.562    0.278    0.405   79.682
  332.500    3.328    0.298    0.388   75.235
  332.750    3.173    0.310    0.376   73.653
  333.000    3.071    0.289    0.347   74.449
  333.250    2.989    0.274    0.336   76.036
