~VERSION INFORMATION
 VERS.                 2.0:   CWLS LOG ASCII STANDARD -VERSION 2.0
 WRAP.                  NO:   ONE LINE PER DEPTH STEP
~WELL INFORMATION BLOCK
#MNEM.UNIT           DATA                    DESCRIPTION OF MNEMONIC
#---------    -------------------            -------------------------------
# Generated from Intellog Unique Number	CS_77_79/WELL/923
WELL.         ANDERSON EXPLORATION LTD.      : Well_name    - WELL
LOC .         00/09-11-077-11W4/0            : Location     - LOCATION
UWI .         00/09-11-077-11W4/0            : Uwi          - UNIQUE WELL ID
ENTR.         SP                             : Entered      - ENTERED BY
SRVC.         SCHLUMBERGER                   : Scn          - SERVICE COMPANY
STRT.M        270                            : top_depth    - START DEPTH
STOP.M        515                            : bot_depth    - STOP DEPTH
STEP.M        0.25                           : increment    - STEP LENGTH
 NULL. -999.2500:NULL Value
~CURVE INFORMATION BLOCK
#MNEM UNIT       ERCB CURVE CODE    CURVE DESCRIPTION
#-----------   ------------------   ----------------------------------
DEPT.M        00 001 00 00         : DEPTH        - DEPTH
ILD .OHMM     00 120 00 00         : RESD         - DEEP RESISTIVITY (DIL)
DPHI.V/V      00 890 00 00         : PHID         - DENSITY POROSITY (LIMESTONE)
NPHI.V/V      00 330 00 00         : PHIN         - NEUTRON POROSITY (LIMESTONE)
GR  .API      00 310 00 00         : GR           - GAMMA RAY
~PARAMETER INFORMATION
#MNEM.UNIT           DATA             DESCRIPTION OF MNEMONIC
#---------         -----------     ------------------------------
GL  .M        678.1                : gl           - GROUND LEVEL ELEVATION
EREF.M        681.6                : kb           - ELEVATION OF DEPTH REFERENCE
DATM.M        678.1                : datum        - DATUM ELEVATION
TDD .M        515                  : tdd          - TOTAL DEPTH DRILLER
RUN .         ONE                  : Run          - RUN NUMBER
ENG .         BILL                 : Engineer     - RECORDING ENGINEER
WIT .         JIM                  : Witness      - WITNESSED BY
MUD .         GEL                  : Mud_type     - MUD TYPE
MATR.         LIMESTONE            : Logunit      - NEUTRON MATRIX
TMAX.C        25                   : BHT          - MAXIMUM RECORDED TEMPERATURE
BHTD.M        515                  : BHTDEP       - MAXIMUM RECORDED TEMPERATURE
MATR.         1                    : LOGUNIT      - NEUTRON MATRIX
RMT .C        25                   : MDTP         - TEMPERATURE OF MUD
NEUT.         1                    : NEUTRON      - NEUTRON TYPE
RESI.         0                    : RESIST       - RESISTIVITY TYPE
RMC .OHMM     0.25                 : RMC          - RESISTIVITY OF MUD CAKE
RMF .OHMM     0.25                 : RMF          - RESISTIVITY OF MUD FILTRATE
SUFT.C        15                   : SUFT         - SURFACE TEMPERATURE
~A  DEPTH     RESD     PHID     PHIN       GR
# ...
  444.000    3.897    0.254    0.466  102.935
  444.250    3.900    0.252    0.472  104.754
  444.500    3.832    0.243    0.481  105.362
  444.750    3.696    0.244    0.498  100.556
  445.000    3.631    0.232    0.504   98.158
  445.250    3.569    0.235    0.490   96.959
  445.500    3.572    0.241    0.493   92.149
  445.750    3.779    0.232    0.507   81.920
  446.000    4.307    0.099    0.509   75.903
  446.250    5.287    0.113    0.483   70.492
  446.500    5.696    0.177    0.394   77.132
  446.750    6.737    0.239    0.413   84.975
  447.000    7.129    0.233    0.422   90.403
  447.250    7.004    0.211    0.428   98.848
  447.500    6.273    0.226    0.443   97.054
  447.750    5.833    0.230    0.461   99.471
  448.000    5.624    0.218    0.467  101.892
  448.250    5.325    0.205    0.459   94.071
  448.500    5.743    0.151    0.443   88.660
  448.750    6.074    0.123    0.370   84.452
  449.000    7.318    0.183    0.357   82.054
  449.250    9.148    0.230    0.358   79.049
  449.500   10.620    0.268    0.362   75.447
  449.750   11.237    0.285    0.367   72.443
  450.000   12.340    0.297    0.369   70.045
  450.250   12.818    0.286    0.362   67.646
  450.500   13.069    0.270    0.359   68.862
  450.750   12.844    0.247    0.363   72.485
  451.000   12.392    0.227    0.369   79.727
  451.250   12.398    0.227    0.377   84.555
  451.500   12.411    0.236    0.381   82.156
  451.750   12.893    0.235    0.386   74.334
  452.000   13.648    0.220    0.398   71.331
  452.250   14.173    0.176    0.387   70.137
  452.500   15.860    0.217    0.380   74.364
  452.750   16.774    0.263    0.391   80.402
  453.000   18.764    0.299    0.407   82.819
  453.250   22.188    0.310    0.427   87.047
  453.500   28.788    0.301    0.422   90.670
  453.750   33.421    0.289    0.399   91.284
  454.000   36.022    0.283    0.395   88.885
  454.250   37.429    0.291    0.397   88.291
  454.500   37.454    0.291    0.390   90.110
  454.750   26.858    0.283    0.378   93.135
  455.000   17.888    0.220    0.364   95.551
  455.250   12.361    0.137    0.383  101.589
  455.500    9.725    0.203    0.400  102.201
  455.750    8.399    0.213    0.408  104.020
  456.000    8.100    0.206    0.387  105.233
  456.250    7.958    0.198    0.395  106.450
  456.500    7.965    0.196    0.411  105.858
  456.750    8.120    0.197    0.404  106.468
  457.000    8.438    0.196    0.391  109.490
  457.250    8.761    0.187    0.395  111.309
  457.500    9.271    0.193    0.423   89.031
  457.750   10.766    0.218    0.416   86.026
  458.000   12.268    0.230    0.399   88.445
  458.250   12.506    0.237    0.377   93.276
  458.500   12.524    0.232    0.362   95.695
  458.750   12.302    0.198    0.351   92.091
  459.000   11.023    0.191    0.338   92.101
  459.250   10.434    0.191    0.345   93.921
  459.500    9.699    0.184    0.390   96.942
  459.750    9.706    0.180    0.392  104.785
  460.000    9.539    0.174    0.391  112.024
  460.250    9.728    0.192    0.388  114.443
  460.500   10.106    0.202    0.391  106.019
  460.750   10.493    0.211    0.394   92.777
  461.000   10.901    0.205    0.394   86.763
  461.250   11.113    0.199    0.386   84.364
  461.500   11.335    0.188    0.379   85.577
  461.750   11.344    0.186    0.387   93.421
  462.000   11.150    0.193    0.389   95.839
  462.250   11.160    0.203    0.387   96.455
  462.500   11.378    0.207    0.385   95.859
  462.750   11.822    0.209    0.387   88.040
  463.000   12.052    0.207    0.391   86.242
  463.250   12.517    0.209    0.397   90.469
  463.500   13.007    0.230    0.393   93.491
  463.750   13.015    0.242    0.388   84.466
  464.000   13.272    0.259    0.374   85.681
  464.250   13.286    0.246    0.369   89.908
  464.500   13.301    0.210    0.370   92.327
  464.750   13.312    0.178    0.372   89.327
  465.000   13.572    0.183    0.381   82.710
  465.250   15.466    0.208    0.406   77.900
  465.500   19.699    0.264    0.414   47.185
  465.750   23.735    0.292    0.377   42.376
  466.000   25.112    0.292    0.356   53.232
  466.250   25.136    0.274    0.348   61.675
  466.500   22.508    0.226    0.362   83.373
  466.750   19.072    0.208    0.383   88.202
  467.000   17.725    0.217    0.394   77.972
  467.250   18.756    0.243    0.393   68.947
  467.500   21.387    0.266    0.392   65.340
  467.750   23.049    0.270    0.401   67.761
  468.000   24.383    0.260    0.388   66.568
  468.250   25.805    0.247    0.386   65.372
  468.500   26.311    0.255    0.397   66.586
  468.750   24.003    0.249    0.389   76.841
  469.000   23.152    0.234    0.374   83.476
  469.250   24.959    0.264    0.347   72.641
  469.500   27.920    0.290    0.390   48.553
  469.750   35.565    0.300    0.429   40.733
  470.000   44.450    0.302    0.360   44.959
  470.250   54.538    0.290    0.405   57.020
  470.500   66.940    0.297    0.425   55.223
  470.750   68.245    0.315    0.429   44.991
  471.000   73.598    0.313    0.379   46.207
  471.250   80.817    0.300    0.382   45.613
  471.500   88.726    0.300    0.390   42.613
  471.750   99.238    0.313    0.362   42.019
  472.000  101.205    0.308    0.366   43.234
  472.250  103.175    0.307    0.389   40.234
  472.500  105.210    0.306    0.394   38.437
  472.750  105.357    0.310    0.387   36.639
  473.000  105.416    0.308    0.370   35.447
  473.250  109.497    0.302    0.365   34.248
  473.500  122.523    0.295    0.366   31.850
  473.750  124.891    0.292    0.376   32.462
  474.000  125.019    0.315    0.378   36.089
  474.250  114.098    0.322    0.367   36.099
  474.500  108.013    0.319    0.360   34.903
  474.750  104.179    0.309    0.356   36.723
  475.000   51.270    0.282    0.360   64.374
  475.250   34.721    0.272    0.340  102.031
  475.500   18.472    0.252    0.372  105.071
  475.750   13.986    0.217    0.394   99.609
  476.000   12.287    0.223    0.371   92.326
  476.250   12.290    0.220    0.380   89.900
  476.500   12.294    0.212    0.369   92.940
  476.750   13.249    0.208    0.360   91.122
  477.000   13.755    0.211    0.354   85.660
  477.250   14.018    0.233    0.357   86.272
  477.500   14.022    0.217    0.364   85.061
  477.750   14.025    0.201    0.366   83.242
  478.000   13.272    0.205    0.343   83.247
  478.250   13.030    0.189    0.335   86.286
  478.500   12.329    0.177    0.333   89.934
  478.750   11.032    0.152    0.361   95.403
  479.000   10.635    0.168    0.378  102.087
  479.250   10.638    0.186    0.404   98.447
  479.500   10.841    0.200    0.411   90.556
  479.750   11.255    0.199    0.396   81.450
  480.000   11.903    0.221    0.387   76.596
  480.250   13.068    0.225    0.388   74.778
  480.500   13.072    0.212    0.378   74.175
  480.750   12.835    0.218    0.359   75.392
  481.000   12.604    0.196    0.346   79.041
  481.250   12.148    0.172    0.339   82.080
  481.500   11.708    0.161    0.350   86.335
  481.750   11.078    0.183    0.367   84.516
  482.000   10.678    0.198    0.392   72.982
  482.250   10.485    0.161    0.370   69.949
  482.500   10.295    0.147    0.330   78.456
  482.750   10.299    0.154    0.332   89.390
  483.000   10.113    0.173    0.353   96.075
  483.250    9.568    0.176    0.375   96.685
  483.500    9.396    0.178    0.381   96.081
  483.750    9.574    0.181    0.389   93.049
  484.000   10.127    0.170    0.386   89.408
  484.250   11.115    0.184    0.370   85.161
  484.500   13.143    0.223    0.375   75.448
  484.750   14.425    0.257    0.382   65.736
  485.000   16.741    0.254    0.392   61.488
  485.250   18.722    0.259    0.398   59.063
  485.500   19.804    0.248    0.383   57.244
  485.750   20.179    0.240    0.389   69.394
  486.000   20.949    0.288    0.415   64.539
  486.250   23.430    0.311    0.427   57.862
  486.500   24.777    0.317    0.417   52.402
  486.750   28.229    0.294    0.411   57.264
  487.000   29.857    0.283    0.413   59.089
  487.250   29.870    0.276    0.413   60.307
