~VERSION INFORMATION
 VERS.                 2.0:   CWLS LOG ASCII STANDARD -VERSION 2.0
 WRAP.                  NO:   ONE LINE PER DEPTH STEP
~WELL INFORMATION BLOCK
#MNEM.UNIT           DATA                    DESCRIPTION OF MNEMONIC
#---------    -------------------            -------------------------------
# Generated from Intellog Unique Number	CW_79_81/WELL/2449
WELL.         06-01-080-24W4                 : Well_name    - WELL
LOC .         00/06-01-080-24W4/0            : Location     - LOCATION
UWI .         00/06-01-080-24W4/0            : Uwi          - UNIQUE WELL ID
ENTR.         MAX                            : Entered      - ENTERED BY
SRVC.         COMPUTALOG                     : Scn          - SERVICE COMPANY
STRT.M        225                            : top_depth    - START DEPTH
STOP.M        454.75                         : bot_depth    - STOP DEPTH
STEP.M        0.25                           : increment    - STEP LENGTH
 NULL. -999.2500:NULL Value
~CURVE INFORMATION BLOCK
#MNEM UNIT       ERCB CURVE CODE    CURVE DESCRIPTION
#-----------   ------------------   ----------------------------------
DEPT.M        00 001 00 00         : DEPTH        - DEPTH
ILD .OHMM     00 120 00 00         : RESD         - DEEP RESISTIVITY (DIL)
NPHI.V/V      00 330 00 00         : PHIN         - NEUTRON POROSITY (SANDSTONE)
DPHI.V/V      00 890 00 00         : PHID         - DENSITY POROSITY (SANDSTONE)
GR  .API      00 310 00 00         : GR           - GAMMA RAY
CALI.MM       00 280 01 00         : CAL          - CALIPER
~PARAMETER INFORMATION
#MNEM.UNIT           DATA             DESCRIPTION OF MNEMONIC
#---------         -----------     ------------------------------
GL  .M        547.6                : gl           - GROUND LEVEL ELEVATION
EREF.M        552.6                : kb           - ELEVATION OF DEPTH REFERENCE
DATM.M        547.6                : datum        - DATUM ELEVATION
TDD .M        580.4                : tdd          - TOTAL DEPTH DRILLER
RUN .         ONE                  : Run          - RUN NUMBER
ENG .         BILL                 : Engineer     - RECORDING ENGINEER
WIT .         JIM                  : Witness      - WITNESSED BY
MUD .         GEL                  : Mud_type     - MUD TYPE
MATR.         SANDSTONE            : Logunit      - NEUTRON MATRIX
TMAX.C        22                   : BHT          - MAXIMUM RECORDED TEMPERATURE
BHTD.M        580.4                : BHTDEP       - MAXIMUM RECORDED TEMPERATURE
MATR.         1                    : LOGUNIT      - NEUTRON MATRIX
RMT .C        15.6                 : MDTP         - TEMPERATURE OF MUD
NEUT.         1                    : NEUTRON      - NEUTRON TYPE
RESI.         0                    : RESIST       - RESISTIVITY TYPE
RMC .OHMM     6                    : RMC          - RESISTIVITY OF MUD CAKE
RMF .OHMM     6                    : RMF          - RESISTIVITY OF MUD FILTRATE
SUFT.C        -20                  : SUFT         - SURFACE TEMPERATURE
~A  DEPTH     RESD     PHIN     PHID       GR      CAL
  225.000    2.991    0.484    0.217   89.293  229.729
  225.250    3.016    0.488    0.225   89.817  227.675
  225.500    3.022    0.477    0.231   90.301  226.096
  225.750    3.024    0.472    0.233   90.565  225.336
  226.000    3.031    0.478    0.232   90.589  225.075
  226.250    3.055    0.489    0.229   90.572  223.762
  226.500    3.057    0.494    0.228   90.342  222.966
  226.750    3.058    0.492    0.230   91.091  222.999
  227.000    3.060    0.489    0.227   93.098  223.639
  227.250    3.039    0.483    0.224   93.361  224.083
  227.500    3.019    0.479    0.224   90.859  224.026
  227.750    3.119    0.483    0.228   86.761  223.671
  228.000    3.422    0.472    0.229   87.791  223.718
  228.250    4.007    0.440    0.211   85.649  223.759
  228.500    4.748    0.412    0.173   79.539  223.497
  228.750    5.312    0.388    0.126   72.590  222.331
  229.000    5.403    0.378    0.087   68.228  220.467
  229.250    5.086    0.403    0.088   72.981  219.088
  229.500    4.684    0.404    0.148   87.040  219.962
  229.750    4.353    0.403    0.166   97.162  220.800
  230.000    4.047    0.418    0.171   99.711  221.344
  230.250    3.721    0.443    0.182   97.210  221.385
  230.500    3.401    0.467    0.202   93.026  221.324
  230.750    3.109    0.481    0.222   90.068  222.595
  231.000    2.950    0.486    0.226   83.584  224.717
  231.250    2.887    0.509    0.231   82.884  227.163
  231.500    2.936    0.536    0.242   80.744  228.406
  231.750    3.121    0.551    0.252   80.408  228.447
  232.000    3.523    0.542    0.256   82.175  227.886
  232.250    4.616    0.495    0.261   82.954  227.683
  232.500    6.315    0.433    0.270   80.728  226.481
  232.750    8.310    0.423    0.279   75.941  225.713
  233.000   10.030    0.417    0.285   70.432  224.649
  233.250   10.880    0.413    0.288   65.165  223.691
  233.500   10.845    0.411    0.291   60.801  223.133
  233.750   10.214    0.420    0.297   57.905  223.266
  234.000    9.129    0.431    0.307   58.932  223.722
  234.250    8.175    0.470    0.332   63.283  224.564
  234.500    8.189    0.490    0.357   68.720  224.806
  234.750    9.482    0.491    0.371   71.992  224.845
  235.000   12.430    0.469    0.367   71.294  224.883
  235.250   15.632    0.423    0.346   64.768  224.764
  235.500   19.905    0.417    0.329   57.276  223.968
  235.750   23.967    0.419    0.326   50.568  223.211
  236.000   28.363    0.415    0.326   47.648  222.452
  236.250   31.578    0.408    0.330   46.711  221.892
  236.500   32.602    0.400    0.335   46.793  221.532
  236.750   32.583    0.389    0.333   48.234  221.263
  237.000   33.612    0.378    0.318   50.517  221.719
  237.250   35.636    0.334    0.281   48.374  220.955
  237.500   36.593    0.254    0.152   44.793  220.797
  237.750   36.612    0.193    0.054   42.412  221.041
  238.000   35.898    0.168    0.036   42.012  221.082
  238.250   34.427    0.171    0.083   42.774  219.761
  238.500   33.417    0.218    0.164   44.054  218.965
  238.750   30.599    0.292    0.208   45.519  218.204
  239.000   27.394    0.339    0.287   47.709  218.045
  239.250   24.287    0.381    0.334   49.779  218.084
  239.500   21.830    0.419    0.330   50.946  218.223
  239.750   20.308    0.424    0.297   49.740  218.594
  240.000   19.564    0.395    0.207   46.009  218.219
  240.250   19.574    0.313    0.163   46.995  217.859
  240.500   19.477    0.274    0.147   47.619  217.493
  240.750   19.345    0.276    0.198   47.162  217.330
  241.000   19.249    0.307    0.286   47.006  217.272
  241.250   19.173    0.352    0.314   51.094  216.842
  241.500   18.753    0.390    0.323   53.377  216.472
  241.750   17.430    0.400    0.320   53.880  217.310
  242.000   15.206    0.405    0.314   56.188  217.851
  242.250   13.367    0.415    0.313   58.981  217.888
  242.500   12.139    0.433    0.324   60.691  217.622
  242.750   11.416    0.458    0.356   58.361  217.672
  243.000   11.598    0.467    0.380   52.623  217.715
  243.250   12.120    0.466    0.363   51.686  217.359
  243.500   13.835    0.450    0.345   50.205  216.700
  243.750   15.684    0.430    0.332   47.945  216.140
  244.000   16.831    0.417    0.327   45.987  215.980
  244.250   18.023    0.417    0.323   47.387  216.346
  244.500   18.880    0.417    0.320   50.669  215.967
  244.750   19.027    0.416    0.321   52.618  215.603
  245.000   19.386    0.413    0.323   52.582  215.546
  245.250   19.826    0.408    0.326   51.045  215.792
  245.500   20.384    0.400    0.329   49.086  216.236
  245.750   21.507    0.393    0.326   48.340  216.598
  246.000   22.529    0.402    0.323   48.118  216.224
  246.250   23.377    0.397    0.329   45.976  214.653
  246.500   24.258    0.407    0.337   43.839  214.592
  246.750   24.815    0.425    0.348   42.420  214.635
  247.000   24.873    0.445    0.359   41.778  214.478
  247.250   24.377    0.455    0.368   41.226  215.091
  247.500   23.662    0.452    0.368   40.751  215.969
  247.750   23.329    0.434    0.362   40.297  216.407
  248.000   22.877    0.425    0.349   40.200  216.847
  248.250   22.477    0.418    0.338   40.704  217.091
  248.500   21.870    0.410    0.331   41.450  217.135
  248.750   20.147    0.397    0.321   41.728  217.351
  249.000   18.553    0.394    0.314   43.006  218.224
  249.250   17.244    0.409    0.304   46.637  220.666
  249.500   15.133    0.419    0.300   47.744  222.212
  249.750   12.923    0.418    0.295   48.731  223.055
  250.000   11.088    0.405    0.284   51.220  222.192
  250.250    9.711    0.395    0.261   57.162  217.101
  250.500    9.216    0.405    0.250   62.698  215.469
  250.750    9.424    0.420    0.274   62.004  216.312
  251.000    9.742    0.420    0.305   57.697  217.155
  251.250    9.930    0.411    0.324   53.992  218.196
  251.500    9.806    0.400    0.324   53.055  219.436
  251.750    9.073    0.392    0.299   56.714  221.023
  252.000    7.989    0.382    0.281   65.254  222.740
  252.250    7.047    0.374    0.246   72.974  224.380
  252.500    6.006    0.393    0.214   83.040  225.729
  252.750    5.267    0.414    0.204   88.838  226.573
  253.000    4.826    0.425    0.212   89.584  226.910
  253.250    4.651    0.430    0.222   90.638  227.203
  253.500    4.986    0.430    0.228   92.164  228.502
  253.750    5.921    0.409    0.233   92.189  229.345
  254.000    7.258    0.396    0.240   89.867  227.178
  254.250    9.015    0.388    0.251   84.598  223.813
  254.500   11.148    0.386    0.269   75.603  220.949
  254.750   13.911    0.385    0.302   60.022  220.190
  255.000   15.381    0.380    0.318   50.526  220.242
  255.250   15.843    0.369    0.296   49.829  219.481
  255.500   15.708    0.366    0.264   55.264  219.015
  255.750   15.147    0.368    0.247   60.462  218.651
  256.000   14.346    0.369    0.249   62.534  218.491
  256.250   13.015    0.357    0.252   62.231  219.187
  256.500   11.210    0.358    0.242   63.001  220.483
  256.750    9.594    0.360    0.244   69.521  219.726
  257.000    8.614    0.365    0.243   75.498  219.270
  257.250    7.960    0.372    0.236   80.455  218.909
  257.500    7.473    0.380    0.226   84.329  218.843
  257.750    6.935    0.386    0.217   88.233  220.529
  258.000    6.387    0.381    0.210   92.018  224.747
  258.250    5.980    0.378    0.210   92.040  226.392
  258.500    5.443    0.374    0.200   82.143  226.833
  258.750    4.955    0.377    0.186   74.110  226.672
  259.000    4.598    0.391    0.171   73.413  225.710
  259.250    4.390    0.423    0.155   81.319  222.794
  259.500    4.327    0.430    0.162   91.865  221.998
  259.750    4.555    0.436    0.172   99.105  222.836
  260.000    5.314    0.447    0.171  101.834  223.074
  260.250    6.416    0.460    0.180  101.619  222.714
  260.500    7.734    0.471    0.210   99.779  221.454
  260.750   10.043    0.469    0.273   96.299  218.027
  261.000   12.294    0.433    0.322   90.814  214.734
  261.250   15.639    0.412    0.325   71.837  213.969
