~VERSION INFORMATION
 VERS.                 2.0:   CWLS LOG ASCII STANDARD -VERSION 2.0
 WRAP.                  NO:   ONE LINE PER DEPTH STEP
~WELL INFORMATION BLOCK
#MNEM.UNIT           DATA                    DESCRIPTION OF MNEMONIC
#---------    -------------------            -------------------------------
# Generated from Intellog Unique Number	CS_73_76/WELL/701
WELL.         ALLIED ROXANA MINERALS LTD     : Well_name    - WELL
LOC .         00/06-35-073-14W4/0            : Location     - LOCATION
UWI .         00/06-35-073-14W4/0            : Uwi          - UNIQUE WELL ID
ENTR.         SP                             : Entered      - ENTERED BY
SRVC.         SCHLUMBERGER                   : Scn          - SERVICE COMPANY
STRT.M        335.28                         : top_depth    - START DEPTH
STOP.M        560.53                         : bot_depth    - STOP DEPTH
STEP.M        0.25                           : increment    - STEP LENGTH
 NULL. -999.2500:NULL Value
~CURVE INFORMATION BLOCK
#MNEM UNIT       ERCB CURVE CODE    CURVE DESCRIPTION
#-----------   ------------------   ----------------------------------
DEPT.M        00 001 00 00         : DEPTH        - DEPTH
GR  .API      00 310 00 00         : GR           - GAMMA RAY
DPHI.V/V      00 890 00 00         : PHID         - DENSITY POROSITY (SANDSTONE)
NPHI.V/V      00 330 00 00         : PHIN         - NEUTRON POROSITY (SANDSTONE)
ILD .OHMM     00 120 00 00         : RESD         - DEEP RESISTIVITY (DIL)
~PARAMETER INFORMATION
#MNEM.UNIT           DATA             DESCRIPTION OF MNEMONIC
#---------         -----------     ------------------------------
GL  .M        683.666              : gl           - GROUND LEVEL ELEVATION
EREF.M        686.714              : kb           - ELEVATION OF DEPTH REFERENCE
DATM.M        683.666              : datum        - DATUM ELEVATION
TDD .M        579.12               : tdd          - TOTAL DEPTH DRILLER
RUN .         ONE                  : Run          - RUN NUMBER
ENG .         BILL                 : Engineer     - RECORDING ENGINEER
WIT .         JIM                  : Witness      - WITNESSED BY
MUD .         GEL                  : Mud_type     - MUD TYPE
MATR.         SANDSTONE            : Logunit      - NEUTRON MATRIX
TMAX.C        15.5556              : BHT          - MAXIMUM RECORDED TEMPERATURE
BHTD.M        490.728              : BHTDEP       - MAXIMUM RECORDED TEMPERATURE
MATR.         1                    : LOGUNIT      - NEUTRON MATRIX
RMT .C        25                   : MDTP         - TEMPERATURE OF MUD
NEUT.         1                    : NEUTRON      - NEUTRON TYPE
RESI.         0                    : RESIST       - RESISTIVITY TYPE
RMC .OHMM     0.25                 : RMC          - RESISTIVITY OF MUD CAKE
RMF .OHMM     0.25                 : RMF          - RESISTIVITY OF MUD FILTRATE
SUFT.C        15                   : SUFT         - SURFACE TEMPERATURE
~A  DEPTH       GR     PHID     PHIN     RESD
# ...
  465.780   85.924    0.243    0.448    5.972
  466.030   82.949    0.240    0.481    6.038
  466.280   80.034    0.235    0.503    5.992
  466.530   77.166    0.234    0.518    5.950
  466.780   75.208    0.236    0.512    5.806
  467.030   74.243    0.248    0.490    5.801
  467.280   72.589    0.244    0.461    5.803
  467.530   72.671    0.243    0.455    5.944
  467.780   72.769    0.233    0.462    5.953
  468.030   70.792    0.228    0.466    5.955
  468.280   69.147    0.229    0.477    5.887
  468.530   70.001    0.244    0.484    5.685
  468.780   71.963    0.257    0.482    5.487
  469.030   73.522    0.259    0.487    5.314
  469.280   75.053    0.266    0.496    5.214
  469.530   75.543    0.260    0.502    5.159
  469.780   74.633    0.264    0.497    5.202
  470.030   73.667    0.273    0.492    5.248
  470.280   73.174    0.276    0.484    5.262
  470.530   73.441    0.271    0.476    5.160
  470.780   73.791    0.264    0.482    5.076
  471.030   74.364    0.260    0.496    5.019
  471.280   73.993    0.256    0.496    5.001
  471.530   72.557    0.256    0.496    4.998
  471.780   72.934    0.265    0.500    4.997
  472.030   72.976    0.268    0.497    4.992
  472.280   72.532    0.272    0.503    5.074
  472.530   72.546    0.271    0.498    5.123
  472.780   72.627    0.268    0.494    5.168
  473.030   73.133    0.270    0.486    5.239
  473.280   73.067    0.268    0.481    5.236
  473.530   73.775    0.271    0.487    5.235
  473.780   74.874    0.271    0.490    5.235
  474.030   73.109    0.262    0.493    5.235
  474.280   72.532    0.256    0.531    5.235
  474.530   74.422    0.252    0.553    5.235
  474.780   76.873    0.248    0.565    5.234
  475.030   78.980    0.245    0.552    5.234
  475.280   80.257    0.248    0.519    5.241
  475.530   82.202    0.242    0.500    5.132
  475.780   82.597    0.238    0.485    5.008
  476.030   82.879    0.240    0.480    4.783
  476.280   84.028    0.232    0.493    4.648
  476.530   85.997    0.220    0.482    4.519
  476.780   88.896    0.228    0.477    4.461
  477.030   92.703    0.236    0.491    4.615
  477.280   87.934    0.238    0.491    5.165
  477.530   80.114    0.223    0.345    6.491
  477.780   72.944    0.187    0.310    8.038
  478.030   64.301    0.014    0.266   12.752
  478.280   55.960    0.004    0.234   17.277
  478.530   56.731    0.022    0.224   19.024
  478.780   63.146    0.065    0.289   17.766
  479.030   68.115    0.105    0.366   12.720
  479.280   71.694    0.181    0.476    9.882
  479.530   72.401    0.225    0.508    7.338
  479.780   72.274    0.249    0.496    5.868
  480.030   70.589    0.260    0.489    5.338
  480.280   71.388    0.237    0.495    5.111
  480.530   73.001    0.222    0.500    4.990
  480.780   73.862    0.255    0.488    4.935
  481.030   75.391    0.239    0.477    4.914
  481.280   75.896    0.226    0.481    4.911
  481.530   75.594    0.241    0.469    4.911
  481.780   73.645    0.240    0.463    4.912
  482.030   71.744    0.244    0.476    4.906
  482.280   71.785    0.251    0.488    4.998
  482.530   71.055    0.258    0.499    4.990
  482.780   71.590    0.254    0.498    4.989
  483.030   72.594    0.251    0.508    4.989
  483.280   72.825    0.240    0.525    4.989
  483.530   73.042    0.226    0.521    4.989
  483.780   76.025    0.243    0.486    4.989
  484.030   77.019    0.244    0.466    4.989
  484.280   73.707    0.226    0.481    4.991
  484.530   69.904    0.190    0.481    5.016
  484.780   64.100    0.134    0.408    5.444
  485.030   59.651    0.095    0.335    6.085
  485.280   64.285    0.099    0.313    6.816
  485.530   75.138    0.120    0.345    7.117
  485.780   78.860    0.152    0.423    7.379
  486.030   75.467    0.186    0.448    7.643
  486.280   73.852    0.167    0.427    7.744
  486.530   76.960    0.140    0.401    7.328
  486.780   81.903    0.126    0.408    7.035
  487.030   86.229    0.160    0.462    6.692
  487.280   90.336    0.185    0.510    6.247
  487.530   92.446    0.179    0.562    5.865
  487.780   90.834    0.172    0.534    5.600
  488.030   90.082    0.177    0.486    5.457
  488.280   91.699    0.165    0.441    5.531
  488.530   93.047    0.193    0.434    5.745
  488.780   93.719    0.210    0.447    5.963
  489.030   94.722    0.208    0.448    6.086
  489.280   94.841    0.199    0.433    6.215
  489.530   93.398    0.191    0.426    6.342
  489.780   90.854    0.194    0.420    6.347
  490.030   88.712    0.199    0.427    6.261
  490.280   86.389    0.204    0.426    6.095
  490.530   85.523    0.211    0.427    5.833
  490.780   86.562    0.201    0.446    5.567
  491.030   84.696    0.209    0.460    5.386
  491.280   81.573    0.177    0.474    5.296
  491.530   80.663    0.160    0.489    5.302
  491.780   83.241    0.150    0.477    5.300
  492.030   82.766    0.164    0.479    5.257
  492.280   82.265    0.206    0.498    5.085
  492.530   84.129    0.224    0.496    4.136
  492.780   87.870    0.228    0.498    3.399
  493.030   85.627    0.224    0.529    2.889
  493.280   83.235    0.249    0.564    2.556
  493.530   83.140    0.246    0.596    2.317
  493.780   85.148    0.234    0.616    2.193
  494.030   87.870    0.234    0.631    2.056
  494.280   90.156    0.226    0.586    2.039
  494.530   92.768    0.215    0.602    1.958
  494.780   93.995    0.224    0.594    1.955
  495.030   92.006    0.225    0.597    1.953
  495.280   89.014    0.211    0.592    1.953
  495.530   87.741    0.216    0.599    1.966
  495.780   84.313    0.218    0.585    2.283
  496.030   82.328    0.208    0.539    2.637
  496.280   83.419    0.198    0.446    3.115
  496.530   85.741    0.196    0.418    3.721
  496.780   88.757    0.190    0.421    4.341
  497.030   84.252    0.183    0.431    5.027
  497.280   82.115    0.173    0.420    5.605
  497.530   82.937    0.161    0.416    5.945
  497.780   82.989    0.168    0.436    5.676
  498.030   77.550    0.154    0.453    5.679
  498.280   72.258    0.114    0.383    6.349
  498.530   67.159    0.055    0.321    7.023
  498.780   70.651    0.055    0.304    7.552
  499.030   79.480    0.111    0.325    7.784
  499.280   83.980    0.160    0.362    7.586
  499.530   87.479    0.195    0.406    6.382
  499.780   89.082    0.193    0.470    5.209
  500.030   92.158    0.192    0.504    4.658
  500.280   92.034    0.199    0.519    4.228
  500.530   90.928    0.188    0.526    3.990
  500.780   90.951    0.173    0.509    3.867
  501.030   90.962    0.159    0.502    3.729
  501.280   91.040    0.169    0.517    3.702
  501.530   91.553    0.170    0.535    3.700
  501.780   91.588    0.163    0.514    3.687
  502.030   90.890    0.150    0.500    3.877
  502.280   90.879    0.148    0.486    3.940
  502.530   91.730    0.156    0.486    3.922
  502.780   92.674    0.160    0.519    3.697
  503.030   90.770    0.174    0.544    3.643
  503.280   88.635    0.190    0.561    3.597
  503.530   90.862    0.190    0.563    3.541
  503.780   93.586    0.183    0.573    3.451
  504.030   95.051    0.180    0.570    3.445
  504.280   95.032    0.185    0.537    3.310
  504.530   94.737    0.188    0.559    3.221
  504.780   93.605    0.198    0.587    3.126
  505.030   91.290    0.206    0.602    2.991
  505.280   94.303    0.209    0.621    2.990
  505.530   95.074    0.202    0.634    2.897
  505.780   96.028    0.196    0.594    2.895
  506.030   96.906    0.184    0.557    3.001
  506.280   95.571    0.175    0.515    3.302
  506.530   90.105    0.157    0.487    3.501
  506.780   82.369    0.168    0.456    4.038
  507.030   72.046    0.146    0.415    4.928
  507.280   66.554    0.152    0.384    6.230
  507.530   61.099    0.173    0.378    7.433
  507.780   58.751    0.206    0.395   14.134
  508.030   58.536    0.227    0.409   19.478
  508.280   60.713    0.254    0.413   20.124
  508.530   63.147    0.243    0.405   20.185
  508.780   65.008    0.235    0.407   20.278
  509.030   63.903    0.226    0.421   20.269
