~VERSION INFORMATION
 VERS.                 2.0:   CWLS LOG ASCII STANDARD -VERSION 2.0
 WRAP.                  NO:   ONE LINE PER DEPTH STEP
~WELL INFORMATION BLOCK
#MNEM.UNIT           DATA                    DESCRIPTION OF MNEMONIC
#---------    -------------------            -------------------------------
# Generated from Intellog Unique Number	CX_WELLS/WELL/2820
WELL.         BANKENO THORNBURY              : Well_name    - WELL
LOC .         00/09-18-081-12W4/0            : Location     - LOCATION
UWI .         00/09-18-081-12W400            : Uwi          - UNIQUE WELL ID
ENTR.         T                              : Entered      - ENTERED BY
SRVC.         SCHLUMBERGER                   : Scn          - SERVICE COMPANY
STRT.M        400                            : top_depth    - START DEPTH
STOP.M        535                            : bot_depth    - STOP DEPTH
STEP.M        0.25                           : increment    - STEP LENGTH
 NULL. -999.2500:NULL Value
~CURVE INFORMATION BLOCK
#MNEM UNIT       ERCB CURVE CODE    CURVE DESCRIPTION
#-----------   ------------------   ----------------------------------
DEPT.M        00 001 00 00         : DEPTH        - DEPTH
GR  .API      00 310 00 00         : GR           - GAMMA RAY
NPHI.V/V      00 330 00 00         : PHIN         - NEUTRON POROSITY (SANDSTONE)
DPHI.V/V      00 890 00 00         : PHID         - DENSITY POROSITY (SANDSTONE)
ILD .OHMM     00 120 00 00         : RESD         - DEEP RESISTIVITY (OTHER)
~PARAMETER INFORMATION
#MNEM.UNIT           DATA             DESCRIPTION OF MNEMONIC
#---------         -----------     ------------------------------
GL  .M        726.2                : gl           - GROUND LEVEL ELEVATION
EREF.M        729.9                : kb           - ELEVATION OF DEPTH REFERENCE
DATM.M        729.9                : datum        - DATUM ELEVATION
TDD .M        642                  : tdd          - TOTAL DEPTH DRILLER
RUN .         ONE                  : Run          - RUN NUMBER
ENG .         BILL                 : Engineer     - RECORDING ENGINEER
WIT .         JIM                  : Witness      - WITNESSED BY
MUD .         GEL                  : Mud_type     - MUD TYPE
MATR.         SANDSTONE            : Logunit      - NEUTRON MATRIX
TMAX.C        17                   : BHT          - MAXIMUM RECORDED TEMPERATURE
BHTD.M        642                  : BHTDEP       - MAXIMUM RECORDED TEMPERATURE
MATR.         1                    : LOGUNIT      - NEUTRON MATRIX
RMT .C        17                   : MDTP         - TEMPERATURE OF MUD
NEUT.         1                    : NEUTRON      - NEUTRON TYPE
RESI.         0.4                  : RESIST       - RESISTIVITY TYPE
RMC .OHMM     2.33                 : RMC          - RESISTIVITY OF MUD CAKE
RMF .OHMM     2.33                 : RMF          - RESISTIVITY OF MUD FILTRATE
SUFT.C        4                    : SUFT         - SURFACE TEMPERATURE
~A  DEPTH       GR     PHIN     PHID     RESD
# ...
  487.000   58.834    0.342    0.264   15.572
  487.250   62.936    0.349    0.261   15.011
  487.500   67.048    0.355    0.229   14.220
  487.750   71.150    0.359    0.198   12.309
  488.000   77.608    0.366    0.168   11.248
  488.250   84.675    0.364    0.163   10.092
  488.500   92.925    0.362    0.205    9.557
  488.750  101.165    0.359    0.208    9.215
  489.000  107.041    0.374    0.201    9.547
  489.250  106.405    0.387    0.193   10.071
  489.500   93.354    0.378    0.198   11.206
  489.750   89.189    0.369    0.206   11.613
  490.000   82.049    0.366    0.220   12.470
  490.250   82.604    0.364    0.243   13.388
  490.500   84.342    0.361    0.245   13.872
  490.750   83.715    0.354    0.246   14.371
  491.000   81.323    0.349    0.248   14.105
  491.250   75.375    0.340    0.256   13.845
  491.500   64.689    0.336    0.263   13.841
  491.750   59.923    0.365    0.276   13.105
  492.000   64.617    0.398    0.303   12.637
  492.250   74.631    0.403    0.318   11.339
  492.500   82.280    0.376    0.336   10.741
  492.750   85.209    0.372    0.303   10.172
  493.000   83.982    0.366    0.191    9.807
  493.250   80.398    0.360    0.193    9.980
  493.500   76.224    0.358    0.196   10.525
  493.750   70.867    0.359    0.199   10.905
  494.000   67.875    0.362    0.206   11.297
  494.250   69.613    0.367    0.210   12.127
  494.500   68.986    0.376    0.215   12.342
  494.750   66.576    0.380    0.224   12.782
  495.000   65.358    0.378    0.232   12.779
  495.250   64.121    0.375    0.229   12.768
  495.500   64.103    0.374    0.222   12.764
  495.750   65.841    0.374    0.234   12.757
  496.000   68.752    0.370    0.245   12.750
  496.250   69.907    0.362    0.236   12.741
  496.500   73.409    0.353    0.223   12.508
  496.750   76.338    0.348    0.215   12.278
  497.000   76.884    0.347    0.223   12.052
  497.250   73.901    0.348    0.249   11.622
  497.500   69.136    0.353    0.267   10.243
  497.750   57.267    0.356    0.278    9.029
  498.000   52.510    0.364    0.296    8.861
  498.250   41.824    0.367    0.318    8.859
  498.500   35.276    0.365    0.321    9.177
  498.750   33.466    0.364    0.322    9.507
  499.000   32.248    0.364    0.326    9.847
  499.250   31.630    0.363    0.331   10.204
  499.500   30.993    0.363    0.334   10.761
  499.750   30.957    0.365    0.340   11.978
  500.000   30.930    0.365    0.348   14.327
  500.250   30.303    0.366    0.351   33.884
  500.500   27.884    0.368    0.350   56.986
  500.750   27.257    0.373    0.344   74.547
  501.000   26.639    0.386    0.336  116.689
  501.250   26.594    0.396    0.325  179.431
  501.500   26.567    0.401    0.320  256.760
  501.750   25.921    0.400    0.317  238.809
  502.000   25.894    0.398    0.316  199.468
  502.250   25.258    0.392    0.316  160.711
  502.500   25.231    0.384    0.318  163.553
  502.750   25.204    0.362    0.318  166.399
  503.000   24.568    0.374    0.319  154.808
  503.250   24.532    0.383    0.321  102.400
  503.500   24.505    0.396    0.321   93.560
  503.750   25.051    0.403    0.321   62.998
  504.000   26.197    0.409    0.322   50.764
  504.250   26.762    0.384    0.327   40.179
  504.500   27.890    0.361    0.340   32.963
  504.750   27.854    0.359    0.356   26.562
  505.000   27.827    0.362    0.353   15.218
  505.250   27.200    0.369    0.338   10.066
  505.500   27.164    0.371    0.337    6.901
  505.750   27.128    0.371    0.338    5.975
  506.000   26.500    0.371    0.342    5.081
  506.250   27.047    0.371    0.347    4.811
  506.500   27.011    0.371    0.348    4.639
  506.750   27.575    0.373    0.347    4.473
  507.000   28.112    0.378    0.347    4.470
  507.250   28.094    0.378    0.347    4.468
  507.500   28.640    0.375    0.350    4.466
  507.750   28.604    0.376    0.352    4.463
  508.000   28.577    0.374    0.352    4.541
  508.250   28.532    0.369    0.351    4.539
  508.500   28.496    0.363    0.342    4.618
  508.750   28.469    0.371    0.336    4.616
  509.000   27.842    0.377    0.337    4.613
  509.250   26.614    0.384    0.341    4.610
  509.500   25.996    0.389    0.343    4.608
  509.750   25.360    0.387    0.343    4.687
  510.000   25.297    0.384    0.340    4.687
  510.250   25.270    0.378    0.335    4.437
  510.500   25.252    0.372    0.331    4.279
  510.750   25.216    0.365    0.330    4.201
  511.000   25.180    0.354    0.328    4.198
  511.250   25.144    0.353    0.325    4.196
  511.500   25.690    0.353    0.324    4.193
  511.750   26.245    0.353    0.324    4.191
  512.000   26.200    0.357    0.327    4.263
  512.250   26.173    0.360    0.332    4.261
  512.500   26.128    0.361    0.337    4.337
  512.750   26.101    0.355    0.325    4.334
  513.000   26.065    0.346    0.317    4.331
  513.250   26.038    0.348    0.316    4.328
  513.500   26.002    0.349    0.316    4.326
  513.750   26.548    0.349    0.316    4.248
  514.000   27.103    0.353    0.316    4.245
  514.250   28.831    0.370    0.315    4.242
  514.500   29.405    0.383    0.315    4.240
  514.750   30.551    0.380    0.320    4.237
  515.000   31.697    0.375    0.325    4.236
  515.250   32.253    0.366    0.335    4.232
  515.500   32.199    0.364    0.346    4.307
  515.750   32.163    0.364    0.348    4.382
  516.000   32.718    0.376    0.342    4.460
  516.250   35.046    0.403    0.332    4.703
  516.500   37.966    0.415    0.290    5.141
  516.750   41.486    0.408    0.266    5.424
  517.000   47.962    0.385    0.237    5.930
  517.250   88.728    0.371    0.219    6.600
  517.500   91.047    0.362    0.208    7.346
  517.750   91.011    0.371    0.202    8.629
  518.000   86.837    0.377    0.195    9.779
  518.250   79.707    0.384    0.194   11.282
  518.500   74.941    0.377    0.194   13.490
  518.750   69.575    0.354    0.195   13.977
  519.000   66.001    0.352    0.205   13.721
  519.250   58.862    0.357    0.220   12.993
  519.500   55.861    0.348    0.233   12.086
  519.750   54.642    0.341    0.232   11.243
  520.000   57.571    0.334    0.232   10.272
  520.250   88.286    0.350    0.233    9.729
  520.500   96.527    0.362    0.230    9.047
  520.750   98.264    0.361    0.179    8.724
  521.000   99.411    0.356    0.165    8.413
  521.250  101.739    0.355    0.150    8.111
  521.500  105.842    0.361    0.151    7.964
  521.750  106.388    0.371    0.150    7.816
  522.000   93.946    0.380    0.147    7.674
  522.250   91.545    0.390    0.139    7.669
  522.500   87.953    0.404    0.125    7.528
  522.750   89.090    0.395    0.066    7.390
  523.000   90.837    0.381    0.028    7.386
  523.250   93.166    0.375    0.056    7.251
  523.500   96.677    0.384    0.100    7.118
  523.750   99.606    0.397    0.114    6.987
  524.000  103.699    0.409    0.124    6.983
  524.250  105.436    0.413    0.127    6.854
  524.500  105.992    0.407    0.127    6.729
  524.750  105.355    0.398    0.126    6.724
  525.000  104.728    0.391    0.123    6.603
  525.250  104.110    0.389    0.122    6.480
  525.500  104.665    0.395    0.126    6.361
  525.750  106.994    0.398    0.128    6.245
  526.000  105.184    0.397    0.130    6.131
  526.250   99.236    0.396    0.125    6.127
  526.500   93.880    0.397    0.120    6.123
  526.750   89.696    0.397    0.121    6.121
  527.000   87.295    0.393    0.119    6.117
  527.250   86.068    0.398    0.117    6.004
  527.500   85.423    0.407    0.114    6.001
  527.750   85.414    0.407    0.119    5.998
  528.000   85.960    0.401    0.122    6.103
  528.250   85.933    0.400    0.122    6.209
  528.500   85.888    0.399    0.122    6.205
  528.750   85.852    0.397    0.123    6.315
  529.000   85.816    0.390    0.123    6.312
  529.250   86.371    0.387    0.122    6.539
  529.500   86.335    0.384    0.117    6.774
  529.750   86.890    0.379    0.106    7.406
  530.000   86.863    0.378    0.085    8.096
  530.250   88.010    0.384    0.071    9.174
