~V
VERS. 2.00: Ver 2.00
WRAP. NO:
VEND. PRIZM:GeoGraphix
~W
STRT.M 43.8912:START DEPTH
STOP.M 295.6560:STOP DEPTH
STEP.M 0.3048:STEP
NULL. -999.2500:NULL VALUE
WELL. NUMAC SURMONT :WELL
COMP. :COMPANY
UWI. 00_06-35-082-06W4_0:UNIQUE WELL ID
FLD. :FIELD
CNTY. :COUNTY
STAT. :STATE
CTRY. :COUNTRY
PDAT. :PERMANENT DATUM
LMF. :LOG MEASURED FROM
DMF. :DRILLING MEASURED FROM
LOC1. 06-35-082-06W4:LOCATION LINE 1
LOC2. :LOCATION LINE 2
LOC3. :LOCATION LINE 3
SEC. :SECTION
TWP. :TOWNSHIP
RAN. :RANGE
SRVC. SCHLUMBERGER:Logging Company
BASE. :Logging Unit Location
ENG. BILL:Logging Engineer
WITN. JIM:Witnessed By
DATE. 21 - MAR - 1973:Date
RUN. ONE:Run No.
MUD_TYPE. GEL:Type Fluid in Hole
MUDS. :Source of Mud Sample
RMFS. :Source of Mud Filtrate
RMCS. :Source of Mud Cake
LOC. :LOCATION
~C
DEPT.M :DEPTH
PHID. :Density Pososity
NPHI. :PHIN         - NEUTRON POROSITY (LIMESTONE)
GR.API :GR           - GAMMA RAY
RHOB.KG/M3 :DENS         - BULK DENSITY
ILD.OHMM :RESD         - DEEP RESISTIVITY (DIL)
~P
EKB. 495.6000:ELEVATION OF KELLY BUSHING
EDF. -999.2500:ELEVATION OF DRILLING FLOOR
EGL. 493.7760:ELEVATION OF GROUND LEVEL
EPD. -999.2500:ELEVATION OF PERMANENT DATUM
APD. -999.2500:LMF DISTANCE ABOVE PERMANENT DATUM
LAT. 56.1488:LATITUDE OF WELL LOCATION
LONG. 110.8308:LONGITUDE OF WELL LOCATION
TDD. 296.8750:Total Depth Driller
TDL. -999.2500:Total Depth Logger
LCSG1. -999.2500:Depth of Casing from Logger
CSIZE. -999.2500:Casing Size
CWT. -999.2500:Casing Weight
BS. -999.2500:Bit Size
TLI. 43.8912:Top Logged Interval
BLI. 295.6560:Bottom Logged Interval
MRT. 17.2222:Maximum Recorded Temperature
WMUD. -999.2500:Drilling Mud Density
DFV. -999.2500:Drilling Mud Viscosity
PH. -999.2500:Drilling Mud pH
DFL. -999.2500:Drilling Mud Fluid Loss
RM. -999.2500:Resistivity of Drilling Fluid
RMT. -999.2500:Measured Temp. of Drilling Fluid
RMF. 0.2500:Resistivity of Drilling Fluid Filtrate
RMFT. -999.2500:Measured Temp. of Drilling Fluid Filtrate
RMC. 0.2500:Resistivity of Mud Cake
RMCT. -999.2500:Measured Temp. of Mud Cake
PHImax.V/V 0.3900:Maximum allowable Porosity
RwBnd.OHMM 0.1500:Bound Water Resistivity
RhoHy.KG/MT 1000.0000:Hydrocarbon Bulk density
SwCutoff.V/V 0.7000:Water Saturation Cutoff
PHINsh.V/V 0.4800:New Description
Rw.OHMM 1.0000:Formation Water Resistivity
Rshl.OHMM 5.0000:Resistivity shale
Trw.DEGC 25.0000:Rw measured at Lab conditions
ShaleCutoff.V/V 0.4000:New Description
GRcln.API 45.0000:Gamma Ray clean
RhoM.KG/MT 2650.0000:Bulk Density Matrix
GRshl.API 90.0000:Gamma Ray shale
m. 2.0000:Archie "m"
n. 2.0000:Archie "n"
GasTol.V/V 0.0500:Gas Tollerance
BHTemp.DEGC 25.0000:Bottom Hole Temperature
BHTDepth.M 1000.0000:Bottom Hole Depth
PHIDsh.US/MT 0.1800:New Description
a. 1.0000:Archie "a"
Gas Tol.V/V 0.0500:Gas Tollerance
RhoF.KG/MT 1000.0000:Bulk Density Fluid
RhoShl.KG/MT 2300.0000:Bulk Density Shale
TarCutoff.V/V 0.0300:New Description
SurfTemp.DEGC 10.0000:New Description
HIshl.V/V 0.4000:Neutron Hydrogen Index shale
MATR. 1.0000:
NEUT. 0.0000:
BHTD.M 296.8750:
DATM.M 495.6050:
NULL. -999.2500:
RESI. 0.0000:
SUFT.C 15.0000:
~A
# ...
  190.1952     0.2457     0.3410    99.4380  2244.5300     6.5470 
  190.5000     0.2568     0.3210    94.5770  2226.3000     9.3390 
  190.8048     0.2666     0.3160    86.6680  2210.1101     8.6720 
  191.1096     0.2752     0.3160    83.6460  2195.9399     6.3180 
  191.4144     0.2690     0.3200    84.2740  2206.1599     4.2710 
  191.7192     0.2566     0.3510    87.3400  2226.5601     3.1120 
  192.0240     0.2369     0.3680    91.0190  2259.1499     2.9990 
  192.3288     0.2381     0.3690    92.8730  2257.2000     3.6860 
  192.6336     0.2417     0.3610    92.2850  2251.1699     4.6130 
  192.9384     0.2355     0.3360    89.8620  2261.3799     5.8840 
  193.2432     0.2540     0.3020    86.8320  2230.9600     6.4630 
  193.5480     0.2613     0.3120    84.4180  2218.8301     6.2300 
  193.8528     0.2613     0.3180    83.8330  2218.8899     5.8930 
  194.1576     0.2625     0.3230    82.6310  2216.9199     4.0600 
  194.4624     0.2661     0.3330    80.8160  2210.8799     6.3580 
  194.7672     0.2686     0.3310    77.1800  2206.8799     8.5750 
  195.0720     0.2698     0.3250    74.1550  2204.9099     8.4220 
  195.3768     0.2586     0.3050    72.3500  2223.2700     9.2500 
  195.6816     0.2364     0.2910    72.3610  2259.9299     7.8260 
  195.9864     0.2167     0.2860    72.9990  2292.5200     7.5430 
  196.2912     0.2622     0.3030    74.8440  2217.3601     8.9270 
  196.5960     0.2683     0.3110    77.3020  2207.2700    10.7660 
  196.9008     0.2547     0.3030    76.7120  2229.6899    11.6060 
  197.2056     0.2387     0.2940    76.1200  2256.1799    10.3830 
  197.5104     0.2004     0.2970    76.7530  2319.2600     5.3050 
  197.8152     0.2275     0.3140    81.6500  2274.6201     5.1140 
  198.1200     0.2028     0.3280    88.3780  2315.3301     5.3110 
  198.4248     0.1929     0.3280    95.1090  2331.6599     5.4150 
  198.7296     0.1991     0.3280    97.5670  2321.5601     5.2200 
  199.0344     0.2052     0.3180    96.3670  2311.4600     5.9510 
  199.3392     0.2162     0.3060    92.1210  2293.2300     7.3120 
  199.6440     0.2113     0.3000    92.1450  2301.4199     7.5940 
  199.9488     0.1927     0.2960    93.3850  2331.9800     7.0520 
  200.2536     0.1853     0.2980    93.4040  2344.2400     6.9270 
  200.5584     0.1803     0.3030    94.0330  2352.4399     6.9300 
  200.8632     0.1741     0.3110    94.0570  2362.6699     6.1990 
  201.1680     0.2000     0.3220    94.0700  2320.0400     3.6770 
  201.4728     0.2086     0.3390    92.2680  2305.8799     2.7290 
  201.7776     0.2245     0.3960    89.8470  2279.5200     2.4880 
  202.0824     0.2454     0.4120    88.0360  2245.0200     2.5840 
  202.3872     0.2639     0.4140    85.6170  2214.5901     2.6840 
  202.6920     0.2552     0.3960    83.1970  2228.8899     3.0600 
  202.9968     0.2502     0.3840    81.3920  2237.1001     3.7600 
  203.3016     0.2465     0.3730    80.8050  2243.2500     4.1300 
  203.6064     0.2354     0.3510    81.4350  2261.6201     4.0560 
  203.9112     0.2243     0.3230    82.6750  2279.9700     4.5390 
  204.2160     0.2020     0.3060    83.3080  2316.6299     5.7890 
  204.5208     0.1971     0.2910    83.3180  2324.8301     6.0130 
  204.8256     0.1946     0.2700    83.9550  2328.9500     5.7960 
  205.1304     0.2032     0.2790    85.1910  2314.7900     6.1330 
  205.4352     0.2044     0.3000    87.0380  2312.8201     6.3700 
  205.7400     0.2031     0.3100    87.6720  2314.9199     5.0950 
  206.0448     0.1920     0.3140    88.2990  2333.2800     4.0750 
  206.3496     0.1833     0.3400    90.1540  2347.5801     3.7840 
  206.6544     0.2104     0.3540    92.6090  2302.9099     3.6480 
  206.9592     0.2325     0.3620    93.2410  2266.3999     3.5150 
  207.2640     0.2251     0.3840    90.8230  2278.6599     3.4530 
  207.5688     0.2300     0.3760    92.6750  2270.5801     3.4550 
  207.8736     0.2151     0.3760    94.5250  2295.0400     3.5210 
  208.1784     0.2348     0.3840    94.5430  2262.5801     3.5230 
  208.4832     0.2298     0.3920    93.3430  2270.7800     3.7280 
  208.7880     0.2249     0.3790    93.3610  2278.9700     4.4130 
  209.0928     0.2187     0.3630    94.6050  2289.2000     4.0220 
  209.3976     0.2100     0.3590    97.0640  2303.5100     3.4660 
  209.7024     0.2063     0.3560    99.5240  2309.6799     3.6680 
  210.0072     0.2050     0.3490    98.9310  2311.7600     3.8810 
  210.3120     0.2000     0.3370    97.1260  2319.9700     3.8840 
  210.6168     0.1963     0.3320    94.7100  2326.1201     3.9590 
  210.9216     0.1950     0.3410    94.1160  2328.2200     4.3490 
  211.2264     0.1814     0.3100    92.9170  2350.6399     4.9580 
  211.5312     0.1949     0.3040    86.8390  2328.3401     5.7600 
  211.8360     0.1629     0.3030    86.2560  2381.2600     6.5680 
  212.1408     0.1456     0.2910    85.6680  2409.7900     4.5240 
  212.4456     0.1283     0.2840    83.8520  2438.3101     4.6120 
  212.7504     0.1763     0.2940    81.4310  2359.1001     6.2210 
  213.0552     0.1775     0.2860    78.4050  2357.1299     8.5490 
  213.3600     0.1762     0.2420    72.9360  2359.2200     8.0880 
  213.6648     0.2661     0.2400    70.5150  2210.8999     8.0930 
  213.9696     0.2451     0.2640    69.9280  2245.5200     7.6560 
  214.2744     0.2328     0.2820    73.0010  2265.9099     6.0100 
  214.5792     0.2327     0.2880    75.4580  2266.0000     4.0630 
  214.8840     0.2339     0.2990    77.9160  2264.0200     5.0860 
  215.1888     0.2388     0.3210    80.9870  2255.9399     9.0770 
  215.4936     0.2757     0.3140    76.7350  2195.0200     5.2860 
  215.7984     0.2535     0.3130    73.7090  2231.6699     3.6410 
  216.1032     0.2510     0.3410    77.3880  2235.8101     3.5100 
  216.4080     0.2473     0.3580    79.8450  2241.9700     2.9140 
  216.7128     0.2596     0.3440    80.4770  2221.7100     2.8610 
  217.0176     0.2756     0.3380    79.2850  2195.3401     4.4810 
  217.3224     0.2903     0.3270    78.0800  2171.0100    15.0850 
  217.6272     0.3013     0.2790    62.2440  2152.7800    13.7510 
  217.9320     0.3333     0.2130    51.2860  2100.0000    11.2040 
  218.2368     0.3062     0.2180    42.7730  2144.7800     9.6570 
  218.5416     0.2864     0.2710    44.0100  2177.3701     9.4820 
  218.8464     0.2876     0.2570    46.4740  2175.4099     9.6680 
  219.1512     0.2888     0.2520    45.8830  2173.4399     9.6710 
  219.4560     0.2900     0.2530    44.0720  2171.4800     9.6770 
  219.7608     0.2875     0.2610    42.8750  2175.6001     9.3270 
  220.0656     0.2961     0.2680    43.5080  2161.4299     9.1600 
  220.3704     0.2862     0.2570    42.9190  2177.7600     9.6930 
  220.6752     0.2800     0.2570    43.5450  2187.9900    10.0690 
  220.9800     0.2738     0.2630    44.7850  2198.2200     9.1770 
  221.2848     0.2775     0.2590    48.4640  2192.1899     8.6840 
  221.5896     0.2713     0.2540    47.8740  2202.4099     8.6880 
  221.8944     0.2786     0.2540    38.1380  2190.3101     9.1920 
  222.1992     0.2798     0.2540    41.8240  2188.3201    10.0970 
  222.5040     0.2822     0.2540    43.6680  2184.3101    11.0910 
  222.8088     0.2933     0.2530    46.7360  2166.0801    12.1840 
  223.1136     0.2859     0.2520    31.5120  2178.3401    12.8930 
  223.4184     0.2846     0.2520    30.3150  2180.4399    13.1420 
  223.7232     0.2919     0.2530    35.8290  2168.3101    10.9110 
  224.0280     0.3153     0.2710    38.2820  2129.7500     9.7620 
  224.3328     0.3017     0.2750    38.3020  2152.1699     9.4090 
  224.6376     0.3128     0.2690    39.5430  2133.9399     9.4140 
  224.9424     0.3300     0.2670    43.2230  2105.5601     9.7760 
  225.2472     0.3114     0.2810    45.6790  2136.1101    12.0130 
  225.5520     0.2868     0.2560    45.0920  2176.8301    12.4770 
  225.8568     0.3015     0.2540    38.4090  2152.5000    12.7190 
  226.1616     0.3138     0.2520    37.2050  2132.2300    13.9700 
  226.4664     0.3187     0.2610    37.8400  2124.1699    17.1650 
