~VERSION INFORMATION
 VERS.                 2.0:   CWLS LOG ASCII STANDARD -VERSION 2.0
 WRAP.                  NO:   ONE LINE PER DEPTH STEP
~WELL INFORMATION BLOCK
#MNEM.UNIT           DATA                    DESCRIPTION OF MNEMONIC
#---------    -------------------            -------------------------------
# Generated from Intellog Unique Number	CS_77_79/WELL/855
WELL.         CWWE HARDY                     : Well_name    - WELL
LOC .         00/05-15-078-04W4/0            : Location     - LOCATION
UWI .         00/05-15-078-04W4/0            : Uwi          - UNIQUE WELL ID
ENTR.         JHS                            : Entered      - ENTERED BY
SRVC.         SCHLUMBERGER                   : Scn          - SERVICE COMPANY
STRT.M        140                            : top_depth    - START DEPTH
STOP.M        405                            : bot_depth    - STOP DEPTH
STEP.M        0.25                           : increment    - STEP LENGTH
 NULL. -999.2500:NULL Value
~CURVE INFORMATION BLOCK
#MNEM UNIT       ERCB CURVE CODE    CURVE DESCRIPTION
#-----------   ------------------   ----------------------------------
DEPT.M        00 001 00 00         : DEPTH        - DEPTH
DPHI.V/V      00 890 00 00         : PHID         - DENSITY POROSITY (LIMESTONE)
NPHI.V/V      00 330 00 00         : PHIN         - NEUTRON POROSITY (LIMESTONE)
GR  .API      00 310 00 00         : GR           - GAMMA RAY
ILD .OHMM     00 120 00 00         : RESD         - DEEP RESISTIVITY (DIL)
RHOB.KG/M3    00 350 00 00         : DENS         - BULK DENSITY
~PARAMETER INFORMATION
#MNEM.UNIT           DATA             DESCRIPTION OF MNEMONIC
#---------         -----------     ------------------------------
GL  .M        562.55               : gl           - GROUND LEVEL ELEVATION
EREF.M        566.5                : kb           - ELEVATION OF DEPTH REFERENCE
DATM.M        566.5                : datum        - DATUM ELEVATION
TDD .M        420                  : tdd          - TOTAL DEPTH DRILLER
RUN .         ONE                  : Run          - RUN NUMBER
ENG .         BILL                 : Engineer     - RECORDING ENGINEER
WIT .         JIM                  : Witness      - WITNESSED BY
MUD .         GEL                  : Mud_type     - MUD TYPE
MATR.         LIMESTONE            : Logunit      - NEUTRON MATRIX
TMAX.C        23                   : BHT          - MAXIMUM RECORDED TEMPERATURE
BHTD.M        420                  : BHTDEP       - MAXIMUM RECORDED TEMPERATURE
MATR.         1                    : LOGUNIT      - NEUTRON MATRIX
RMT .C        25                   : MDTP         - TEMPERATURE OF MUD
NEUT.         1                    : NEUTRON      - NEUTRON TYPE
RESI.         0                    : RESIST       - RESISTIVITY TYPE
RMC .OHMM     0.25                 : RMC          - RESISTIVITY OF MUD CAKE
RMF .OHMM     0.25                 : RMF          - RESISTIVITY OF MUD FILTRATE
SUFT.C        15                   : SUFT         - SURFACE TEMPERATURE
~A  DEPTH     PHID     PHIN       GR     RESD     DENS
# ...
  249.500    0.251    0.454   92.484    5.532    0.000
  249.750    0.239    0.467   97.516    5.536    0.000
  250.000    0.234    0.457   98.805    5.442    0.000
  250.250    0.242    0.455   91.968    5.445    0.000
  250.500    0.245    0.456   90.755    5.151    0.000
  250.750    0.243    0.451   98.922    4.873    0.000
  251.000    0.245    0.440  102.718    4.699    0.000
  251.250    0.235    0.428  102.754    4.702    0.000
  251.500    0.215    0.422  102.160    4.706    0.000
  251.750    0.212    0.430  105.324    4.624    0.000
  252.000    0.223    0.434  103.488    4.717    0.000
  252.250    0.223    0.447   99.142    4.813    0.000
  252.500    0.236    0.452   97.928    4.818    0.000
  252.750    0.288    0.439   92.337    5.007    0.000
  253.000    0.316    0.427   67.381    5.406    0.000
  253.250    0.330    0.435   61.175    6.061    0.000
  253.500    0.333    0.441   59.329    6.795    0.000
  253.750    0.339    0.438   58.742    7.616    0.000
  254.000    0.346    0.428   56.287    8.869    0.000
  254.250    0.355    0.418   56.320    9.577    0.000
  254.500    0.358    0.421   60.108    9.951    0.000
  254.750    0.354    0.438   65.146    9.963    0.000
  255.000    0.348    0.448   66.426    9.973    0.000
  255.250    0.344    0.424   62.095    9.796    0.000
  255.500    0.343    0.420   59.631    9.622    0.000
  255.750    0.343    0.424   60.297    9.634    0.000
  256.000    0.340    0.419   60.341    9.646    0.000
  256.250    0.335    0.414   60.360    9.653    0.000
  256.500    0.329    0.416   60.412    9.666    0.000
  256.750    0.329    0.437   61.078    9.674    0.000
  257.000    0.339    0.471   61.099    9.686    0.000
  257.250    0.343    0.458   60.510    9.694    0.000
  257.500    0.342    0.431   59.928    9.706    0.000
  257.750    0.345    0.420   63.083    9.717    0.000
  258.000    0.351    0.432   64.370    9.546    0.000
  258.250    0.347    0.431   62.548    9.555    0.000
  258.500    0.342    0.413   61.963    9.564    0.000
  258.750    0.338    0.415   61.984    9.577    0.000
  259.000    0.332    0.453   62.026    9.409    0.000
  259.250    0.333    0.434   61.440    9.597    0.000
  259.500    0.334    0.413   62.720    9.606    0.000
  259.750    0.334    0.407   66.507    9.614    0.000
  260.000    0.325    0.440   69.049    9.624    0.000
  260.250    0.317    0.444   67.829    9.634    0.000
  260.500    0.317    0.435   66.617    9.646    0.000
  260.750    0.326    0.437   70.409    9.476    0.000
  261.000    0.323    0.451   70.439    9.487    0.000
  261.250    0.311    0.437   67.976    9.495    0.000
  261.500    0.309    0.419   68.028    9.691    0.000
  261.750    0.309    0.427   69.308    9.702    0.000
  262.000    0.321    0.451   69.969    9.527    0.000
  262.250    0.326    0.454   70.004    9.536    0.000
  262.500    0.320    0.448   68.801    9.370    0.000
  262.750    0.311    0.445   67.581    9.204    0.000
  263.000    0.313    0.445   66.362    9.044    0.000
  263.250    0.316    0.440   67.028    9.051    0.000
  263.500    0.330    0.426   70.821    8.890    0.000
  263.750    0.325    0.422   75.866    8.732    0.000
  264.000    0.314    0.434   77.758    8.579    0.000
  264.250    0.299    0.439   80.924    8.269    0.000
  264.500    0.289    0.434   83.460    7.823    0.000
  264.750    0.271    0.441   88.498    7.402    0.000
  265.000    0.252    0.456   94.154    7.001    0.000
  265.250    0.237    0.458  101.690    6.257    0.000
  265.500    0.224    0.447  104.852    5.488    0.000
  265.750    0.215    0.456  101.155    4.815    0.000
  266.000    0.212    0.486  103.688    4.386    0.000
  266.250    0.226    0.507  106.843    4.071    0.000
  266.500    0.243    0.536  106.251    3.852    0.000
  266.750    0.265    0.553  102.542    3.644    0.000
  267.000    0.295    0.553  101.328    3.578    0.000
  267.250    0.310    0.554  107.618    3.260    0.000
  267.500    0.312    0.543  110.149    2.915    0.000
  267.750    0.302    0.516  107.694    2.758    0.000
  268.000    0.279    0.514  107.733    2.709    0.000
  268.250    0.254    0.518  114.019    2.711    0.000
  268.500    0.240    0.491  114.047    2.714    0.000
  268.750    0.230    0.481  110.960    2.769    0.000
  269.000    0.226    0.507  107.891    2.771    0.000
  269.250    0.230    0.536  109.806    2.882    0.000
  269.500    0.247    0.534  110.466    2.939    0.000
  269.750    0.280    0.513  111.111    2.999    0.000
  270.000    0.288    0.487  109.908    3.058    0.000
  270.250    0.283    0.467  107.438    3.495    0.000
  270.500    0.254    0.454  101.848    3.917    0.000
  270.750    0.230    0.457   97.525    4.392    0.000
  271.000    0.218    0.470   95.684    4.651    0.000
  271.250    0.218    0.474   95.098    5.317    0.000
  271.500    0.249    0.449   93.269    5.631    0.000
  271.750    0.287    0.444   91.411    5.854    0.000
  272.000    0.301    0.465   85.818    5.971    0.000
  272.250    0.292    0.458   82.731    5.869    0.000
  272.500    0.269    0.441   82.143    5.764    0.000
  272.750    0.250    0.440   80.930    5.878    0.000
  273.000    0.222    0.467   78.485    6.230    0.000
  273.250    0.217    0.477   77.884    6.475    0.000
  273.500    0.230    0.450   79.177    6.989    0.000
  273.750    0.258    0.430   81.083    7.545    0.000
  274.000    0.283    0.424   81.118    8.301    0.000
  274.250    0.284    0.419   76.162    8.959    0.000
  274.500    0.252    0.390   71.815    9.673    0.000
  274.750    0.174    0.330   68.728   10.642    0.000
  275.000    0.112    0.309   71.897   11.274    0.000
  275.250    0.101    0.304   76.311   11.502    0.000
  275.500    0.125    0.318   79.471   11.515    0.000
  275.750    0.252    0.401   80.765   11.099    0.000
  276.000    0.291    0.414   77.054   10.699    0.000
  276.250    0.203    0.385   72.080   10.121    0.000
  276.500    0.140    0.361   63.987   10.330    0.000
  276.750    0.113    0.340   70.908   10.338    0.000
  277.000    0.112    0.331   80.317   10.543    0.000
  277.250    0.233    0.366   82.850   10.358    0.000
  277.500    0.296    0.408   84.151   10.174    0.000
  277.750    0.304    0.394   85.434    9.806    0.000
  278.000    0.297    0.388   87.972    9.276    0.000
  278.250    0.277    0.398   89.879    8.949    0.000
  278.500    0.271    0.406   91.157    8.958    0.000
  278.750    0.270    0.415   88.071    9.136    0.000
  279.000    0.269    0.433   79.981    9.142    0.000
  279.250    0.259    0.446   77.526    9.331    0.000
  279.500    0.254    0.446   79.436    9.336    0.000
  279.750    0.270    0.434   83.845    9.525    0.000
  280.000    0.284    0.426   89.510    9.534    0.000
  280.250    0.287    0.424   93.921    9.365    0.000
  280.500    0.263    0.438   93.960    8.862    0.000
  280.750    0.239    0.425   92.116    8.383    0.000
  281.000    0.220    0.415   94.029    7.928    0.000
  281.250    0.209    0.414   97.816    7.360    0.000
  281.500    0.208    0.446  100.979    7.097    0.000
  281.750    0.213    0.456  103.516    6.970    0.000
  282.000    0.218    0.432  104.803    7.108    0.000
  282.250    0.215    0.414  102.346    7.534    0.000
  282.500    0.216    0.408   98.629    7.682    0.000
  282.750    0.225    0.401   94.919    8.456    0.000
  283.000    0.246    0.394   93.076    8.463    0.000
  283.250    0.268    0.395   92.486    8.311    0.000
  283.500    0.248    0.430   95.027    8.165    0.000
  283.750    0.247    0.448   95.690    7.580    0.000
  284.000    0.269    0.448   93.870    6.905    0.000
  284.250    0.286    0.450   93.264    6.290    0.000
  284.500    0.234    0.447   95.811    6.064    0.000
  284.750    0.216    0.453   98.960    5.846    0.000
  285.000    0.217    0.469  100.884    5.744    0.000
  285.250    0.219    0.459   99.036    5.747    0.000
  285.500    0.212    0.466   97.198    5.757    0.000
  285.750    0.218    0.486   97.859    5.652    0.000
