~VERSION INFORMATION
 VERS.                 2.0:   CWLS LOG ASCII STANDARD -VERSION 2.0
 WRAP.                  NO:   ONE LINE PER DEPTH STEP
~WELL INFORMATION BLOCK
#MNEM.UNIT           DATA                    DESCRIPTION OF MNEMONIC
#---------    -------------------            -------------------------------
# Generated from Intellog Unique Number	CW_79_81/WELL/2442
WELL.         CHEVRON MISTEHAEN              : Well_name    - WELL
LOC .         00/03-19-081-05W5/0            : Location     - LOCATION
UWI .         00/03-19-081-05W5/0            : Uwi          - UNIQUE WELL ID
ENTR.         MAX                            : Entered      - ENTERED BY
SRVC.         SCHLUMBERGER                   : Scn          - SERVICE COMPANY
STRT.M        304.8                          : top_depth    - START DEPTH
STOP.M        533.05                         : bot_depth    - STOP DEPTH
STEP.M        0.25                           : increment    - STEP LENGTH
 NULL. -999.2500:NULL Value
~CURVE INFORMATION BLOCK
#MNEM UNIT       ERCB CURVE CODE    CURVE DESCRIPTION
#-----------   ------------------   ----------------------------------
DEPT.M        00 001 00 00         : DEPTH        - DEPTH
ILD .OHMM     00 120 00 00         : RESD         - DEEP RESISTIVITY (DIL)
NPHI.V/V      00 330 00 00         : PHIN         - NEUTRON POROSITY (SANDSTONE)
DPHI.V/V      00 890 00 00         : PHID         - DENSITY POROSITY (SANDSTONE)
GR  .API      00 310 00 00         : GR           - GAMMA RAY
CALI.MM       00 280 01 00         : CAL          - CALIPER
~PARAMETER INFORMATION
#MNEM.UNIT           DATA             DESCRIPTION OF MNEMONIC
#---------         -----------     ------------------------------
GL  .M        611.734              : gl           - GROUND LEVEL ELEVATION
EREF.M        614.111              : kb           - ELEVATION OF DEPTH REFERENCE
DATM.M        611.734              : datum        - DATUM ELEVATION
TDD .M        550.774              : tdd          - TOTAL DEPTH DRILLER
RUN .         ONE                  : Run          - RUN NUMBER
ENG .         BILL                 : Engineer     - RECORDING ENGINEER
WIT .         JIM                  : Witness      - WITNESSED BY
MUD .         GEL                  : Mud_type     - MUD TYPE
MATR.         SANDSTONE            : Logunit      - NEUTRON MATRIX
TMAX.C        29.4444              : BHT          - MAXIMUM RECORDED TEMPERATURE
BHTD.M        550.774              : BHTDEP       - MAXIMUM RECORDED TEMPERATURE
MATR.         1                    : LOGUNIT      - NEUTRON MATRIX
RMT .C        20                   : MDTP         - TEMPERATURE OF MUD
NEUT.         1                    : NEUTRON      - NEUTRON TYPE
RESI.         0                    : RESIST       - RESISTIVITY TYPE
RMC .OHMM     4.1                  : RMC          - RESISTIVITY OF MUD CAKE
RMF .OHMM     5.07                 : RMF          - RESISTIVITY OF MUD FILTRATE
SUFT.C        -20.5556             : SUFT         - SURFACE TEMPERATURE
~A  DEPTH     RESD     PHIN     PHID       GR      CAL
  304.800    2.934    0.594    0.269   74.303  203.883
  305.050    2.613    0.595    0.279   75.516  203.865
  305.300    2.487    0.585    0.283   77.517  203.839
  305.550    2.503    0.570    0.284   79.272  203.813
  305.800    2.673    0.536    0.284   79.022  203.791
  306.050    3.077    0.435    0.285   69.607  203.846
  306.300    3.478    0.342    0.275   45.023  204.234
  306.550    3.578    0.359    0.252   34.628  205.005
  306.800    3.544    0.483    0.235   36.265  205.483
  307.050    3.387    0.555    0.223   46.276  205.860
  307.300    3.183    0.536    0.219   59.117  206.533
  307.550    3.019    0.514    0.229   67.599  208.764
  307.800    2.994    0.519    0.223   68.816  212.067
  308.050    3.059    0.530    0.241   68.801  213.243
  308.300    3.125    0.513    0.245   70.908  212.620
  308.550    3.226    0.495    0.235   73.015  209.997
  308.800    3.393    0.486    0.221   73.884  206.675
  309.050    3.660    0.480    0.216   72.669  205.363
  309.300    3.714    0.467    0.215   70.198  204.919
  309.550    3.767    0.475    0.221   69.712  204.497
  309.800    3.820    0.469    0.229   69.400  204.073
  310.050    3.915    0.463    0.232   69.149  203.651
  310.300    4.059    0.459    0.228   68.664  203.331
  310.550    4.252    0.440    0.228   66.731  203.217
  310.800    4.482    0.419    0.219   63.030  202.773
  311.050    4.513    0.419    0.222   59.241  203.147
  311.300    4.543    0.429    0.225   54.567  203.520
  311.550    4.574    0.453    0.229   52.194  203.696
  311.800    4.580    0.483    0.234   52.710  203.774
  312.050    4.511    0.493    0.232   54.110  204.143
  312.300    4.346    0.469    0.257   57.337  204.617
  312.550    4.278    0.454    0.254   59.533  203.343
  312.800    4.216    0.453    0.261   59.252  202.469
  313.050    4.075    0.490    0.257   58.766  202.844
  313.300    3.833    0.550    0.242   59.698  204.917
  313.550    3.513    0.581    0.234   63.458  208.482
  313.800    3.147    0.599    0.245   69.336  209.452
  314.050    3.050    0.608    0.228   73.496  211.928
  314.300    2.964    0.610    0.221   77.325  214.799
  314.550    2.899    0.609    0.226   79.668  216.370
  314.800    2.866    0.604    0.237   80.067  216.143
  315.050    2.885    0.590    0.232   79.282  215.148
  315.300    2.995    0.573    0.230   77.793  214.290
  315.550    3.383    0.508    0.230   75.892  211.471
  315.800    3.785    0.432    0.245   72.928  206.853
  316.050    4.277    0.391    0.253   67.842  203.234
  316.300    4.852    0.390    0.250   60.339  201.612
  316.550    5.275    0.392    0.248   51.427  200.935
  316.800    5.352    0.392    0.248   54.113  199.659
  317.050    5.271    0.396    0.258   56.695  201.229
  317.300    5.163    0.405    0.268   58.742  202.206
  317.550    5.086    0.419    0.270   59.907  202.382
  317.800    5.046    0.435    0.266   60.248  202.056
  318.050    5.006    0.451    0.264   60.625  202.026
  318.300    5.003    0.461    0.276   62.576  202.003
  318.550    4.999    0.470    0.297   61.146  201.976
  318.800    4.997    0.477    0.312   55.823  202.250
  319.050    4.995    0.478    0.314   50.855  202.222
  319.300    4.983    0.475    0.304   48.364  201.996
  319.550    4.920    0.477    0.294   48.443  203.122
  319.800    4.806    0.496    0.280   48.921  206.841
  320.050    4.597    0.525    0.258   49.377  208.017
  320.300    4.178    0.565    0.255   51.249  209.788
  320.550    3.742    0.580    0.247   54.418  211.759
  320.800    3.447    0.566    0.236   58.060  213.631
  321.050    3.465    0.551    0.241   60.686  215.449
  321.300    3.710    0.529    0.238   60.918  216.674
  321.550    3.845    0.501    0.239   60.194  213.052
  321.800    3.900    0.502    0.243   60.181  209.434
  322.050    3.954    0.519    0.240   60.756  207.613
  322.300    4.025    0.533    0.234   61.450  208.287
  322.550    4.052    0.524    0.237   61.728  211.134
  322.800    4.049    0.520    0.238   63.184  211.517
  323.050    4.136    0.502    0.228   64.822  211.494
  323.300    4.202    0.498    0.225   65.575  211.171
  323.550    4.138    0.509    0.223   65.914  211.148
  323.800    3.897    0.538    0.219   66.252  211.426
  324.050    3.504    0.584    0.222   67.238  211.394
  324.300    3.424    0.585    0.235   68.692  211.371
  324.550    3.372    0.545    0.227   69.626  211.748
  324.800    3.376    0.535    0.219   70.732  213.322
  325.050    3.399    0.562    0.204   72.132  214.096
  325.300    3.391    0.601    0.192   73.355  214.171
  325.550    3.256    0.605    0.216   73.190  215.822
  325.800    3.086    0.604    0.238   72.439  216.212
  326.050    2.973    0.599    0.219   73.134  213.788
  326.300    2.865    0.602    0.214   74.181  213.465
  326.550    2.781    0.607    0.213   74.638  214.040
  326.800    2.720    0.607    0.211   74.918  214.714
  327.050    2.659    0.598    0.205   77.033  215.081
  327.300    2.657    0.593    0.209   78.246  215.058
  327.550    2.695    0.589    0.213   80.119  215.430
  327.800    2.703    0.592    0.217   80.930  215.205
  328.050    2.711    0.583    0.221   81.977  213.384
  328.300    2.744    0.573    0.226   83.613  210.664
  328.550    2.849    0.597    0.237   84.558  209.933
  328.800    2.981    0.588    0.238   81.101  212.403
  329.050    2.979    0.588    0.235   81.323  212.383
  329.300    2.881    0.593    0.236   82.605  210.563
  329.550    2.899    0.588    0.230   82.591  208.937
  329.800    3.119    0.577    0.216   80.514  208.310
  330.050    3.612    0.582    0.205   76.506  208.114
  330.300    4.051    0.585    0.195   73.051  207.258
  330.550    4.352    0.566    0.189   71.383  206.437
  330.800    4.433    0.544    0.192   70.603  206.213
  331.050    4.398    0.532    0.208   70.118  206.387
  331.300    4.340    0.528    0.234   70.576  205.562
  331.550    4.318    0.511    0.264   74.008  201.055
  331.800    4.382    0.490    0.258   74.730  200.616
  332.050    4.476    0.471    0.249   74.242  200.586
  332.300    4.597    0.494    0.239   73.049  199.961
  332.550    4.714    0.516    0.246   72.091  199.538
  332.800    4.807    0.521    0.264   71.368  199.415
  333.050    4.881    0.520    0.261   69.686  198.985
  333.300    4.916    0.509    0.261   68.446  198.956
  333.550    4.985    0.481    0.258   65.600  198.535
  333.800    5.028    0.447    0.246   62.401  198.411
  334.050    5.062    0.408    0.218   59.793  198.785
  334.300    5.105    0.370    0.177   57.891  199.360
  334.550    5.178    0.349    0.157   55.493  199.333
  334.800    5.175    0.371    0.247   53.019  199.310
  335.050    5.134    0.410    0.257   54.892  199.283
  335.300    4.954    0.451    0.265   57.828  199.259
  335.550    4.721    0.479    0.274   60.291  199.435
  335.800    4.441    0.493    0.283   62.045  199.610
  336.050    4.057    0.518    0.289   64.493  199.347
  336.300    3.994    0.547    0.284   66.197  200.153
  336.550    4.020    0.582    0.278   66.421  200.525
  336.800    4.114    0.583    0.279   65.581  200.600
  337.050    4.203    0.570    0.284   64.977  200.773
  337.300    4.263    0.557    0.288   65.493  201.047
  337.550    4.322    0.546    0.286   67.597  201.019
  337.800    4.320    0.547    0.283   67.582  200.994
  338.050    4.286    0.557    0.278   70.633  202.167
  338.300    4.205    0.570    0.273   71.564  204.840
  338.550    4.081    0.574    0.263   71.314  207.015
  338.800    3.896    0.568    0.256   70.768  207.590
  339.050    3.587    0.565    0.264   70.650  206.276
  339.300    3.426    0.571    0.273   70.144  205.831
  339.550    3.375    0.573    0.265   70.599  205.809
  339.800    3.379    0.565    0.259   69.642  205.783
  340.050    3.439    0.560    0.255   69.393  205.758
  340.300    3.533    0.558    0.254   70.323  205.336
  340.550    3.636    0.543    0.266   71.003  203.707
  340.800    3.775    0.539    0.279   69.761  203.679
  341.050    3.998    0.530    0.280   66.207  204.455
