~VERSION INFORMATION
 VERS.                 2.0:   CWLS LOG ASCII STANDARD -VERSION 2.0
 WRAP.                  NO:   ONE LINE PER DEPTH STEP
~WELL INFORMATION BLOCK
#MNEM.UNIT           DATA                    DESCRIPTION OF MNEMONIC
#---------    -------------------            -------------------------------
# Generated from Intellog Unique Number	CW_76_78/WELL/56
WELL.         PAN AM IMP D-1 MARTEN H 06-02  : Well_name    - WELL
LOC .         00/06-02-077-26W4/0            : Location     - LOCATION
UWI .         00/06-02-077-26W4/0            : Uwi          - UNIQUE WELL ID
ENTR.         JJ                             : Entered      - ENTERED BY
SRVC.         SCHLUMBERGER                   : Scn          - SERVICE COMPANY
DATE.         10 AUG 62                      : Date         - LOG DATE
STRT.M        630.936                        : top_depth    - START DEPTH
STOP.M        758.936                        : bot_depth    - STOP DEPTH
STEP.M        0.25                           : increment    - STEP LENGTH
 NULL. -999.2500:NULL Value
~CURVE INFORMATION BLOCK
#MNEM UNIT       ERCB CURVE CODE    CURVE DESCRIPTION
#-----------   ------------------   ----------------------------------
DEPT.M        00 001 00 00         : DEPTH        - DEPTH
DELT.US/F     00 520 00 00         : DELT         - SONIC TRAVEL TIME
GR  .API      00 310 00 00         : GR           - GAMMA RAY
ILD .OHMM     00 120 00 00         : RESD         - DEEP RESISTIVITY (DIL)
~PARAMETER INFORMATION
#MNEM.UNIT           DATA             DESCRIPTION OF MNEMONIC
#---------         -----------     ------------------------------
GL  .M        835.121              : gl           - GROUND LEVEL ELEVATION
EREF.M        838.566              : kb           - ELEVATION OF DEPTH REFERENCE
DATM.M        838.566              : datum        - DATUM ELEVATION
TDD .M        760.476              : tdd          - TOTAL DEPTH DRILLER
RUN .         ONE                  : Run          - RUN NUMBER
ENG .         JAMES                : Engineer     - RECORDING ENGINEER
WIT .         MITCHELL             : Witness      - WITNESSED BY
BASE.         EDM                  : Branch       - HOME BASE OF LOGGING UNIT
MUD .         GEL                  : Mud_type     - MUD TYPE
MATR.         SANDSTONE            : Logunit      - NEUTRON MATRIX
TMAX.C        32.7778              : BHT          - MAXIMUM RECORDED TEMPERATURE
BHTD.M        762.305              : BHTDEP       - MAXIMUM RECORDED TEMPERATURE
RMT .C        15.5556              : MDTP         - TEMPERATURE OF MUD
MUDD.KG/M     1068                 : MWT          - MUD DENSITY
NEUT.         1                    : NEUTRON      - NEUTRON TYPE
RESI.         0                    : RESIST       - RESISTIVITY TYPE
RM  .OHMM     8.2                  : RM           - RESISTIVITY OF MUD
RMC .OHMM     6.5                  : RMC          - RESISTIVITY OF MUD CAKE
RMF .OHMM     5.6                  : RMF          - RESISTIVITY OF MUD FILTRATE
SUFT.C        5                    : SUFT         - SURFACE TEMPERATURE
~A  DEPTH     DELT       GR     RESD
# ...
  685.186  278.732   73.312   10.810
  685.436  293.354   68.302   11.033
  685.686  300.202   71.448   11.344
  685.936  286.013   71.996   11.818
  686.186  272.934   70.904   12.826
  686.436  264.051   73.138   13.581
  686.686  287.679   79.973   13.530
  686.936  301.992   77.332   11.774
  687.186  312.419   71.365   11.137
  687.436  317.355   73.235   12.034
  687.686  311.741   79.615   12.975
  687.936  296.564   82.304   13.641
  688.186  284.288   70.142   14.241
  688.436  261.955   65.268   14.745
  688.686  285.769   60.577   14.123
  688.936  298.540   69.691   12.220
  689.186  307.053   71.742   10.960
  689.436  328.831   76.345   10.012
  689.686  341.972   82.223    9.449
  689.936  342.528   78.717    9.257
  690.186  303.908   68.331    9.176
  690.436  298.047   60.315    9.005
  690.686  303.538   72.845    8.739
  690.936  325.748   80.682    8.213
  691.186  339.629   85.558    7.665
  691.436  342.159   86.016    7.317
  691.686  341.542   84.559    7.191
  691.936  330.993   79.412    7.280
  692.186  334.201   79.870    7.406
  692.436  325.318   85.338    7.406
  692.686  334.942   87.617    7.169
  692.936  343.579   87.072    6.903
  693.186  330.994   82.791    6.666
  693.436  311.623   79.012    6.673
  693.686  315.201   76.052    6.903
  693.936  320.260   72.682    7.355
  694.186  289.414   68.128    7.977
  694.436  316.066   71.045    9.015
  694.686  319.151   71.593    9.607
  694.936  310.452   71.731    9.444
  695.186  320.878   74.831    8.889
  695.436  306.689   75.379    8.556
  695.686  309.034   73.148    8.304
  695.936  319.707   70.189    8.156
  696.186  331.861   69.780    8.015
  696.436  340.005   76.570    7.801
  696.686  337.475   79.897    7.334
  696.936  337.599   76.755    7.223
  697.186  336.736   71.790    7.357
  697.436  327.667   78.444    7.453
  697.686  327.420   81.543    7.223
  697.936  323.102   81.544    7.246
  698.186  314.157   83.232    7.342
  698.436  327.483   86.787    7.550
  698.686  315.700   78.770    7.720
  698.936  311.320   75.446    7.994
  699.186  315.947   82.645    8.521
  699.436  317.366   89.025    8.913
  699.686  324.214   87.979    9.943
  699.936  325.633   89.529   11.351
  700.186  324.215   86.114   15.639
  700.436  295.096   81.241   16.854
  700.686  272.763   75.183   17.358
  700.936  246.852   68.169   16.788
  701.186  215.697   62.521   15.662
  701.436  208.295   57.693   14.366
  701.686  218.104   55.963   13.070
  701.936  223.286   51.273   10.529
  702.186  247.162   46.764    8.411
  702.436  288.497   52.779    6.744
  702.686  308.239   59.250    5.470
  702.936  321.009   67.406    4.448
  703.186  318.912   69.686    3.826
  703.436  309.905   70.279    3.189
  703.686  311.324   73.288    3.152
  703.936  310.337   79.257    3.175
  704.186  305.587   77.209    3.249
  704.436  312.621   78.531    3.219
  704.686  323.602   75.708    3.086
  704.936  323.356   75.710    2.886
  705.186  325.083   73.616    2.738
  705.436  334.091   73.389    2.590
  705.686  342.913   86.967    2.568
  705.936  347.787   94.121    2.679
  706.186  355.746   98.542    2.909
  706.436  331.871   98.498    3.487
  706.686  322.740   92.076    4.228
  706.936  321.507   87.112    5.361
  707.186  303.122   83.514    7.480
  707.436  282.270   75.224    8.413
  707.686  267.896   67.526    8.821
  707.936  267.711   68.575    9.265
  708.186  302.506   75.137    9.391
  708.436  322.680   84.660    8.799
  708.686  314.722   78.739    7.910
  708.936  296.770   72.955    7.051
  709.186  299.731   65.576    6.214
  709.436  303.865   67.263    5.762
  709.686  303.372   74.235    5.340
  709.936  313.675   80.114    4.622
  710.186  319.536   85.355    4.022
  710.436  317.932   84.536    3.726
  710.686  313.860   83.079    3.607
  710.936  311.146   84.174    3.548
  711.186  310.529   85.725    3.459
  711.436  314.108   85.362    3.334
  711.686  328.853   88.461    2.993
  711.936  331.876   91.788    2.726
  712.186  330.642  100.674    2.941
  712.436  317.194  104.229    3.341
  712.686  272.343   97.123    3.742
  712.936  257.660   90.109    4.075
  713.186  258.031   63.186    4.608
  713.436  295.787   60.135    4.957
  713.686  310.532   72.984    4.823
  713.936  319.724   83.190    4.320
  714.186  317.997   88.294    3.994
  714.436  315.468   93.581    3.794
  714.686  313.371   98.684    3.698
  714.936  314.111   92.262    3.594
  715.186  320.713   85.521    3.483
  715.436  330.646   82.106    3.372
  715.686  324.908   80.468    3.269
  715.936  314.667   78.829    3.210
  716.186  309.485   74.047    3.188
  716.436  322.441   74.048    3.158
  716.686  332.127   82.478    3.210
  716.936  334.472   91.454    3.558
  717.186  331.141   87.857    4.010
  717.436  328.673   74.464    4.529
  717.686  331.882   67.495    5.336
  717.936  338.853   56.244    7.448
  718.186  359.397   46.633   12.514
  718.436  376.610   38.297   14.159
  718.686  382.224   30.690   14.026
  718.936  376.672   25.407   13.196
  719.186  370.256   23.541   11.256
  719.436  365.012   24.317    6.671
  719.686  357.980   28.692    4.693
  719.936  357.733   31.974    3.212
  720.186  349.652   31.884    2.449
  720.436  343.606   32.569    1.975
  720.686  348.357   28.561    1.671
  720.936  349.776   25.784    1.523
  721.186  343.977   24.965    1.546
  721.436  340.214   25.377    1.642
  721.686  337.746   26.107    1.842
  721.936  339.042   28.523    2.183
  722.186  344.965   28.297    2.664
  722.436  347.186   24.426    3.346
  722.686  343.300   26.022    4.042
  722.936  342.560   28.484    4.680
  723.186  346.200   29.715    5.317
  723.436  349.902   31.904    6.021
  723.686  351.999   30.265    6.473
  723.936  351.136   32.727    6.858
  724.186  345.275   33.002    7.117
  724.436  344.042   29.951    7.169
  724.686  345.276   33.460    6.932
  724.936  348.484   31.913    6.525
  725.186  350.027   27.632    6.044
  725.436  349.965   31.005    5.614
  725.686  348.361   30.642    5.199
  725.936  347.621   27.363    4.740
  726.186  345.154   28.868    4.348
  726.436  344.290   33.881    4.437
  726.686  345.895   40.124    4.652
  726.936  345.710   44.772    4.941
  727.186  341.206   49.876    5.237
  727.436  340.960   41.358    5.704
  727.686  347.253   33.023    6.089
  727.936  356.137   25.872    6.445
  728.186  362.121   26.693    6.275
  728.436  364.836   26.512    6.038
  728.686  365.206   24.920    5.786
  728.936  361.875   23.372    5.282
  729.186  359.655   22.645    4.727
  729.436  358.421   25.288    4.038
  729.686  356.385   28.935    3.542
  729.936  356.386   30.804    3.216
  730.186  360.766   27.434    2.920
  730.436  360.273   24.384    2.742
  730.686  358.854   27.255    2.654
  730.936  356.201   30.810    2.587
  731.186  353.981   31.404    2.609
  731.436  351.205   31.497    2.654
  731.686  345.961   33.002    2.736
  731.936  344.049   33.732    2.876
  732.186  348.553   35.237    2.854
  732.436  355.277   37.152    2.640
  732.686  357.684   39.249    2.292
  732.936  359.720   40.572    2.069
  733.186  359.350   40.755    2.025
  733.436  357.376   42.260    2.129
  733.686  356.204   44.175    2.188
  733.936  361.448   48.824    2.262
  734.186  352.997   51.285    2.477
  734.436  326.469   44.499    2.655
  734.686  314.624   41.995    2.789
  734.936  301.792   44.730    2.870
  735.186  345.594   47.374    2.893
  735.436  359.044   45.097    2.878
  735.686  352.875   52.297    2.930
  735.936  346.089   57.902    2.982
  736.186  336.588   64.099    3.034
  736.436  344.793   71.117    3.034
  736.686  353.061   84.376    2.990
  736.936  352.999  107.612    2.923
  737.186  338.625  112.306    2.849
  737.436  339.057  117.228    2.783
  737.686  346.090  120.236    2.746
  737.936  344.857  123.837    2.768
  738.186  352.383  126.754    2.901
  738.436  345.844  118.555    3.272
  738.686  317.404   94.411    3.879
  738.936  325.116   74.458    4.806
  739.186  317.775   62.295    5.583
