~VERSION INFORMATION
 VERS.                 2.0:   CWLS LOG ASCII STANDARD -VERSION 2.0
 WRAP.                  NO:   ONE LINE PER DEPTH STEP
~WELL INFORMATION BLOCK
#MNEM.UNIT           DATA                    DESCRIPTION OF MNEMONIC
#---------    -------------------            -------------------------------
# Generated from Intellog Unique Number	CS_73_76/WELL/1064
WELL.         BRALORNE RES                   : Well_name    - WELL
LOC .         00/02-27-076-14W4/0            : Location     - LOCATION
UWI .         00/02-27-076-14W4/0            : Uwi          - UNIQUE WELL ID
ENTR.         T                              : Entered      - ENTERED BY
SRVC.         SCHLUMBERGER                   : Scn          - SERVICE COMPANY
STRT.M        290                            : top_depth    - START DEPTH
STOP.M        520                            : bot_depth    - STOP DEPTH
STEP.M        0.25                           : increment    - STEP LENGTH
 NULL. -999.2500:NULL Value
~CURVE INFORMATION BLOCK
#MNEM UNIT       ERCB CURVE CODE    CURVE DESCRIPTION
#-----------   ------------------   ----------------------------------
DEPT.M        00 001 00 00         : DEPTH        - DEPTH
GR  .API      00 310 00 00         : GR           - GAMMA RAY
NPHI.V/V      00 330 00 00         : PHIN         - NEUTRON POROSITY (SANDSTONE)
DPHI.V/V      00 890 00 00         : PHID         - DENSITY POROSITY (SANDSTONE)
ILD .OHMM     00 120 00 00         : RESD         - DEEP RESISTIVITY (DIL)
~PARAMETER INFORMATION
#MNEM.UNIT           DATA             DESCRIPTION OF MNEMONIC
#---------         -----------     ------------------------------
GL  .M        676.6                : gl           - GROUND LEVEL ELEVATION
EREF.M        679.9                : kb           - ELEVATION OF DEPTH REFERENCE
DATM.M        679.9                : datum        - DATUM ELEVATION
TDD .M        525                  : tdd          - TOTAL DEPTH DRILLER
RUN .         ONE                  : Run          - RUN NUMBER
ENG .         BILL                 : Engineer     - RECORDING ENGINEER
WIT .         JIM                  : Witness      - WITNESSED BY
MUD .         GEL                  : Mud_type     - MUD TYPE
MATR.         SANDSTONE            : Logunit      - NEUTRON MATRIX
TMAX.C        21                   : BHT          - MAXIMUM RECORDED TEMPERATURE
BHTD.M        525                  : BHTDEP       - MAXIMUM RECORDED TEMPERATURE
MATR.         1                    : LOGUNIT      - NEUTRON MATRIX
RMT .C        10                   : MDTP         - TEMPERATURE OF MUD
NEUT.         1                    : NEUTRON      - NEUTRON TYPE
RESI.         3.1                  : RESIST       - RESISTIVITY TYPE
RMC .OHMM     3                    : RMC          - RESISTIVITY OF MUD CAKE
RMF .OHMM     3.3                  : RMF          - RESISTIVITY OF MUD FILTRATE
SUFT.C        15                   : SUFT         - SURFACE TEMPERATURE
~A  DEPTH       GR     PHIN     PHID     RESD
  290.000  114.423    0.464    0.228    3.380
  290.250  113.123    0.474    0.230    3.376
  290.500  113.674    0.478    0.234    3.503
  290.750  114.861    0.430    0.236    3.636
  291.000  114.805    0.436    0.236    3.845
  291.250  114.763    0.444    0.236    3.913
  291.500  112.814    0.438    0.235    3.986
  291.750  115.244    0.434    0.234    4.135
  292.000  117.080    0.444    0.232    4.210
  292.250  119.510    0.478    0.231    4.206
  292.500  120.075    0.505    0.225    4.199
  292.750  115.033    0.493    0.220    4.197
  293.000  110.625    0.478    0.215    4.192
  293.250  111.177    0.464    0.208    4.109
  293.500  111.120    0.452    0.204    4.026
  293.750  109.821    0.456    0.203    4.024
  294.000  106.657    0.459    0.203    3.943
  294.250  105.357    0.464    0.203    3.940
  294.500  109.045    0.471    0.205    3.937
  294.750  109.596    0.479    0.205    4.006
  295.000  107.053    0.464    0.205    4.079
  295.250  104.525    0.449    0.205    4.075
  295.500  105.712    0.437    0.207    4.310
  295.750  109.992    0.440    0.214    4.473
  296.000  111.193    0.447    0.215    4.821
  296.250  103.057    0.441    0.215    5.605
  296.500   93.663    0.413    0.219    6.644
  296.750   87.391    0.403    0.229    8.334
  297.000   82.362    0.390    0.264   11.067
  297.250   80.441    0.376    0.253   12.868
  297.500   82.250    0.379    0.239   16.766
  297.750   85.909    0.383    0.217   17.069
  298.000   87.096    0.375    0.199   16.108
  298.250   85.175    0.354    0.193   14.361
  298.500   82.011    0.357    0.205   12.799
  298.750   79.482    0.361    0.216   11.854
  299.000   79.426    0.370    0.228   10.568
  299.250   86.828    0.381    0.233    9.973
  299.500   90.501    0.381    0.239    9.412
  299.750   93.553    0.377    0.245    9.582
  300.000   94.118    0.375    0.251   10.525
  300.250   90.332    0.374    0.257   11.343
  300.500   84.682    0.374    0.262   12.225
  300.750   78.396    0.375    0.260   11.983
  301.000   74.611    0.377    0.249   10.885
  301.250   70.825    0.377    0.236   10.079
  301.500   72.633    0.378    0.223    9.330
  301.750   86.887    0.378    0.214    8.640
  302.000   95.532    0.380    0.208    8.153
  302.250  108.529    0.398    0.202    7.844
  302.500  112.202    0.411    0.198    7.688
  302.750  117.132    0.380    0.203    8.130
  303.000  120.170    0.373    0.223   11.645
  303.250  105.789    0.364    0.257   11.862
  303.500  102.018    0.376    0.283   12.781
  303.750   91.395    0.390    0.303   13.774
  304.000   85.123    0.393    0.308   15.130
  304.250   76.987    0.392    0.298   16.310
  304.500   76.309    0.388    0.289   16.294
  304.750   83.711    0.387    0.277   16.277
  305.000   91.735    0.383    0.271   16.252
  305.250   93.529    0.386    0.281   16.240
  305.500   94.095    0.389    0.296   15.914
  305.750   94.053    0.389    0.303   15.906
  306.000   93.982    0.385    0.311   15.587
  306.250   94.562    0.381    0.311   15.575
  306.500   95.720    0.377    0.307   15.551
  306.750   97.543    0.374    0.303   15.543
  307.000   99.959    0.371    0.294   15.524
  307.250  101.160    0.368    0.273   15.508
  307.500  102.360    0.363    0.266   15.785
  307.750   99.818    0.356    0.259   15.773
  308.000   96.654    0.349    0.255   16.054
  308.250   89.760    0.343    0.255   16.038
  308.500   76.637    0.339    0.264   16.328
  308.750   69.730    0.342    0.276   16.312
  309.000   59.107    0.341    0.280   15.993
  309.250   55.957    0.336    0.273   15.378
  309.500   44.699    0.335    0.240   14.239
  309.750   47.115    0.341    0.229   13.188
  310.000   81.286    0.361    0.202   11.320
  310.250   88.067    0.378    0.184    9.530
  310.500   98.577    0.393    0.170    8.494
  310.750  109.087    0.397    0.164    7.717
  311.000  118.369    0.393    0.158    7.426
  311.250  126.392    0.390    0.150    7.008
  311.500  128.822    0.391    0.149    6.740
  311.750  124.415    0.401    0.147    6.607
  312.000  123.102    0.417    0.149    6.599
  312.250  125.518    0.433    0.156    6.592
  312.500  126.733    0.426    0.161    6.460
  312.750  127.919    0.413    0.158    6.335
  313.000  129.092    0.412    0.139    6.091
  313.250  130.279    0.418    0.136    5.969
  313.500  130.858    0.427    0.137    5.632
  313.750  131.424    0.440    0.139    5.523
  314.000  122.044    0.461    0.140    5.016
  314.250  120.731    0.468    0.143    4.736
  314.500  125.661    0.478    0.146    4.300
  314.750  130.563    0.488    0.161    4.217
  315.000  134.250    0.473    0.187    4.375
  315.250  142.896    0.452    0.209    4.807
  315.500  149.690    0.446    0.231    5.916
  315.750  137.189    0.435    0.242    7.564
  316.000  130.296    0.414    0.260    9.137
  316.250  119.037    0.370    0.260   10.228
  316.500  110.265    0.371    0.258   12.352
  316.750  111.452    0.380    0.264   15.204
  317.000  114.517    0.394    0.269   16.070
  317.250  118.798    0.389    0.278   15.760
  317.500  116.877    0.383    0.283   14.589
  317.750  113.727    0.389    0.272   13.764
  318.000   95.618    0.397    0.240   13.499
  318.250   91.846    0.399    0.233   12.983
  318.500   92.411    0.388    0.209   11.140
  318.750   96.084    0.386    0.185   10.313
  319.000  100.379    0.395    0.160   10.502
  319.250  115.876    0.407    0.210   10.889
  319.500  123.264    0.395    0.216   11.307
  319.750  119.492    0.378    0.226   11.957
  320.000  108.870    0.367    0.242   12.411
  320.250  101.962    0.362    0.252   13.114
  320.500   96.298    0.361    0.263   13.358
  320.750   99.349    0.373    0.268   13.345
  321.000  102.415    0.398    0.263   13.335
  321.250  107.331    0.392    0.257   13.064
  321.500  107.896    0.382    0.245   12.809
  321.750  107.218    0.359    0.227   12.313
  322.000  109.662    0.355    0.217   12.303
  322.250  118.308    0.355    0.207   12.057
  322.500  127.575    0.358    0.205   12.050
  322.750  132.491    0.363    0.211   11.803
  323.000  134.300    0.375    0.222   12.026
  323.250  134.243    0.387    0.232   12.244
  323.500  125.485    0.382    0.247   12.463
  323.750  106.768    0.376    0.261   12.931
  324.000   93.038    0.373    0.275   13.165
  324.250   79.293    0.371    0.281   13.404
  324.500   76.129    0.370    0.265   13.650
  324.750   77.923    0.369    0.245   14.160
  325.000   79.110    0.364    0.239   14.420
  325.250   77.811    0.363    0.242   14.963
  325.500   77.147    0.359    0.246   14.663
  325.750   74.590    0.361    0.257   14.648
  326.000   73.305    0.362    0.273   14.629
  326.250   73.235    0.369    0.284   14.622
  326.500   72.557    0.381    0.293   15.168
  326.750   70.014    0.388    0.301   15.439
  327.000   66.850    0.391    0.306   15.431
  327.250   64.929    0.388    0.301   15.118
  327.500   66.102    0.387    0.291   15.110
  327.750   69.775    0.381    0.281   13.988
  328.000   73.462    0.367    0.272   12.470
  328.250   85.851    0.357    0.264   11.333
  328.500   90.767    0.382    0.259    9.365
  328.750  100.670    0.398    0.256    8.348
  329.000  110.559    0.436    0.251    7.878
  329.250  117.961    0.450    0.244    7.868
  329.500  120.377    0.440    0.238    7.860
  329.750  119.078    0.414    0.232    8.005
  330.000  117.792    0.398    0.224    8.627
  330.250  115.857    0.372    0.214    9.123
  330.500  114.544    0.373    0.212    9.833
  330.750  113.894    0.376    0.227   10.200
  331.000  112.595    0.380    0.254   10.584
  331.250  109.416    0.384    0.264   11.192
  331.500  106.860    0.379    0.269   11.616
  331.750  103.710    0.372    0.276   12.756
  332.000   99.303    0.372    0.284   13.747
  332.250   94.895    0.371    0.291   14.538
  332.500   87.988    0.371    0.292   13.979
  332.750   82.338    0.371    0.272   13.451
  333.000   74.823    0.374    0.245   11.992
  333.250   66.065    0.378    0.226   11.104
