~VERSION INFORMATION
 VERS.                 2.0:   CWLS LOG ASCII STANDARD -VERSION 2.0
 WRAP.                  NO:   ONE LINE PER DEPTH STEP
~WELL INFORMATION BLOCK
#MNEM.UNIT           DATA                    DESCRIPTION OF MNEMONIC
#---------    -------------------            -------------------------------
# Generated from Intellog Unique Number	CS_77_79/WELL/852
WELL.         CWWE LEISMER                   : Well_name    - WELL
LOC .         00/05-04-078-05W4/0            : Location     - LOCATION
UWI .         00/05-04-078-05W4/0            : Uwi          - UNIQUE WELL ID
ENTR.         JHS                            : Entered      - ENTERED BY
SRVC.         SCHLUMBERGER                   : Scn          - SERVICE COMPANY
STRT.M        165                            : top_depth    - START DEPTH
STOP.M        420                            : bot_depth    - STOP DEPTH
STEP.M        0.25                           : increment    - STEP LENGTH
 NULL. -999.2500:NULL Value
~CURVE INFORMATION BLOCK
#MNEM UNIT       ERCB CURVE CODE    CURVE DESCRIPTION
#-----------   ------------------   ----------------------------------
DEPT.M        00 001 00 00         : DEPTH        - DEPTH
DPHI.V/V      00 890 00 00         : PHID         - DENSITY POROSITY (LIMESTONE)
NPHI.V/V      00 330 00 00         : PHIN         - NEUTRON POROSITY (LIMESTONE)
GR  .API      00 310 00 00         : GR           - GAMMA RAY
ILD .OHMM     00 120 00 00         : RESD         - DEEP RESISTIVITY (DIL)
RHOB.KG/M3    00 350 00 00         : DENS         - BULK DENSITY
~PARAMETER INFORMATION
#MNEM.UNIT           DATA             DESCRIPTION OF MNEMONIC
#---------         -----------     ------------------------------
GL  .M        585.9                : gl           - GROUND LEVEL ELEVATION
EREF.M        589.8                : kb           - ELEVATION OF DEPTH REFERENCE
DATM.M        589.8                : datum        - DATUM ELEVATION
TDD .M        430                  : tdd          - TOTAL DEPTH DRILLER
RUN .         ONE                  : Run          - RUN NUMBER
ENG .         BILL                 : Engineer     - RECORDING ENGINEER
WIT .         JIM                  : Witness      - WITNESSED BY
MUD .         GEL                  : Mud_type     - MUD TYPE
MATR.         LIMESTONE            : Logunit      - NEUTRON MATRIX
TMAX.C        19                   : BHT          - MAXIMUM RECORDED TEMPERATURE
BHTD.M        430                  : BHTDEP       - MAXIMUM RECORDED TEMPERATURE
MATR.         1                    : LOGUNIT      - NEUTRON MATRIX
RMT .C        25                   : MDTP         - TEMPERATURE OF MUD
NEUT.         1                    : NEUTRON      - NEUTRON TYPE
RESI.         0                    : RESIST       - RESISTIVITY TYPE
RMC .OHMM     0.25                 : RMC          - RESISTIVITY OF MUD CAKE
RMF .OHMM     0.25                 : RMF          - RESISTIVITY OF MUD FILTRATE
SUFT.C        15                   : SUFT         - SURFACE TEMPERATURE
~A  DEPTH     PHID     PHIN       GR     RESD     DENS
# ...
  311.000    0.233    0.488   95.904    4.703    0.000
  311.250    0.238    0.491   95.858    4.448    0.000
  311.500    0.243    0.480   98.285    4.210    0.000
  311.750    0.252    0.468  100.703    3.982    0.000
  312.000    0.258    0.466   99.423    3.913    0.000
  312.250    0.262    0.488  103.690    3.920    0.000
  312.500    0.265    0.511  106.110    3.927    0.000
  312.750    0.267    0.526  101.762    4.006    0.000
  313.000    0.261    0.536   96.812    4.013    0.000
  313.250    0.262    0.542   94.927    3.943    0.000
  313.500    0.270    0.533  103.490    3.803    0.000
  313.750    0.280    0.519  104.672    3.808    0.000
  314.000    0.291    0.533   98.490    3.744    0.000
  314.250    0.297    0.540   90.453    4.121    0.000
  314.500    0.240    0.527   91.034    5.086    0.000
  314.750    0.161    0.491  103.281    5.929    0.000
  315.000    0.177    0.448  105.088    6.911 2406.620
  315.250    0.241    0.434  100.734    7.468 2298.420
  315.500    0.279    0.453   95.169    7.771 2232.600
  315.750    0.305    0.484   88.371    7.781 2187.960
  316.000    0.323    0.496   79.114    7.503 2158.160
  316.250    0.308    0.504   73.530    7.235 2183.430
  316.500    0.309    0.488   73.495    6.974 2181.160
  316.750    0.287    0.467   76.523    6.853 2219.170
  317.000    0.244    0.466   81.398    6.863 2293.200
  317.250    0.197    0.481   84.434    6.877 2373.590
  317.500    0.186    0.482   85.627    7.020 2392.500
  317.750    0.201    0.468   91.122    6.900 2366.960
  318.000    0.213    0.465   97.839    6.908 2345.600
  318.250    0.222    0.481   97.175    6.918 2330.640
  318.500    0.244    0.497   94.686    6.799 2292.370
  318.750    0.247    0.514   90.340    6.682 2287.960
  319.000    0.230    0.518   88.457    6.691 2317.500
  319.250    0.220    0.494   84.733    6.832 2334.310
  319.500    0.224    0.478   91.438    6.845 2327.790
  319.750    0.232    0.484   93.251    6.723 2312.850
  320.000    0.236    0.460   93.204    6.733 2306.360
  320.250    0.237    0.431   95.011    6.617 2304.080
  320.500    0.230    0.433   92.507    6.505 2316.630
  320.750    0.224    0.453   88.167    6.515 2327.130
  321.000    0.218    0.483   83.216    6.522 2337.590
  321.250    0.264    0.508   76.418    6.533 2259.050
  321.500    0.281    0.504   76.374    6.421 2229.220
  321.750    0.271    0.472   83.707    6.554 2246.010
  322.000    0.281    0.455   86.127    6.566 2228.940
  322.250    0.294    0.456   83.626    6.697 2207.620
  322.500    0.309    0.471   81.742    6.708 2182.040
  322.750    0.303    0.479   86.002    6.718 2192.510
  323.000    0.237    0.464   87.185    6.480 2304.670
  323.250    0.225    0.461   92.064    5.905 2325.710
  323.500    0.231    0.473   95.708    5.585 2314.960
  323.750    0.227    0.483   94.442    4.991 2321.200
  324.000    0.232    0.485   92.561    4.545 2312.600
  324.250    0.249    0.493   89.441    3.986 2284.900
  324.500    0.264    0.514   85.100    3.367 2259.330
  324.750    0.280    0.542   83.830    2.952 2231.610
  325.000    0.274    0.569   84.407    2.540 2242.090
  325.250    0.263    0.570   83.130    2.315 2261.020
  325.500    0.268    0.549   85.555    2.231 2252.400
  325.750    0.275    0.555   86.743    2.193 2239.520
  326.000    0.281    0.573   80.551    2.197 2228.810
  326.250    0.286    0.581   78.672    2.200 2220.180
  326.500    0.280    0.586   88.453    2.204 2230.660
  326.750    0.263    0.584   93.342    2.249 2260.190
  327.000    0.252    0.565   93.289    2.252 2279.130
  327.250    0.251    0.575   92.645    2.343 2281.060
  327.500    0.246    0.585   91.975    2.483 2289.430
  327.750    0.236    0.560   90.721    2.684 2306.260
  328.000    0.220    0.504   90.672    2.845 2333.620
  328.250    0.214    0.446   90.017    3.254 2344.110
  328.500    0.213    0.449   86.909    3.653 2346.080
  328.750    0.209    0.438   83.173    4.023 2352.310
  329.000    0.198    0.435   82.521    4.430 2371.230
  329.250    0.192    0.425   84.939    4.878 2381.680
  329.500    0.203    0.413   88.589    5.171 2362.470
  329.750    0.227    0.403   91.622    5.482 2322.080
  330.000    0.243    0.413   91.573    5.704 2294.370
  330.250    0.239    0.450   94.614    5.604 2300.600
  330.500    0.222    0.475  100.716    5.203 2330.130
  330.750    0.212    0.473  102.520    4.922 2346.940
  331.000    0.214    0.460  103.704    4.485 2344.660
  331.250    0.215    0.455   99.974    4.163 2342.410
  331.500    0.219    0.458   97.479    3.938 2335.940
  331.750    0.226    0.463   94.980    3.801 2323.040
  332.000    0.223    0.459   93.699    3.733 2329.290
  332.250    0.210    0.469   94.904    3.740 2350.330
  332.500    0.205    0.482   97.928    3.743 2358.670
  332.750    0.213    0.472   96.047    3.679 2345.810
  333.000    0.227    0.471   94.777    3.615 2322.360
  333.250    0.232    0.477   96.579    3.553 2313.750
  333.500    0.232    0.485  100.225    3.427 2313.630
  333.750    0.227    0.493  100.803    3.303 2321.950
  334.000    0.227    0.505  100.149    3.246 2321.820
  334.250    0.225    0.511   98.263    3.313 2325.920
  334.500    0.215    0.501   93.305    3.515 2342.720
  334.750    0.204    0.439   88.349    3.655 2361.650
  335.000    0.198    0.423   88.307    3.949 2372.060
  335.250    0.196    0.426   93.182    4.266 2374.100
  335.500    0.109    0.416   91.302    4.975 2524.410
  335.750    0.050    0.395   82.042    5.476 2623.850
  336.000    0.013    0.374   71.557    6.265 2687.290
  336.250    0.051    0.357   67.214    7.166 2623.560
  336.500    0.141    0.348   77.616    8.044 2468.750
  336.750    0.220    0.370   84.948    8.691 2333.000
  337.000    0.235    0.390   85.523    9.040 2307.420
  337.250    0.253    0.400   79.951    9.225 2277.620
  337.500    0.272    0.382   73.147    9.067 2245.690
  337.750    0.291    0.351   72.500    8.748 2211.650
  338.000    0.310    0.329   71.232    8.930 2179.720
  338.250    0.323    0.325   68.731    8.607 2158.400
  338.500    0.308    0.331   77.909    8.141 2183.690
  338.750    0.266    0.350   89.540    7.278 2255.580
  339.000    0.255    0.355   89.496    6.628 2274.510
  339.250    0.272    0.267   77.173    5.815 2244.710
  339.500    0.309    0.164   64.839    5.823 2181.010
  339.750    0.384    0.080   50.053    6.410 2053.720
  340.000    0.405    0.078   53.697   10.924 2017.550
  340.250    0.415    0.084   57.345   16.603 2000.450
  340.500    0.421    0.097   56.690   25.244 1989.730
  340.750    0.426    0.110   52.960   35.573 1981.100
  341.000    0.424    0.131   55.376   43.074 1985.160
  341.250    0.419    0.164   59.639   39.254 1993.550
  341.500    0.405    0.194   59.598   31.904 2016.720
  341.750    0.382    0.258   57.704   23.136 2056.820
  342.000    0.349    0.289   60.744   15.265 2113.900
  342.250    0.325    0.307   61.931    9.516 2154.030
  342.500    0.322    0.330   56.978    8.037 2160.230
  342.750    0.314    0.372   52.016    7.461 2172.810
  343.000    0.292    0.413   58.740    7.333 2210.810
  343.250    0.265    0.433   75.903    7.345 2257.300
  343.500    0.224    0.415   93.684    7.640 2327.090
  343.750    0.209    0.417  103.472    7.650 2352.370
  344.000    0.202    0.443  105.275    7.516 2364.950
  344.250    0.206    0.441  103.394    7.386 2358.440
  344.500    0.199    0.419   99.050    7.398 2368.900
  344.750    0.187    0.424   97.156    7.555 2389.960
  345.000    0.181    0.434   99.576    7.563 2400.400
  345.250    0.187    0.428  100.772    7.720 2389.660
  345.500    0.171    0.420  100.111    7.880 2417.090
  345.750    0.155    0.428   98.233    7.892 2444.480
  346.000    0.168    0.422   99.421    7.759 2423.150
  346.250    0.181    0.400  100.593    7.769 2399.700
  346.500    0.187    0.388   99.340    7.781 2391.060
  346.750    0.184    0.408   94.981    7.646 2395.180
  347.000    0.183    0.431   95.573    7.515 2397.140
  347.250    0.185    0.453   97.373    7.245 2392.800
