~VERSION INFORMATION
 VERS.                 2.0:   CWLS LOG ASCII STANDARD -VERSION 2.0
 WRAP.                  NO:   ONE LINE PER DEPTH STEP
~WELL INFORMATION BLOCK
#MNEM.UNIT           DATA                    DESCRIPTION OF MNEMONIC
#---------    -------------------            -------------------------------
# Generated from Intellog Unique Number	CN_94_101/WELL/2626
WELL.         PARAMOUNT RESOURCES LTD.       : Well_name    - WELL
LOC .         00/03-31-094-17W4/0            : Location     - LOCATION
UWI .         00/03-31-094-17W400            : Uwi          - UNIQUE WELL ID
ENTR.         JOETTE                         : Entered      - ENTERED BY
SRVC.         COMPUTALOG                     : Scn          - SERVICE COMPANY
DATE.         06/18/92                       : Date         - LOG DATE
STRT.M        90                             : top_depth    - START DEPTH
STOP.M        280                            : bot_depth    - STOP DEPTH
STEP.M        0.25                           : increment    - STEP LENGTH
 NULL. -999.2500:NULL Value
~CURVE INFORMATION BLOCK
#MNEM UNIT       ERCB CURVE CODE    CURVE DESCRIPTION
#-----------   ------------------   ----------------------------------
DEPT.M        00 001 00 00         : DEPTH        - DEPTH
CALI.MM       00 280 01 00         : CAL          - CALIPER
GR  .API      00 310 00 00         : GR           - GAMMA RAY
NPHI.V/V      00 330 00 00         : PHIN         - NEUTRON POROSITY (SANDSTONE)
DPHI.V/V      00 890 00 00         : PHID         - DENSITY POROSITY (SANDSTONE)
ILD .OHMM     00 120 00 00         : RESD         - DEEP RESISTIVITY (DIL)
~PARAMETER INFORMATION
#MNEM.UNIT           DATA             DESCRIPTION OF MNEMONIC
#---------         -----------     ------------------------------
GL  .M        538.3                : gl           - GROUND LEVEL ELEVATION
EREF.M        542.1                : kb           - ELEVATION OF DEPTH REFERENCE
DATM.M        542.1                : datum        - DATUM ELEVATION
TDD .M        281.4                : tdd          - TOTAL DEPTH DRILLER
RUN .         ONE                  : Run          - RUN NUMBER
ENG .         JO                   : Engineer     - RECORDING ENGINEER
WIT .         TIM                  : Witness      - WITNESSED BY
MUD .         GEL                  : Mud_type     - MUD TYPE
MATR.         SANDSTONE            : Logunit      - NEUTRON MATRIX
TMAX.C        25                   : BHT          - MAXIMUM RECORDED TEMPERATURE
BHTD.M        281.4                : BHTDEP       - MAXIMUM RECORDED TEMPERATURE
RMT .C        16                   : MDTP         - TEMPERATURE OF MUD
MUDD.KG/M     1100                 : MWT          - MUD DENSITY
NEUT.         1                    : NEUTRON      - NEUTRON TYPE
RESI.         0                    : RESIST       - RESISTIVITY TYPE
RM  .OHMM     4.1                  : RM           - RESISTIVITY OF MUD
RMC .OHMM     4.1                  : RMC          - RESISTIVITY OF MUD CAKE
RMF .OHMM     4.1                  : RMF          - RESISTIVITY OF MUD FILTRATE
SUFT.C        4                    : SUFT         - SURFACE TEMPERATURE
~A  DEPTH      CAL       GR     PHIN     PHID     RESD
# ...
  236.000  160.824   99.708    0.412    0.159    9.259
  236.250  160.895  106.483    0.429    0.186    9.101
  236.500  163.025  109.608    0.444    0.176    8.303
  236.750  165.178  114.536    0.451    0.176    7.296
  237.000  167.308  120.090    0.454    0.175    6.292
  237.250  166.360  117.703    0.461    0.168    5.747
  237.500  163.400  114.095    0.465    0.132    5.753
  237.750  160.463  108.057    0.474    0.104    6.098
  238.000  158.544  103.226    0.465    0.106    6.465
  238.250  158.615  100.215    0.443    0.098    6.604
  238.500  158.709   97.217    0.412    0.061    6.139
  238.750  159.797   95.455    0.394    0.096    5.925
  239.000  162.992  100.383    0.413    0.153    5.827
  239.250  163.039  106.548    0.431    0.168    5.728
  239.500  165.169  105.993    0.438    0.152    5.228
  239.750  165.262  104.231    0.442    0.139    5.142
  240.000  165.356  104.274    0.448    0.143    5.769
  240.250  165.450  105.566    0.448    0.165    5.996
  240.500  164.526  106.233    0.435    0.175    6.602
  240.750  163.625  103.832    0.422    0.170    6.738
  241.000  162.724  103.902    0.422    0.164    6.752
  241.250  162.795  106.416    0.433    0.166    6.643
  241.500  162.865  106.444    0.440    0.152    6.530
  241.750  164.000  105.903    0.437    0.111    6.428
  242.000  165.112  103.502    0.421    0.090    6.435
  242.250  165.183   90.731    0.384    0.102    6.701
  242.500  166.294   92.037    0.385    0.137    6.835
  242.750  168.471   93.301    0.405    0.150    7.383
  243.000  169.560   94.565    0.408    0.160    6.736
  243.250  169.724   95.232    0.412    0.174    6.149
  243.500  169.771   97.135    0.417    0.174    5.824
  243.750  168.847   99.010    0.429    0.165    5.947
  244.000  168.917  102.120    0.460    0.156    6.304
  244.250  168.040  105.855    0.435    0.151    6.679
  244.500  168.087  102.872    0.430    0.148    7.636
  244.750  169.222  102.289    0.431    0.154   10.526
  245.000  169.316  100.513    0.444    0.160   10.957
  245.250  170.428   99.347    0.456    0.153   11.835
  245.500  170.498   99.418    0.454    0.148   13.272
  245.750  168.603   98.863    0.427    0.148   18.641
  246.000  166.613   92.186    0.362    0.201   19.393
  246.250  162.635   71.461    0.351    0.252   21.355
  246.500  156.621   63.576    0.373    0.224   22.638
  246.750  154.655   61.203    0.373    0.186   23.986
  247.000  151.765   60.038    0.341    0.080   24.954
  247.250  151.835   49.696    0.287    0.178   25.005
  247.500  151.882   44.866    0.232    0.237   26.028
  247.750  152.023   47.366    0.191    0.343   27.065
  248.000  152.140   46.811    0.185    0.391   30.942
  248.250  152.187   40.134    0.194    0.375   37.404
  248.500  152.305   37.151    0.206    0.366   51.560
  248.750  152.398   39.053    0.221    0.365   53.641
  249.000  152.469   40.331    0.233    0.364   56.922
  249.250  152.563   42.234    0.242    0.364   54.939
  249.500  153.674   43.498    0.254    0.364   52.997
  249.750  153.792   46.026    0.271    0.360   52.120
  250.000  153.886   46.665    0.285    0.350   51.283
  250.250  155.021   47.929    0.294    0.329   50.381
  250.500  155.068   49.817    0.302    0.329   50.511
  250.750  156.203   49.874    0.310    0.333   51.574
  251.000  157.315   49.930    0.325    0.326   53.738
  251.250  158.427   48.793    0.360    0.319   55.879
  251.500  158.521   48.210    0.387    0.316   58.105
  251.750  159.632   46.434    0.380    0.317   60.450
  252.000  160.744   42.215    0.361    0.320   64.049
  252.250  160.838   39.217    0.359    0.321   67.966
  252.500  160.932   40.509    0.388    0.323   70.673
  252.750  161.049   41.773    0.413    0.330   72.123
  253.000  161.096   42.440    0.415    0.332   73.678
  253.250  160.195   37.609    0.406    0.321   73.867
  253.500  160.266   36.458    0.398    0.318   71.257
  253.750  159.342   37.736    0.419    0.316   68.774
  254.000  158.417   39.014    0.415    0.315   68.916
  254.250  157.517   38.459    0.403    0.316   69.022
  254.500  156.569   37.294    0.389    0.320   69.200
  254.750  156.663   37.350    0.374    0.313   69.307
  255.000  154.720   40.461    0.381    0.309   70.837
  255.250  152.778   42.960    0.391    0.302   72.253
  255.500  149.841   40.559    0.365    0.298   72.402
  255.750  147.876   30.232    0.356    0.307   59.023
  256.000  144.962   21.111    0.328    0.323   49.982
  256.250  145.009   21.168    0.315    0.331   49.129
  256.500  146.168   22.460    0.322    0.337   49.230
  256.750  147.256   23.766    0.333    0.336   50.266
  257.000  148.368   24.433    0.342    0.335   52.295
  257.250  150.522   25.086    0.358    0.333   54.406
  257.500  151.587   25.128    0.380    0.333   57.674
  257.750  152.745   25.795    0.379    0.333   62.361
  258.000  153.834   27.698    0.370    0.329   64.811
  258.250  155.987   28.351    0.380    0.327   67.428
  258.500  156.057   30.240    0.393    0.326   70.150
  258.750  156.175   32.740    0.391    0.331   71.625
  259.000  156.269   33.421    0.397    0.335   71.846
  259.250  157.357   32.866    0.399    0.332   70.620
  259.500  157.451   32.312    0.385    0.333   66.927
  259.750  158.633   33.604    0.385    0.336   64.529
  260.000  158.656   34.853    0.390    0.328   58.873
  260.250  158.750   35.521    0.369    0.322   56.822
  260.500  159.862   30.094    0.355    0.328   55.880
  260.750  159.979   27.082    0.351    0.332   54.983
  261.000  160.097   25.320    0.349    0.331   55.068
  261.250  160.144   24.751    0.346    0.329   55.181
  261.500  160.261   24.211    0.344    0.327   56.342
  261.750  160.331   24.267    0.342    0.325   59.757
  262.000  158.389   25.545    0.351    0.320   63.314
  262.250  158.506   26.226    0.366    0.320   72.385
  262.500  158.600   26.254    0.382    0.325   84.365
  262.750  158.741   26.935    0.380    0.329   89.341
  263.000  158.788   27.616    0.369    0.328  100.242
  263.250  158.882   28.256    0.371    0.325  108.275
  263.500  158.975   28.326    0.381    0.320  116.953
  263.750  159.069   27.785    0.367    0.315  121.674
  264.000  159.186   26.592    0.350    0.313  126.586
  264.250  159.233   24.816    0.336    0.308  131.764
  264.500  158.333   24.872    0.326    0.305  132.103
  264.750  158.403   25.553    0.330    0.307  127.435
  265.000  158.520   25.624    0.362    0.310  120.647
  265.250  158.638   25.652    0.380    0.317  106.018
  265.500  158.684   25.736    0.383    0.323   96.675
  265.750  158.778   26.403    0.391    0.324   88.246
  266.000  158.872   28.292    0.396    0.324   82.035
  266.250  159.013   29.556    0.391    0.319   74.806
  266.500  159.083   32.070    0.383    0.318   65.803
  266.750  158.159   33.347    0.372    0.320   63.445
  267.000  157.211   32.793    0.371    0.321   57.943
  267.250  157.305   33.460    0.403    0.319   55.896
  267.500  156.404   35.960    0.398    0.316   52.973
  267.750  156.475   36.613    0.389    0.315   51.101
  268.000  156.592   35.447    0.380    0.314   49.295
  268.250  156.709   35.504    0.370    0.314   44.116
  268.500  156.780   38.003    0.361    0.314   32.744
  268.750  156.920   42.335    0.350    0.308   21.313
  269.000  156.991   50.346    0.396    0.288   19.435
  269.250  157.085   62.022    0.417    0.239   13.134
  269.500  157.155   66.340    0.433    0.224    9.210
  269.750  157.249   74.962    0.440    0.202    6.221
  270.000  157.366   79.919    0.440    0.183    5.898
  270.250  157.460   79.989    0.445    0.165    5.908
  270.500  157.577   79.407    0.446    0.168    6.032
  270.750  157.647   77.034    0.433    0.184    6.401
  271.000  157.718   75.243    0.418    0.198    6.656
  271.250  158.853   77.743    0.420    0.191    7.052
  271.500  158.924   80.243    0.439    0.185    7.769
  271.750  159.017   84.575    0.438    0.192    8.075
  272.000  159.135   84.631    0.479    0.227   10.924
  272.250  159.228   56.575    0.450    0.268   25.052
