~VERSION INFORMATION
 VERS.                 2.0:   CWLS LOG ASCII STANDARD -VERSION 2.0
 WRAP.                  NO:   ONE LINE PER DEPTH STEP
~WELL INFORMATION BLOCK
#MNEM.UNIT           DATA                    DESCRIPTION OF MNEMONIC
#---------    -------------------            -------------------------------
# Generated from Intellog Unique Number	CC_80_83/WELL/1046
LOC .         00/03-03-081-10W4/0            : Location     - LOCATION
UWI .         00/03-03-081-10W400            : Uwi          - UNIQUE WELL ID
ENTR.         DW                             : Entered      - ENTERED BY
SRVC.         SCHLUMBERGER                   : Scn          - SERVICE COMPANY
STRT.M        250                            : top_depth    - START DEPTH
STOP.M        484.75                         : bot_depth    - STOP DEPTH
STEP.M        0.25                           : increment    - STEP LENGTH
 NULL. -999.2500:NULL Value
~CURVE INFORMATION BLOCK
#MNEM UNIT       ERCB CURVE CODE    CURVE DESCRIPTION
#-----------   ------------------   ----------------------------------
DEPT.M        00 001 00 00         : DEPTH        - DEPTH
GR  .API      00 310 00 00         : GR           - GAMMA RAY
DPHI.V/V      00 890 00 00         : PHID         - DENSITY POROSITY (SANDSTONE)
NPHI.V/V      00 330 00 00         : PHIN         - NEUTRON POROSITY (SANDSTONE)
ILD .OHMM     00 120 00 00         : RESD         - DEEP RESISTIVITY (DIL)
~PARAMETER INFORMATION
#MNEM.UNIT           DATA             DESCRIPTION OF MNEMONIC
#---------         -----------     ------------------------------
GL  .M        695                  : gl           - GROUND LEVEL ELEVATION
EREF.M        698.2                : kb           - ELEVATION OF DEPTH REFERENCE
DATM.M        698.2                : datum        - DATUM ELEVATION
TDD .M        492                  : tdd          - TOTAL DEPTH DRILLER
RUN .         ONE                  : Run          - RUN NUMBER
ENG .         BILL                 : Engineer     - RECORDING ENGINEER
WIT .         JIM                  : Witness      - WITNESSED BY
MUD .         GEL                  : Mud_type     - MUD TYPE
MATR.         SANDSTONE            : Logunit      - NEUTRON MATRIX
TMAX.C        27                   : BHT          - MAXIMUM RECORDED TEMPERATURE
BHTD.M        492                  : BHTDEP       - MAXIMUM RECORDED TEMPERATURE
MATR.         1                    : LOGUNIT      - NEUTRON MATRIX
RMT .C        25                   : MDTP         - TEMPERATURE OF MUD
NEUT.         1                    : NEUTRON      - NEUTRON TYPE
RESI.         0                    : RESIST       - RESISTIVITY TYPE
RMC .OHMM     0.25                 : RMC          - RESISTIVITY OF MUD CAKE
RMF .OHMM     0.25                 : RMF          - RESISTIVITY OF MUD FILTRATE
SUFT.C        15                   : SUFT         - SURFACE TEMPERATURE
~A  DEPTH       GR     PHID     PHIN     RESD
  250.000   98.510    0.270    0.507    3.450
  250.250   95.592    0.270    0.513    3.504
  250.500   94.837    0.267    0.528    3.569
  250.750   94.284    0.264    0.543    3.598
  251.000   94.141    0.263    0.545    3.570
  251.250   94.772    0.265    0.529    3.506
  251.500   95.293    0.268    0.527    3.452
  251.750   96.357    0.271    0.570    3.447
  252.000   97.256    0.275    0.554    3.493
  252.250   99.155    0.278    0.521    3.562
  252.500  100.671    0.280    0.520    3.594
  252.750  100.152    0.283    0.551    3.591
  253.000   98.433    0.288    0.591    3.590
  253.250   95.261    0.289    0.584    3.536
  253.500   92.579    0.283    0.574    3.472
  253.750   92.057    0.278    0.568    3.444
  254.000   93.331    0.277    0.559    3.475
  254.250   96.907    0.276    0.552    3.533
  254.500  103.480    0.273    0.541    3.593
  254.750  107.131    0.270    0.534    3.717
  255.000  100.300    0.267    0.550    3.771
  255.250   92.452    0.257    0.550    3.927
  255.500   89.050    0.247    0.528    4.058
  255.750   87.266    0.247    0.502    4.034
  256.000   88.824    0.254    0.471    4.037
  256.250   97.592    0.254    0.466    3.976
  256.500   99.644    0.253    0.491    3.906
  256.750   90.739    0.258    0.503    3.856
  257.000   86.715    0.266    0.520    3.763
  257.250   93.105    0.269    0.546    3.651
  257.500   95.140    0.268    0.533    3.597
  257.750   93.084    0.263    0.529    3.527
  258.000   91.382    0.255    0.535    3.612
  258.250   91.993    0.247    0.539    3.734
  258.500   95.775    0.242    0.549    3.892
  258.750  100.141    0.240    0.548    4.061
  259.000  100.824    0.240    0.514    4.042
  259.250   99.480    0.246    0.493    3.917
  259.500   95.802    0.252    0.495    3.787
  259.750   93.460    0.254    0.503    3.687
  260.000   93.025    0.254    0.502    3.690
  260.250   93.399    0.252    0.502    3.745
  260.500   95.701    0.248    0.515    3.743
  260.750   97.804    0.245    0.523    3.865
  261.000   93.713    0.247    0.520    3.954
  261.250   85.891    0.249    0.507    3.986
  261.500   84.575    0.248    0.504    4.123
  261.750   91.348    0.248    0.507    4.178
  262.000   96.298    0.258    0.493    3.893
  262.250   95.677    0.283    0.492    3.904
  262.500   85.810    0.302    0.499    4.485
  262.750   77.937    0.298    0.506    5.839
  263.000   71.248    0.300    0.467    8.838
  263.250   61.515    0.320    0.411   12.602
  263.500   57.492    0.323    0.423   14.520
  263.750   61.499    0.309    0.434   14.496
  264.000   66.186    0.290    0.435   12.606
  264.250   72.509    0.284    0.441   10.798
  264.500   79.957    0.287    0.437   10.066
  264.750   84.857    0.288    0.419   10.448
  265.000   84.147    0.289    0.422   11.743
  265.250   75.117    0.308    0.432   12.384
  265.500   69.246    0.338    0.439   12.637
  265.750   70.047    0.335    0.439   12.656
  266.000   74.900    0.300    0.439   11.561
  266.250   79.771    0.273    0.437    9.474
  266.500   81.566    0.264    0.426    8.135
  266.750   80.875    0.261    0.417    8.064
  267.000   76.158    0.281    0.430    8.625
  267.250   68.563    0.320    0.445   10.419
  267.500   62.446    0.349    0.438   13.612
  267.750   60.431    0.352    0.421   16.904
  268.000   61.190    0.343    0.393   19.070
  268.250   65.109    0.355    0.356   20.238
  268.500   81.111    0.522    0.599   19.023
  268.750  124.078    0.628    0.713   16.276
  269.000  158.361    0.607    0.642   13.503
  269.250  150.707    0.593    0.626   11.410
  269.500  118.989    0.542    0.570   10.474
  269.750   78.694    0.316    0.436   11.134
  270.000   64.616    0.270    0.380   12.070
  270.250   63.122    0.301    0.388   14.295
  270.500   59.732    0.299    0.390   17.001
  270.750   54.680    0.312    0.378   18.637
  271.000   46.465    0.322    0.367   19.468
  271.250   41.843    0.323    0.365   19.259
  271.500   52.596    0.325    0.355   18.049
  271.750   62.032    0.291    0.405   16.115
  272.000   58.124    0.255    0.453   14.819
  272.250   52.755    0.258    0.433   14.953
  272.500   57.923    0.270    0.407   15.443
  272.750   61.443    0.282    0.392   15.244
  273.000   62.276    0.288    0.403   14.648
  273.250   65.105    0.289    0.427   13.603
  273.500   66.751    0.282    0.429   12.726
  273.750   66.401    0.245    0.401   12.840
  274.000   71.239    0.201    0.377   13.761
  274.250   77.491    0.234    0.372   14.888
  274.500   72.251    0.264    0.387   16.425
  274.750   64.843    0.311    0.418   17.808
  275.000   60.576    0.339    0.427   19.660
  275.250   56.406    0.319    0.404   21.813
  275.500   54.651    0.316    0.396   22.767
  275.750   57.802    0.328    0.402   23.527
  276.000   59.484    0.336    0.425   24.226
  276.250   57.572    0.339    0.444   25.380
  276.500   55.144    0.338    0.444   26.340
  276.750   55.689    0.336    0.442   26.659
  277.000   59.071    0.341    0.446   27.112
  277.250   62.547    0.345    0.415   27.547
  277.500   68.456    0.343    0.402   28.067
  277.750   71.815    0.343    0.422   28.181
  278.000   71.443    0.345    0.442   28.341
  278.250   71.183    0.344    0.436   28.809
  278.500   72.370    0.340    0.423   28.746
  278.750   73.916    0.336    0.430   28.278
  279.000   75.719    0.335    0.437   27.940
  279.250   76.156    0.334    0.430   26.892
  279.500   74.906    0.335    0.418   25.789
  279.750   74.361    0.333    0.420   25.617
  280.000   76.146    0.324    0.423   25.611
  280.250   78.175    0.324    0.389   25.199
  280.500   81.615    0.326    0.390   24.889
  280.750   87.808    0.321    0.405   23.957
  281.000   92.773    0.310    0.406   22.978
  281.250   93.040    0.302    0.403   22.812
  281.500   91.991    0.298    0.403   22.818
  281.750   95.105    0.293    0.414   22.269
  282.000  103.316    0.275    0.430   20.003
  282.250  106.741    0.263    0.431   18.696
  282.500   97.183    0.272    0.424   18.980
  282.750   77.468    0.286    0.417   19.778
  283.000   57.565    0.293    0.388   20.325
  283.250   47.827    0.293    0.345   18.093
  283.500   63.297    0.263    0.347   14.489
  283.750   87.979    0.227    0.406   12.031
  284.000  103.763    0.213    0.431    9.999
  284.250  110.010    0.194    0.436    7.892
  284.500  111.611    0.162    0.507    7.151
  284.750  108.364    0.207    0.491    6.389
  285.000  113.177    0.241    0.466    5.829
  285.250  118.442    0.222    0.453    5.446
  285.500  119.459    0.196    0.450    5.146
  285.750  117.865    0.195    0.473    4.898
  286.000  112.829    0.202    0.505    4.586
  286.250  108.973    0.224    0.521    4.301
  286.500  107.028    0.245    0.539    4.021
  286.750  111.315    0.257    0.520    3.847
  287.000  118.825    0.267    0.491    3.919
  287.250  124.811    0.278    0.505    4.120
  287.500  124.852    0.293    0.537    4.777
  287.750  107.061    0.326    0.524    7.071
  288.000   87.473    0.344    0.483    9.580
  288.250   86.379    0.349    0.450   12.127
  288.500   92.543    0.345    0.432   15.059
  288.750   91.519    0.325    0.417   17.463
  289.000   91.167    0.298    0.402   18.142
  289.250   91.808    0.288    0.396   17.896
  289.500   90.752    0.293    0.387   17.332
  289.750   88.143    0.308    0.429   16.895
  290.000   81.118    0.326    0.461   16.797
  290.250   73.984    0.336    0.424   16.763
  290.500   78.457    0.340    0.397   16.158
  290.750   91.504    0.331    0.391   14.716
  291.000  104.041    0.273    0.404   13.055
  291.250  108.118    0.264    0.453   11.125
  291.500  101.080    0.244    0.461    9.815
  291.750   97.057    0.172    0.430    9.552
  292.000  108.931    0.164    0.460    9.407
  292.250  114.714    0.165    0.459    9.542
  292.500  110.363    0.197    0.461    9.888
  292.750   98.931    0.259    0.474   10.834
  293.000   94.642    0.299    0.452   12.203
  293.250  103.321    0.287    0.408   14.069
