~VERSION INFORMATION
 VERS.                 2.0:   CWLS LOG ASCII STANDARD -VERSION 2.0
 WRAP.                  NO:   ONE LINE PER DEPTH STEP
~WELL INFORMATION BLOCK
#MNEM.UNIT           DATA                    DESCRIPTION OF MNEMONIC
#---------    -------------------            -------------------------------
# Generated from Intellog Unique Number	CS_69_70/WELL/822
NULL.         -999.25                        : NULL_VALUE
WELL.         A.E.C. FISHER                  : Well_name    - WELL              
LOC .         00/07-16-070-04W4/0            : Location     - LOCATION          
UWI .         00/07-16-070-04W4/0            : Uwi          - UNIQUE WELL ID    
ENTR.         SP                             : Entered      - ENTERED BY        
SRVC.         SCHLUMBERGER                   : Scn          - SERVICE COMPANY   
STRT.M        300                            : top_depth    - START DEPTH       
STOP.M        515                            : bot_depth    - STOP DEPTH        
STEP.M        0.25                           : increment    - STEP LENGTH       
~CURVE INFORMATION BLOCK
#MNEM UNIT       ERCB CURVE CODE    CURVE DESCRIPTION
#-----------   ------------------   ----------------------------------
DEPT.M        00 001 00 00         : DEPTH        - DEPTH                       
GR  .API      00 310 00 00         : GR           - GAMMA RAY                   
NPHI.V/V      00 330 00 00         : PHIN         - NEUTRON POROSITY (LIMESTONE)
DPHI.V/V      00 890 00 00         : PHID         - DENSITY POROSITY (LIMESTONE)
ILD .OHMM     00 120 00 00         : RESD         - DEEP RESISTIVITY (DIL)      
~PARAMETER INFORMATION       
#MNEM.UNIT           DATA             DESCRIPTION OF MNEMONIC
#---------         -----------     ------------------------------
GL  .M        677.5                : gl           - GROUND LEVEL ELEVATION      
EREF.M        681                  : kb           - ELEVATION OF DEPTH REFERENCE
DATM.M        677.5                : datum        - DATUM ELEVATION             
TDD .M        536                  : tdd          - TOTAL DEPTH DRILLER         
RUN .         ONE                  : Run          - RUN NUMBER                  
ENG .         BILL                 : Engineer     - RECORDING ENGINEER          
WIT .         JIM                  : Witness      - WITNESSED BY                
MUD .         GEL                  : Mud_type     - MUD TYPE                    
MATR.         LIMESTONE            : Logunit      - NEUTRON MATRIX              
TMAX.C        31                   : BHT          - MAXIMUM RECORDED TEMPERATURE
BHTD.M        536                  : BHTDEP       - MAXIMUM RECORDED TEMPERATURE
MATR.         1                    : LOGUNIT      - NEUTRON MATRIX              
RMT .C        25                   : MDTP         - TEMPERATURE OF MUD          
NEUT.         1                    : NEUTRON      - NEUTRON TYPE                
RESI.         0                    : RESIST       - RESISTIVITY TYPE            
RMC .OHMM     0.25                 : RMC          - RESISTIVITY OF MUD CAKE     
RMF .OHMM     0.25                 : RMF          - RESISTIVITY OF MUD FILTRATE 
SUFT.C        15                   : SUFT         - SURFACE TEMPERATURE         
~A  DEPTH       GR     PHIN     PHID     RESD
  300.000  100.209    0.495    0.296    3.505
  300.250   98.422    0.498    0.301    3.570
  300.500   97.832    0.499    0.291    3.637
  300.750   96.642    0.507    0.269    3.775
  301.000   96.665    0.509    0.266    3.845
  301.250   97.904    0.499    0.272    3.917
  301.500  102.183    0.553    0.264    3.916
  301.750   99.174    0.564    0.254    3.990
  302.000   94.950    0.513    0.242    4.064
  302.250   93.155    0.490    0.220    4.140
  302.500   93.782    0.477    0.223    4.139
  302.750   93.198    0.467    0.255    4.062
  303.000   97.479    0.457    0.251    3.839
  303.250   99.932    0.456    0.257    3.697
  303.500  100.564    0.465    0.258    3.560
  303.750   99.982    0.516    0.256    3.494
  304.000   97.583    0.515    0.263    3.428
  304.250   93.362    0.503    0.261    3.558
  304.500   90.949    0.479    0.248    3.834
  304.750   87.333    0.465    0.187    4.054
  305.000   88.571    0.449    0.171    4.054
  305.250   91.023    0.442    0.165    4.053
  305.500   91.048    0.446    0.253    3.903
  305.750   93.506    0.469    0.262    3.689
  306.000   95.959    0.493    0.263    3.422
  306.250   98.415    0.499    0.266    3.296
  306.500   99.046    0.493    0.275    3.174
  306.750   94.213    0.496    0.276    3.420
  307.000   86.952    0.608    0.278    3.971
  307.250   75.439    0.612    0.300    4.699
  307.500   70.603    0.578    0.338    5.993
  307.750   75.487    0.461    0.409    7.786
  308.000   76.729    0.361    0.353    9.565
  308.250   74.934    0.327    0.299   11.531
  308.500   76.179    0.313    0.301   12.899
  308.750   77.416    0.305    0.327   13.388
  309.000   81.093    0.339    0.337   13.386
  309.250   82.931    0.360    0.320   13.134
  309.500   86.604    0.366    0.295   12.414
  309.750   88.445    0.355    0.295   11.956
  310.000   86.649    0.359    0.280   12.643
  310.250   79.996    0.345    0.251   14.682
  310.500   75.771    0.325    0.290   15.821
  310.750   73.362    0.312    0.357   17.370
  311.000   72.782    0.290    0.394   18.370
  311.250   75.248    0.278    0.381   18.713
  311.500   75.871    0.309    0.370   17.358
  311.750   78.330    0.318    0.364   15.805
  312.000   79.565    0.319    0.367   12.860
  312.250   81.413    0.347    0.345   11.708
  312.500   81.439    0.394    0.337   10.078
  312.750   85.105    0.400    0.332    9.006
  313.000   89.999    0.403    0.335    8.673
  313.250   86.983    0.420    0.324    8.670
  313.500   82.756    0.423    0.319    8.507
  313.750   82.181    0.421    0.330    8.348
  314.000   90.092    0.416    0.336    8.040
  314.250   99.232    0.419    0.332    7.599
  314.500  101.073    0.434    0.322    7.183
  314.750  102.312    0.449    0.293    6.789
  315.000  100.516    0.472    0.283    7.738
  315.250  100.542    0.380    0.274    8.818
  315.500   86.601    0.332    0.299    8.983
  315.750   72.052    0.322    0.322    9.152
  316.000   64.179    0.364    0.334    8.813
  316.250   75.136    0.392    0.301    8.024
  316.500   87.309    0.406    0.277    7.874
  316.750   90.980    0.415    0.258    7.582
  317.000   92.217    0.422    0.248    7.440
  317.250   94.674    0.427    0.242    7.439
  317.500   92.277    0.430    0.232    7.437
  317.750   92.299    0.436    0.241    7.298
  318.000   94.142    0.443    0.285    7.028
  318.250   97.811    0.450    0.308    6.519
  318.500  102.696    0.454    0.310    6.162
  318.750  109.404    0.449    0.293    5.610
  319.000  111.246    0.444    0.263    5.108
  319.250  111.883    0.434    0.243    4.738
  319.500  107.655    0.450    0.228    4.396
  319.750  113.152    0.466    0.232    4.155
  320.000  116.823    0.469    0.239    4.077
  320.250  116.236    0.474    0.242    3.926
  320.500  114.435    0.481    0.244    3.574
  320.750  119.935    0.480    0.246    3.379
  321.000  121.775    0.536    0.249    3.134
  321.250  123.015    0.569    0.266    3.018
  321.500  120.610    0.519    0.269    3.376
  321.750  112.134    0.321    0.269    4.387
  322.000   88.472    0.258    0.302    6.746
  322.250   66.029    0.222    0.348   12.746
  322.500   49.656    0.210    0.374   25.002
  322.750   34.499    0.256    0.400   41.437
  323.000   41.812    0.296    0.423   46.351
  323.250   49.739    0.280    0.440   38.428
  323.500   52.193    0.217    0.440   33.078
  323.750   61.933    0.198    0.428   24.509
  324.000   71.674    0.260    0.411   22.316
  324.250   77.165    0.280    0.400   19.570
  324.500   79.011    0.273    0.397   17.818
  324.750   80.862    0.259    0.412   16.842
  325.000   79.671    0.247    0.420   15.918
  325.250   76.659    0.276    0.408   14.492
  325.500   74.872    0.295    0.397   13.698
  325.750   73.677    0.306    0.393   13.192
  326.000   68.846    0.316    0.396   12.237
  326.250   64.614    0.326    0.397   12.008
  326.500   64.039    0.317    0.394   12.463
  326.750   65.877    0.312    0.378   12.936
  327.000   70.161    0.300    0.367   13.177
  327.250   70.792    0.290    0.372   12.931
  327.500   70.821    0.269    0.394   12.453
  327.750   71.444    0.306    0.386   11.552
  328.000   73.901    0.331    0.357   10.716
  328.250   76.353    0.344    0.335    9.941
  328.500   79.419    0.354    0.346    9.222
  328.750   80.656    0.379    0.350    8.716
  329.000   80.686    0.386    0.344    8.552
  329.250   77.675    0.391    0.327    8.551
  329.500   76.482    0.391    0.309    8.548
  329.750   74.685    0.382    0.318    8.547
  330.000   77.754    0.374    0.322    8.545
  330.250   79.602    0.371    0.326    8.385
  330.500   80.844    0.378    0.314    8.383
  330.750   80.865    0.382    0.294    8.382
  331.000   81.493    0.383    0.282    8.380
  331.250   86.989    0.383    0.271    8.222
  331.500   90.652    0.387    0.259    7.918
  331.750   90.684    0.381    0.249    7.916
  332.000   88.282    0.388    0.253    7.768
  332.250   86.483    0.393    0.254    7.913
  332.500   84.680    0.384    0.254    7.911
  332.750   84.706    0.379    0.250    7.763
  333.000   84.732    0.380    0.245    7.761
  333.250   82.329    0.374    0.251    7.760
  333.500   81.747    0.372    0.265    7.757
  333.750   84.207    0.370    0.252    7.756
  334.000   85.441    0.374    0.250    7.901
  334.250   84.861    0.382    0.250    8.049
  334.500   83.065    0.391    0.260    8.046
  334.750   81.874    0.397    0.263    8.045
  335.000   80.694    0.405    0.259    8.044
  335.250   80.103    0.396    0.251    8.042
  335.500   81.343    0.396    0.243    8.192
  335.750   84.407    0.398    0.250    8.190
  336.000   83.825    0.383    0.253    8.188
  336.250   81.417    0.366    0.254    8.187
  336.500   77.802    0.370    0.254    8.184
  336.750   72.971    0.375    0.262    8.031
  337.000   68.138    0.358    0.269    7.880
  337.250   65.123    0.351    0.275    7.311
  337.500   70.012    0.359    0.283    6.533
  337.750   73.682    0.372    0.287    6.531
  338.000   67.021    0.378    0.287    7.170
  338.250   52.472    0.366    0.303    7.442
  338.500   42.783    0.349    0.320    7.724
  338.750   36.732    0.328    0.343    7.723
  339.000   32.510    0.329    0.366    7.720
  339.250   30.711    0.335    0.362    7.576
  339.500   29.522    0.327    0.364    7.434
  339.750   28.942    0.329    0.354    7.433
  340.000   28.973    0.344    0.349    7.293
  340.250   28.994    0.358    0.349    7.292
  340.500   33.265    0.367    0.332    7.022
  340.750   43.620    0.381    0.311    7.020
  341.000   52.149    0.365    0.289    6.889
  341.250   49.130    0.362    0.278    6.760
  341.500   37.618    0.368    0.341    6.758
  341.750   30.961    0.370    0.360    6.631
  342.000   35.244    0.369    0.345    6.507
  342.250   38.908    0.374    0.337    6.505
  342.500   39.546    0.380    0.328    6.504
  342.750   35.321    0.392    0.325    6.503
  343.000   31.095    0.397    0.343    6.501
  343.250   28.077    0.392    0.349    6.379
