~VERSION INFORMATION
 VERS.                 2.0:   CWLS LOG ASCII STANDARD -VERSION 2.0
 WRAP.                  NO:   ONE LINE PER DEPTH STEP
~WELL INFORMATION BLOCK
#MNEM.UNIT           DATA                    DESCRIPTION OF MNEMONIC
#---------    -------------------            -------------------------------
# Generated from Intellog Unique Number	CC_84_87/WELL/1168
NULL.         -999.25                        : NULL_VALUE
WELL.         BP GRANOR                      : Well_name    - WELL              
LOC .         07-26-084-18W4                 : Location     - LOCATION          
UWI .         00/07-26-084-18W400            : Uwi          - UNIQUE WELL ID    
ENTR.         JHS                            : Entered      - ENTERED BY        
SRVC.         SCHLUMBERGER                   : Scn          - SERVICE COMPANY   
DATE.         01 MAR 81                      : Date         - LOG DATE
STRT.M        95                             : top_depth    - START DEPTH       
STOP.M        299.9                          : bot_depth    - STOP DEPTH        
STEP.M        0.3                            : increment    - STEP LENGTH       
~CURVE INFORMATION BLOCK
#MNEM UNIT       ERCB CURVE CODE    CURVE DESCRIPTION
#-----------   ------------------   ----------------------------------
DEPT.M        00 001 00 00         : DEPTH        - DEPTH                       
DPHI.V/V      00 890 00 00         : PHID         - DENSITY POROSITY (LIMESTONE)
NPHI.V/V      00 330 00 00         : PHIN         - NEUTRON POROSITY (LIMESTONE)
GR  .API      00 310 00 00         : GR           - GAMMA RAY                   
ILD .OHMM     00 120 00 00         : RESD         - DEEP RESISTIVITY (DIL)      
~PARAMETER INFORMATION       
#MNEM.UNIT           DATA             DESCRIPTION OF MNEMONIC
#---------         -----------     ------------------------------
GL  .M        555                  : gl           - GROUND LEVEL ELEVATION      
EREF.M        558.37               : kb           - ELEVATION OF DEPTH REFERENCE
DATM.M        558.37               : datum        - DATUM ELEVATION             
TDD .M        302                  : tdd          - TOTAL DEPTH DRILLER         
RUN .         ONE                  : Run          - RUN NUMBER                  
ENG .         BILL                 : Engineer     - RECORDING ENGINEER          
WIT .         JIM                  : Witness      - WITNESSED BY                
MUD .         GEL                  : Mud_type     - MUD TYPE                    
MATR.         LIMESTONE            : Logunit      - NEUTRON MATRIX              
TMAX.C        30                   : BHT          - MAXIMUM RECORDED TEMPERATURE
BHTD.M        302                  : BHTDEP       - MAXIMUM RECORDED TEMPERATURE
MATR.         1                    : LOGUNIT      - NEUTRON MATRIX              
RMT .C        25                   : MDTP         - TEMPERATURE OF MUD          
NEUT.         1                    : NEUTRON      - NEUTRON TYPE                
RESI.         0                    : RESIST       - RESISTIVITY TYPE            
RMC .OHMM     0.25                 : RMC          - RESISTIVITY OF MUD CAKE     
RMF .OHMM     0.25                 : RMF          - RESISTIVITY OF MUD FILTRATE 
SUFT.C        15                   : SUFT         - SURFACE TEMPERATURE         
~A  DEPTH     PHID     PHIN       GR     RESD
# ...
  251.602    0.242    0.389   73.895    8.499
  251.902    0.244    0.400   78.145    8.185
  252.202    0.234    0.394   79.951    7.452
  252.502    0.240    0.382   83.596    6.294
  252.802    0.244    0.378   89.073    5.623
  253.102    0.251    0.384   95.157    5.519
  253.402    0.261    0.392   94.512    5.623
  253.702    0.251    0.388   87.749    6.413
  254.002    0.194    0.324   78.534    8.033
  254.302    0.175    0.332   74.831    9.335
  254.602    0.214    0.362   69.897    9.692
  254.902    0.220    0.373   73.536    9.161
  255.202    0.213    0.404   85.137    7.884
  255.502    0.230    0.410   93.676    7.044
  255.802    0.223    0.392   97.925    6.294
  256.102    0.224    0.394   95.443    6.062
  256.402    0.220    0.385   89.291    6.062
  256.702    0.217    0.394   88.036    6.413
  257.002    0.221    0.402   84.330    7.044
  257.302    0.187    0.373   81.239    7.314
  257.602    0.173    0.359   84.876    7.044
  257.902    0.204    0.375   83.010    6.785
  258.202    0.229    0.380   83.586    6.785
  258.502    0.236    0.365   87.841    6.785
  258.802    0.230    0.358   94.539    6.785
  259.102    0.215    0.363   96.346    6.535
  259.401    0.208    0.381   92.639    6.294
  259.701    0.180    0.373   94.442    6.062
  260.001    0.149    0.345   99.308    6.294
  260.301    0.155    0.361   95.600    6.658
  260.601    0.165    0.416   91.894    7.593
  260.901    0.176    0.463   89.415    8.660
  261.201    0.204    0.419   83.262    9.692
  261.501    0.218    0.343   88.126    9.876
  261.801    0.216    0.338   88.701    9.692
  262.101    0.205    0.349   86.835    9.335
  262.401    0.215    0.363   88.028    8.660
  262.701    0.220    0.347   86.772    8.033
  263.001    0.210    0.324   82.454    7.452
  263.301    0.207    0.327   82.423    7.737
  263.601    0.184    0.349   84.224    8.341
  263.901    0.186    0.364   79.910    8.824
  264.201    0.211    0.356   75.592    9.335
  264.501    0.241    0.352   77.396    9.512
  264.801    0.237    0.360   78.583    9.512
  265.101    0.225    0.359   76.716    9.512
  265.401    0.224    0.368   73.622    9.692
  265.701    0.252    0.381   69.917   10.448
  266.001    0.280    0.358   65.601   11.262
  266.301    0.284    0.351   63.123   11.693
  266.601    0.271    0.377   63.698   11.693
  266.901    0.247    0.363   66.724   11.262
  267.201    0.220    0.362   69.145   10.847
  267.501    0.226    0.378   70.338   10.253
  267.801    0.244    0.383   70.917   10.063
  268.101    0.208    0.369   67.821   10.063
  268.401    0.215    0.362   64.725   10.448
  268.701    0.253    0.367   65.916   10.847
  269.001    0.263    0.368   65.275   10.646
  269.301    0.246    0.347   62.184   10.253
  269.601    0.225    0.333   62.759    9.512
  269.901    0.207    0.348   59.668    9.161
  270.201    0.220    0.378   60.248    8.824
  270.501    0.228    0.400   69.394    8.824
  270.801    0.217    0.373   73.644    8.660
  271.101    0.228    0.358   73.616    8.499
  271.401    0.238    0.376   72.974    8.185
  271.701    0.239    0.339   71.716    8.185
  272.001    0.227    0.327   71.071    8.341
  272.301    0.221    0.351   80.219    8.499
  272.601    0.223    0.361   80.800    8.499
  272.901    0.225    0.367   84.438    8.341
  273.201    0.230    0.378   90.528    7.884
  273.501    0.210    0.395   88.042    7.314
  273.801    0.200    0.406   80.058    6.913
  274.101    0.217    0.393   80.634    6.294
  274.401    0.210    0.372   87.338    6.177
  274.701    0.204    0.346   83.631    6.413
  275.001    0.210    0.330   75.644    6.785
  275.301    0.204    0.364   76.219    6.913
  275.601    0.202    0.379   80.476    6.785
  275.901    0.206    0.366   82.888    6.535
  276.201    0.212    0.372   88.365    6.294
  276.501    0.202    0.375   95.679    5.730
  276.801    0.163    0.376  106.051    5.315
  277.101    0.157    0.390  109.691    5.024
  277.401    0.187    0.419  117.005    4.574
  277.701    0.193    0.417  120.034    4.011
  278.001    0.181    0.397  116.936    3.863
  278.301    0.180    0.382  110.787    3.791
  278.601    0.193    0.380  102.184    3.936
  278.901    0.194    0.391  104.600    4.324
  279.201    0.186    0.391  100.283    5.024
  279.501    0.104    0.346   92.903    6.535
  279.801    0.030    0.273   91.035    8.499
  280.101    0.084    0.264   75.703   12.141
  280.401    0.135    0.294   65.263   14.925
  280.701    0.171    0.339   65.844   15.790
  281.001    0.189    0.340   76.826   13.588
  281.301    0.208    0.326   80.469   10.847
  281.601    0.224    0.321   82.269   11.262
  281.901    0.244    0.337   77.954   14.108
  282.201    0.274    0.358   64.455   17.343
  282.501    0.283    0.365   52.179   21.321
  282.801    0.290    0.379   40.519   23.419
  283.101    0.305    0.386   40.484   21.725
  283.401    0.311    0.362   44.123   21.321
  283.701    0.304    0.346   42.871   21.321
  284.000    0.304    0.361   46.505   19.779
  284.300    0.291    0.373   45.865   17.343
  284.600    0.271    0.375   48.276   14.925
  284.900    0.249    0.376   51.914   11.693
  285.200    0.224    0.374   56.168    8.991
  285.500    0.208    0.364   63.481    7.178
  285.800    0.215    0.352   79.365    5.949
  286.100    0.230    0.365   79.946    4.839
  286.400    0.243    0.400   76.241    3.936
  286.700    0.246    0.402   81.105    3.388
  287.000    0.238    0.396   98.821    3.084
  287.300    0.219    0.390  101.234    3.027
  287.600    0.197    0.401   98.759    3.325
  287.900    0.159    0.398   96.278    3.791
  288.200    0.162    0.373   95.022    4.165
  288.500    0.190    0.374   87.641    4.011
  288.800    0.230    0.414   83.935    3.652
  289.100    0.241    0.403   86.960    3.325
  289.400    0.239    0.389   93.055    3.263
  289.700    0.227    0.394  102.196    3.721
  290.000    0.195    0.369  102.781    4.574
  290.300    0.132    0.337   98.467    5.730
  290.600    0.159    0.321   84.964    7.737
  290.900    0.210    0.340   75.141    9.692
  291.200    0.233    0.351   64.700   10.847
  291.500    0.247    0.336   66.506   11.053
  291.800    0.266    0.325   75.653   11.476
  292.100    0.304    0.338   74.400   12.371
  292.400    0.321    0.357   64.566   15.496
  292.700    0.314    0.349   57.806   17.021
  293.000    0.323    0.359   43.697   14.925
  293.300    0.332    0.391   32.641   11.476
  293.600    0.342    0.412   30.777    8.824
  293.900    0.347    0.421   36.858    7.314
  294.200    0.333    0.412   49.687    6.413
  294.500    0.294    0.351   71.076    7.044
  294.800    0.265    0.342   70.430    9.876
  295.100    0.255    0.358   63.668   11.693
  295.400    0.248    0.375   67.915   15.496
  295.700    0.245    0.385   86.249   19.779
  296.000    0.241    0.396   91.723   21.725
  296.300    0.236    0.404   99.039   25.245
  296.600    0.235    0.415  108.800   29.335
  296.900    0.236    0.443  109.372   37.443
  297.200    0.280    0.448  108.114   47.791
  297.500    0.291    0.462  103.806   58.752
  297.800    0.282    0.453   98.871   69.565
  298.100    0.287    0.434   99.448   80.837
  298.400    0.300    0.454  100.032   80.837
  298.700    0.314    0.452  100.613   74.989
  299.000    0.301    0.416  104.861   65.756
  299.300    0.302    0.430  106.058   64.533
  299.600    0.307    0.468  101.738   62.155
  299.900    0.305    0.455  102.320   63.333
