~VERSION INFORMATION
 VERS.                 2.0:   CWLS LOG ASCII STANDARD -VERSION 2.0
 WRAP.                  NO:   ONE LINE PER DEPTH STEP
~WELL INFORMATION BLOCK
#MNEM.UNIT           DATA                    DESCRIPTION OF MNEMONIC
#---------    -------------------            -------------------------------
# Generated from Intellog Unique Number	CS_73_76/WELL/2163
WELL.         DOME PETROLEUM LIMITED         : Well_name    - WELL
LOC .         00/06-09-074-05W4/0            : Location     - LOCATION
UWI .         00/06-09-074-05W4/0            : Uwi          - UNIQUE WELL ID
ENTR.         SP                             : Entered      - ENTERED BY
SRVC.         SCHLUMBERGER                   : Scn          - SERVICE COMPANY
STRT.M        225                            : top_depth    - START DEPTH
STOP.M        475                            : bot_depth    - STOP DEPTH
STEP.M        0.25                           : increment    - STEP LENGTH
 NULL. -999.2500:NULL Value
~CURVE INFORMATION BLOCK
#MNEM UNIT       ERCB CURVE CODE    CURVE DESCRIPTION
#-----------   ------------------   ----------------------------------
DEPT.M        00 001 00 00         : DEPTH        - DEPTH
ILD .OHMM     00 120 00 00         : RESD         - DEEP RESISTIVITY (DIL)
DPHI.V/V      00 890 00 00         : PHID         - DENSITY POROSITY (LIMESTONE)
NPHI.V/V      00 330 00 00         : PHIN         - NEUTRON POROSITY (LIMESTONE)
GR  .API      00 310 00 00         : GR           - GAMMA RAY
~PARAMETER INFORMATION
#MNEM.UNIT           DATA             DESCRIPTION OF MNEMONIC
#---------         -----------     ------------------------------
GL  .M        618.6                : gl           - GROUND LEVEL ELEVATION
EREF.M        623.1                : kb           - ELEVATION OF DEPTH REFERENCE
DATM.M        618.6                : datum        - DATUM ELEVATION
TDD .M        483                  : tdd          - TOTAL DEPTH DRILLER
RUN .         ONE                  : Run          - RUN NUMBER
ENG .         BILL                 : Engineer     - RECORDING ENGINEER
WIT .         JIM                  : Witness      - WITNESSED BY
MUD .         GEL                  : Mud_type     - MUD TYPE
MATR.         LIMESTONE            : Logunit      - NEUTRON MATRIX
TMAX.C        20                   : BHT          - MAXIMUM RECORDED TEMPERATURE
BHTD.M        483                  : BHTDEP       - MAXIMUM RECORDED TEMPERATURE
MATR.         1                    : LOGUNIT      - NEUTRON MATRIX
RMT .C        25                   : MDTP         - TEMPERATURE OF MUD
NEUT.         1                    : NEUTRON      - NEUTRON TYPE
RESI.         0                    : RESIST       - RESISTIVITY TYPE
RMC .OHMM     0.25                 : RMC          - RESISTIVITY OF MUD CAKE
RMF .OHMM     0.25                 : RMF          - RESISTIVITY OF MUD FILTRATE
SUFT.C        15                   : SUFT         - SURFACE TEMPERATURE
~A  DEPTH     RESD     PHID     PHIN       GR
# ...
  399.000   13.774    0.269    0.407   58.220
  399.250   13.019    0.285    0.381   53.970
  399.500   10.787    0.246    0.387   51.541
  399.750    7.834    0.259    0.387   63.081
  400.000    6.134    0.270    0.379   73.405
  400.250    5.690    0.245    0.391   81.301
  400.500    5.378    0.230    0.408   86.767
  400.750    5.278    0.219    0.445   88.590
  401.000    5.800    0.282    0.442   83.125
  401.250    7.002    0.190    0.413   77.053
  401.500    7.989    0.209    0.373   69.766
  401.750   10.205    0.222    0.359   62.479
  402.000   11.214    0.238    0.363   58.229
  402.250   10.208    0.264    0.376   66.124
  402.500    8.782    0.273    0.381   76.449
  402.750    7.699    0.227    0.394   84.952
  403.000    8.620    0.196    0.410   78.273
  403.250    9.296    0.196    0.429   72.808
  403.500   10.023    0.231    0.406   68.557
  403.750   11.014    0.219    0.385   69.773
  404.000   11.655    0.232    0.373   67.952
  404.250   11.877    0.240    0.371   75.240
  404.500   10.812    0.251    0.370   78.277
  404.750    9.302    0.253    0.369   86.173
  405.000    7.564    0.230    0.376   88.603
  405.250    7.016    0.206    0.380   92.854
  405.500    6.631    0.190    0.395   97.106
  405.750    6.387    0.188    0.405   98.929
  406.000    6.759    0.200    0.400   95.286
  406.250    7.152    0.180    0.385   81.926
  406.500    7.569    0.203    0.384   70.996
  406.750    7.860    0.237    0.396   71.604
  407.000    8.162    0.257    0.376   75.248
  407.250    8.476    0.228    0.380   78.893
  407.500    8.970    0.231    0.405   77.072
  407.750    9.315    0.254    0.418   77.680
  408.000    9.493    0.254    0.413   78.895
  408.250    9.858    0.223    0.412   79.503
  408.500   10.631    0.248    0.422   79.504
  408.750   11.249    0.241    0.433   77.075
  409.000   11.904    0.238    0.444   75.254
  409.250   12.597    0.242    0.433   74.648
  409.500   13.584    0.258    0.437   74.041
  409.750   14.648    0.286    0.443   74.042
  410.000   15.211    0.271    0.434   74.650
  410.250   14.929    0.264    0.416   76.473
  410.500   11.913    0.209    0.390   78.295
  410.750   10.057    0.193    0.390   81.332
  411.000    8.653    0.234    0.412   84.977
  411.250    7.730    0.255    0.418   87.407
  411.500    7.170    0.216    0.418   89.837
  411.750    6.527    0.233    0.416   89.230
  412.000    6.169    0.242    0.411   94.089
  412.250    5.209    0.223    0.418  102.592
  412.500    4.831    0.217    0.420  106.844
  412.750    4.566    0.200    0.417  112.310
  413.000    4.398    0.180    0.415  117.169
  413.250    4.157    0.190    0.418  113.526
  413.500    4.080    0.185    0.418  108.669
  413.750    4.081    0.195    0.415  103.811
  414.000    4.081    0.195    0.407   98.954
  414.250    4.082    0.139    0.393   96.525
  414.500    4.082    0.153    0.381   94.097
  414.750    4.239    0.148    0.375   94.705
  415.000    4.320    0.174    0.378   96.528
  415.250    4.403    0.176    0.392   95.314
  415.500    4.487    0.167    0.403   93.493
  415.750    4.487    0.188    0.397   92.279
  416.000    4.573    0.173    0.396   91.672
  416.250    4.661    0.171    0.388   91.066
  416.500    4.750    0.178    0.377   88.030
  416.750    4.841    0.133    0.375   86.816
  417.000    5.027    0.154    0.380   89.246
  417.250    5.221    0.167    0.387   92.283
  417.500    5.320    0.163    0.388   92.284
  417.750    5.422    0.170    0.386   86.212
  418.000    6.546    0.173    0.385   80.747
  418.250    7.059    0.205    0.388   75.282
  418.500    7.903    0.195    0.396   71.032
  418.750    9.722    0.176    0.406   56.458
  419.000   12.895    0.215    0.418   46.135
  419.250   18.442    0.274    0.397   37.633
  419.500   21.441    0.288    0.378   36.420
  419.750   26.376    0.272    0.373   37.028
  420.000   30.094    0.285    0.386   35.814
  420.250   31.253    0.285    0.398   30.956
  420.500   31.851    0.287    0.403   30.350
  420.750   31.854    0.281    0.401   30.351
  421.000   30.681    0.279    0.403   32.781
  421.250   28.459    0.308    0.403   37.032
  421.500   24.949    0.309    0.392   39.462
  421.750   23.582    0.286    0.386   40.070
  422.000   23.146    0.280    0.391   41.893
  422.250   24.037    0.267    0.397   44.930
  422.500   24.963    0.266    0.407   46.752
  422.750   28.479    0.282    0.398   49.183
  423.000   30.711    0.308    0.388   49.791
  423.250   32.498    0.288    0.392   49.184
  423.500   34.389    0.276    0.407   47.970
  423.750   38.508    0.267    0.413   47.971
  424.000   39.988    0.262    0.419   42.506
  424.250   43.939    0.306    0.415   38.863
  424.500   46.497    0.297    0.412   39.471
  424.750   48.286    0.325    0.419   41.294
  425.000   61.891    0.294    0.408   34.893
  425.250   66.737    0.298    0.404   31.807
  425.500   71.968    0.310    0.403   31.787
  425.750   74.737    0.306    0.411   36.663
  426.000   71.937    0.322    0.422   47.658
  426.250   45.667    0.312    0.436   53.152
  426.500   36.378    0.289    0.444   58.636
  426.750   27.903    0.293    0.430   59.840
  427.000   21.401    0.279    0.403   61.657
  427.250   19.100    0.247    0.388   65.308
  427.500   17.703    0.261    0.391   69.571
  427.750   14.925    0.278    0.378   72.612
  428.000   12.825    0.203    0.356   76.267
  428.250   11.664    0.185    0.354   80.530
  428.500   11.661    0.273    0.384   85.406
  428.750   13.562    0.295    0.419   81.099
  429.000   16.384    0.312    0.441   71.891
  429.250   23.466    0.315    0.436   66.365
  429.500   29.442    0.291    0.431   64.508
  429.750   36.246    0.288    0.427   63.864
  430.000   39.828    0.301    0.431   63.852
  430.250   36.223    0.317    0.442   63.826
  430.500   30.542    0.311    0.444   65.027
  430.750   24.331    0.329    0.446   66.846
  431.000   19.019    0.334    0.441   71.719
  431.250   14.589    0.319    0.424   82.107
  431.500   10.980    0.208    0.397   93.717
  431.750    9.258    0.172    0.401  103.489
  432.000    8.107    0.163    0.421  105.924
  432.250    7.658    0.187    0.441  103.448
  432.500    7.370    0.192    0.447   94.856
  432.750    7.230    0.208    0.437   90.554
  433.000    7.092    0.210    0.427   91.752
  433.250    7.090    0.202    0.423   92.956
  433.500    6.955    0.204    0.426   91.104
  433.750    6.823    0.205    0.422   86.177
  434.000    6.822    0.225    0.420   83.709
  434.250    6.692    0.217    0.430   81.852
  434.500    6.565    0.207    0.426   81.221
  434.750    6.562    0.224    0.417   83.642
  435.000    6.561    0.232    0.412   85.467
  435.250    6.436    0.254    0.404   88.502
  435.500    6.434    0.186    0.410   90.931
  435.750    6.433    0.198    0.425   90.912
  436.000    6.431    0.204    0.415   86.604
  436.250    6.308    0.237    0.412   90.258
  436.500    6.189    0.230    0.427   90.848
  436.750    6.071    0.221    0.418   81.643
  437.000    5.844    0.227    0.428   79.785
  437.250    5.625    0.237    0.418   82.213
  437.500    5.415    0.215    0.405   84.642
  437.750    5.018    0.247    0.399   76.049
  438.000    4.923    0.273    0.392   56.438
  438.250    4.650    0.279    0.392   46.001
  438.500    4.562    0.253    0.379   44.153
  438.750    4.391    0.267    0.374   42.907
  439.000    4.227    0.264    0.376   44.721
  439.250    3.992    0.254    0.365   43.465
  439.500    3.771    0.254    0.357   41.615
  439.750    3.699    0.274    0.357   39.140
  440.000    3.629    0.280    0.367   39.126
  440.250    3.427    0.269    0.368   39.719
  440.500    3.362    0.256    0.363   43.978
  440.750    3.236    0.263    0.362   45.797
  441.000    3.236    0.273    0.362   45.777
  441.250    3.174    0.265    0.363   46.980
  441.500    3.055    0.276    0.372   48.796
  441.750    2.997    0.264    0.380   51.219
  442.000    2.940    0.269    0.373   59.160
  442.250    2.884    0.274    0.364   68.925
