~VERSION INFORMATION
 VERS.                 2.0:   CWLS LOG ASCII STANDARD -VERSION 2.0
 WRAP.                  NO:   ONE LINE PER DEPTH STEP
~WELL INFORMATION BLOCK
#MNEM.UNIT           DATA                    DESCRIPTION OF MNEMONIC
#---------    -------------------            -------------------------------
# Generated from Intellog Unique Number	CS_69_70/WELL/770
NULL.         -999.25                        : NULL_VALUE
WELL.         ET AL TWEEDIE                  : Well_name    - WELL              
LOC .         00/06-11-070-13W4/0            : Location     - LOCATION          
UWI .         00/06-11-070-13W4/0            : Uwi          - UNIQUE WELL ID    
ENTR.         SP                             : Entered      - ENTERED BY        
SRVC.         SCHLUMBERGER                   : Scn          - SERVICE COMPANY   
STRT.M        265                            : top_depth    - START DEPTH       
STOP.M        500                            : bot_depth    - STOP DEPTH        
STEP.M        0.25                           : increment    - STEP LENGTH       
~CURVE INFORMATION BLOCK
#MNEM UNIT       ERCB CURVE CODE    CURVE DESCRIPTION
#-----------   ------------------   ----------------------------------
DEPT.M        00 001 00 00         : DEPTH        - DEPTH                       
ILD .OHMM     00 120 00 00         : RESD         - DEEP RESISTIVITY (DIL)      
DPHI.V/V      00 890 00 00         : PHID         - DENSITY POROSITY (LIMESTONE)
NPHI.V/V      00 330 00 00         : PHIN         - NEUTRON POROSITY (LIMESTONE)
GR  .API      00 310 00 00         : GR           - GAMMA RAY                   
~PARAMETER INFORMATION       
#MNEM.UNIT           DATA             DESCRIPTION OF MNEMONIC
#---------         -----------     ------------------------------
GL  .M        579.7                : gl           - GROUND LEVEL ELEVATION      
EREF.M        583.3                : kb           - ELEVATION OF DEPTH REFERENCE
DATM.M        579.7                : datum        - DATUM ELEVATION             
TDD .M        511                  : tdd          - TOTAL DEPTH DRILLER         
RUN .         ONE                  : Run          - RUN NUMBER                  
ENG .         BILL                 : Engineer     - RECORDING ENGINEER          
WIT .         JIM                  : Witness      - WITNESSED BY                
MUD .         GEL                  : Mud_type     - MUD TYPE                    
MATR.         LIMESTONE            : Logunit      - NEUTRON MATRIX              
TMAX.C        26                   : BHT          - MAXIMUM RECORDED TEMPERATURE
BHTD.M        511                  : BHTDEP       - MAXIMUM RECORDED TEMPERATURE
MATR.         1                    : LOGUNIT      - NEUTRON MATRIX              
RMT .C        25                   : MDTP         - TEMPERATURE OF MUD          
NEUT.         1                    : NEUTRON      - NEUTRON TYPE                
RESI.         0                    : RESIST       - RESISTIVITY TYPE            
RMC .OHMM     0.25                 : RMC          - RESISTIVITY OF MUD CAKE     
RMF .OHMM     0.25                 : RMF          - RESISTIVITY OF MUD FILTRATE 
SUFT.C        15                   : SUFT         - SURFACE TEMPERATURE         
~A  DEPTH     RESD     PHID     PHIN       GR
# ...
  352.000    3.651    0.293    0.434   86.558
  352.250    3.531    0.303    0.422   89.234
  352.500    3.377    0.314    0.431   90.397
  352.750    3.254    0.324    0.438   89.862
  353.000    3.189    0.336    0.444   84.732
  353.250    3.195    0.316    0.449   80.811
  353.500    3.367    0.318    0.400   76.648
  353.750    3.561    0.324    0.383   69.643
  354.000    3.759    0.337    0.381   64.933
  354.250    4.173    0.350    0.385   62.646
  354.500    4.252    0.345    0.387   63.447
  354.750    4.430    0.346    0.386   64.185
  355.000    4.531    0.335    0.391   64.558
  355.250    4.660    0.334    0.392   64.934
  355.500    5.012    0.341    0.392   65.006
  355.750    5.543    0.269    0.379   67.619
  356.000    6.471    0.217    0.334   66.481
  356.250    8.816    0.074    0.280   60.263
  356.500   13.632    0.036    0.223   55.313
  356.750   17.960    0.031    0.187   50.725
  357.000   20.965    0.029    0.175   47.470
  357.250   23.756    0.021    0.172   50.511
  357.500   24.706    0.011    0.168   51.367
  357.750   20.097    0.006    0.166   52.165
  358.000   17.030    0.114    0.176   50.181
  358.250   12.668    0.167    0.238   49.649
  358.500    7.925    0.207    0.274   57.709
  358.750    5.928    0.253    0.341   63.833
  359.000    5.005    0.294    0.367   66.506
  359.250    4.460    0.322    0.387   69.603
  359.500    4.274    0.325    0.399   70.827
  359.750    4.323    0.311    0.405   71.748
  360.000    4.521    0.273    0.413   72.909
  360.250    4.746    0.258    0.420   74.071
  360.500    5.011    0.266    0.414   74.565
  360.750    5.172    0.278    0.411   74.820
  361.000    5.320    0.284    0.433   75.436
  361.250    5.301    0.276    0.453   79.502
  361.500    5.089    0.240    0.453   82.965
  361.750    5.205    0.222    0.425   83.944
  362.000    5.444    0.231    0.408   83.048
  362.250    5.630    0.255    0.394   79.189
  362.500    5.632    0.280    0.378   74.968
  362.750    5.539    0.304    0.392   73.102
  363.000    5.437    0.322    0.403   70.454
  363.250    5.269    0.336    0.396   69.375
  363.500    5.192    0.322    0.397   71.867
  363.750    5.050    0.303    0.410   78.232
  364.000    5.069    0.285    0.402   80.906
  364.250    5.194    0.270    0.396   82.131
  364.500    5.273    0.253    0.391   81.539
  364.750    5.304    0.238    0.402   79.493
  365.000    5.216    0.233    0.417   79.018
  365.250    5.036    0.251    0.430   81.391
  365.500    4.944    0.261    0.450   83.886
  365.750    4.944    0.271    0.473   85.530
  366.000    4.946    0.255    0.469   86.632
  366.250    4.974    0.250    0.442   85.492
  366.500    5.022    0.250    0.414   86.049
  366.750    5.050    0.251    0.409   88.421
  367.000    5.117    0.260    0.418   86.860
  367.250    5.156    0.272    0.424   84.391
  367.500    5.157    0.281    0.429   82.892
  367.750    5.187    0.270    0.421   83.811
  368.000    5.217    0.253    0.419   85.033
  368.250    5.228    0.241    0.420   86.437
  368.500    5.200    0.234    0.397   87.477
  368.750    5.162    0.232    0.377   86.400
  369.000    5.162    0.244    0.365   83.812
  369.250    5.154    0.243    0.383   82.249
  369.500    5.155    0.243    0.407   83.230
  369.750    5.146    0.248    0.414   85.360
  370.000    5.128    0.258    0.419   84.284
  370.250    5.119    0.264    0.427   82.781
  370.500    5.091    0.255    0.414   83.459
  370.750    5.083    0.244    0.409   85.409
  371.000    5.084    0.238    0.403   87.055
  371.250    5.123    0.231    0.396   87.369
  371.500    5.171    0.253    0.385   86.957
  371.750    5.250    0.244    0.396   87.516
  372.000    5.270    0.235    0.423   88.857
  372.250    5.281    0.224    0.442   90.562
  372.500    5.272    0.219    0.466   92.028
  372.750    5.147    0.235    0.426   90.224
  373.000    4.969    0.242    0.401   86.911
  373.250    4.833    0.252    0.391   84.319
  373.500    4.824    0.242    0.394   86.630
  373.750    4.889    0.238    0.387   90.031
  374.000    4.972    0.243    0.401   93.976
  374.250    5.057    0.230    0.415   96.651
  374.500    5.211    0.217    0.409   97.025
  374.750    5.241    0.211    0.423   93.830
  375.000    5.213    0.207    0.417   92.997
  375.250    5.060    0.209    0.395   93.250
  375.500    4.484    0.232    0.402   91.991
  375.750    3.765    0.259    0.425   89.522
  376.000    2.961    0.275    0.449   97.219
  376.250    2.543    0.284    0.465  103.889
  376.500    2.249    0.284    0.474  106.622
  376.750    1.971    0.284    0.497  103.305
  377.000    1.803    0.286    0.514   97.811
  377.250    1.796    0.293    0.606   93.287
  377.500    1.972    0.279    0.593   91.966
  377.750    2.345    0.267    0.558   92.644
  378.000    2.608    0.253    0.494   93.745
  378.250    2.928    0.242    0.413   94.846
  378.500    3.574    0.246    0.396   91.531
  378.750    3.850    0.257    0.389   93.297
  379.000    4.211    0.249    0.405   93.673
  379.250    4.496    0.238    0.411   91.567
  379.500    4.624    0.229    0.395   91.579
  379.750    4.668    0.223    0.389   86.207
  380.000    4.643    0.228    0.400   86.520
  380.250    4.592    0.249    0.400   86.230
  380.500    4.483    0.273    0.398   83.822
  380.750    4.319    0.286    0.404   79.236
  381.000    4.093    0.276    0.407   74.891
  381.250    3.864    0.267    0.410   71.515
  381.500    3.730    0.261    0.412   68.259
  381.750    3.690    0.272    0.414   70.389
  382.000    3.725    0.292    0.426   71.007
  382.250    3.824    0.306    0.442   67.388
  382.500    3.904    0.325    0.424   63.891
  382.750    3.948    0.339    0.396   61.544
  383.000    3.934    0.333    0.390   60.285
  383.250    3.891    0.327    0.391   59.631
  383.500    3.834    0.327    0.397   58.980
  383.750    3.792    0.331    0.399   58.384
  384.000    3.786    0.338    0.399   57.250
  384.250    3.952    0.348    0.406   56.537
  384.500    3.888    0.353    0.390   56.546
  384.750    3.881    0.353    0.377   57.587
  385.000    3.874    0.344    0.371   60.141
  385.250    3.853    0.335    0.378   62.270
  385.500    3.839    0.327    0.378   64.399
  385.750    3.840    0.325    0.375   66.711
  386.000    3.848    0.328    0.376   66.057
  386.250    3.877    0.327    0.366   67.946
  386.500    3.944    0.329    0.360   70.195
  386.750    3.981    0.334    0.359   71.721
  387.000    4.079    0.336    0.367   69.978
  387.250    4.322    0.338    0.376   66.299
  387.500    4.675    0.299    0.383   64.798
  387.750    5.306    0.256    0.381   67.291
  388.000    6.624    0.221    0.318   65.246
  388.250    9.245    0.148    0.228   60.057
  388.500   15.287   -0.001    0.199   55.954
  388.750   17.912    0.075    0.187   53.181
  389.000   17.325    0.108    0.181   52.164
  389.250   12.960    0.115    0.188   58.592
  389.500   10.541    0.064    0.221   64.836
  389.750    8.338    0.091    0.269   69.507
  390.000    7.887    0.128    0.292   69.094
  390.250    8.514    0.080    0.286   61.725
  390.500    8.904    0.049    0.266   57.622
  390.750    7.338    0.083    0.257   63.987
  391.000    6.491    0.175    0.310   73.620
  391.250    5.752    0.211    0.344   81.800
  391.500    5.251    0.210    0.351   79.513
  391.750    4.776    0.200    0.354   76.500
  392.000    4.517    0.197    0.356   74.334
  392.250    4.281    0.235    0.358   75.435
  392.500    4.094    0.262    0.361   78.533
  392.750    4.012    0.273    0.366   79.454
  393.000    3.990    0.263    0.370   76.984
  393.250    3.991    0.252    0.377   73.971
  393.500    4.014    0.243    0.371   76.163
  393.750    4.128    0.231    0.365   78.594
  394.000    4.238    0.216    0.368   81.389
  394.250    4.375    0.209    0.399   82.490
  394.500    4.475    0.202    0.413   80.384
  394.750    4.560    0.205    0.398   78.460
  395.000    4.620    0.213    0.380   76.899
  395.250    4.604    0.224    0.371   74.492
