~VERSION INFORMATION
 VERS.                 2.0:   CWLS LOG ASCII STANDARD -VERSION 2.0
 WRAP.                  NO:   ONE LINE PER DEPTH STEP
~WELL INFORMATION BLOCK
#MNEM.UNIT           DATA                    DESCRIPTION OF MNEMONIC
#---------    -------------------            -------------------------------
# Generated from Intellog Unique Number	CW_70_72/WELL/642
NULL.         -999.25                        : NULL_VALUE
WELL.         MIDAS AMOCO MEYER 06-21        : Well_name    - WELL              
LOC .         06-21-071-25W4                 : Location     - LOCATION          
UWI .         00/06-21-071-25W4/0            : Uwi          - UNIQUE WELL ID    
ENTR.         JAYE                           : Entered      - ENTERED BY        
SRVC.         SCHLUMBERGER                   : Scn          - SERVICE COMPANY   
DATE.         4 FEB 73                       : Date         - LOG DATE          
STRT.M        402.336                        : top_depth    - START DEPTH       
STOP.M        624.836                        : bot_depth    - STOP DEPTH        
STEP.M        0.25                           : increment    - STEP LENGTH       
~CURVE INFORMATION BLOCK
#MNEM UNIT       ERCB CURVE CODE    CURVE DESCRIPTION
#-----------   ------------------   ----------------------------------
DEPT.M        00 001 00 00         : DEPTH        - DEPTH                       
DPHI.V/V      00 890 00 00         : PHID         - DENSITY POROSITY (SANDSTONE)
NPHI.V/V      00 330 00 00         : PHIN         - NEUTRON POROSITY (SANDSTONE)
GR  .API      00 310 00 00         : GR           - GAMMA RAY                   
CALI.MM       00 280 01 00         : CAL          - CALIPER                     
ILD .OHMM     00 120 00 00         : RESD         - DEEP RESISTIVITY (DIL)      
~PARAMETER INFORMATION       
#MNEM.UNIT           DATA             DESCRIPTION OF MNEMONIC
#---------         -----------     ------------------------------
GL  .M        598.322              : gl           - GROUND LEVEL ELEVATION      
EREF.M        601.37               : kb           - ELEVATION OF DEPTH REFERENCE
DATM.M        598.322              : datum        - DATUM ELEVATION             
TDD .M        628.802              : tdd          - TOTAL DEPTH DRILLER         
RUN .         ONE                  : Run          - RUN NUMBER                  
ENG .         LEWIS                : Engineer     - RECORDING ENGINEER          
WIT .         JAMES                : Witness      - WITNESSED BY                
BASE.         LLOYD                : Branch       - HOME BASE OF LOGGING UNIT   
MUD .         GEL                  : Mud_type     - MUD TYPE                    
MATR.         SANDSTONE            : Logunit      - NEUTRON MATRIX              
TMAX.C        25.5556              : BHT          - MAXIMUM RECORDED TEMPERATURE
BHTD.M        627.583              : BHTDEP       - MAXIMUM RECORDED TEMPERATURE
RMT .C        15                   : MDTP         - TEMPERATURE OF MUD          
MUDD.KG/M     1116                 : MWT          - MUD DENSITY                 
NEUT.         1                    : NEUTRON      - NEUTRON TYPE                
RESI.         0                    : RESIST       - RESISTIVITY TYPE            
RM  .OHMM     8.41                 : RM           - RESISTIVITY OF MUD          
RMC .OHMM     5                    : RMC          - RESISTIVITY OF MUD CAKE     
RMF .OHMM     3.96                 : RMF          - RESISTIVITY OF MUD FILTRATE 
SUFT.C        -17.7778             : SUFT         - SURFACE TEMPERATURE         
~A  DEPTH     PHID     PHIN       GR      CAL     RESD
# ...
  511.836    0.184    0.408   91.981  163.472    3.672
  512.086    0.188    0.429   94.069  164.807    3.735
  512.336    0.171    0.438   90.648  164.565    3.752
  512.586    0.186    0.445   88.096  163.911    3.669
  512.836    0.207    0.432   88.451  162.947    3.569
  513.086    0.187    0.433   90.600  162.909    3.540
  513.336    0.179    0.448   93.432  163.091    3.493
  513.586    0.187    0.464   96.758  163.815    3.452
  513.836    0.198    0.443  100.582  164.192    3.468
  514.086    0.191    0.424  104.651  164.479    3.522
  514.336    0.176    0.435  102.158  164.245    3.635
  514.586    0.158    0.469   93.909  163.074    3.800
  514.836    0.143    0.456   84.670  162.950    3.921
  515.086    0.124    0.375   78.032  163.331    3.989
  515.336    0.110    0.381   81.418  163.517    4.044
  515.586    0.168    0.440   86.727  163.906    4.129
  515.836    0.176    0.445   86.028  163.791    4.163
  516.086    0.175    0.429   82.362  163.852    4.145
  516.336    0.164    0.408   84.143  164.137    4.119
  516.586    0.145    0.439   88.271  164.547    4.094
  516.836    0.119    0.434   94.634  164.615    4.076
  517.086    0.156    0.416   96.658  164.476    4.064
  517.336    0.162    0.433   90.389  164.763    4.025
  517.586    0.146    0.405   90.316  164.942    3.957
  517.836    0.145    0.385   92.711  165.551    3.933
  518.086    0.169    0.407   96.908  166.246    3.922
  518.336    0.171    0.413  101.838  168.940    3.898
  518.586    0.154    0.421   98.500  168.903    3.390
  518.836    0.169    0.422  101.913  168.551    3.390
  519.086    0.176    0.415  103.814  168.105    3.395
  519.336    0.161    0.428  105.899  168.062    3.408
  519.586    0.127    0.446  108.525  168.234    3.432
  519.836    0.146    0.478  103.321  168.295    3.469
  520.086    0.170    0.452   96.425  168.348    3.480
  520.336    0.154    0.445   99.836  168.219    3.500
  520.586    0.151    0.442  100.176  167.869    3.502
  520.836    0.152    0.437   96.233  167.735    3.539
  521.086    0.169    0.410   91.030  167.698    3.597
  521.336    0.164    0.407   93.473  167.733    3.655
  521.586    0.166    0.440   93.089  167.907    3.744
  521.836    0.151    0.435   85.650  167.753    3.775
  522.086    0.135    0.392   83.702  167.824    3.823
  522.336    0.148    0.403   92.834  167.995    3.848
  522.586    0.159    0.432  102.151  168.147    3.850
  522.836    0.168    0.445  103.030  168.417    3.855
  523.086    0.164    0.452  105.054  168.992    3.840
  523.336    0.167    0.432  104.729  169.352    3.898
  523.586    0.171    0.418   98.558  169.713    4.012
  523.836    0.152    0.391   92.270  170.304    4.123
  524.086    0.135    0.371   93.751  170.862    4.205
  524.336    0.131    0.371  101.138  171.028    4.205
  524.586    0.151    0.392  110.575  171.088    4.150
  524.836    0.154    0.405  116.578  171.043    4.049
  525.086    0.153    0.418  119.504  170.806    3.910
  525.336    0.142    0.421  116.952  170.556    3.808
  525.586    0.133    0.418  112.951  170.111    3.666
  525.836    0.123    0.423  106.236  170.173    3.629
  526.086    0.139    0.430  105.427  170.225    3.594
  526.336    0.156    0.441  106.068  170.487    3.543
  526.586    0.151    0.431  107.190  170.762    3.507
  526.836    0.164    0.424  108.972  171.543    3.481
  527.086    0.181    0.425  112.625  171.901    3.481
  527.336    0.178    0.427  114.707  172.057    3.492
  527.586    0.152    0.417  114.624  171.820    3.497
  527.836    0.167    0.434  111.284  171.777    3.501
  528.086    0.166    0.429  103.607  171.435    3.560
  528.336    0.157    0.416   95.689  170.778    3.622
  528.586    0.165    0.407   87.349  169.721    3.741
  528.836    0.140    0.395   85.336  167.730    3.852
  529.086    0.111    0.376   87.603  167.386    3.956
  529.336    0.113    0.374   92.821  168.571    4.079
  529.586    0.115    0.438   98.763  169.754    4.238
  529.836    0.126    0.462   97.292  170.336    4.485
  530.086    0.103    0.424   92.267  170.290    4.674
  530.336    0.078    0.390   91.401  170.158    4.880
  530.586    0.091    0.410   88.061  170.104    5.209
  530.836    0.106    0.366   76.526  170.465    5.696
  531.086    0.095    0.327   69.995  170.640    6.316
  531.336    0.120    0.333   66.053  170.798    7.283
  531.586    0.066    0.295   62.475  170.566    8.123
  531.836    0.016    0.257   59.980  170.206    9.416
  532.086    0.000    0.228   65.258  169.854    9.994
  532.336    0.072    0.238   74.694  169.302    9.169
  532.586    0.106    0.318   82.805  168.552    7.763
  532.836    0.128    0.357   91.580  169.325    6.706
  533.086    0.142    0.380   97.763  170.300    5.866
  533.336    0.144    0.398   96.893  170.776    5.244
  533.586    0.144    0.387   89.398  171.039    4.779
  533.836    0.142    0.372   86.240  170.912    4.593
  534.086    0.130    0.385   88.506  170.755    4.339
  534.336    0.159    0.401   89.687  170.309    4.136
  534.586    0.165    0.389   92.434  170.158    3.986
  534.836    0.166    0.410   95.182  170.124    3.800
  535.086    0.160    0.410   95.763  169.974    3.710
  535.336    0.177    0.402   94.172  169.637    3.702
  535.586    0.155    0.390   94.025  169.385    3.816
  535.836    0.137    0.392   94.365  169.252    4.031
  536.086    0.125    0.392   99.640  169.201    4.240
  536.336    0.119    0.383  100.462  169.158    4.445
  536.586    0.135    0.375   96.402  169.122    4.660
  536.836    0.123    0.374   92.821  168.879    4.770
  537.086    0.131    0.364   89.968  168.227    4.802
  537.336    0.145    0.380   89.879  167.980    4.818
  537.586    0.138    0.382   96.061  167.626    4.906
  537.836    0.133    0.379   99.773  167.494    5.050
  538.086    0.110    0.383  100.351  167.352    5.178
  538.336    0.105    0.383   98.641  167.406    5.280
  538.586    0.119    0.375  100.544  167.477    5.324
  538.836    0.121    0.389  103.775  167.836    5.372
  539.086    0.126    0.381  101.946  168.312    5.312
  539.336    0.132    0.378  100.834  168.768    5.167
  539.586    0.129    0.394  104.728  170.575    4.946
  539.836    0.113    0.400  103.981  171.145    4.771
  540.086    0.109    0.392   99.982  170.805    4.428
  540.336    0.137    0.396  100.377  170.137    4.219
  540.586    0.147    0.414  105.112  169.081    4.015
  540.836    0.140    0.400  105.088  167.828    3.835
  541.086    0.127    0.400  105.065  167.469    3.729
  541.336    0.128    0.403  106.909  167.531    3.669
  541.586    0.122    0.401  110.921  167.999    3.666
  541.836    0.113    0.415  113.248  168.471    3.652
  542.086    0.130    0.438  113.523  168.939    3.668
  542.336    0.133    0.429  113.624  169.209    3.749
  542.586    0.129    0.423  113.838  169.363    3.830
  542.836    0.123    0.427  115.322  169.734    3.892
  543.086    0.125    0.423  117.228  170.727    3.962
  543.336    0.116    0.425  116.958  171.281    4.019
  543.586    0.110    0.426  113.562  172.058    4.038
  543.836    0.125    0.425  109.499  172.129    4.032
  544.086    0.108    0.427  104.774  172.183    4.022
  544.336    0.087    0.441  102.821  171.829    3.906
  544.586    0.076    0.415  102.977  172.301    3.810
  544.836    0.088    0.405  105.244  172.781    3.679
  545.086    0.106    0.424  114.620  173.446    3.591
  545.336    0.124    0.442  117.611  173.815    3.531
  545.586    0.132    0.447  120.717  174.072    3.544
  545.836    0.142    0.433  127.984  174.450    3.619
  546.086    0.139    0.419  123.441  174.416    3.719
  546.336    0.119    0.390  115.342  174.158    3.851
  546.586    0.123    0.369  104.954  173.817    3.941
  546.836    0.105    0.353   95.771  173.368    4.054
  547.086    0.087    0.353   89.600  172.911    4.206
  547.336    0.096    0.367   84.694  172.877    4.289
  547.586    0.096    0.398   94.010  172.726    4.311
  547.836    0.130    0.412  108.569  172.792    4.261
  548.086    0.118    0.419  105.716  172.869    4.179
