~VERSION INFORMATION
 VERS.                 2.0:   CWLS LOG ASCII STANDARD -VERSION 2.0
 WRAP.                  NO:   ONE LINE PER DEPTH STEP
~WELL INFORMATION BLOCK
#MNEM.UNIT           DATA                    DESCRIPTION OF MNEMONIC
#---------    -------------------            -------------------------------
# Generated from Intellog Unique Number	CW_73_75/WELL/2733
WELL.         ANADARKO ER AL FRANCIS 07-32   : Well_name    - WELL
LOC .         00/07-32-073-21W4/0            : Location     - LOCATION
UWI .         00/07-32-073-21W4/0            : Uwi          - UNIQUE WELL ID
ENTR.         JAYE                           : Entered      - ENTERED BY
SRVC.         SCHLUMBERGER                   : Scn          - SERVICE COMPANY
DATE.         18 FEB 79                      : Date         - LOG DATE
STRT.M        325                            : top_depth    - START DEPTH
STOP.M        575                            : bot_depth    - STOP DEPTH
STEP.M        0.25                           : increment    - STEP LENGTH
 NULL. -999.2500:NULL Value
~CURVE INFORMATION BLOCK
#MNEM UNIT       ERCB CURVE CODE    CURVE DESCRIPTION
#-----------   ------------------   ----------------------------------
DEPT.M        00 001 00 00         : DEPTH        - DEPTH
ILD .OHMM     00 120 00 00         : RESD         - DEEP RESISTIVITY (DIL)
NPHI.V/V      00 330 00 00         : PHIN         - NEUTRON POROSITY (SANDSTONE)
DPHI.V/V      00 890 00 00         : PHID         - DENSITY POROSITY (SANDSTONE)
GR  .API      00 310 00 00         : GR           - GAMMA RAY
CALI.MM       00 280 01 00         : CAL          - CALIPER
~PARAMETER INFORMATION
#MNEM.UNIT           DATA             DESCRIPTION OF MNEMONIC
#---------         -----------     ------------------------------
GL  .M        674                  : gl           - GROUND LEVEL ELEVATION
EREF.M        677.8                : kb           - ELEVATION OF DEPTH REFERENCE
DATM.M        674                  : datum        - DATUM ELEVATION
TDD .M        600                  : tdd          - TOTAL DEPTH DRILLER
RUN .         ONE                  : Run          - RUN NUMBER
ENG .         WESOIOWSKY           : Engineer     - RECORDING ENGINEER
WIT .         ROGERS               : Witness      - WITNESSED BY
BASE.         EDM                  : Branch       - HOME BASE OF LOGGING UNIT
MUD .         GEL CHEM             : Mud_type     - MUD TYPE
MATR.         SANDSTONE            : Logunit      - NEUTRON MATRIX
TMAX.C        24                   : BHT          - MAXIMUM RECORDED TEMPERATURE
BHTD.M        601                  : BHTDEP       - MAXIMUM RECORDED TEMPERATURE
RMT .C        18                   : MDTP         - TEMPERATURE OF MUD
MUDD.KG/M     1090                 : MWT          - MUD DENSITY
NEUT.         1                    : NEUTRON      - NEUTRON TYPE
RESI.         0                    : RESIST       - RESISTIVITY TYPE
RM  .OHMM     5.8                  : RM           - RESISTIVITY OF MUD
RMC .OHMM     0                    : RMC          - RESISTIVITY OF MUD CAKE
RMF .OHMM     5.1                  : RMF          - RESISTIVITY OF MUD FILTRATE
SUFT.C        0                    : SUFT         - SURFACE TEMPERATURE
~A  DEPTH     RESD     PHIN     PHID       GR      CAL
# ...
  398.000    6.156    0.486    0.283  106.620  181.558
  398.250    6.309    0.444    0.284  106.337  171.900
  398.500    6.664    0.418    0.265  102.710  160.071
  398.750    7.026    0.452    0.251   96.542  158.578
  399.000    7.147    0.450    0.238   90.562  158.729
  399.250    7.120    0.441    0.219   96.849  159.499
  399.500    7.014    0.419    0.206  118.937  162.131
  399.750    6.793    0.427    0.228  128.385  165.688
  400.000    6.768    0.446    0.244  111.932  171.103
  400.250    6.910    0.456    0.262   89.219  177.867
  400.500    7.466    0.435    0.283   76.484  175.535
  400.750    8.221    0.425    0.304   64.368  166.908
  401.000    9.417    0.423    0.322   60.927  163.659
  401.250   11.223    0.428    0.321   63.128  163.188
  401.500   12.978    0.418    0.327   66.439  162.719
  401.750   13.708    0.401    0.339   63.803  162.669
  402.000   13.944    0.407    0.337   63.584  163.023
  402.250   13.633    0.416    0.325   68.945  163.586
  402.500   13.204    0.393    0.313   75.787  164.154
  402.750   13.205    0.393    0.289   83.746  164.303
  403.000   13.661    0.429    0.267   84.397  164.764
  403.250   14.214    0.440    0.239   79.531  165.129
  403.500   15.156    0.388    0.198   82.288  165.583
  403.750   16.594    0.347    0.177   79.526  165.950
  404.000   17.861    0.345    0.183   75.837  165.988
  404.250   19.592    0.381    0.168   71.342  166.255
  404.500   22.443    0.370    0.145   60.218  166.087
  404.750   27.153    0.147    0.013   47.917  166.341
  405.000   34.309    0.130   -0.014   47.574  167.220
  405.250   44.176    0.142    0.030   55.473  168.404
  405.500   41.435    0.170    0.060   64.243  169.171
  405.750   31.703    0.203    0.099   69.595  168.290
  406.000   25.332    0.224    0.171   78.485  165.550
  406.250   18.877    0.376    0.254   87.314  163.739
  406.500   15.112    0.421    0.292   84.927  162.549
  406.750   14.094    0.453    0.293   77.952  162.400
  407.000   14.016    0.442    0.282   78.539  162.441
  407.250   14.150    0.425    0.297   81.174  162.497
  407.500   14.204    0.439    0.293   84.485  162.957
  407.750   13.654    0.446    0.285   89.283  163.107
  408.000   12.734    0.429    0.274   83.614  163.154
  408.250   11.330    0.469    0.312   81.411  163.507
  408.500   10.214    0.450    0.300   83.303  164.189
  408.750    9.473    0.427    0.290   85.499  164.643
  409.000    8.818    0.420    0.297   90.236  164.894
  409.250    8.101    0.447    0.314   91.814  165.252
  409.500    7.317    0.436    0.318   89.612  166.024
  409.750    6.486    0.415    0.292   90.386  166.587
  410.000    5.749    0.392    0.259   95.183  168.289
  410.250    5.048    0.405    0.240  103.517  171.432
  410.500    4.603    0.448    0.247  107.330  175.103
  410.750    4.500    0.463    0.240  108.344  177.215
  411.000    4.543    0.474    0.251  109.613  177.566
  411.250    4.781    0.488    0.257  107.596  176.894
  411.500    5.126    0.469    0.224  103.971  174.358
  411.750    5.549    0.487    0.198   96.068  172.038
  412.000    5.862    0.467    0.209   92.255  171.149
  412.250    5.985    0.451    0.197   98.977  171.105
  412.500    6.008    0.445    0.198  104.832  172.290
  412.750    5.918    0.450    0.206  100.524  173.569
  413.000    5.775    0.470    0.186   99.744  175.371
  413.250    5.636    0.453    0.198  104.981  176.971
  413.500    5.594    0.448    0.193  108.355  178.885
  413.750    5.594    0.448    0.179  111.543  180.684
  414.000    5.701    0.450    0.201  102.093  181.863
  414.250    5.876    0.469    0.231   93.508  182.325
  414.500    6.149    0.432    0.269   83.065  179.172
  414.750    6.483    0.394    0.298   64.319  171.685
  415.000    6.926    0.380    0.331   52.451  168.527
  415.250    7.371    0.409    0.340   54.711  166.615
  415.500    7.815    0.406    0.329   60.194  165.638
  415.750    8.224    0.399    0.319   68.277  164.958
  416.000    8.605    0.416    0.282   71.899  164.286
  416.250    8.903    0.436    0.317   63.812  164.227
  416.500    9.228    0.420    0.313   60.187  163.659
  416.750    9.548    0.413    0.301   57.861  163.199
  417.000    9.841    0.418    0.308   57.270  162.936
  417.250   10.029    0.426    0.308   65.044  162.678
  417.500   10.259    0.430    0.301   77.528  162.621
  417.750   10.574    0.409    0.293   94.226  162.764
  418.000   11.043    0.434    0.282  117.613  163.120
  418.250   11.447    0.453    0.269  110.455  163.170
  418.500   11.644    0.445    0.255  112.032  163.112
  418.750   11.623    0.446    0.251  113.486  163.059
  419.000   11.558    0.489    0.254   96.788  162.910
  419.250   11.364    0.443    0.275   87.457  162.951
  419.500   11.195    0.482    0.277   79.307  162.793
  419.750   10.904    0.446    0.276   69.361  162.639
  420.000   10.581    0.442    0.276   64.991  162.577
  420.250   10.248    0.443    0.295   62.416  162.939
  420.500    9.981    0.394    0.304   58.975  163.088
  420.750    9.722    0.379    0.313   54.605  162.930
  421.000    9.577    0.400    0.319   53.583  162.976
  421.250    9.434    0.396    0.304   49.645  162.920
  421.500    9.276    0.369    0.313   51.599  162.973
  421.750    9.121    0.356    0.318   53.980  163.027
  422.000    8.968    0.370    0.315   57.912  162.762
  422.250    8.851    0.377    0.314   56.577  162.809
  422.500    8.686    0.370    0.324   54.312  162.955
  422.750    8.556    0.364    0.320   55.646  163.313
  423.000    8.413    0.367    0.315   55.302  163.677
  423.250    8.335    0.360    0.307   49.380  163.729
  423.500    8.273    0.360    0.291   51.208  163.879
  423.750    8.273    0.364    0.286   53.654  164.023
  424.000    8.274    0.367    0.293   55.045  164.491
  424.250    8.228    0.381    0.312   48.382  164.744
  424.500    8.182    0.375    0.300   47.919  164.795
  424.750    8.182    0.376    0.296   49.120  164.740
  425.000    8.229    0.390    0.323   54.602  164.890
  425.250    8.355    0.409    0.333   60.023  165.142
  425.500    8.451    0.416    0.305   52.678  164.995
  425.750    8.743    0.373    0.294   49.114  164.830
  426.000    9.200    0.337    0.275   47.965  165.086
  426.250    9.941    0.314    0.252   45.948  165.332
  426.500   10.700    0.301    0.240   45.545  165.897
  426.750   11.671    0.280    0.204   41.795  167.604
  427.000   12.538    0.254    0.186   33.645  168.266
  427.250   13.370    0.216    0.202   34.978  168.628
  427.500   14.337    0.233    0.209   36.244  168.893
  427.750   14.311    0.232    0.195   36.580  169.238
  428.000   13.222    0.222    0.177   37.540  169.497
  428.250   12.056    0.275    0.178   40.914  168.928
  428.500   11.501    0.324    0.266   47.140  168.145
  428.750   11.055    0.361    0.275   47.479  165.404
  429.000   10.932    0.294    0.268   46.268  162.565
  429.250   10.953    0.250    0.255   45.491  162.929
  429.500   10.831    0.299    0.268   47.751  164.002
  429.750   10.649    0.309    0.291   53.418  165.804
  430.000   10.294    0.321    0.283   54.626  165.855
  430.250    9.692    0.336    0.287   54.966  164.870
  430.500    9.177    0.381    0.305   55.922  163.368
  430.750    8.939    0.414    0.326   53.349  162.693
  431.000    9.248    0.414    0.279   59.637  164.397
  431.250    9.992    0.432    0.255   58.302  166.609
  431.500   11.022    0.347    0.221   52.755  167.381
  431.750   12.182    0.238    0.133   50.924  167.222
  432.000   11.621    0.267    0.135   52.688  165.621
  432.250   10.320    0.360    0.196   55.878  162.568
  432.500    8.977    0.389    0.257   62.784  159.317
  432.750    8.154    0.412    0.321   59.344  157.813
  433.000    7.505    0.410    0.329   56.710  158.069
  433.250    7.187    0.399    0.328   56.428  158.324
  433.500    7.134    0.389    0.330   55.900  158.679
  433.750    7.256    0.402    0.355   57.110  158.836
  434.000    7.353    0.415    0.345   60.792  158.784
  434.250    7.452    0.411    0.330   56.979  158.514
