~VERSION INFORMATION
 VERS.                 2.0:   CWLS LOG ASCII STANDARD -VERSION 2.0
 WRAP.                  NO:   ONE LINE PER DEPTH STEP
~WELL INFORMATION BLOCK
#MNEM.UNIT           DATA                    DESCRIPTION OF MNEMONIC
#---------    -------------------            -------------------------------
# Generated from Intellog Unique Number	CX_WELLS/WELL/2939
WELL.         GULF SURMONT                   : Well_name    - WELL
LOC .         00/06-25-082-09W4/0            : Location     - LOCATION
UWI .         00/06-25-082-09W4/0            : Uwi          - UNIQUE WELL ID
ENTR.         T                              : Entered      - ENTERED BY
SRVC.         SCHLUMBERGER                   : Scn          - SERVICE COMPANY
DATE.         03/04/92                       : Date         - LOG DATE
STRT.F        900                            : top_depth    - START DEPTH
STOP.F        1680.02                        : bot_depth    - STOP DEPTH
STEP.F        0.82                           : increment    - STEP LENGTH
 NULL. -999.2500:NULL Value
~CURVE INFORMATION BLOCK
#MNEM UNIT       ERCB CURVE CODE    CURVE DESCRIPTION
#-----------   ------------------   ----------------------------------
DEPT.F        00 001 00 00         : DEPTH        - DEPTH
GR  .API      00 310 00 00         : GR           - GAMMA RAY
NPHI.V/V      00 330 00 00         : PHIN         - NEUTRON POROSITY (SANDSTONE)
DPHI.V/V      00 890 00 00         : PHID         - DENSITY POROSITY (SANDSTONE)
ILD .OHMM     00 120 00 00         : RESD         - DEEP RESISTIVITY (OTHER)
~PARAMETER INFORMATION
#MNEM.UNIT           DATA             DESCRIPTION OF MNEMONIC
#---------         -----------     ------------------------------
GL  .F        2422                 : gl           - GROUND LEVEL ELEVATION
EREF.F        2432                 : kb           - ELEVATION OF DEPTH REFERENCE
DATM.F        2432                 : datum        - DATUM ELEVATION
TDD .F        1690                 : tdd          - TOTAL DEPTH DRILLER
RUN .         ONE                  : Run          - RUN NUMBER
ENG .         JO                   : Engineer     - RECORDING ENGINEER
WIT .         TIM                  : Witness      - WITNESSED BY
MUD .         GEL                  : Mud_type     - MUD TYPE
MATR.         SANDSTONE            : Logunit      - NEUTRON MATRIX
TMAX.F        62                   : BHT          - MAXIMUM RECORDED TEMPERATURE
BHTD.F        1690                 : BHTDEP       - MAXIMUM RECORDED TEMPERATURE
RMT .F        60                   : MDTP         - TEMPERATURE OF MUD
MUDD.LB/G     9.6                  : MWT          - MUD DENSITY
NEUT.         1                    : NEUTRON      - NEUTRON TYPE
RESI.         6.5                  : RESIST       - RESISTIVITY TYPE
RM  .OHMM     9.5                  : RM           - RESISTIVITY OF MUD
RMC .OHMM     9.5                  : RMC          - RESISTIVITY OF MUD CAKE
RMF .OHMM     9.5                  : RMF          - RESISTIVITY OF MUD FILTRATE
SUFT.F        39.2                 : SUFT         - SURFACE TEMPERATURE
~A  DEPTH       GR     PHIN     PHID     RESD
# ...
 1042.720  112.137    0.450    0.284   16.233
 1043.540  118.501    0.448    0.268   13.070
 1044.360  121.712    0.449    0.260   11.732
 1045.180  123.712    0.456    0.251   10.539
 1046.000  122.588    0.464    0.243    9.636
 1046.820  120.788    0.480    0.236   10.607
 1047.640  117.834    0.487    0.222   11.020
 1048.460  114.852    0.494    0.208   12.347
 1049.280  113.080    0.493    0.208   13.824
 1050.100  109.479    0.481    0.217   16.056
 1050.920  104.668    0.459    0.228   18.323
 1051.740  103.515    0.435    0.258   18.388
 1052.560  104.925    0.427    0.284   18.093
 1053.380  106.249    0.433    0.291   17.185
 1054.200  107.574    0.445    0.294   16.026
 1055.020  110.165    0.455    0.296   15.200
 1055.840  114.642    0.454    0.264   14.683
 1056.660  117.882    0.450    0.237   13.693
 1057.480  119.234    0.449    0.227   13.237
 1058.300  119.968    0.453    0.232   13.762
 1059.120  120.701    0.455    0.238   14.317
 1059.940  120.197    0.456    0.243   14.624
 1060.760  117.834    0.449    0.247   14.666
 1061.580  116.062    0.443    0.247   14.441
 1062.400  115.557    0.442    0.245   13.960
 1063.220  113.194    0.440    0.244   13.495
 1064.040  112.070    0.435    0.240   12.818
 1064.860  109.736    0.432    0.236   12.383
 1065.680  108.583    0.432    0.232   11.539
 1066.500  106.278    0.433    0.225   10.960
 1067.320  105.096    0.422    0.219   10.792
 1068.140  103.353    0.419    0.195   10.823
 1068.960  102.876    0.425    0.191   10.846
 1069.780  102.991    0.428    0.193   10.885
 1070.600  104.934    0.438    0.208   10.924
 1071.420  111.889    0.444    0.218   10.940
 1072.240  115.719    0.448    0.211   10.979
 1073.060  119.606    0.455    0.183   11.018
 1073.880  120.930    0.464    0.174   10.833
 1074.700  122.930    0.471    0.168   10.473
 1075.520  123.635    0.478    0.176   10.124
 1076.350  123.130    0.484    0.182    9.276
 1077.170  122.006    0.492    0.185    8.798
 1077.990  119.672    0.496    0.192    8.499
 1078.810  117.338    0.493    0.198    8.849
 1079.630  114.918    0.470    0.206    9.741
 1080.450  111.346    0.458    0.210   10.505
 1081.270  110.221    0.449    0.214   11.330
 1082.090  113.403    0.443    0.215   12.006
 1082.910  117.881    0.439    0.216   12.490
 1083.730  121.091    0.436    0.221   12.075
 1084.550  123.683    0.436    0.227   10.463
 1085.370  125.655    0.436    0.229    9.221
 1086.190  121.434    0.438    0.230    8.752
 1087.010  117.214    0.439    0.230    8.946
 1087.830  113.022    0.441    0.227    9.473
 1088.650  111.250    0.442    0.231   10.038
 1089.470  108.859    0.451    0.235   10.644
 1090.290  104.667    0.492    0.241   11.074
 1091.110  100.418    0.511    0.248   12.191
 1091.930   96.817    0.503    0.255   12.443
 1092.750   93.806    0.488    0.259   13.439
 1093.570   90.205    0.471    0.266   13.972
 1094.390   85.365    0.466    0.269   14.815
 1095.210   78.049    0.468    0.273   15.413
 1096.030   73.180    0.473    0.281   16.024
 1096.850   65.273    0.467    0.287   17.319
 1097.670   61.024    0.457    0.297   17.992
 1098.490   58.042    0.457    0.306   19.432
 1099.310   56.918    0.455    0.313   20.231
 1100.130   57.004    0.455    0.324   20.665
 1100.950   59.652    0.456    0.327   21.530
 1101.770   62.272    0.459    0.332   21.576
 1102.590   62.977    0.460    0.334   21.607
 1103.410   63.682    0.470    0.335   22.086
 1104.230   63.796    0.478    0.338   22.134
 1105.050   64.530    0.486    0.339   22.213
 1105.870   64.053    0.484    0.343   22.689
 1106.690   64.196    0.475    0.345   22.755
 1107.510   63.720    0.466    0.347   22.820
 1108.330   63.158    0.463    0.348   22.060
 1109.150   63.329    0.458    0.350   21.752
 1109.970   63.386    0.456    0.351   21.799
 1110.790   63.501    0.455    0.351   21.464
 1111.610   63.615    0.460    0.350   20.358
 1112.430   64.349    0.466    0.347   19.680
 1113.250   65.139    0.468    0.344   19.419
 1114.070   65.197    0.476    0.339   19.461
 1114.900   64.692    0.472    0.334   19.489
 1115.720   64.215    0.466    0.330   19.189
 1116.540   63.710    0.468    0.328   19.245
 1117.360   63.825    0.474    0.323   19.300
 1118.180   63.967    0.481    0.321   19.355
 1119.000   63.434    0.486    0.321   19.411
 1119.820   61.719    0.475    0.322   19.480
 1120.640   60.566    0.470    0.328   19.195
 1121.460   59.499    0.466    0.332   19.222
 1122.280   59.556    0.453    0.330   19.319
 1123.100   59.109    0.452    0.328   19.346
 1123.920   59.194    0.453    0.327   19.402
 1124.740   58.718    0.456    0.329   19.846
 1125.560   58.156    0.466    0.330   20.257
 1126.380   57.060    0.475    0.331   20.706
 1127.200   56.555    0.471    0.332   21.120
 1128.020   55.431    0.471    0.333   21.588
 1128.840   55.517    0.470    0.333   21.650
 1129.660   55.041    0.468    0.331   22.115
 1130.480   54.507    0.470    0.330   22.178
 1131.300   54.650    0.475    0.329   22.242
 1132.120   54.736    0.471    0.332   22.337
 1132.940   55.526    0.467    0.333   22.369
 1133.760   55.583    0.464    0.335   22.450
 1134.580   55.726    0.465    0.335   22.530
 1135.400   57.698    0.466    0.337   22.562
 1136.220   58.489    0.464    0.338   22.627
 1137.040   57.308    0.462    0.339   22.708
 1137.860   55.564    0.460    0.343   22.757
 1138.680   53.849    0.458    0.344   22.822
 1139.500   53.964    0.458    0.343   22.904
 1140.320   54.669    0.461    0.339   22.953
 1141.140   56.079    0.462    0.329   23.019
 1141.960   56.784    0.468    0.325   23.102
 1142.780   56.869    0.475    0.326   23.168
 1143.600   57.012    0.485    0.328   22.812
 1144.420   57.098    0.481    0.329   22.477
 1145.240   57.241    0.474    0.328   22.148
 1146.060   57.327    0.469    0.328   22.179
 1146.880   57.498    0.464    0.329   21.838
 1147.700   57.584    0.459    0.332   21.901
 1148.520   57.698    0.459    0.334   21.964
 1149.340   56.574    0.461    0.335   21.626
 1150.160   55.478    0.465    0.337   21.294
 1150.980   54.354    0.469    0.338   21.355
 1151.800   53.230    0.470    0.338   21.042
 1152.620   52.134    0.471    0.338   21.117
 1153.440   51.572    0.472    0.336   21.147
 1154.270   51.096    0.475    0.334   21.208
 1155.090   51.239    0.476    0.333   20.897
 1155.910   51.353    0.476    0.333   20.942
 1156.730   50.791    0.475    0.333   21.002
 1157.550   50.286    0.471    0.330   20.709
 1158.370   49.781    0.472    0.329   20.768
 1159.190   48.714    0.472    0.327   20.463
 1160.010   48.180    0.470    0.328   20.493
 1160.830   48.266    0.466    0.331   20.192
 1161.650   48.409    0.464    0.334   20.236
 1162.470   49.114    0.464    0.334   19.925
 1163.290   51.143    0.463    0.329   19.632
 1164.110   52.525    0.464    0.320   19.674
 1164.930   53.849    0.468    0.311   19.759
 1165.750   53.963    0.469    0.311   19.802
 1166.570   54.106    0.463    0.312   19.844
 1167.390   54.163    0.461    0.313   19.915
 1168.210   54.334    0.458    0.314   19.958
 1169.030   54.420    0.458    0.316   20.386
 1169.850   55.125    0.456    0.318   20.459
 1170.670   55.916    0.455    0.322   20.533
 1171.490   56.059    0.455    0.321   20.577
 1172.310   56.735    0.455    0.320   20.636
 1173.130   56.849    0.455    0.317   20.695
 1173.950   59.469    0.457    0.316   20.784
 1174.770   60.203    0.459    0.314   20.814
 1175.590   60.317    0.464    0.317   20.888
 1176.410   59.812    0.468    0.318   20.963
 1177.230   59.307    0.474    0.319   20.993
 1178.050   58.831    0.477    0.316   20.686
 1178.870   58.269    0.476    0.318   20.730
 1179.690   58.412    0.472    0.323   20.426
 1180.510   59.145    0.466    0.327   20.112
 1181.330   60.498    0.462    0.332   20.170
 1182.150   60.612    0.459    0.339   20.213
 1182.970   60.755    0.455    0.340   19.931
 1183.790   60.250    0.452    0.342   19.988
 1184.610   59.745    0.451    0.342   20.031
