~VERSION INFORMATION
 VERS.                 2.0:   CWLS LOG ASCII STANDARD -VERSION 2.0
 WRAP.                  NO:   ONE LINE PER DEPTH STEP
~WELL INFORMATION BLOCK
#MNEM.UNIT           DATA                    DESCRIPTION OF MNEMONIC
#---------    -------------------            -------------------------------
# Generated from Intellog Unique Number	CW_76_78/WELL/194
WELL.         06-17-077-25W4                 : Well_name    - WELL
LOC .         00/06-17-077-25W4/0            : Location     - LOCATION
UWI .         00/06-17-077-25W4/0            : Uwi          - UNIQUE WELL ID
ENTR.         JJ                             : Entered      - ENTERED BY
SRVC.         WESTERN ATLAS                  : Scn          - SERVICE COMPANY
DATE.         5 JAN 71                       : Date         - LOG DATE
STRT.M        536.448                        : top_depth    - START DEPTH
STOP.M        664.448                        : bot_depth    - STOP DEPTH
STEP.M        0.25                           : increment    - STEP LENGTH
 NULL. -999.2500:NULL Value
~CURVE INFORMATION BLOCK
#MNEM UNIT       ERCB CURVE CODE    CURVE DESCRIPTION
#-----------   ------------------   ----------------------------------
DEPT.M        00 001 00 00         : DEPTH        - DEPTH
NPHI.V/V      00 330 00 00         : PHIN         - NEUTRON POROSITY (SANDSTONE)
GR  .API      00 310 00 00         : GR           - GAMMA RAY
CALI.MM       00 280 01 00         : CAL          - CALIPER
DELT.US/F     00 520 00 00         : DELT         - SONIC TRAVEL TIME
ILD .OHMM     00 120 00 00         : RESD         - DEEP RESISTIVITY (DIL)
~PARAMETER INFORMATION
#MNEM.UNIT           DATA             DESCRIPTION OF MNEMONIC
#---------         -----------     ------------------------------
GL  .M        722.376              : gl           - GROUND LEVEL ELEVATION
EREF.M        726.338              : kb           - ELEVATION OF DEPTH REFERENCE
DATM.M        722.376              : datum        - DATUM ELEVATION
TDD .M        664.464              : tdd          - TOTAL DEPTH DRILLER
RUN .         ONE                  : Run          - RUN NUMBER
ENG .         HALLSTROM            : Engineer     - RECORDING ENGINEER
WIT .         KVILL                : Witness      - WITNESSED BY
BASE.         R.D.                 : Branch       - HOME BASE OF LOGGING UNIT
MUD .         GEL-CHEM             : Mud_type     - MUD TYPE
MATR.         SANDSTONE            : Logunit      - NEUTRON MATRIX
TMAX.C        30                   : BHT          - MAXIMUM RECORDED TEMPERATURE
BHTD.M        664.464              : BHTDEP       - MAXIMUM RECORDED TEMPERATURE
RMT .C        16.1111              : MDTP         - TEMPERATURE OF MUD
MUDD.KG/M     1116                 : MWT          - MUD DENSITY
NEUT.         1                    : NEUTRON      - NEUTRON TYPE
RESI.         0                    : RESIST       - RESISTIVITY TYPE
RM  .OHMM     7                    : RM           - RESISTIVITY OF MUD
RMC .OHMM     3.9                  : RMC          - RESISTIVITY OF MUD CAKE
RMF .OHMM     7                    : RMF          - RESISTIVITY OF MUD FILTRATE
SUFT.C        5                    : SUFT         - SURFACE TEMPERATURE
~A  DEPTH     PHIN       GR      CAL     DELT     RESD
# ...
  645.948    0.191   59.834  231.220  345.581    5.614
  646.198    0.177   57.093  230.480  336.820    6.297
  646.448    0.164   53.524  229.329  337.651    7.389
  646.698    0.146   47.806  228.695  335.720    9.162
  646.948    0.132   45.407  228.265  323.740   16.558
  647.198    0.145   46.375  228.355  300.592   22.924
  647.448    0.172   50.712  228.543  210.497   24.177
  647.698    0.225   56.267  228.633  204.432   22.358
  647.948    0.244   60.409  228.825  207.887   15.005
  648.198    0.254   66.502  229.840  238.677    8.103
  648.448    0.266   71.765  230.756  267.425    6.074
  648.698    0.288   76.736  230.531  282.317    5.175
  648.948    0.305   81.072  230.311  304.302    4.607
  649.198    0.286   81.358  230.190  320.899    4.249
  649.448    0.276   80.618  230.487  342.424    4.100
  649.698    0.279   79.732  231.608  358.825    4.172
  649.948    0.291   78.260  232.522  349.537    4.434
  650.198    0.293   75.618  222.797  323.234    4.596
  650.448    0.302   68.144  214.311  322.030    4.368
  650.698    0.325   68.527  215.427  329.824    3.969
  650.948    0.336   72.275  220.579  333.214    3.341
  651.198    0.342   74.563  227.176  327.083    3.023
  651.448    0.307   71.092  227.780  325.875    2.875
  651.698    0.295   61.666  225.385  357.453    2.907
  651.948    0.296   59.363  224.028  400.259    3.109
  652.198    0.298   59.258  222.672  350.309    3.310
  652.448    0.306   60.570  221.623  349.492    3.593
  652.698    0.306   64.805  219.747  348.817    3.424
  652.948    0.306   66.997  219.009  347.083    2.946
  653.198    0.314   70.650  219.301  349.490    2.658
  653.448    0.325   76.742  220.115  353.738    2.599
  653.698    0.341   78.443  224.744  354.567    2.592
  653.948    0.313   79.265  227.106  350.799    2.594
  654.198    0.299   81.063  227.712  343.351    2.615
  654.448    0.268   85.985  227.589  335.707    2.827
  654.698    0.260   89.588  227.887  389.424    3.119
  654.948    0.263   87.581  228.078  402.408    3.492
  655.198    0.267   82.254  225.994  370.719    3.813
  655.448    0.269   83.028  225.466  352.234    4.085
  655.698    0.271   83.801  228.444  335.459    4.207
  655.948    0.270   83.306  229.357  333.332    4.169
  656.198    0.269   82.078  229.134  326.015    4.041
  656.448    0.264   79.290  229.017  335.059    3.903
  656.698    0.257   73.426  228.484  333.129    3.785
  656.948    0.253   69.416  228.574  331.135    3.707
  657.198    0.260   67.603  228.455  328.874    3.769
  657.448    0.266   69.305  228.335  325.569    3.900
  657.698    0.277   71.785  227.908  319.896    4.003
  657.948    0.292   74.853  229.235  318.490    3.754
  658.198    0.304   77.725  231.182  328.915    3.316
  658.448    0.315   80.890  230.132  343.736    2.927
  658.698    0.325   83.566  226.708  359.348    2.549
  658.948    0.324   84.974  224.934  371.807    2.291
  659.198    0.317   82.674  224.613  380.520    2.053
  659.448    0.311   81.495  223.971  384.506    1.955
  659.698    0.304   82.318  223.962  379.621    1.827
  659.948    0.299   82.310  223.633  369.345    1.748
  660.198    0.293   81.277  223.724  359.339    1.810
  660.448    0.285   80.001  223.706  348.541    2.182
  660.698    0.277   79.848  223.586  357.781    2.604
  660.948    0.265   80.036  223.675  365.443    2.726
  661.198    0.270   77.735  223.454  344.660    2.658
  661.448    0.282   74.556  223.127  317.502    2.530
  661.698    0.292   76.841  222.907  331.078    2.422
  661.948    0.295   76.493  222.891  334.468    2.344
  662.198    0.300   75.998  223.186  331.160    2.345
  662.448    0.309   77.064  224.201  338.299    2.348
  662.698    0.316   74.714  223.672  338.072    2.359
  662.948    0.322   74.511  213.017  342.258    2.341
  663.198    0.327   74.748  196.370  344.535    2.353
  663.448    0.337   77.229  177.348  344.969    2.405
  663.698    0.348   78.882  163.696  345.008    2.477
  663.948    0.354   78.631  157.070  345.117    2.579
  664.198    0.359   77.354  154.369  345.360    2.621
  664.448    0.367   76.420  153.112  345.665    2.612
