~VERSION INFORMATION
 VERS.                 2.0:   CWLS LOG ASCII STANDARD -VERSION 2.0
 WRAP.                  NO:   ONE LINE PER DEPTH STEP
~WELL INFORMATION BLOCK
#MNEM.UNIT           DATA                    DESCRIPTION OF MNEMONIC
#---------    -------------------            -------------------------------
# Generated from Intellog Unique Number	CW_79_81/WELL/2463
WELL.         HB GODIN                       : Well_name    - WELL
LOC .         00/07-36-081-02W5/0            : Location     - LOCATION
UWI .         00/07-36-081-02W5/0            : Uwi          - UNIQUE WELL ID
ENTR.         MAX                            : Entered      - ENTERED BY
SRVC.         SCHLUMBERGER                   : Scn          - SERVICE COMPANY
STRT.M        243.84                         : top_depth    - START DEPTH
STOP.M        463.09                         : bot_depth    - STOP DEPTH
STEP.M        0.25                           : increment    - STEP LENGTH
 NULL. -999.2500:NULL Value
~CURVE INFORMATION BLOCK
#MNEM UNIT       ERCB CURVE CODE    CURVE DESCRIPTION
#-----------   ------------------   ----------------------------------
DEPT.M        00 001 00 00         : DEPTH        - DEPTH
ILD .OHMM     00 120 00 00         : RESD         - DEEP RESISTIVITY (DIL)
NPHI.V/V      00 330 00 00         : PHIN         - NEUTRON POROSITY (SANDSTONE)
DPHI.V/V      00 890 00 00         : PHID         - DENSITY POROSITY (SANDSTONE)
GR  .API      00 310 00 00         : GR           - GAMMA RAY
CALI.MM       00 280 01 00         : CAL          - CALIPER
~PARAMETER INFORMATION
#MNEM.UNIT           DATA             DESCRIPTION OF MNEMONIC
#---------         -----------     ------------------------------
GL  .M        578.206              : gl           - GROUND LEVEL ELEVATION
EREF.M        581.863              : kb           - ELEVATION OF DEPTH REFERENCE
DATM.M        578.206              : datum        - DATUM ELEVATION
TDD .M        457.81               : tdd          - TOTAL DEPTH DRILLER
RUN .         ONE                  : Run          - RUN NUMBER
ENG .         BILL                 : Engineer     - RECORDING ENGINEER
WIT .         JIM                  : Witness      - WITNESSED BY
MUD .         GEL                  : Mud_type     - MUD TYPE
MATR.         SANDSTONE            : Logunit      - NEUTRON MATRIX
TMAX.C        23.3333              : BHT          - MAXIMUM RECORDED TEMPERATURE
BHTD.M        457.81               : BHTDEP       - MAXIMUM RECORDED TEMPERATURE
MATR.         1                    : LOGUNIT      - NEUTRON MATRIX
RMT .C        15.5556              : MDTP         - TEMPERATURE OF MUD
NEUT.         1                    : NEUTRON      - NEUTRON TYPE
RESI.         0                    : RESIST       - RESISTIVITY TYPE
RMC .OHMM     6.42                 : RMC          - RESISTIVITY OF MUD CAKE
RMF .OHMM     6.17                 : RMF          - RESISTIVITY OF MUD FILTRATE
SUFT.C        -15                  : SUFT         - SURFACE TEMPERATURE
~A  DEPTH     RESD     PHIN     PHID       GR      CAL
# ...
  316.840    9.993    0.466    0.307   58.836  194.027
  317.090   10.404    0.471    0.325   58.096  193.585
  317.340   10.568    0.480    0.338   57.869  193.197
  317.590   10.648    0.490    0.334   59.087  192.836
  317.840   10.670    0.491    0.337   59.231  192.473
  318.090   10.555    0.492    0.338   59.252  192.714
  318.340   10.307    0.496    0.329   60.104  193.661
  318.590    9.820    0.501    0.304   63.450  194.919
  318.840    8.966    0.507    0.282   66.953  194.960
  319.090    8.578    0.506    0.261   67.453  194.187
  319.340    8.770    0.497    0.263   66.163  193.115
  319.590    9.168    0.489    0.277   65.234  192.345
  319.840    9.552    0.491    0.291   65.617  192.077
  320.090    9.796    0.506    0.287   67.469  192.122
  320.340    9.576    0.513    0.266   69.475  192.166
  320.590    8.892    0.517    0.247   72.835  192.209
  320.840    8.544    0.514    0.229   77.448  193.152
  321.090    8.360    0.508    0.217   80.334  194.805
  321.340    8.178    0.503    0.215   80.657  196.462
  321.590    7.755    0.499    0.232   79.479  196.901
  321.840    7.409    0.510    0.262   78.261  196.942
  322.090    6.576    0.496    0.258   79.235  196.577
  322.340    5.604    0.498    0.253   80.571  196.518
  322.590    5.158    0.510    0.245   80.713  196.557
  322.840    5.186    0.519    0.241   79.483  196.592
  323.090    5.504    0.506    0.255   78.427  196.636
  323.340    5.948    0.491    0.260   80.187  196.681
  323.590    6.308    0.498    0.263   81.879  196.716
  323.840    6.619    0.509    0.265   81.963  196.451
  324.090    6.919    0.517    0.259   81.512  196.289
  324.340    7.272    0.516    0.249   80.940  196.328
  324.590    7.893    0.497    0.254   79.465  196.375
  324.840    8.529    0.481    0.266   76.752  196.415
  325.090    9.310    0.483    0.276   73.200  196.047
  325.340   10.060    0.495    0.289   68.755  195.681
  325.590   10.832    0.504    0.298   66.156  195.516
  325.840   11.646    0.505    0.302   65.523  195.553
  326.090   12.745    0.501    0.310   63.611  195.604
  326.340   14.435    0.508    0.318   59.908  195.640
  326.590   16.564    0.516    0.327   56.115  195.679
  326.840   18.645    0.518    0.324   53.038  195.721
  327.090   19.826    0.515    0.320   51.870  195.758
  327.340   19.602    0.509    0.319   52.669  195.893
  327.590   17.469    0.507    0.318   54.661  196.431
  327.840   14.060    0.513    0.312   56.172  196.888
  328.090   13.253    0.515    0.309   58.102  196.532
  328.340   12.495    0.499    0.309   59.500  196.166
  328.590   12.053    0.486    0.312   59.524  195.797
  328.840   12.010    0.486    0.314   58.711  195.228
  329.090   12.430    0.500    0.309   59.524  193.979
  329.340   12.723    0.496    0.305   62.282  193.595
  329.590   12.082    0.488    0.303   63.969  193.231
  329.840   11.152    0.483    0.301   66.196  192.866
  330.090    9.441    0.480    0.298   68.363  192.705
  330.340    7.450    0.481    0.292   70.530  192.947
  330.590    5.592    0.489    0.265   74.214  194.384
  330.840    4.845    0.504    0.222   78.214  197.376
  331.090    4.532    0.498    0.193   80.623  198.222
  331.340    4.610    0.474    0.159   80.703  198.155
  331.590    5.105    0.435    0.133   79.054  197.986
  331.840    6.079    0.396    0.136   76.691  198.022
  332.090    7.439    0.403    0.197   75.548  198.238
  332.340    7.976    0.460    0.202   78.059  199.124
  332.590    8.397    0.462    0.182   79.987  199.563
  332.840    8.230    0.456    0.168   81.381  200.002
  333.090    7.665    0.448    0.154   83.072  200.243
  333.340    6.751    0.441    0.146   84.586  200.385
  333.590    5.401    0.448    0.162   83.890  200.919
  333.840    4.858    0.492    0.175   82.668  201.376
  334.090    4.377    0.518    0.199   81.974  203.030
  334.340    4.201    0.527    0.211   81.998  204.381
  334.590    4.157    0.533    0.215   83.571  203.813
  334.840    4.173    0.536    0.214   86.455  201.528
  335.090    4.335    0.515    0.216   88.946  199.557
  335.340    4.909    0.503    0.223   86.981  199.602
  335.590    5.673    0.493    0.219   86.525  199.641
  335.840    6.333    0.490    0.214   86.965  199.680
  336.090    6.730    0.488    0.211   87.822  199.917
  336.340    6.832    0.486    0.209   88.679  200.254
  336.590    6.795    0.485    0.204   88.983  200.306
  336.840    6.848    0.486    0.203   88.013  200.350
  337.090    6.900    0.481    0.220   86.608  199.982
  337.340    6.952    0.487    0.225   87.703  199.610
  337.590    6.979    0.490    0.228   90.347  199.044
  337.840    6.981    0.484    0.229   92.933  198.481
  338.090    6.983    0.475    0.221   93.001  198.521
  338.340    6.984    0.475    0.218   92.031  198.566
  338.590    6.986    0.468    0.225   91.816  198.198
  338.840    7.026    0.469    0.222   91.062  198.132
  339.090    7.105    0.474    0.209   89.773  197.967
  339.340    7.225    0.484    0.191   87.830  197.704
  339.590    7.456    0.510    0.183   84.552  197.754
  339.840    7.811    0.517    0.186   82.339  197.786
  340.090    8.343    0.500    0.225   79.735  197.829
  340.340    9.249    0.487    0.249   73.381  197.866
  340.590   10.617    0.469    0.265   68.517  197.300
  340.840   12.094    0.448    0.269   67.706  196.433
  341.090   12.143    0.436    0.242   71.725  196.647
  341.340   11.514    0.422    0.217   76.218  197.520
  341.590    9.541    0.434    0.217   79.343  198.371
  341.840    8.306    0.441    0.215   80.855  199.221
  342.090    7.535    0.447    0.219   81.473  199.666
  342.340    7.072    0.450    0.224   81.854  199.704
  342.590    6.820    0.451    0.217   82.497  199.747
  342.840    6.821    0.462    0.212   82.025  199.788
  343.090    6.822    0.485    0.223   80.854  199.419
  343.340    6.899    0.487    0.219   80.219  199.054
  343.590    6.978    0.486    0.209   81.076  198.687
  343.840    7.057    0.488    0.200   83.723  198.318
  344.090    7.282    0.486    0.202   88.450  197.790
  344.340    7.628    0.476    0.192   91.704  196.989
  344.590    8.148    0.474    0.196   91.008  195.817
  344.840    8.845    0.464    0.183   87.453  194.951
  345.090    9.896    0.452    0.169   82.945  194.586
  345.340   11.418    0.437    0.158   78.260  194.825
  345.590   13.427    0.415    0.138   72.642  195.851
  345.840   14.286    0.410    0.144   70.680  196.729
  346.090   13.873    0.417    0.145   75.232  197.167
  346.340   12.651    0.414    0.163   80.142  197.312
  346.590   11.057    0.422    0.184   85.292  197.353
  346.840    9.706    0.439    0.199   88.773  197.388
  347.090    8.941    0.441    0.204   86.646  197.431
  347.340    8.542    0.442    0.209   85.428  197.467
  347.590    8.419    0.455    0.204   86.638  196.699
  347.840    8.297    0.468    0.208   88.927  195.328
  348.090    8.208    0.477    0.211   89.547  194.358
  348.340    8.134    0.482    0.209   88.497  194.091
  348.590    7.993    0.476    0.205   88.671  194.475
  348.840    7.873    0.472    0.211   89.440  196.197
  349.090    7.875    0.475    0.218   89.463  197.448
  349.340    7.963    0.478    0.210   88.948  198.392
  349.590    8.142    0.482    0.195   88.732  198.629
  349.840    8.388    0.482    0.183   88.696  198.162
  350.090    8.694    0.469    0.190   87.871  197.325
  350.340    8.968    0.467    0.209   88.389  196.941
  350.590    9.373    0.468    0.221   87.220  196.173
  350.840    9.851    0.478    0.224   85.694  195.704
  351.090   10.374    0.492    0.225   82.855  195.541
  351.340   11.003    0.505    0.226   78.823  195.582
  351.590   12.104    0.507    0.224   74.101  195.710
  351.840   12.979    0.489    0.215   70.648  196.176
  352.090   13.271    0.477    0.224   68.528  196.207
  352.340   13.127    0.474    0.233   68.371  195.941
  352.590   12.747    0.473    0.236   68.749  195.575
  352.840   12.360    0.474    0.229   69.069  195.510
  353.090   12.201    0.485    0.220   69.722  196.448
