~VERSION INFORMATION
 VERS.                 2.0:   CWLS LOG ASCII STANDARD -VERSION 2.0
 WRAP.                  NO:   ONE LINE PER DEPTH STEP
~WELL INFORMATION BLOCK
#MNEM.UNIT           DATA                    DESCRIPTION OF MNEMONIC
#---------    -------------------            -------------------------------
# Generated from Intellog Unique Number	CW_76_78/WELL/694
WELL.         NORTHSTAR ET AL MARTEN HILLS 0 : Well_name    - WELL
LOC .         00/08-09-076-03W5/0            : Location     - LOCATION
UWI .         00/08-09-076-03W5/0            : Uwi          - UNIQUE WELL ID
ENTR.         JAYE                           : Entered      - ENTERED BY
SRVC.         COMPUTALOG                     : Scn          - SERVICE COMPANY
DATE.         19 FEB 81                      : Date         - LOG DATE
STRT.M        520                            : top_depth    - START DEPTH
STOP.M        730                            : bot_depth    - STOP DEPTH
STEP.M        0.25                           : increment    - STEP LENGTH
 NULL. -999.2500:NULL Value
~CURVE INFORMATION BLOCK
#MNEM UNIT       ERCB CURVE CODE    CURVE DESCRIPTION
#-----------   ------------------   ----------------------------------
DEPT.M        00 001 00 00         : DEPTH        - DEPTH
ILD .OHMM     00 120 00 00         : RESD         - DEEP RESISTIVITY (DIL)
NPHI.V/V      00 330 00 00         : PHIN         - NEUTRON POROSITY (SANDSTONE)
DPHI.V/V      00 890 00 00         : PHID         - DENSITY POROSITY (SANDSTONE)
GR  .API      00 310 00 00         : GR           - GAMMA RAY
CALI.MM       00 280 01 00         : CAL          - CALIPER
~PARAMETER INFORMATION
#MNEM.UNIT           DATA             DESCRIPTION OF MNEMONIC
#---------         -----------     ------------------------------
GL  .M        793.13               : gl           - GROUND LEVEL ELEVATION
EREF.M        796.43               : kb           - ELEVATION OF DEPTH REFERENCE
DATM.M        793.13               : datum        - DATUM ELEVATION
TDD .M        743                  : tdd          - TOTAL DEPTH DRILLER
RUN .         ONE                  : Run          - RUN NUMBER
ENG .         HUDSON               : Engineer     - RECORDING ENGINEER
WIT .         HOLT/FITZIMMONS      : Witness      - WITNESSED BY
BASE.         EDM                  : Branch       - HOME BASE OF LOGGING UNIT
MUD .         GEL BASE             : Mud_type     - MUD TYPE
MATR.         SANDSTONE            : Logunit      - NEUTRON MATRIX
TMAX.C        32                   : BHT          - MAXIMUM RECORDED TEMPERATURE
BHTD.M        745                  : BHTDEP       - MAXIMUM RECORDED TEMPERATURE
RMT .C        12                   : MDTP         - TEMPERATURE OF MUD
MUDD.KG/M     1120                 : MWT          - MUD DENSITY
NEUT.         1                    : NEUTRON      - NEUTRON TYPE
RESI.         0                    : RESIST       - RESISTIVITY TYPE
RM  .OHMM     5.4                  : RM           - RESISTIVITY OF MUD
RMC .OHMM     10                   : RMC          - RESISTIVITY OF MUD CAKE
RMF .OHMM     9.3                  : RMF          - RESISTIVITY OF MUD FILTRATE
SUFT.C        0                    : SUFT         - SURFACE TEMPERATURE
~A  DEPTH     RESD     PHIN     PHID       GR      CAL
# ...
  593.000    6.034    0.346    0.282   74.557  151.686
  593.250    6.066    0.365    0.279   76.264  151.971
  593.500    6.060    0.367    0.271   75.093  152.364
  593.750    6.055    0.332    0.269   74.114  152.973
  594.000    6.049    0.307    0.277   74.092  153.362
  594.250    6.041    0.356    0.283   75.220  153.439
  594.500    6.034    0.386    0.283   76.099  153.504
  594.750    6.029    0.392    0.281   77.294  153.369
  595.000    6.063    0.363    0.279   78.424  153.333
  595.250    6.097    0.342    0.283   79.426  153.198
  595.500    6.130    0.350    0.286   79.598  152.845
  595.750    6.244    0.338    0.287   78.428  151.641
  596.000    6.360    0.339    0.284   79.428  150.751
  596.250    6.434    0.339    0.280   81.711  150.508
  596.500    6.388    0.352    0.267   83.353  150.149
  596.750    6.179    0.378    0.250   83.716  150.122
  597.000    5.811    0.355    0.237   82.739  150.404
  597.250    5.362    0.342    0.219   79.458  150.692
  597.500    4.871    0.320    0.203   83.337  151.514
  597.750    4.664    0.348    0.190   88.749  153.717
  598.000    4.579    0.343    0.179   93.268  158.797
  598.250    4.451    0.326    0.165   98.425  162.703
  598.500    4.324    0.311    0.160  102.494  165.012
  598.750    4.318    0.318    0.161  106.629  166.895
  599.000    4.312    0.349    0.157  106.672  167.288
  599.250    4.346    0.369    0.165  103.584  163.423
  599.500    4.380    0.378    0.174  100.626  157.529
  599.750    4.373    0.353    0.176   97.346  156.432
  600.000    4.325    0.348    0.171   99.755  157.250
  600.250    4.320    0.350    0.168  102.292  159.027
  600.500    4.355    0.348    0.160  102.143  161.340
  600.750    4.348    0.324    0.156  102.314  163.330
  601.000    4.341    0.309    0.154  103.254  166.277
  601.250    4.336    0.320    0.159  104.321  168.056
  601.500    4.370    0.325    0.152  101.360  163.122
  601.750    4.403    0.338    0.150  100.701  162.661
  602.000    4.437    0.384    0.147  102.280  164.015
  602.250    4.511    0.405    0.145  103.790  166.431
  602.500    4.586    0.406    0.148  104.476  169.380
  602.750    4.619    0.393    0.149  105.543  171.691
  603.000    4.573    0.362    0.153  108.463  169.737
  603.250    4.403    0.376    0.157  105.374  167.254
  603.500    4.358    0.351    0.163  100.689  165.197
  603.750    4.231    0.326    0.147  101.692  163.673
  604.000    4.184    0.293    0.135  105.185  162.786
  604.250    4.098    0.325    0.129  108.937  163.076
  604.500    4.011    0.347    0.131  112.305  164.958
  604.750    3.965    0.362    0.142  114.650  169.507
  605.000    3.918    0.335    0.152  111.818  174.055
  605.250    3.870    0.350    0.156  108.474  173.594
  605.500    3.945    0.376    0.158  106.534  172.815
  605.750    4.180    0.376    0.161  107.538  171.397
  606.000    4.376    0.346    0.158  106.241  169.975
  606.250    4.570    0.325    0.161  108.011  168.984
  606.500    4.765    0.344    0.168  109.333  167.885
  606.750    5.000    0.351    0.190  105.414  166.780
  607.000    5.235    0.358    0.225   98.939  165.904
  607.250    5.068    0.331    0.229   92.271  164.593
  607.500    4.980    0.328    0.203   92.059  162.638
  607.750    5.095    0.342    0.190   95.618  160.584
  608.000    5.331    0.353    0.180   97.899  158.422
  608.250    5.484    0.347    0.178  100.756  156.890
  608.500    5.519    0.330    0.173  103.101  156.328
  608.750    5.310    0.307    0.167   99.756  155.865
  609.000    5.144    0.310    0.160  100.311  155.294
  609.250    4.976    0.338    0.164  103.040  155.159
  609.500    4.930    0.370    0.170  105.513  154.810
  609.750    5.045    0.406    0.168  102.682  154.560
  610.000    5.441    0.377    0.160  100.936  154.316
  610.250    5.917    0.352    0.147  101.362  154.391
  610.500    6.354    0.330    0.143  103.260  154.572
  610.750    6.750    0.340    0.168  105.668  153.261
  611.000    7.267    0.356    0.206   99.960  155.354
  611.250    7.301    0.365    0.235   92.399  155.854
  611.500    7.134    0.344    0.247   84.134  154.863
  611.750    6.805    0.332    0.249   83.793  154.299
  612.000    6.719    0.333    0.241   88.440  154.051
  612.250    6.671    0.337    0.239   91.232  153.593
  612.500    6.666    0.315    0.236   92.809  153.236
  612.750    6.619    0.322    0.227   95.025  153.199
  613.000    6.532    0.351    0.238   94.624  153.172
  613.250    6.486    0.357    0.240   91.599  153.245
  613.500    6.517    0.326    0.239   94.009  153.000
  613.750    6.551    0.328    0.241   94.052  152.646
  614.000    6.586    0.315    0.249   88.599  152.287
  614.250    6.580    0.328    0.249   83.722  152.359
  614.500    6.573    0.358    0.248   85.362  152.643
  614.750    6.527    0.400    0.246   87.453  153.152
  615.000    6.481    0.401    0.244   88.965  153.754
  615.250    6.394    0.361    0.241   89.906  154.041
  615.500    6.346    0.362    0.249   88.862  154.007
  615.750    6.300    0.338    0.257   83.345  154.078
  616.000    6.294    0.341    0.261   78.788  154.155
  616.250    6.289    0.332    0.258   77.170  154.012
  616.500    6.282    0.312    0.254   80.154  154.090
  616.750    6.276    0.321    0.250   83.713  154.051
  617.000    6.229    0.347    0.248   85.034  153.915
  617.250    6.181    0.350    0.247   82.459  153.989
  617.500    6.176    0.353    0.246   80.458  153.634
  617.750    6.169    0.358    0.245   80.501  153.390
  618.000    6.042    0.361    0.256   82.524  153.039
  618.250    5.915    0.366    0.267   83.912  153.005
  618.500    5.789    0.377    0.273   85.426  152.863
  618.750    5.661    0.349    0.257   87.452  152.510
  619.000    5.616    0.334    0.251   90.690  152.581
  619.250    5.810    0.316    0.248   95.337  152.756
  619.500    6.165    0.315    0.240   99.279  152.835
  619.750    6.521    0.358    0.227  104.246  152.909
  620.000    6.998    0.367    0.239   99.496  152.766
  620.250    7.513    0.363    0.254   87.906  152.632
  620.500    7.509    0.370    0.246   78.875  151.959
  620.750    7.422    0.380    0.223   77.001  151.818
  621.000    7.938    0.394    0.229   76.662  151.360
  621.250    8.416    0.399    0.235   77.665  151.429
  621.500   10.260    0.419    0.231   79.880  151.713
  621.750   12.024    0.335    0.207   81.970  152.214
  622.000   14.352    0.170    0.183   85.338  153.673
  622.250   18.612    0.142    0.109   82.378  155.240
  622.500   24.763    0.114    0.067   78.012  156.376
  622.750   27.251    0.105   -0.016   72.240  157.408
  623.000   28.009    0.102   -0.023   65.893  157.801
  623.250   28.887    0.100   -0.029   62.291  158.304
  623.500   29.365    0.097   -0.033   63.424  159.011
  623.750   29.801    0.094   -0.038   64.104  159.720
  624.000   30.237    0.091   -0.044   59.612  160.653
  624.250   30.110    0.089   -0.054   56.397  161.364
  624.500   29.782    0.087   -0.060   57.527  161.970
  624.750   28.729    0.086   -0.057   60.127  162.683
  625.000   27.355    0.086   -0.054   58.189  163.074
  625.250   20.065    0.086   -0.064   60.662  163.572
  625.500   12.332    0.087   -0.063   70.676  164.287
  625.750    8.743    0.090   -0.058   75.898  165.424
  626.000    7.369    0.094   -0.061   65.397  166.565
  626.250    6.477    0.106   -0.044   54.894  167.378
  626.500    6.069    0.142    0.077   62.864  167.773
  626.750    5.740    0.335    0.152   79.014  167.314
  627.000    5.774    0.341    0.189   90.498  165.363
  627.250    6.009    0.303    0.213   93.482  163.095
  627.500    6.043    0.289    0.225   91.290  161.142
  627.750    6.036    0.280    0.192   88.775  159.618
  628.000    5.990    0.280    0.168   91.377  157.875
  628.250    5.822    0.301    0.144   97.174  156.996
  628.500    5.696    0.315    0.186   98.559  156.109
  628.750    5.568    0.325    0.214   95.663  155.436
  629.000    5.482    0.321    0.228   93.213  154.660
  629.250    5.395    0.315    0.212   92.555  153.348
