~VERSION INFORMATION
 VERS.                 2.0:   CWLS LOG ASCII STANDARD -VERSION 2.0
 WRAP.                  NO:   ONE LINE PER DEPTH STEP
~WELL INFORMATION BLOCK
#MNEM.UNIT           DATA                    DESCRIPTION OF MNEMONIC
#---------    -------------------            -------------------------------
# Generated from Intellog Unique Number	CS_77_79/WELL/862
WELL.         ICGR CHARD                     : Well_name    - WELL
LOC .         00/05-21-078-05W4/0            : Location     - LOCATION
UWI .         00/05-21-078-05W4/0            : Uwi          - UNIQUE WELL ID
ENTR.         JHS                            : Entered      - ENTERED BY
SRVC.         SCHLUMBERGER                   : Scn          - SERVICE COMPANY
STRT.M        155                            : top_depth    - START DEPTH
STOP.M        415                            : bot_depth    - STOP DEPTH
STEP.M        0.25                           : increment    - STEP LENGTH
 NULL. -999.2500:NULL Value
~CURVE INFORMATION BLOCK
#MNEM UNIT       ERCB CURVE CODE    CURVE DESCRIPTION
#-----------   ------------------   ----------------------------------
DEPT.M        00 001 00 00         : DEPTH        - DEPTH
DPHI.V/V      00 890 00 00         : PHID         - DENSITY POROSITY (LIMESTONE)
NPHI.V/V      00 330 00 00         : PHIN         - NEUTRON POROSITY (LIMESTONE)
GR  .API      00 310 00 00         : GR           - GAMMA RAY
ILD .OHMM     00 120 00 00         : RESD         - DEEP RESISTIVITY (DIL)
RHOB.KG/M3    00 350 00 00         : DENS         - BULK DENSITY
~PARAMETER INFORMATION
#MNEM.UNIT           DATA             DESCRIPTION OF MNEMONIC
#---------         -----------     ------------------------------
GL  .M        575.9                : gl           - GROUND LEVEL ELEVATION
EREF.M        579.5                : kb           - ELEVATION OF DEPTH REFERENCE
DATM.M        579.5                : datum        - DATUM ELEVATION
TDD .M        425                  : tdd          - TOTAL DEPTH DRILLER
RUN .         ONE                  : Run          - RUN NUMBER
ENG .         BILL                 : Engineer     - RECORDING ENGINEER
WIT .         JIM                  : Witness      - WITNESSED BY
MUD .         GEL                  : Mud_type     - MUD TYPE
MATR.         LIMESTONE            : Logunit      - NEUTRON MATRIX
TMAX.C        21                   : BHT          - MAXIMUM RECORDED TEMPERATURE
BHTD.M        425                  : BHTDEP       - MAXIMUM RECORDED TEMPERATURE
MATR.         1                    : LOGUNIT      - NEUTRON MATRIX
RMT .C        25                   : MDTP         - TEMPERATURE OF MUD
NEUT.         1                    : NEUTRON      - NEUTRON TYPE
RESI.         0                    : RESIST       - RESISTIVITY TYPE
RMC .OHMM     0.25                 : RMC          - RESISTIVITY OF MUD CAKE
RMF .OHMM     0.25                 : RMF          - RESISTIVITY OF MUD FILTRATE
SUFT.C        15                   : SUFT         - SURFACE TEMPERATURE
~A  DEPTH     PHID     PHIN       GR     RESD     DENS
  155.000    0.314    0.580   99.158    2.625    0.000
  155.250    0.307    0.596   99.750    2.625    0.000
  155.500    0.307    0.585   97.280    2.575    0.000
  155.750    0.313    0.566   92.362    2.575    0.000
  156.000    0.321    0.563   91.728    2.526    0.000
  156.250    0.319    0.583   94.153    2.526    0.000
  156.500    0.315    0.593   92.905    2.478    0.000
  156.750    0.290    0.585   92.272    2.525    0.000
  157.000    0.280    0.560   92.859    2.573    0.000
  157.250    0.292    0.558   94.675    2.572    0.000
  157.500    0.292    0.547   96.488    2.572    0.000
  157.750    0.295    0.534   95.856    2.621    0.000
  158.000    0.301    0.544   94.607    2.620    0.000
  158.250    0.304    0.561   94.591    2.620    0.000
  158.500    0.303    0.572   93.956    2.619    0.000
  158.750    0.293    0.580   92.094    2.619    0.000
  159.000    0.292    0.597   90.851    2.618    0.000
  159.250    0.290    0.612   94.501    2.618    0.000
  159.500    0.285    0.613   96.314    2.667    0.000
  159.750    0.278    0.596   95.069    2.770    0.000
  160.000    0.278    0.556   95.659    2.822    0.000
  160.250    0.281    0.559   96.856    2.876    0.000
  160.500    0.283    0.574   96.841    2.930    0.000
  160.750    0.279    0.558   95.593    2.930    0.000
  161.000    0.275    0.554   97.405    2.929    0.000
  161.250    0.270    0.581  101.059    2.985    0.000
  161.500    0.266    0.593  105.318    3.041    0.000
  161.750    0.267    0.563  104.072    3.099    0.000
  162.000    0.269    0.559  101.605    3.279    0.000
  162.250    0.261    0.589  100.970    3.342    0.000
  162.500    0.248    0.575  100.334    3.604    0.000
  162.750    0.235    0.512   99.087    3.742    0.000
  163.000    0.239    0.511   97.229    3.960    0.000
  163.250    0.247    0.527   95.985    4.191    0.000
  163.500    0.243    0.517   92.901    4.352    0.000
  163.750    0.244    0.526   84.924    4.693    0.000
  164.000    0.103    0.532   71.434    6.116    0.000
  164.250    0.049    0.405   57.946   10.193    0.000
  164.500    0.123    0.332   43.232   16.670    0.000
  164.750    0.237    0.365   30.968   21.316    0.000
  165.000    0.293    0.406   26.661   24.797    0.000
  165.250    0.351    0.425   30.310   26.241    0.000
  165.500    0.366    0.384   30.903   18.312    0.000
  165.750    0.216    0.367   29.044   11.848    0.000
  166.000    0.227    0.418   44.936    9.089    0.000
  166.250    0.288    0.466   72.459    7.380    0.000
  166.500    0.323    0.504   90.801    5.769    0.000
  166.750    0.264    0.512   98.734    4.958    0.000
  167.000    0.257    0.506   98.096    4.509    0.000
  167.250    0.266    0.502   95.630    4.424    0.000
  167.500    0.241    0.516   90.710    4.771    0.000
  167.750    0.250    0.492   80.898    5.987    0.000
  168.000    0.268    0.449   66.796    9.427    0.000
  168.250    0.266    0.413   60.651   13.504    0.000
  168.500    0.224    0.386   58.791   17.598    0.000
  168.750    0.234    0.401   66.729   20.472    0.000
  169.000    0.290    0.421   70.993   21.664    0.000
  169.250    0.300    0.436   68.523   20.080    0.000
  169.500    0.283    0.443   65.439   18.614    0.000
  169.750    0.291    0.449   69.702   17.584    0.000
  170.000    0.317    0.460   68.446   17.581    0.000
  170.250    0.334    0.433   69.045   17.578    0.000
  170.500    0.322    0.422   72.694   16.922    0.000
  170.750    0.320    0.432   78.791   16.291    0.000
  171.000    0.306    0.437   82.445   15.101    0.000
  171.250    0.289    0.435   84.871   14.265    0.000
  171.500    0.296    0.443   82.401   14.263    0.000
  171.750    0.312    0.450   80.543   14.810    0.000
  172.000    0.330    0.455   74.398   15.673    0.000
  172.250    0.342    0.451   65.806   17.555    0.000
  172.500    0.345    0.444   68.235   18.932    0.000
  172.750    0.345    0.458   74.947   19.660    0.000
  173.000    0.352    0.454   76.758   20.032    0.000
  173.250    0.365    0.457   73.062   19.285    0.000
  173.500    0.370    0.485   73.045   17.876    0.000
  173.750    0.325    0.456   80.978   15.955    0.000
  174.000    0.293    0.430   87.076   12.954    0.000
  174.250    0.278    0.435   92.566   11.132    0.000
  174.500    0.271    0.471   96.829   10.921    0.000
  174.750    0.277    0.511   86.399   11.341    0.000
  175.000    0.276    0.450   73.524   12.945    0.000
  175.250    0.197    0.433   64.930   15.939    0.000
  175.500    0.130    0.409   60.012   19.625    0.000
  175.750    0.139    0.385   61.211   21.980    0.000
  176.000    0.250    0.379   70.987   22.397    0.000
  176.250    0.287    0.394   80.757   21.560    0.000
  176.500    0.303    0.413   83.796   21.154    0.000
  176.750    0.300    0.436   84.388   20.754    0.000
  177.000    0.302    0.464   81.915   19.604    0.000
  177.250    0.307    0.475   83.728   19.235    0.000
  177.500    0.295    0.437   89.214   18.169    0.000
  177.750    0.264    0.416   93.475   17.164    0.000
  178.000    0.231    0.416   95.296   16.215    0.000
  178.250    0.229    0.443  100.166   15.030    0.000
  178.500    0.242    0.453  103.819   13.931    0.000
  178.750    0.244    0.462  107.467   13.668    0.000
  179.000    0.253    0.479  109.284   13.928    0.000
  179.250    0.268    0.471  103.753   15.307    0.000
  179.500    0.289    0.463   84.144   16.824    0.000
  179.750    0.308    0.436   60.863   19.944    0.000
  180.000    0.337    0.410   40.641   25.503    0.000
  180.250    0.374    0.410   36.332   29.110    0.000
  180.500    0.379    0.431   43.652   29.106    0.000
  180.750    0.375    0.438   48.530   28.019    0.000
  181.000    0.360    0.428   51.567   26.976    0.000
  181.250    0.349    0.434   58.280   25.005    0.000
  181.500    0.352    0.454   63.761   22.743    0.000
  181.750    0.360    0.440   65.579   19.918    0.000
  182.000    0.331    0.435   67.397   18.117    0.000
  182.250    0.289    0.426   72.883   15.277    0.000
  182.500    0.261    0.408   84.491   13.380    0.000
  182.750    0.264    0.410   92.425   12.169    0.000
  183.000    0.272    0.442   92.402   11.716    0.000
  183.250    0.272    0.464   88.711   11.068    0.000
  183.500    0.261    0.470   89.301   10.454    0.000
  183.750    0.251    0.476   99.682   10.065    0.000
  184.000    0.242    0.488  100.273   10.063    0.000
  184.250    0.260    0.499   94.128   11.060    0.000
  184.500    0.291    0.464   86.153   13.362    0.000
  184.750    0.307    0.445   72.049   15.544    0.000
  185.000    0.328    0.450   59.787   20.256    0.000
  185.250    0.351    0.436   54.864   25.416    0.000
  185.500    0.370    0.438   57.905   27.934    0.000
  185.750    0.369    0.435   59.721   28.463    0.000
  186.000    0.362    0.432   57.245   28.457    0.000
  186.250    0.369    0.445   52.940   28.453    0.000
  186.500    0.384    0.455   49.853   27.915    0.000
  186.750    0.363    0.457   52.283   27.388    0.000
  187.000    0.353    0.450   51.652   27.383    0.000
  187.250    0.344    0.421   44.283   26.866    0.000
  187.500    0.345    0.439   38.141   26.860    0.000
  187.750    0.354    0.455   38.732   26.856    0.000
  188.000    0.357    0.430   46.667   26.350    0.000
  188.250    0.355    0.415   54.603   25.366    0.000
  188.500    0.347    0.415   59.474   24.419    0.000
  188.750    0.355    0.419   60.679   23.509    0.000
  189.000    0.361    0.423   61.265   22.208    0.000
  189.250    0.339    0.423   67.975   20.979    0.000
  189.500    0.319    0.427   74.689   19.447    0.000
  189.750    0.293    0.437   83.851   17.031    0.000
  190.000    0.251    0.437   93.620   13.828    0.000
  190.250    0.228    0.434  102.170   11.017    0.000
  190.500    0.211    0.448  107.040    9.116    0.000
  190.750    0.160    0.463  103.346    8.136    0.000
  191.000    0.144    0.480   97.814    7.400    0.000
  191.250    0.176    0.526   96.568    6.860    0.000
