~VERSION INFORMATION
 VERS.                 2.0:   CWLS LOG ASCII STANDARD -VERSION 2.0
 WRAP.                  NO:   ONE LINE PER DEPTH STEP
~WELL INFORMATION BLOCK
#MNEM.UNIT           DATA                    DESCRIPTION OF MNEMONIC
#---------    -------------------            -------------------------------
# Generated from Intellog Unique Number	CW_82_90/WELL/416
NULL.         -999.25                        : NULL_VALUE
WELL.         GULF WABASCA                   : Well_name    - WELL              
LOC .         00/05-06-083-22W4/0            : Location     - LOCATION          
UWI .         00/05-06-083-22W4/0            : Uwi          - UNIQUE WELL ID    
ENTR.         JAYE                           : Entered      - ENTERED BY        
SRVC.         SCHLUMBERGER                   : Scn          - SERVICE COMPANY   
DATE.         31 DEC 73                      : Date         - LOG DATE          
STRT.M        252.984                        : top_depth    - START DEPTH       
STOP.M        432.734                        : bot_depth    - STOP DEPTH        
STEP.M        0.25                           : increment    - STEP LENGTH       
~CURVE INFORMATION BLOCK
#MNEM UNIT       ERCB CURVE CODE    CURVE DESCRIPTION
#-----------   ------------------   ----------------------------------
DEPT.M        00 001 00 00         : DEPTH        - DEPTH                       
ILD .OHMM     00 120 00 00         : RESD         - DEEP RESISTIVITY (DIL)      
CALI.MM       00 280 01 00         : CAL          - CALIPER                     
GR  .API      00 310 00 00         : GR           - GAMMA RAY                   
DPHI.V/V      00 890 00 00         : PHID         - DENSITY POROSITY (SANDSTONE)
NPHI.V/V      00 330 00 00         : PHIN         - NEUTRON POROSITY (SANDSTONE)
~PARAMETER INFORMATION       
#MNEM.UNIT           DATA             DESCRIPTION OF MNEMONIC
#---------         -----------     ------------------------------
GL  .M        620.573              : gl           - GROUND LEVEL ELEVATION      
EREF.M        623.926              : kb           - ELEVATION OF DEPTH REFERENCE
DATM.M        620.573              : datum        - DATUM ELEVATION             
TDD .M        441.046              : tdd          - TOTAL DEPTH DRILLER         
RUN .         TWO                  : Run          - RUN NUMBER                  
ENG .         WARKIW               : Engineer     - RECORDING ENGINEER          
WIT .         CAMPBELL             : Witness      - WITNESSED BY                
BASE.         EDMONTON             : Branch       - HOME BASE OF LOGGING UNIT   
MUD .         GEL CHEM             : Mud_type     - MUD TYPE                    
MATR.         SANDSTONE            : Logunit      - NEUTRON MATRIX              
TMAX.C        29.4                 : BHT          - MAXIMUM RECORDED TEMPERATURE
BHTD.M        441.046              : BHTDEP       - MAXIMUM RECORDED TEMPERATURE
RMT .C        15.5556              : MDTP         - TEMPERATURE OF MUD          
MUDD.KG/M     9200                 : MWT          - MUD DENSITY                 
NEUT.         1                    : NEUTRON      - NEUTRON TYPE                
RESI.         0                    : RESIST       - RESISTIVITY TYPE            
RM  .OHMM     2.1                  : RM           - RESISTIVITY OF MUD          
RMC .OHMM     0                    : RMC          - RESISTIVITY OF MUD CAKE     
RMF .OHMM     0                    : RMF          - RESISTIVITY OF MUD FILTRATE 
SUFT.C        -17.7778             : SUFT         - SURFACE TEMPERATURE         
~A  DEPTH     RESD      CAL       GR     PHID     PHIN
# ...
  398.984   28.683  250.670   72.845    0.151    0.401
  399.234   28.449  250.906   73.711    0.140    0.402
  399.484   27.808  251.146   74.823    0.133    0.375
  399.734   26.979  251.475   74.841    0.126    0.377
  399.984   26.073  251.200   75.529    0.129    0.389
  400.234   24.832  251.641   76.639    0.251    0.419
  400.484   23.392  251.871   77.996    0.253    0.464
  400.734   22.198  251.796   76.489    0.230    0.471
  400.984   21.023  252.030   72.849    0.214    0.449
  401.234   19.770  252.266   71.526    0.171    0.438
  401.484   18.930  252.600   73.245    0.153    0.448
  401.734   17.999  252.422   75.944    0.164    0.474
  401.984   17.364  252.249   77.788    0.226    0.488
  402.234   16.941  252.487   78.900    0.222    0.493
  402.484   16.860  252.509   76.721    0.215    0.509
  402.734   18.100  252.948   76.373    0.218    0.523
  402.984   20.760  253.491   74.805    0.226    0.507
  403.234   23.638  254.449   68.058    0.229    0.419
  403.484   27.820  255.196   61.739    0.204    0.360
  403.734   31.553  255.840   58.526    0.170    0.307
  403.984   37.275  256.696   61.589    0.103    0.309
  404.234   37.930  255.595   63.615    0.103    0.347
  404.484   36.334  254.794   64.849    0.163    0.363
  404.734   34.344  254.721   66.387    0.137    0.345
  404.984   30.505  254.748   68.780    0.121    0.330
  405.234   27.241  254.267   72.086    0.106    0.368
  405.484   23.840  253.261   72.774    0.124    0.368
  405.734   21.645  252.670   74.130    0.092    0.368
  405.984   20.053  252.182   75.362    0.082    0.370
  406.234   18.546  252.213   76.291    0.104    0.382
  406.484   17.666  253.895   77.711    0.112    0.408
  406.734   17.230  254.231   79.981    0.157    0.421
  406.984   16.994  254.046   80.300    0.184    0.434
  407.234   16.980  253.146   79.219    0.176    0.466
  407.484   16.809  252.875   77.713    0.165    0.453
  407.734   16.463  252.896   76.571    0.148    0.439
  407.984   16.233  252.822   76.587    0.138    0.435
  408.234   15.807  253.570   80.381    0.142    0.448
  408.484   15.222  253.906   83.626    0.139    0.444
  408.734   14.498  253.212   84.191    0.161    0.449
  408.984   13.785  252.932   83.962    0.158    0.438
  409.234   13.445  252.246   86.536    0.159    0.429
  409.484   13.236  252.375   88.198    0.170    0.433
  409.734   13.297  251.995   88.092    0.160    0.464
  409.984   13.963  251.812   84.087    0.145    0.462
  410.234   14.342  251.639   85.261    0.127    0.406
  410.484   14.542  251.865   86.921    0.118    0.411
  410.734   14.555  251.997   87.548    0.123    0.443
  410.984   14.435  252.441   86.529    0.154    0.470
  411.234   14.315  252.569   86.242    0.141    0.443
  411.484   14.200  252.809   86.683    0.120    0.424
  411.734   14.082  253.039   87.550    0.138    0.429
  411.984   14.019  253.580   90.004    0.149    0.436
  412.234   13.802  253.611   90.202    0.155    0.467
  412.484   13.487  253.843   88.694    0.146    0.458
  412.734   13.108  254.490   90.783    0.134    0.445
  412.984   12.578  255.137   93.115    0.116    0.469
  413.234   12.067  255.989   93.555    0.130    0.509
  413.484   11.685  256.534   93.633    0.133    0.483
  413.734   11.568  257.900   95.477    0.155    0.473
  413.984   11.536  258.647   96.954    0.174    0.498
  414.234   11.654  259.604   95.997    0.161    0.522
  414.484   11.816  257.986   87.482    0.152    0.503
  414.734   11.827  257.292   86.767    0.133    0.455
  414.984   11.905  257.320   91.839    0.104    0.383
  415.234   11.895  257.458  100.020    0.083    0.374
  415.484   11.101  257.583  106.371    0.085    0.437
  415.734   10.285  259.667  109.798    0.149    0.452
  415.984    9.373  265.055  109.206    0.169    0.450
  416.234    9.160  269.200  106.847    0.170    0.449
  416.484    9.085  265.832  107.838    0.153    0.452
  416.734    8.896  265.343  109.497    0.145    0.496
  416.984    8.886  268.358  111.829    0.159    0.512
  417.234    9.524  256.747  115.258    0.150    0.461
  417.484   10.242  255.026  116.553    0.153    0.465
  417.734   10.752  255.877  116.446    0.145    0.512
  417.984   11.997  256.111  106.958    0.168    0.496
  418.234   13.434  256.553   91.196    0.115    0.336
  418.484   15.157  256.374   91.700    0.051    0.319
  418.734   15.509  255.680   95.613    0.026    0.314
  418.984   14.056  255.613   99.224    0.058    0.335
  419.234   12.905  256.564  107.282    0.115    0.357
  419.484   12.091  257.523  116.010    0.151    0.388
  419.734   11.835  259.090  124.067    0.140    0.417
  419.984   12.224  259.943  123.778    0.148    0.435
  420.234   12.905  259.151  115.997    0.159    0.450
  420.484   13.577  258.249  109.681    0.155    0.433
  420.734   13.563  259.926  108.108    0.147    0.399
  420.984   12.338  263.762  108.186    0.132    0.381
  421.234   11.263  267.397  114.964    0.120    0.377
  421.484   10.003  269.588  116.139    0.143    0.384
  421.734    8.771  270.544  116.093    0.155    0.385
  421.984    8.307  271.194  120.621    0.153    0.412
  422.234    8.902  271.320  124.108    0.155    0.476
  422.484    9.661  271.973  127.899    0.167    0.549
  422.734   11.019  272.407  117.560    0.159    0.418
  422.984   13.064  272.640   99.175    0.145    0.374
  423.234   14.604  269.065   91.151    0.123    0.348
  423.484   15.164  265.280   89.278    0.103    0.323
  423.734   14.417  261.807   98.311    0.056    0.309
  423.984   12.948  264.513  104.418    0.038    0.373
  424.234   12.513  267.325  111.197    0.135    0.401
  424.484   13.531  265.909  111.152    0.164    0.486
  424.734   16.861  258.418   98.375    0.193    0.456
  424.984   19.304  257.005   84.805    0.216    0.428
  425.234   20.988  256.106   84.704    0.226    0.436
  425.484   22.906  255.826   84.533    0.221    0.459
  425.734   24.589  254.416   83.939    0.220    0.474
  425.984   25.628  253.206   80.848    0.213    0.465
  426.234   26.323  252.515   74.345    0.205    0.457
  426.484   26.839  252.236   69.061    0.215    0.453
  426.734   26.324  251.949   71.758    0.231    0.463
  426.984   23.207  251.470   80.184    0.232    0.455
  427.234   21.388  251.079   84.096    0.221    0.462
  427.484   20.745  251.313   88.924    0.213    0.469
  427.734   21.346  251.554   87.478    0.201    0.473
  427.984   23.772  251.373   86.465    0.223    0.453
  428.234   28.133  251.405   86.231    0.242    0.447
  428.484   26.895  251.429   78.634    0.250    0.465
  428.734   21.784  251.458   79.262    0.245    0.468
  428.984   15.773  251.489   82.381    0.243    0.474
  429.234   13.428  251.513   87.576    0.230    0.453
  429.484   11.059  251.539   89.846    0.208    0.461
  429.734    9.985  251.572   89.375    0.181    0.482
  429.984    9.234  251.393   90.611    0.186    0.485
  430.234    8.845  251.318   91.054    0.187    0.479
  430.484    8.870  251.555   87.961    0.186    0.440
  430.734    9.076  251.376   89.013    0.185    0.453
  430.984    9.288  252.019   90.736    0.184    0.483
  431.234    9.417  253.903   92.517    0.185    0.562
  431.484    9.462  255.473   93.263    0.178    0.515
  431.734    9.246  256.844   95.597    0.169    0.406
  431.984    8.742  259.549   99.328    0.158    0.420
  432.234    8.190  263.283  102.572    0.164    0.509
  432.484    7.656  268.257   98.018    0.184    0.529
  432.734    6.838  258.499   76.590    0.200    0.554
