~VERSION INFORMATION
 VERS.                 2.0:   CWLS LOG ASCII STANDARD -VERSION 2.0
 WRAP.                  NO:   ONE LINE PER DEPTH STEP
~WELL INFORMATION BLOCK
#MNEM.UNIT           DATA                    DESCRIPTION OF MNEMONIC
#---------    -------------------            -------------------------------
# Generated from Intellog Unique Number	CC_80_83/WELL/1043
WELL.         01-25-083-02W4                 : Well_name    - WELL
LOC .         00/01-25-083-02W4/0            : Location     - LOCATION
UWI .         00/01-25-083-02W400            : Uwi          - UNIQUE WELL ID
ENTR.         DW                             : Entered      - ENTERED BY
SRVC.         SCHLUMBERGER                   : Scn          - SERVICE COMPANY
STRT.M        90                             : top_depth    - START DEPTH
STOP.M        304.75                         : bot_depth    - STOP DEPTH
STEP.M        0.25                           : increment    - STEP LENGTH
 NULL. -999.2500:NULL Value
~CURVE INFORMATION BLOCK
#MNEM UNIT       ERCB CURVE CODE    CURVE DESCRIPTION
#-----------   ------------------   ----------------------------------
DEPT.M        00 001 00 00         : DEPTH        - DEPTH
GR  .API      00 310 00 00         : GR           - GAMMA RAY
DPHI.V/V      00 890 00 00         : PHID         - DENSITY POROSITY (LIMESTONE)
NPHI.V/V      00 330 00 00         : PHIN         - NEUTRON POROSITY (LIMESTONE)
ILD .OHMM     00 120 00 00         : RESD         - DEEP RESISTIVITY (DIL)
~PARAMETER INFORMATION
#MNEM.UNIT           DATA             DESCRIPTION OF MNEMONIC
#---------         -----------     ------------------------------
GL  .M        477.33               : gl           - GROUND LEVEL ELEVATION
EREF.M        480.33               : kb           - ELEVATION OF DEPTH REFERENCE
DATM.M        480.33               : datum        - DATUM ELEVATION
TDD .M        318                  : tdd          - TOTAL DEPTH DRILLER
RUN .         ONE                  : Run          - RUN NUMBER
ENG .         BILL                 : Engineer     - RECORDING ENGINEER
WIT .         JIM                  : Witness      - WITNESSED BY
MUD .         GEL                  : Mud_type     - MUD TYPE
MATR.         LIMESTONE            : Logunit      - NEUTRON MATRIX
TMAX.C        28                   : BHT          - MAXIMUM RECORDED TEMPERATURE
BHTD.M        318                  : BHTDEP       - MAXIMUM RECORDED TEMPERATURE
MATR.         1                    : LOGUNIT      - NEUTRON MATRIX
RMT .C        25                   : MDTP         - TEMPERATURE OF MUD
NEUT.         1                    : NEUTRON      - NEUTRON TYPE
RESI.         0                    : RESIST       - RESISTIVITY TYPE
RMC .OHMM     0.25                 : RMC          - RESISTIVITY OF MUD CAKE
RMF .OHMM     0.25                 : RMF          - RESISTIVITY OF MUD FILTRATE
SUFT.C        15                   : SUFT         - SURFACE TEMPERATURE
~A  DEPTH       GR     PHID     PHIN     RESD
# ...
  177.000   67.463    0.334    0.412    6.962
  177.250   68.115    0.334    0.416    6.632
  177.500   68.900    0.333    0.421    6.543
  177.750   69.486    0.334    0.430    6.679
  178.000   70.863    0.335    0.439    6.977
  178.250   72.320    0.334    0.439    7.473
  178.500   69.985    0.325    0.428    7.932
  178.750   69.106    0.312    0.421    7.949
  179.000   71.535    0.305    0.423    7.925
  179.250   72.641    0.307    0.429    7.941
  179.500   72.725    0.314    0.425    7.926
  179.750   74.817    0.318    0.426    7.952
  180.000   77.348    0.311    0.450    8.235
  180.250   77.360    0.300    0.438    8.909
  180.500   72.858    0.311    0.428    9.419
  180.750   70.850    0.327    0.419    9.760
  181.000   71.150    0.337    0.411   10.003
  181.250   68.827    0.341    0.410   10.139
  181.500   65.226    0.333    0.409   10.303
  181.750   63.752    0.315    0.409   10.484
  182.000   67.077    0.297    0.394   10.650
  182.250   73.449    0.286    0.399   12.467
  182.500   78.228    0.280    0.428   14.372
  182.750   79.310    0.278    0.440   14.306
  183.000   78.697    0.282    0.421   13.382
  183.250   77.724    0.290    0.409   12.166
  183.500   76.363    0.294    0.411   11.465
  183.750   74.724    0.297    0.433   11.143
  184.000   76.591    0.298    0.444   11.203
  184.250   83.207    0.290    0.430   11.599
  184.500   90.917    0.274    0.442   11.747
  184.750   99.300    0.265    0.490   11.571
  185.000  104.695    0.256    0.516   11.420
  185.250  108.471    0.258    0.527   11.045
  185.500  111.544    0.265    0.534   10.503
  185.750  113.197    0.265    0.535   10.030
  186.000  113.586    0.260    0.532    9.577
  186.250  112.594    0.249    0.508    9.281
  186.500  111.694    0.229    0.507    8.994
  186.750  109.619    0.208    0.525    8.782
  187.000  102.970    0.202    0.512    8.714
  187.250   98.671    0.212    0.479    8.733
  187.500  105.683    0.226    0.486    8.728
  187.750  110.128    0.241    0.489    8.595
  188.000  111.981    0.251    0.467    8.476
  188.250  112.749    0.259    0.470    8.238
  188.500  110.249    0.266    0.478    7.701
  188.750  104.694    0.268    0.462    6.972
  189.000  102.104    0.253    0.454    6.247
  189.250  106.095    0.234    0.456    5.495
  189.500  108.805    0.231    0.497    5.139
  189.750  108.038    0.245    0.485    5.034
  190.000  103.371    0.261    0.441    4.982
  190.250   94.827    0.268    0.431    5.009
  190.500   88.146    0.265    0.424    5.184
  190.750   90.886    0.262    0.435    5.591
  191.000   93.960    0.263    0.458    6.015
  191.250   93.984    0.277    0.477    5.724
  191.500   92.251    0.287    0.470    5.049
  191.750   91.310    0.281    0.444    4.667
  192.000   93.674    0.271    0.428    4.470
  192.250   95.684    0.250    0.440    4.412
  192.500   87.688    0.237    0.460    4.287
  192.750   84.067    0.243    0.449    4.877
  193.000   86.379    0.253    0.445    6.047
  193.250   86.444    0.258    0.470    6.828
  193.500   86.428    0.271    0.462    6.990
  193.750   84.866    0.285    0.411    7.089
  194.000   84.099    0.296    0.396    7.375
  194.250   81.046    0.291    0.432    8.376
  194.500   76.065    0.273    0.447    9.340
  194.750   74.456    0.264    0.415    9.372
  195.000   77.932    0.274    0.397    8.911
  195.250   81.285    0.277    0.390    8.371
  195.500   80.845    0.200    0.324    7.940
  195.750   73.088    0.154    0.270    7.713
  196.000   70.343    0.185    0.314    7.690
  196.250   76.338    0.236    0.395    7.881
  196.500   76.785    0.271    0.404    8.424
  196.750   77.538    0.274    0.398    9.395
  197.000   80.787    0.274    0.394   10.349
  197.250   84.102    0.278    0.398   11.342
  197.500   85.905    0.280    0.408   11.881
  197.750   86.720    0.279    0.420   11.757
  198.000   86.608    0.273    0.419   11.572
  198.250   83.525    0.259    0.385   11.085
  198.500   76.631    0.198    0.365   10.298
  198.750   73.855    0.193    0.374    9.541
  199.000   80.653    0.241    0.402    8.734
  199.250   87.636    0.264    0.436    8.047
  199.500   84.241    0.276    0.453    7.976
  199.750   82.770    0.285    0.437    7.978
  200.000   85.383    0.278    0.431    7.935
  200.250   90.666    0.260    0.434    7.503
  200.500   95.804    0.241    0.436    6.613
  200.750   98.702    0.224    0.438    5.466
  201.000  100.136    0.216    0.431    4.400
  201.250  101.309    0.213    0.425    3.988
  201.500  100.229    0.217    0.420    3.656
  201.750   93.861    0.231    0.409    3.367
  202.000   88.852    0.239    0.440    3.214
  202.250   94.212    0.237    0.501    3.138
  202.500  105.052    0.238    0.504    3.205
  202.750  106.651    0.242    0.497    3.512
  203.000  105.505    0.246    0.495    3.853
  203.250  106.906    0.249    0.497    4.307
  203.500  108.496    0.249    0.496    5.106
  203.750  108.998    0.242    0.499    5.940
  204.000  107.604    0.236    0.508    6.268
  204.250   97.354    0.234    0.480    6.464
  204.500   92.042    0.232    0.447    6.685
  204.750   96.920    0.235    0.454    6.795
  205.000  103.545    0.247    0.487    6.687
  205.250  107.227    0.256    0.502    6.468
  205.500  111.893    0.251    0.496    6.272
  205.750  113.955    0.247    0.498    6.067
  206.000  110.383    0.241    0.489    6.062
  206.250  100.767    0.240    0.461    6.390
  206.500   95.607    0.236    0.456    6.734
  206.750   99.367    0.226    0.481    6.726
  207.000  103.408    0.219    0.484    6.393
  207.250  107.209    0.213    0.474    5.925
  207.500  102.702    0.208    0.445    5.448
  207.750   96.966    0.209    0.419    5.190
  208.000   96.618    0.213    0.421    5.045
  208.250   99.009    0.214    0.443    4.916
  208.500   99.828    0.210    0.456    4.926
  208.750   98.844    0.207    0.450    4.906
  209.000   97.939    0.232    0.441    5.096
  209.250   96.004    0.259    0.445    4.925
  209.500   91.967    0.268    0.452    4.331
  209.750   90.501    0.264    0.441    3.885
  210.000   95.596    0.248    0.416    3.797
  210.250   98.603    0.238    0.407    3.849
  210.500   97.453    0.233    0.434    3.967
  210.750   94.299    0.229    0.453    4.070
  211.000   91.876    0.237    0.446    4.096
  211.250   91.461    0.248    0.434    4.475
  211.500   92.620    0.235    0.428    5.409
  211.750   94.251    0.227    0.448    5.709
  212.000   94.465    0.246    0.448    5.794
  212.250   92.332    0.257    0.447    5.873
  212.500   90.350    0.246    0.463    6.016
  212.750   91.252    0.234    0.472    6.186
  213.000   94.499    0.228    0.457    6.282
  213.250   97.470    0.231    0.433    6.588
  213.500   95.168    0.264    0.400    6.755
  213.750   85.809    0.280    0.384    6.779
  214.000   79.290    0.271    0.384    6.752
  214.250   81.061    0.254    0.389    6.600
  214.500   84.790    0.217    0.401    6.287
  214.750   91.132    0.201    0.413    5.928
  215.000   93.693    0.257    0.438    5.379
  215.250   92.066    0.296    0.498    4.766
  215.500   87.698    0.293    0.527    4.398
  215.750   83.908    0.292    0.506    4.329
  216.000   84.263    0.292    0.511    4.333
  216.250   85.030    0.290    0.521    4.337
  216.500   88.534    0.286    0.523    4.318
  216.750   90.046    0.282    0.522    4.407
  217.000   88.520    0.277    0.515    4.540
  217.250   87.130    0.270    0.502    4.589
  217.500   86.156    0.259    0.485    4.669
  217.750   85.859    0.236    0.464    4.901
  218.000   88.637    0.227    0.446    5.002
  218.250   90.623    0.220    0.442    5.125
  218.500   91.615    0.214    0.449    5.258
  218.750   91.126    0.219    0.444    5.351
  219.000   86.229    0.223    0.412    5.523
  219.250   83.727    0.230    0.394    5.593
  219.500   85.925    0.231    0.436    5.896
  219.750   91.797    0.233    0.437    6.290
  220.000   92.317    0.242    0.409    6.719
  220.250   85.682    0.255    0.415    7.080
