~VERSION INFORMATION
 VERS.                 2.0:   CWLS LOG ASCII STANDARD -VERSION 2.0
 WRAP.                  NO:   ONE LINE PER DEPTH STEP
~WELL INFORMATION BLOCK
#MNEM.UNIT           DATA                    DESCRIPTION OF MNEMONIC
#---------    -------------------            -------------------------------
# Generated from Intellog Unique Number	CS_77_79/WELL/845
WELL.         CANADIAN OCCIDENTAL            : Well_name    - WELL
LOC .         00/03-28-077-02W4/0            : Location     - LOCATION
UWI .         00/03-28-077-02W4/0            : Uwi          - UNIQUE WELL ID
ENTR.         SP                             : Entered      - ENTERED BY
SRVC.         SCHLUMBERGER                   : Scn          - SERVICE COMPANY
STRT.M        204.12                         : top_depth    - START DEPTH
STOP.M        463.12                         : bot_depth    - STOP DEPTH
STEP.M        0.25                           : increment    - STEP LENGTH
 NULL. -999.2500:NULL Value
~CURVE INFORMATION BLOCK
#MNEM UNIT       ERCB CURVE CODE    CURVE DESCRIPTION
#-----------   ------------------   ----------------------------------
DEPT.M        00 001 00 00         : DEPTH        - DEPTH
GR  .API      00 310 00 00         : GR           - GAMMA RAY
DPHI.V/V      00 890 00 00         : PHID         - DENSITY POROSITY (SANDSTONE)
NPHI.V/V      00 330 00 00         : PHIN         - NEUTRON POROSITY (SANDSTONE)
ILD .OHMM     00 120 00 00         : RESD         - DEEP RESISTIVITY (DIL)
~PARAMETER INFORMATION
#MNEM.UNIT           DATA             DESCRIPTION OF MNEMONIC
#---------         -----------     ------------------------------
GL  .M        592.531              : gl           - GROUND LEVEL ELEVATION
EREF.M        595.884              : kb           - ELEVATION OF DEPTH REFERENCE
DATM.M        592.531              : datum        - DATUM ELEVATION
TDD .M        472.44               : tdd          - TOTAL DEPTH DRILLER
RUN .         ONE                  : Run          - RUN NUMBER
ENG .         BILL                 : Engineer     - RECORDING ENGINEER
WIT .         JIM                  : Witness      - WITNESSED BY
MUD .         GEL                  : Mud_type     - MUD TYPE
MATR.         SANDSTONE            : Logunit      - NEUTRON MATRIX
TMAX.C        23.8889              : BHT          - MAXIMUM RECORDED TEMPERATURE
BHTD.M        472.44               : BHTDEP       - MAXIMUM RECORDED TEMPERATURE
MATR.         1                    : LOGUNIT      - NEUTRON MATRIX
RMT .C        25                   : MDTP         - TEMPERATURE OF MUD
NEUT.         1                    : NEUTRON      - NEUTRON TYPE
RESI.         0                    : RESIST       - RESISTIVITY TYPE
RMC .OHMM     0.25                 : RMC          - RESISTIVITY OF MUD CAKE
RMF .OHMM     0.25                 : RMF          - RESISTIVITY OF MUD FILTRATE
SUFT.C        15                   : SUFT         - SURFACE TEMPERATURE
~A  DEPTH       GR     PHID     PHIN     RESD
# ...
  378.120   33.711    0.321    0.396    2.061
  378.370   38.341    0.314    0.402    2.088
  378.620   42.628    0.296    0.415    2.097
  378.870   50.907    0.287    0.440    2.097
  379.120   52.758    0.310    0.459    2.101
  379.370   57.554    0.321    0.417    2.056
  379.620   53.106    0.301    0.422    2.023
  379.870   48.271    0.316    0.422    1.959
  380.120   45.227    0.333    0.407    1.942
  380.370   45.263    0.330    0.388    1.881
  380.620   45.277    0.320    0.369    1.841
  380.870   42.821    0.320    0.374    1.804
  381.120   40.300    0.316    0.393    1.780
  381.370   38.190    0.319    0.403    1.775
  381.620   35.167    0.327    0.404    1.738
  381.870   32.304    0.334    0.392    1.739
  382.120   30.813    0.337    0.394    1.738
  382.370   30.361    0.330    0.395    1.737
  382.620   30.332    0.310    0.381    1.733
  382.870   30.215    0.312    0.378    1.772
  383.120   29.739    0.300    0.384    1.766
  383.370   28.789    0.312    0.385    1.803
  383.620   27.814    0.316    0.377    1.800
  383.870   26.751    0.309    0.371    1.800
  384.120   26.433    0.321    0.371    1.815
  384.370   26.067    0.331    0.386    1.796
  384.620   26.056    0.334    0.397    1.798
  384.870   26.184    0.317    0.382    1.797
  385.120   27.218    0.298    0.342    1.796
  385.370   27.478    0.294    0.350    1.830
  385.620   29.165    0.305    0.359    1.820
  385.870   30.716    0.317    0.352    1.794
  386.120   31.046    0.316    0.367    1.794
  386.370   32.163    0.314    0.379    1.795
  386.620   33.679    0.317    0.366    1.764
  386.870   34.943    0.313    0.351    1.760
  387.120   35.477    0.314    0.384    1.759
  387.370   33.592    0.333    0.399    1.761
  387.620   30.720    0.339    0.409    1.722
  387.870   30.124    0.338    0.411    1.725
  388.120   32.650    0.329    0.404    1.702
  388.370   35.128    0.333    0.392    1.693
  388.620   36.578    0.338    0.384    1.692
  388.870   38.343    0.332    0.388    1.691
  389.120   42.467    0.319    0.408    1.691
  389.370   44.237    0.316    0.399    1.690
  389.620   42.362    0.329    0.389    1.690
  389.870   38.501    0.319    0.376    1.689
  390.120   44.210    0.321    0.385    1.690
  390.370   48.320    0.323    0.390    1.706
  390.620   52.230    0.320    0.392    1.729
  390.870   51.492    0.312    0.394    2.035
  391.120   54.107    0.300    0.397    2.259
  391.370   56.305    0.290    0.402    2.481
  391.620   66.791    0.311    0.375    2.656
  391.870   77.284    0.298    0.369    2.717
  392.120   83.312    0.256    0.401    2.765
  392.370   74.217    0.234    0.446    2.693
  392.620   54.704    0.247    0.462    2.497
  392.870   49.855    0.272    0.467    2.359
  393.120   51.706    0.292    0.422    2.189
  393.370   46.295    0.281    0.423    2.130
  393.620   32.410    0.312    0.406    2.066
  393.870   34.017    0.322    0.385    2.002
  394.120   39.615    0.311    0.358    1.983
  394.370   50.036    0.300    0.367    1.955
  394.620   55.138    0.290    0.365    1.945
  394.870   47.953    0.280    0.371    1.945
  395.120   36.836    0.287    0.392    1.908
  395.370   35.545    0.300    0.401    1.861
  395.620   38.570    0.328    0.386    1.839
  395.870   40.835    0.333    0.383    1.782
  396.120   38.384    0.324    0.383    1.766
  396.370   31.441    0.315    0.381    1.739
  396.620   26.842    0.312    0.389    1.702
  396.870   25.925    0.315    0.384    1.705
  397.120   25.664    0.321    0.375    1.681
  397.370   28.352    0.330    0.365    1.673
  397.620   28.948    0.330    0.373    1.672
  397.870   28.367    0.311    0.377    1.639
  398.120   27.689    0.304    0.382    1.641
  398.370   27.166    0.312    0.375    1.641
  398.620   26.451    0.301    0.380    1.640
  398.870   26.403    0.305    0.383    1.641
  399.120   25.323    0.317    0.378    1.612
  399.370   25.264    0.326    0.379    1.609
  399.620   25.224    0.330    0.380    1.608
  399.870   26.103    0.323    0.378    1.607
  400.120   27.879    0.315    0.375    1.607
  400.370   29.495    0.313    0.370    1.606
  400.620   30.590    0.311    0.370    1.606
  400.870   31.244    0.308    0.372    1.605
  401.120   31.168    0.314    0.361    1.605
  401.370   31.536    0.302    0.356    1.624
  401.620   31.713    0.301    0.353    1.640
  401.870   31.760    0.304    0.347    1.663
  402.120   31.050    0.305    0.340    1.711
  402.370   31.064    0.298    0.336    1.763
  402.620   32.024    0.289    0.338    1.812
  402.870   33.679    0.262    0.335    1.887
  403.120   35.999    0.272    0.332    2.007
  403.370   36.452    0.264    0.329    2.102
  403.620   36.431    0.271    0.330    2.107
  403.870   36.418    0.276    0.331    2.107
  404.120   36.775    0.271    0.328    2.079
  404.370   36.550    0.278    0.321    2.060
  404.620   34.034    0.282    0.313    1.992
  404.870   31.962    0.278    0.322    1.973
  405.120   31.604    0.288    0.356    1.911
  405.370   30.999    0.316    0.382    1.854
  405.620   30.927    0.308    0.379    1.798
  405.870   30.852    0.310    0.370    1.743
  406.120   30.222    0.312    0.368    1.714
  406.370   30.986    0.307    0.374    1.702
  406.620   30.225    0.308    0.369    1.684
  406.870   29.695    0.313    0.367    1.683
  407.120   28.976    0.318    0.370    1.683
  407.370   29.034    0.318    0.366    1.682
  407.620   29.346    0.323    0.365    1.716
  407.870   30.242    0.325    0.371    1.721
  408.120   30.219    0.318    0.379    1.742
  408.370   29.541    0.320    0.376    1.772
  408.620   29.655    0.316    0.380    1.851
  408.870   30.180    0.315    0.377    1.902
  409.120   30.203    0.307    0.362    1.943
  409.370   29.489    0.293    0.363    1.979
  409.620   29.523    0.288    0.355    1.941
  409.870   29.497    0.291    0.350    1.945
  410.120   29.485    0.291    0.353    1.906
  410.370   30.136    0.281    0.344    1.910
  410.620   32.755    0.298    0.340    1.869
  410.870   33.614    0.301    0.359    1.837
  411.120   34.260    0.307    0.374    1.819
  411.370   33.034    0.312    0.373    1.824
  411.620   32.174    0.318    0.356    1.878
  411.870   34.447    0.335    0.365    1.836
  412.120   37.478    0.338    0.363    1.797
  412.370   39.954    0.334    0.371    1.802
  412.620   41.897    0.334    0.379    1.765
  412.870   43.861    0.324    0.389    1.730
  413.120   45.824    0.322    0.401    1.707
  413.370   44.984    0.337    0.407    1.691
  413.620   41.350    0.345    0.406    1.635
  413.870   35.948    0.357    0.400    1.658
  414.120   31.805    0.348    0.403    1.631
  414.370   32.736    0.342    0.406    1.604
  414.620   38.448    0.339    0.412    1.602
  414.870   42.524    0.327    0.402    1.601
  415.120   47.062    0.319    0.390    1.600
  415.370   49.033    0.324    0.404    1.613
  415.620   44.066    0.329    0.405    1.627
  415.870   40.831    0.330    0.396    1.626
  416.120   39.324    0.337    0.391    1.623
  416.370   40.097    0.337    0.401    1.655
  416.620   42.877    0.350    0.390    1.653
  416.870   46.780    0.342    0.385    1.651
  417.120   50.854    0.334    0.398    1.680
  417.370   45.888    0.328    0.406    1.708
  417.620   40.828    0.311    0.393    1.785
  417.870   42.768    0.310    0.383    1.869
  418.120   46.250    0.327    0.386    1.868
  418.370   45.432    0.314    0.369    1.906
  418.620   39.410    0.296    0.359    1.872
  418.870   36.984    0.293    0.359    1.818
  419.120   38.127    0.298    0.344    1.802
  419.370   36.334    0.306    0.355    1.801
  419.620   32.273    0.316    0.347    1.800
  419.870   29.193    0.322    0.334    1.799
  420.120   27.049    0.298    0.328    1.831
  420.370   28.422    0.300    0.336    1.877
  420.620   29.751    0.284    0.344    1.896
  420.870   30.779    0.290    0.340    1.931
  421.120   30.978    0.296    0.321    1.969
  421.370   30.896    0.276    0.326    1.962
