~VERSION INFORMATION
 VERS.                 2.0:   CWLS LOG ASCII STANDARD -VERSION 2.0
 WRAP.                  NO:   ONE LINE PER DEPTH STEP
~WELL INFORMATION BLOCK
#MNEM.UNIT           DATA                    DESCRIPTION OF MNEMONIC
#---------    -------------------            -------------------------------
# Generated from Intellog Unique Number	CW_82_90/WELL/3057
WELL.         TOTAL ET AL LIVOCK             : Well_name    - WELL
LOC .         00/06-34-086-23W4/0            : Location     - LOCATION
UWI .         00/06-34-086-23W4/0            : Uwi          - UNIQUE WELL ID
ENTR.         MAX                            : Entered      - ENTERED BY
SRVC.         SCHLUMBERGER                   : Scn          - SERVICE COMPANY
STRT.M        155.448                        : top_depth    - START DEPTH
STOP.M        332.198                        : bot_depth    - STOP DEPTH
STEP.M        0.25                           : increment    - STEP LENGTH
 NULL. -999.2500:NULL Value
~CURVE INFORMATION BLOCK
#MNEM UNIT       ERCB CURVE CODE    CURVE DESCRIPTION
#-----------   ------------------   ----------------------------------
DEPT.M        00 001 00 00         : DEPTH        - DEPTH
ILD .OHMM     00 120 00 00         : RESD         - DEEP RESISTIVITY (DIL)
NPHI.V/V      00 330 00 00         : PHIN         - NEUTRON POROSITY (SANDSTONE)
DPHI.V/V      00 890 00 00         : PHID         - DENSITY POROSITY (SANDSTONE)
CALI.MM       00 280 01 00         : CAL          - CALIPER
GR  .API      00 310 00 00         : GR           - GAMMA RAY
~PARAMETER INFORMATION
#MNEM.UNIT           DATA             DESCRIPTION OF MNEMONIC
#---------         -----------     ------------------------------
GL  .M        530.962              : gl           - GROUND LEVEL ELEVATION
EREF.M        534.01               : kb           - ELEVATION OF DEPTH REFERENCE
DATM.M        530.962              : datum        - DATUM ELEVATION
TDD .M        335.89               : tdd          - TOTAL DEPTH DRILLER
RUN .         ONE                  : Run          - RUN NUMBER
ENG .         BILL                 : Engineer     - RECORDING ENGINEER
WIT .         JIM                  : Witness      - WITNESSED BY
MUD .         GEL                  : Mud_type     - MUD TYPE
MATR.         SANDSTONE            : Logunit      - NEUTRON MATRIX
TMAX.C        24.4444              : BHT          - MAXIMUM RECORDED TEMPERATURE
BHTD.M        335.89               : BHTDEP       - MAXIMUM RECORDED TEMPERATURE
MATR.         1                    : LOGUNIT      - NEUTRON MATRIX
RMT .C        15.5556              : MDTP         - TEMPERATURE OF MUD
NEUT.         1                    : NEUTRON      - NEUTRON TYPE
RESI.         0                    : RESIST       - RESISTIVITY TYPE
RMC .OHMM     3.5                  : RMC          - RESISTIVITY OF MUD CAKE
RMF .OHMM     3.5                  : RMF          - RESISTIVITY OF MUD FILTRATE
SUFT.C        -20.5556             : SUFT         - SURFACE TEMPERATURE
~A  DEPTH     RESD     PHIN     PHID      CAL       GR
# ...
  191.948    9.868    0.472    0.245  200.123   73.377
  192.198   11.218    0.449    0.223  196.556   70.982
  192.448   12.408    0.449    0.210  196.505   70.060
  192.698   14.367    0.436    0.251  197.462   67.661
  192.948   15.459    0.418    0.224  197.906   66.447
  193.198   15.599    0.406    0.177  198.343   66.716
  193.448   15.454    0.401    0.156  198.799   64.906
  193.698   14.759    0.396    0.184  197.745   63.688
  193.948   14.356    0.370    0.172  198.703   66.917
  194.198   13.964    0.381    0.162  199.654   75.471
  194.448   13.336    0.420    0.228  199.101   76.921
  194.698   12.736    0.457    0.252  199.050   76.595
  194.948   12.052    0.490    0.251  198.491   76.564
  195.198   11.616    0.490    0.250  199.435   76.534
  195.448   10.992    0.471    0.247  200.894   76.208
  195.698   10.402    0.462    0.241  201.350   76.173
  195.948    9.488    0.458    0.229  202.295   78.807
  196.198    8.498    0.460    0.203  203.252   81.737
  196.448    7.823    0.474    0.169  206.208   83.487
  196.698    7.335    0.477    0.152  208.663   83.748
  196.948    6.878    0.473    0.216  213.123   81.938
  197.198    6.508    0.470    0.238  209.557   81.323
  197.448    6.216    0.468    0.247  208.496   83.069
  197.698    5.936    0.472    0.262  210.456   88.367
  197.948    5.721    0.483    0.233  223.437   92.773
  198.198    5.616    0.507    0.226  229.401   93.635
  198.448    5.615    0.523    0.252  228.347   92.109
  198.698    5.824    0.521    0.254  229.799   91.206
  198.948    6.041    0.510    0.275  226.740   88.504
  199.198    6.500    0.501    0.279  217.165   86.105
  199.448    6.994    0.519    0.256  208.580   83.710
  199.698    7.736    0.522    0.246  206.530   79.536
  199.948    8.556    0.497    0.248  205.977   73.289
  200.198    9.638    0.484    0.254  203.914   68.519
  200.448   10.660    0.481    0.266  199.859   68.188
  200.698   11.470    0.476    0.253  199.306   64.902
  200.948   11.788    0.461    0.256  198.747   61.911
  201.198   12.005    0.445    0.278  197.700   60.697
  201.448   12.225    0.445    0.269  197.147   62.147
  201.698   12.336    0.454    0.261  196.588   63.892
  201.948   12.222    0.461    0.251  197.533   65.038
  202.198   11.671    0.451    0.239  198.477   65.312
  202.448   11.249    0.456    0.244  198.933   65.278
  202.698   10.743    0.449    0.265  198.888   65.835
  202.948   10.073    0.444    0.251  199.338   66.701
  203.198    9.709    0.449    0.245  198.284   68.742
  203.448    9.272    0.458    0.229  198.734   72.264
  203.698    8.615    0.491    0.207  199.679   72.522
  203.948    8.004    0.511    0.169  203.136   72.200
  204.198    7.785    0.499    0.200  204.589   73.653
  204.448    7.503    0.491    0.218  204.036   77.471
  204.698    7.434    0.486    0.229  204.486   80.401
  204.948    7.433    0.469    0.232  204.929   83.027
  205.198    7.709    0.451    0.233  204.891   82.704
  205.448    7.923    0.453    0.228  204.833   80.602
  205.698    8.218    0.456    0.250  204.775   79.687
  205.948    8.142    0.452    0.221  204.229   76.105
  206.198    7.993    0.449    0.220  204.171   71.922
  206.448    7.846    0.454    0.203  204.126   76.036
  206.698    7.773    0.462    0.185  206.073   81.638
  206.948    7.916    0.481    0.248  211.542   85.748
  207.198    8.135    0.482    0.225  222.518   85.422
  207.448    8.361    0.447    0.205  217.955   81.247
  207.698    8.437    0.460    0.285  209.884   75.296
  207.948    8.513    0.495    0.359  212.840   72.306
  208.198    8.281    0.499    0.406  225.320   75.532
  208.448    8.279    0.483    0.343  237.298   80.829
  208.698    8.909    0.487    0.281  222.209   84.647
  208.948    9.944    0.483    0.192  207.094   86.393
  209.198   10.505    0.478    0.222  206.555   86.363
  209.448   10.125    0.468    0.245  206.510   82.780
  209.698    9.236    0.466    0.245  208.450   76.234
  209.948    7.616    0.485    0.242  210.410   73.539
  210.198    6.515    0.568    0.237  217.884   78.541
  210.448    5.835    0.543    0.245  228.359   79.399
  210.698    5.997    0.511    0.315  229.310   76.408
  210.948    6.512    0.474    0.291  208.206   75.786
  211.198    7.203    0.464    0.265  206.143   76.048
  211.448    8.114    0.470    0.266  205.083   76.010
  211.698    7.965    0.492    0.271  205.031   76.279
  211.948    7.333    0.511    0.254  205.976   76.848
  212.198    6.389    0.519    0.238  207.435   79.186
  212.448    5.936    0.523    0.225  207.891   82.412
  212.698    5.935    0.508    0.231  208.341   83.270
  212.948    6.156    0.474    0.216  208.283   79.979
  213.198    6.685    0.454    0.224  208.733   76.393
  213.448    7.393    0.390    0.195  209.189   72.218
  213.698    9.046    0.350    0.170  209.138   70.116
  213.948   13.667    0.314    0.116  209.080   67.125
  214.198   19.365    0.309    0.101  208.527   65.319
  214.448   21.419    0.337    0.092  206.471   65.873
  214.698   20.643    0.349    0.106  206.419   66.146
  214.948   17.986    0.372    0.141  206.355   67.296
  215.198   16.257    0.397    0.152  206.310   69.046
  215.448   14.427    0.422    0.175  206.766   72.863
  215.698   12.803    0.469    0.202  207.210   77.273
  215.948   12.115    0.450    0.189  206.663   77.535
  216.198   11.893    0.432    0.164  206.612   78.989
  216.448   11.152    0.415    0.149  207.557   83.398
  216.698   10.456    0.450    0.107  207.010   89.884
  216.948    9.278    0.455    0.168  207.955   93.402
  217.198    9.278    0.469    0.190  208.906   96.032
  217.448    8.779    0.478    0.170  208.855   97.490
  217.698    8.618    0.477    0.163  208.302   95.379
  217.948    8.617    0.462    0.175  207.743   93.277
  218.198    8.695    0.470    0.183  207.698   93.546
  218.448    8.774    0.467    0.178  207.640   94.108
  218.698    8.773    0.456    0.166  207.589   92.590
  218.948    8.852    0.458    0.175  207.544   92.863
  219.198    8.851    0.455    0.170  207.486   93.425
  219.448    9.013    0.455    0.159  206.940   93.095
  219.698    9.095    0.463    0.170  207.383   91.880
  219.948    9.010    0.468    0.167  207.826   92.150
  220.198    8.605    0.467    0.160  207.788   93.296
  220.448    8.143    0.461    0.170  207.730   92.381
  220.698    7.920    0.446    0.177  207.679   92.351
  220.948    8.066    0.438    0.149  207.621   92.617
  221.198    8.599    0.428    0.124  207.576   94.355
  221.448    8.920    0.421    0.156  207.518   95.220
  221.698    9.000    0.451    0.142  207.974   96.370
  221.948    9.166    0.457    0.161  211.431   96.928
  222.198    9.334    0.465    0.173  215.384   96.009
  222.448    9.681    0.468    0.186  219.850   94.210
  222.698   10.134    0.467    0.198  218.796   90.916
  222.948   10.706    0.463    0.175  207.209   87.926
  223.198   11.310    0.451    0.158  202.145   83.459
  223.448   12.170    0.414    0.142  202.094   75.436
  223.698   13.215    0.349    0.109  203.045   68.294
  223.948   13.707    0.328    0.071  202.486   67.083
  224.198   13.333    0.355    0.129  202.434   69.421
  224.448   11.941    0.443    0.212  202.884   75.899
  224.698    9.066    0.437    0.261  202.839   78.829
  224.948    8.120    0.428    0.269  202.280   82.647
  225.198    7.339    0.432    0.234  203.732   86.168
  225.448    6.695    0.462    0.203  207.196   88.810
  225.698    6.512    0.483    0.187  214.162   89.072
  225.948    6.511    0.479    0.217  212.607   85.193
  226.198    6.692    0.477    0.219  208.539   80.423
  226.448    7.333    0.472    0.224  207.980   75.956
  226.698    7.891    0.454    0.231  206.933   70.590
  226.948    8.808    0.445    0.242  203.867   68.491
  227.198   10.293    0.430    0.256  202.306   66.684
  227.448   11.384    0.433    0.237  202.267   63.690
  227.698   11.382    0.461    0.232  201.213   61.592
  227.948   11.173    0.468    0.221  201.155   60.073
  228.198   11.172    0.472    0.232  199.607   60.343
