~VERSION INFORMATION
 VERS.                 2.0:   CWLS LOG ASCII STANDARD -VERSION 2.0
 WRAP.                  NO:   ONE LINE PER DEPTH STEP
~WELL INFORMATION BLOCK
#MNEM.UNIT           DATA                    DESCRIPTION OF MNEMONIC
#---------    -------------------            -------------------------------
# Generated from Intellog Unique Number	CS_77_79/WELL/913
WELL.         NOVALTA VIOLET                 : Well_name    - WELL
LOC .         00/07-32-078-03W4/0            : Location     - LOCATION
UWI .         00/07-32-078-03W4/0            : Uwi          - UNIQUE WELL ID
ENTR.         JHS                            : Entered      - ENTERED BY
SRVC.         SCHLUMBERGER                   : Scn          - SERVICE COMPANY
STRT.M        135                            : top_depth    - START DEPTH
STOP.M        400                            : bot_depth    - STOP DEPTH
STEP.M        0.25                           : increment    - STEP LENGTH
 NULL. -999.2500:NULL Value
~CURVE INFORMATION BLOCK
#MNEM UNIT       ERCB CURVE CODE    CURVE DESCRIPTION
#-----------   ------------------   ----------------------------------
DEPT.M        00 001 00 00         : DEPTH        - DEPTH
DPHI.V/V      00 890 00 00         : PHID         - DENSITY POROSITY (LIMESTONE)
NPHI.V/V      00 330 00 00         : PHIN         - NEUTRON POROSITY (LIMESTONE)
GR  .API      00 310 00 00         : GR           - GAMMA RAY
ILD .OHMM     00 120 00 00         : RESD         - DEEP RESISTIVITY (DIL)
RHOB.KG/M3    00 350 00 00         : DENS         - BULK DENSITY
~PARAMETER INFORMATION
#MNEM.UNIT           DATA             DESCRIPTION OF MNEMONIC
#---------         -----------     ------------------------------
GL  .M        549.79               : gl           - GROUND LEVEL ELEVATION
EREF.M        552.8                : kb           - ELEVATION OF DEPTH REFERENCE
DATM.M        552.8                : datum        - DATUM ELEVATION
TDD .M        405                  : tdd          - TOTAL DEPTH DRILLER
RUN .         ONE                  : Run          - RUN NUMBER
ENG .         BILL                 : Engineer     - RECORDING ENGINEER
WIT .         JIM                  : Witness      - WITNESSED BY
MUD .         GEL                  : Mud_type     - MUD TYPE
MATR.         LIMESTONE            : Logunit      - NEUTRON MATRIX
TMAX.C        23                   : BHT          - MAXIMUM RECORDED TEMPERATURE
BHTD.M        405                  : BHTDEP       - MAXIMUM RECORDED TEMPERATURE
MATR.         1                    : LOGUNIT      - NEUTRON MATRIX
RMT .C        25                   : MDTP         - TEMPERATURE OF MUD
NEUT.         1                    : NEUTRON      - NEUTRON TYPE
RESI.         0                    : RESIST       - RESISTIVITY TYPE
RMC .OHMM     0.25                 : RMC          - RESISTIVITY OF MUD CAKE
RMF .OHMM     0.25                 : RMF          - RESISTIVITY OF MUD FILTRATE
SUFT.C        15                   : SUFT         - SURFACE TEMPERATURE
~A  DEPTH     PHID     PHIN       GR     RESD     DENS
# ...
  354.000    0.288    0.304   28.643    1.927 2217.110
  354.250    0.281    0.303   30.492    1.928 2229.680
  354.500    0.278    0.293   28.702    1.928 2233.950
  354.750    0.278    0.294   28.117    1.929 2234.080
  355.000    0.277    0.318   28.745    1.929 2236.210
  355.250    0.276    0.326   30.601    1.966 2238.360
  355.500    0.271    0.317   31.233    1.967 2246.760
  355.750    0.271    0.310   31.860    2.004 2246.880
  356.000    0.271    0.294   31.284    2.005 2246.950
  356.250    0.262    0.290   30.095    2.005 2261.610
  356.500    0.260    0.302   30.116    2.006 2265.870
  356.750    0.267    0.306   31.358    2.006 2253.470
  357.000    0.274    0.299   31.994    1.970 2241.070
  357.250    0.277    0.292   32.014    1.971 2236.990
  357.500    0.272    0.286   32.645    2.008 2245.420
  357.750    0.266    0.287   33.887    2.009 2255.900
  358.000    0.264    0.292   33.911    2.009 2258.080
  358.250    0.267    0.291   32.724    2.048 2254.000
  358.500    0.265    0.285   32.749    2.048 2256.160
  358.750    0.259    0.279   32.776    2.049 2266.660
  359.000    0.249    0.279   31.588    2.049 2283.390
  359.250    0.247    0.281   31.010    2.012 2287.630
  359.500    0.262    0.286   31.030    1.903 2262.760
  359.750    0.281    0.313   30.450    1.801 2229.550
  360.000    0.297    0.353   28.659    1.801 2202.580
  360.250    0.308    0.356   28.075    1.736 2183.940
  360.500    0.306    0.344   28.096    1.704 2186.120
  360.750    0.301    0.333   28.738    1.673 2194.550
  361.000    0.303    0.331   28.760    1.643 2192.530
  361.250    0.312    0.348   28.177    1.643 2175.970
  361.500    0.318    0.362   29.417    1.613 2165.660
  361.750    0.312    0.346   30.051    1.614 2176.160
  362.000    0.305    0.335   28.255    1.614 2188.740
  362.250    0.300    0.335   26.455    1.615 2197.150
  362.500    0.299    0.341   25.880    1.615 2199.320
  362.750    0.300    0.328   26.508    1.616 2197.320
  363.000    0.305    0.330   28.360    1.647 2189.080
  363.250    0.319    0.364   29.594    1.647 2164.200
  363.500    0.324    0.353   30.838    1.647 2155.980
  363.750    0.320    0.322   30.865    1.648 2162.290
  364.000    0.313    0.312   33.316    1.648 2174.870
  364.250    0.307    0.324   36.381    1.618 2185.360
  364.500    0.298    0.336   33.975    1.619 2200.010
  364.750    0.298    0.343   29.143    1.650 2200.130
  365.000    0.313    0.354   28.560    1.681 2175.220
  365.250    0.333    0.356   30.410    1.745 2139.940
  365.500    0.354    0.361   35.294    1.916 2104.640
  365.750    0.348    0.370   43.821    2.104 2115.130
  366.000    0.252    0.345   54.167    2.184 2279.620
  366.250    0.232    0.332   61.480    2.145 2313.000
  366.500    0.226    0.336   43.898    2.105 2323.500
  366.750    0.264    0.344   37.242    1.955 2259.080
  367.000    0.326    0.339   31.195    1.782 2153.050
  367.250    0.333    0.388   30.007    1.717 2140.640
  367.500    0.344    0.428   34.282    1.655 2121.990
  367.750    0.352    0.395   40.383    1.655 2107.530
  368.000    0.324    0.361   44.659    1.687 2155.470
  368.250    0.313    0.336   39.825    1.687 2174.300
  368.500    0.301    0.323   31.966    1.688 2195.190
  368.750    0.286    0.328   28.947    1.688 2220.250
  369.000    0.284    0.329   25.936    1.720 2224.500
  369.250    0.290    0.306   24.750    1.786 2214.190
  369.500    0.279    0.287   27.203    1.754 2233.010
  369.750    0.278    0.291   36.945    1.722 2235.170
  370.000    0.287    0.334   52.154    1.690 2218.600
  370.250    0.307    0.362   56.429    1.691 2185.400
  370.500    0.320    0.372   49.166    1.691 2162.610
  370.750    0.304    0.375   44.335    1.724 2189.740
  371.000    0.274    0.354   47.398    1.823 2241.850
  371.250    0.265    0.330   50.461    1.893 2256.510
  371.500    0.277    0.304   46.842    2.117 2235.800
  371.750    0.257    0.292   46.258    2.368 2271.250
  372.000    0.224    0.287   56.001    2.698 2327.520
  372.250    0.194    0.303   63.315    3.075 2377.550
  372.500    0.170    0.309   70.633    3.570 2419.280
  372.750    0.169    0.320   74.303    3.706 2421.430
  373.000    0.185    0.343   73.716    3.848 2394.490
  373.250    0.193    0.344   70.102    3.708 2379.990
  373.500    0.197    0.334   68.308    3.574 2373.830
  373.750    0.203    0.329   68.941    3.642 2363.540
  374.000    0.182    0.346   77.463    3.781 2399.000
  374.250    0.170    0.347   81.141    3.999 2419.880
  374.500    0.157    0.344   82.981    4.310 2440.810
  374.750    0.156    0.353   89.685    4.392 2442.950
  375.000    0.162    0.348   94.570    4.394 2432.660
  375.250    0.163    0.342   92.772    4.395 2430.640
  375.500    0.162    0.345   81.263    4.396 2432.810
  375.750    0.156    0.352   81.892    4.398 2443.300
  376.000    0.149    0.355   85.567    4.481 2455.880
  376.250    0.132    0.366   85.593    4.482 2485.090
  376.500    0.118    0.341   80.762    4.484 2508.070
  376.750    0.130    0.324   79.579    4.402 2487.350
  377.000    0.186    0.342   80.817    4.322 2391.750
  377.250    0.182    0.365   81.443    4.165 2398.050
  377.500    0.170    0.378   83.296    4.014 2418.960
  377.750    0.169    0.386   82.713    3.869 2421.120
  378.000    0.186    0.389   78.481    3.799 2392.080
  378.250    0.198    0.350   70.004    3.871 2371.350
  378.500    0.209    0.322   61.529    4.019 2352.710
  378.750    0.188    0.305   68.843    4.331 2388.170
  379.000    0.170    0.333   77.371    4.755 2419.490
  379.250    0.165    0.340   82.860    4.936 2427.890
  379.500    0.177    0.318   78.639    5.030 2407.180
  379.750    0.181    0.311   76.240    5.126 2401.030
  380.000    0.159    0.321   78.081    5.128 2438.580
  380.250    0.149    0.330   82.966    5.034 2455.310
  380.500    0.148    0.336   86.025    4.943 2457.490
  380.750    0.151    0.341   83.624    4.945 2451.310
  381.000    0.160    0.351   75.756    4.854 2436.840
  381.250    0.149    0.347   74.569    4.947 2455.670
  381.500    0.143    0.343   83.698    4.949 2466.140
  381.750    0.139    0.364   94.657    4.769 2472.480
  382.000    0.141    0.392  103.186    4.682 2468.400
  382.250    0.159    0.426  110.497    4.429 2437.280
  382.500    0.181    0.471  114.171    4.514 2399.910
  382.750    0.212    0.494  117.228    4.600 2347.970
  383.000    0.182    0.481  114.223    4.865 2398.020
  383.250    0.154    0.455  108.777    5.243 2445.960
  383.500    0.142    0.422  104.557    5.756 2466.880
  383.750    0.137    0.394  104.583    5.866 2475.270
  384.000    0.126    0.367  104.000    5.653 2494.090
  384.250    0.120    0.381   97.954    5.249 2504.570
  384.500    0.133    0.356   90.689    5.059 2481.780
  384.750    0.182    0.327   77.963    4.785 2398.620
  385.000    0.212    0.324   69.486    4.443 2346.700
  385.250    0.259    0.511   96.839    4.125 2267.700
  385.500    0.279    0.577  112.657    4.051 2232.420
  385.750    0.276    0.545  121.789    3.977 2238.750
  386.000    0.233    0.498  129.107    3.978 2311.680
  386.250    0.206    0.464  134.596    3.979 2357.540
  386.500    0.191    0.474  140.088    4.131 2382.600
  386.750    0.190    0.531  142.541    4.210 2384.770
  387.000    0.230    0.572  142.564    4.453 2316.190
  387.250    0.256    0.500  136.518    4.798 2272.560
  387.500    0.171    0.377  118.932    5.268 2418.320
  387.750    0.125    0.349  112.890    5.893 2495.420
  388.000    0.114    0.329  117.775    6.233 2514.240
  388.250    0.125    0.371  123.876    6.470 2495.600
  388.500    0.152    0.451  127.537    6.473 2449.890
  388.750    0.154    0.475  129.998    6.356 2445.810
  389.000    0.134    0.472  128.806    6.240 2481.290
  389.250    0.135    0.453  124.578    6.241 2479.300
  389.500    0.131    0.431  107.600    6.360 2485.630
  389.750    0.072    0.404   80.905    6.728 2587.680
  390.000    0.043    0.388   55.429    6.729 2635.630
  390.250    0.039    0.365   56.059    6.731 2644.050
