~VERSION INFORMATION
 VERS.                 2.0:   CWLS LOG ASCII STANDARD -VERSION 2.0
 WRAP.                  NO:   ONE LINE PER DEPTH STEP
~WELL INFORMATION BLOCK
#MNEM.UNIT           DATA                    DESCRIPTION OF MNEMONIC
#---------    -------------------            -------------------------------
# Generated from Intellog Unique Number	CX_WELLS/WELL/2499
WELL.         04-02-084-15W4                 : Well_name    - WELL
LOC .         00/04-02-084-15W4/0            : Location     - LOCATION
UWI .         00/04-02-084-15W400            : Uwi          - UNIQUE WELL ID
ENTR.         JHS                            : Entered      - ENTERED BY
SRVC.         SCHLUMBERGER                   : Scn          - SERVICE COMPANY
STRT.M        76                             : top_depth    - START DEPTH
STOP.M        280.75                         : bot_depth    - STOP DEPTH
STEP.M        0.25                           : increment    - STEP LENGTH
 NULL. -999.2500:NULL Value
~CURVE INFORMATION BLOCK
#MNEM UNIT       ERCB CURVE CODE    CURVE DESCRIPTION
#-----------   ------------------   ----------------------------------
DEPT.M        00 001 00 00         : DEPTH        - DEPTH
GR  .API      00 310 00 00         : GR           - GAMMA RAY
DPHI.V/V      00 890 00 00         : PHID         - DENSITY POROSITY (SANDSTONE)
NPHI.V/V      00 330 00 00         : PHIN         - NEUTRON POROSITY (SANDSTONE)
ILD .OHMM     00 120 00 00         : RESD         - DEEP RESISTIVITY (DIL)
~PARAMETER INFORMATION
#MNEM.UNIT           DATA             DESCRIPTION OF MNEMONIC
#---------         -----------     ------------------------------
GL  .M        552.1                : gl           - GROUND LEVEL ELEVATION
EREF.M        555.8                : kb           - ELEVATION OF DEPTH REFERENCE
DATM.M        555.8                : datum        - DATUM ELEVATION
TDD .M        281                  : tdd          - TOTAL DEPTH DRILLER
RUN .         ONE                  : Run          - RUN NUMBER
ENG .         BILL                 : Engineer     - RECORDING ENGINEER
WIT .         JIM                  : Witness      - WITNESSED BY
MUD .         GEL                  : Mud_type     - MUD TYPE
MATR.         SANDSTONE            : Logunit      - NEUTRON MATRIX
TMAX.C        20                   : BHT          - MAXIMUM RECORDED TEMPERATURE
BHTD.M        281                  : BHTDEP       - MAXIMUM RECORDED TEMPERATURE
MATR.         1                    : LOGUNIT      - NEUTRON MATRIX
RMT .C        25                   : MDTP         - TEMPERATURE OF MUD
NEUT.         1                    : NEUTRON      - NEUTRON TYPE
RESI.         0                    : RESIST       - RESISTIVITY TYPE
RMC .OHMM     0.25                 : RMC          - RESISTIVITY OF MUD CAKE
RMF .OHMM     0.25                 : RMF          - RESISTIVITY OF MUD FILTRATE
SUFT.C        15                   : SUFT         - SURFACE TEMPERATURE
~A  DEPTH       GR     PHID     PHIN     RESD
   76.000   77.125    0.428    0.466    0.145
   76.250   80.364    0.274    0.490    0.165
   76.500   85.627    0.136    0.476    0.188
   76.750   89.156    0.098    0.470    0.216
   77.000   89.855    0.106    0.464    0.250
   77.250   88.027    0.088    0.464    0.291
   77.500   84.367    0.085    0.494    0.340
   77.750   81.772    0.073    0.460    0.400
   78.000   80.081    0.074    0.414    0.475
   78.250   83.813    0.126    0.432    0.566
   78.500   87.131    0.207    0.521    0.681
   78.750   84.168    0.222    0.599    0.822
   79.000   80.680    0.156    0.560    0.998
   79.250   80.044    0.188    0.424    1.214
   79.500   85.706    0.256    0.474    1.473
   79.750   91.761    0.303    0.538    1.776
   80.000   95.268    0.323    0.463    2.113
   80.250   97.269    0.304    0.383    2.461
   80.500   98.246    0.258    0.420    2.785
   80.750  100.816    0.260    0.454    3.049
   81.000  102.055    0.263    0.472    3.226
   81.250  100.991    0.252    0.499    3.315
   81.500   98.143    0.238    0.550    3.337
   81.750   97.394    0.231    0.560    3.336
   82.000  101.842    0.235    0.473    3.337
   82.250  105.366    0.237    0.409    3.291
   82.500  109.297    0.239    0.409    3.225
   82.750  110.301    0.233    0.452    3.244
   83.000  108.119    0.232    0.447    3.288
   83.250  104.554    0.242    0.372    3.280
   83.500  100.588    0.242    0.335    3.282
   83.750  101.288    0.238    0.376    3.278
   84.000  104.084    0.246    0.404    3.326
   84.250  107.574    0.244    0.400    3.353
   84.500  109.271    0.233    0.411    3.346
   84.750  108.159    0.232    0.447    3.349
   85.000  106.615    0.236    0.478    3.350
   85.250  105.326    0.249    0.509    3.355
   85.500  106.780    0.250    0.503    3.315
   85.750  106.281    0.242    0.471    3.258
   86.000  101.039    0.247    0.423    3.221
   86.250   98.447    0.256    0.397    3.247
   86.500   99.893    0.294    0.425    3.356
   86.750   86.597    0.462    0.416    3.495
   87.000   74.944    0.521    0.406    3.887
   87.250   73.807    0.525    0.420    4.110
   87.500   85.471    0.584    0.433    3.980
   87.750   96.894    0.569    0.481    3.781
   88.000   88.920    0.401    0.565    3.621
   88.250   74.877    0.404    0.465    3.728
   88.500   67.341    0.510    0.343    3.834
   88.750   74.546    0.557    0.367    3.779
   89.000   90.384    0.515    0.477    3.631
   89.250  101.015    0.426    0.489    3.457
   89.500  102.229    0.327    0.392    3.247
   89.750  101.876    0.285    0.387    3.046
   90.000   99.820    0.272    0.406    2.936
   90.250   99.346    0.271    0.429    2.871
   90.500  101.174    0.277    0.456    2.865
   90.750  102.212    0.281    0.487    2.920
   91.000  100.974    0.281    0.530    2.965
   91.250   98.501    0.298    0.531    3.050
   91.500   95.519    0.317    0.495    3.237
   91.750   92.727    0.285    0.475    3.399
   92.000   94.915    0.291    0.489    3.460
   92.250   98.489    0.349    0.528    3.530
   92.500   95.463    0.343    0.567    3.642
   92.750   96.732    0.384    0.551    3.641
   93.000   98.770    0.431    0.527    3.696
   93.250   99.196    0.505    0.470    3.691
   93.500  100.592    0.550    0.399    3.626
   93.750  102.042    0.499    0.382    3.562
   94.000   99.671    0.402    0.417    3.452
   94.250   98.192    0.328    0.434    3.399
   94.500  101.080    0.347    0.442    3.345
   94.750  101.715    0.388    0.398    3.336
   95.000   99.394    0.424    0.345    3.466
   95.250   97.328    0.475    0.354    3.700
   95.500   94.767    0.477    0.394    3.866
   95.750   94.259    0.383    0.430    3.929
   96.000   98.335    0.410    0.453    3.991
   96.250   99.408    0.460    0.470    4.030
   96.500   99.913    0.498    0.496    3.992
   96.750  103.919    0.538    0.535    3.939
   97.000  105.652    0.501    0.548    3.945
   97.250  104.622    0.478    0.492    3.943
   97.500   98.871    0.418    0.469    3.995
   97.750   94.709    0.376    0.488    4.054
   98.000   95.338    0.391    0.470    4.150
   98.250   95.473    0.464    0.439    4.270
   98.500   90.431    0.568    0.469    4.336
   98.750   84.998    0.592    0.435    4.644
   99.000   83.439    0.599    0.340    5.428
   99.250   81.713    0.620    0.277    6.443
   99.500   77.786    0.616    0.242    8.255
   99.750   73.946    0.534    0.219   12.279
  100.000   71.556    0.411    0.253   16.181
  100.250   70.029    0.385    0.281   18.484
  100.500   68.606    0.370    0.287   19.276
  100.750   69.417    0.352    0.299   17.080
  101.000   73.449    0.342    0.315   14.475
  101.250   77.525    0.333    0.325   12.935
  101.500   78.799    0.325    0.331   11.618
  101.750   79.638    0.313    0.318   10.689
  102.000   77.165    0.310    0.312   10.475
  102.250   79.401    0.330    0.326   10.124
  102.500   83.172    0.388    0.347    9.765
  102.750   83.082    0.439    0.350    9.611
  103.000   84.221    0.414    0.350    9.149
  103.250   84.010    0.357    0.392    8.711
  103.500   81.407    0.337    0.393    8.560
  103.750   83.154    0.311    0.356    8.338
  104.000   88.849    0.274    0.339    8.176
  104.250   91.539    0.259    0.354    8.191
  104.500   89.641    0.256    0.377    8.053
  104.750   88.680    0.257    0.395    7.921
  105.000   91.829    0.251    0.360    7.902
  105.250   91.601    0.272    0.340    7.917
  105.500   87.320    0.312    0.344    7.911
  105.750   86.314    0.326    0.342    7.926
  106.000   90.812    0.303    0.355    8.068
  106.250   95.437    0.275    0.364    8.353
  106.500   99.663    0.256    0.364    8.233
  106.750  105.320    0.236    0.360    7.782
  107.000  107.931    0.222    0.366    7.000
  107.250  106.375    0.215    0.393    6.061
  107.500  106.555    0.205    0.425    5.479
  107.750  105.817    0.213    0.413    5.518
  108.000  102.248    0.239    0.356    5.984
  108.250   97.947    0.247    0.300    6.664
  108.500   92.541    0.247    0.264    7.405
  108.750   89.791    0.251    0.258    7.819
  109.000   98.011    0.233    0.317    7.383
  109.250  107.977    0.213    0.412    6.595
  109.500   91.239    0.210    0.424    6.332
  109.750   75.460    0.239    0.370    6.489
  110.000   79.471    0.271    0.348    6.351
  110.250   92.060    0.267    0.363    6.004
  110.500  103.432    0.250    0.370    6.147
  110.750  108.569    0.263    0.420    6.428
  111.000   96.721    0.291    0.418    6.843
  111.250   79.779    0.311    0.374    7.212
  111.500   67.383    0.320    0.350    8.381
  111.750   60.839    0.309    0.342   11.416
  112.000   61.485    0.266    0.317   14.706
  112.250   65.687    0.219    0.307   17.390
  112.500   72.867    0.257    0.318   17.846
  112.750   77.523    0.290    0.346   16.415
  113.000   75.930    0.286    0.357   15.216
  113.250   76.677    0.285    0.347   14.583
  113.500   91.805    0.263    0.353   13.683
  113.750  112.957    0.205    0.363   12.700
  114.000  121.620    0.188    0.386   11.487
  114.250  119.738    0.184    0.390   10.216
  114.500  112.667    0.182    0.373    9.383
  114.750  105.415    0.194    0.369    9.086
  115.000  106.335    0.193    0.365    9.292
  115.250  113.410    0.188    0.322   10.155
  115.500  112.298    0.219    0.346    9.606
  115.750  101.279    0.275    0.387    9.273
  116.000   87.918    0.306    0.412   10.070
  116.250   81.835    0.304    0.417   11.895
  116.500   85.035    0.307    0.361   14.793
  116.750   86.736    0.298    0.290   15.737
  117.000   93.873    0.240    0.301   14.668
  117.250  107.401    0.221    0.347   12.040
  117.500  106.692    0.258    0.399    9.981
  117.750   90.122    0.291    0.425    9.549
  118.000   81.955    0.301    0.391   10.818
  118.250   76.051    0.298    0.388   13.685
  118.500   74.242    0.279    0.387   15.775
  118.750   76.112    0.272    0.370   15.804
  119.000   83.226    0.271    0.342   14.431
  119.250   93.372    0.256    0.311   12.756
