~VERSION INFORMATION
 VERS.                 2.0:   CWLS LOG ASCII STANDARD -VERSION 2.0
 WRAP.                  NO:   ONE LINE PER DEPTH STEP
~WELL INFORMATION BLOCK
#MNEM.UNIT           DATA                    DESCRIPTION OF MNEMONIC
#---------    -------------------            -------------------------------
# Generated from Intellog Unique Number	CS_77_79/WELL/878
WELL.         C.W.W.E. HARDY                 : Well_name    - WELL
LOC .         00/06-19-078-04W4/0            : Location     - LOCATION
UWI .         00/06-19-078-04W4/0            : Uwi          - UNIQUE WELL ID
ENTR.         JHS                            : Entered      - ENTERED BY
SRVC.         SCHLUMBERGER                   : Scn          - SERVICE COMPANY
STRT.M        140                            : top_depth    - START DEPTH
STOP.M        380                            : bot_depth    - STOP DEPTH
STEP.M        0.25                           : increment    - STEP LENGTH
 NULL. -999.2500:NULL Value
~CURVE INFORMATION BLOCK
#MNEM UNIT       ERCB CURVE CODE    CURVE DESCRIPTION
#-----------   ------------------   ----------------------------------
DEPT.M        00 001 00 00         : DEPTH        - DEPTH
DPHI.V/V      00 890 00 00         : PHID         - DENSITY POROSITY (LIMESTONE)
NPHI.V/V      00 330 00 00         : PHIN         - NEUTRON POROSITY (LIMESTONE)
GR  .API      00 310 00 00         : GR           - GAMMA RAY
ILD .OHMM     00 120 00 00         : RESD         - DEEP RESISTIVITY (DIL)
RHOB.KG/M3    00 350 00 00         : DENS         - BULK DENSITY
~PARAMETER INFORMATION
#MNEM.UNIT           DATA             DESCRIPTION OF MNEMONIC
#---------         -----------     ------------------------------
GL  .M        562.1                : gl           - GROUND LEVEL ELEVATION
EREF.M        566                  : kb           - ELEVATION OF DEPTH REFERENCE
DATM.M        566                  : datum        - DATUM ELEVATION
TDD .M        385                  : tdd          - TOTAL DEPTH DRILLER
RUN .         ONE                  : Run          - RUN NUMBER
ENG .         BILL                 : Engineer     - RECORDING ENGINEER
WIT .         JIM                  : Witness      - WITNESSED BY
MUD .         GEL                  : Mud_type     - MUD TYPE
MATR.         LIMESTONE            : Logunit      - NEUTRON MATRIX
TMAX.C        18                   : BHT          - MAXIMUM RECORDED TEMPERATURE
BHTD.M        385                  : BHTDEP       - MAXIMUM RECORDED TEMPERATURE
MATR.         1                    : LOGUNIT      - NEUTRON MATRIX
RMT .C        25                   : MDTP         - TEMPERATURE OF MUD
NEUT.         1                    : NEUTRON      - NEUTRON TYPE
RESI.         0                    : RESIST       - RESISTIVITY TYPE
RMC .OHMM     0.25                 : RMC          - RESISTIVITY OF MUD CAKE
RMF .OHMM     0.25                 : RMF          - RESISTIVITY OF MUD FILTRATE
SUFT.C        15                   : SUFT         - SURFACE TEMPERATURE
~A  DEPTH     PHID     PHIN       GR     RESD     DENS
# ...
  322.500    0.222    0.369   80.971    7.650 2329.950
  322.750    0.215    0.388   79.151    7.653 2342.660
  323.000    0.202    0.390   80.388    7.375 2363.820
  323.250    0.186    0.380   84.075    7.107 2391.310
  323.500    0.181    0.381   88.377    6.850 2399.800
  323.750    0.191    0.410   92.681    6.602 2382.950
  324.000    0.201    0.427   95.144    6.361 2366.110
  324.250    0.205    0.433   97.614    6.247 2359.820
  324.500    0.202    0.433   97.010    6.252 2364.090
  324.750    0.195    0.429   96.414    6.255 2376.800
  325.000    0.187    0.429   98.268    6.379 2389.530
  325.250    0.185    0.450   97.668    6.503 2393.790
  325.500    0.186    0.460   96.460    6.632 2391.720
  325.750    0.186    0.444   95.866    6.635 2391.770
  326.000    0.182    0.429   98.328    6.516 2398.140
  326.250    0.179    0.417  100.792    6.398 2404.520
  326.500    0.179    0.411  102.038    6.283 2404.570
  326.750    0.186    0.418  103.269    6.169 2391.950
  327.000    0.193    0.437  105.121    6.058 2379.320
  327.250    0.195    0.454  105.750    5.950 2377.270
  327.500    0.192    0.456  105.153    5.955 2381.540
  327.750    0.191    0.453  103.943    5.957 2383.680
  328.000    0.191    0.451  102.734    5.850 2383.740
  328.250    0.194    0.466  102.140    5.744 2377.460
  328.500    0.197    0.473  102.151    5.640 2373.280
  328.750    0.198    0.477  104.618    5.436 2371.210
  329.000    0.198    0.482  107.082    5.141 2371.250
  329.250    0.197    0.481  108.932    5.145 2373.410
  329.500    0.198    0.476  107.723    5.052 2371.350
  329.750    0.200    0.487  106.514    5.054 2367.160
  330.000    0.202    0.503  112.042    5.059 2365.100
  330.250    0.204    0.504  111.445    4.967 2360.920
  330.500    0.208    0.504  109.622    4.970 2354.630
  330.750    0.209    0.512  107.800    4.973 2352.570
  331.000    0.211    0.504  105.982    4.976 2348.400
  331.250    0.215    0.492  105.380    4.979 2342.110
  331.500    0.211    0.481  104.784    4.891 2348.480
  331.750    0.206    0.481  102.966    4.893 2356.980
  332.000    0.208    0.485  101.756    4.896 2354.910
  332.250    0.210    0.490  102.380    4.809 2350.750
  332.500    0.213    0.499  106.684    4.903 2346.580
  332.750    0.214    0.510  109.148    4.814 2344.500
  333.000    0.212    0.512  109.163    4.818 2346.660
  333.250    0.209    0.500  104.892    4.820 2353.030
  333.500    0.204    0.493  102.458    4.824 2361.530
  333.750    0.204    0.483  103.085    4.828 2361.570
  334.000    0.206    0.463  105.548    4.831 2357.390
  334.250    0.207    0.479  107.402    4.832 2355.340
  334.500    0.205    0.491  107.418    4.836 2359.610
  334.750    0.205    0.491  109.272    4.839 2359.650
  335.000    0.206    0.478  108.673    4.843 2357.570
  335.250    0.209    0.464  108.073    4.845 2353.410
  335.500    0.210    0.453  108.092    4.849 2351.330
  335.750    0.210    0.455  109.942    4.851 2351.380
  336.000    0.207    0.469  111.180    4.856 2355.650
  336.250    0.202    0.490  112.422    4.859 2364.140
  336.500    0.197    0.505  112.437    4.770 2372.630
  336.750    0.197    0.512  108.165    4.773 2372.670
  337.000    0.201    0.502  106.958    4.776 2366.380
  337.250    0.205    0.489  110.034    4.779 2360.100
  337.500    0.201    0.476  106.987    4.783 2366.480
  337.750    0.196    0.471  104.553    4.877 2374.970
  338.000    0.196    0.468  108.854    4.880 2375.010
  338.250    0.202    0.488  110.705    4.882 2364.500
  338.500    0.196    0.493  108.273    4.886 2375.110
  338.750    0.191    0.488  106.450    4.982 2383.590
  339.000    0.191    0.486  105.243    5.081 2383.640
  339.250    0.195    0.480  109.545    5.083 2377.360
  339.500    0.197    0.467  111.396    5.183 2373.190
  339.750    0.197    0.453  110.184    5.285 2373.230
  340.000    0.198    0.441  104.691    5.288 2371.170
  340.250    0.202    0.430   97.971    5.193 2364.880
  340.500    0.206    0.415   87.578    5.100 2358.580
  340.750    0.217    0.393   76.571    5.008 2339.620
  341.000    0.241    0.380   67.401    4.918 2297.450
  341.250    0.260    0.366   67.417    4.829 2265.820
  341.500    0.241    0.366   69.884    4.742 2297.550
  341.750    0.234    0.372   69.898    4.401 2310.260
  342.000    0.229    0.362   65.015    4.084 2318.740
  342.250    0.241    0.360   56.457    3.720 2297.670
  342.500    0.274    0.376   46.063    3.389 2240.720
  342.750    0.302    0.381   38.118    3.265 2194.330
  343.000    0.318    0.383   34.459    3.088 2166.920
  343.250    0.320    0.389   43.048    3.033 2162.740
  343.500    0.305    0.394   52.858    2.978 2188.120
  343.750    0.289    0.397   57.158    3.336 2215.620
  344.000    0.294    0.390   51.056    3.338 2207.220
  344.250    0.294    0.377   52.903    3.339 2207.270
  344.500    0.275    0.374   61.492    3.159 2238.980
  344.750    0.269    0.390   62.119    3.044 2249.580
  345.000    0.291    0.403   52.337    2.934 2211.620
  345.250    0.331    0.407   38.271    2.881 2144.110
  345.500    0.340    0.390   38.285    2.829 2129.390
  345.750    0.335    0.386   43.812    2.831 2137.870
  346.000    0.322    0.390   46.888    2.833 2159.030
  346.250    0.316    0.393   39.557    2.835 2169.630
  346.500    0.325    0.384   28.549    2.783 2154.900
  346.750    0.334    0.383   29.791    2.733 2138.050
  347.000    0.339    0.384   37.152    2.735 2129.660
  347.250    0.342    0.389   39.004    2.736 2125.480
  347.500    0.342    0.395   39.024    2.790 2125.520
  347.750    0.341    0.392   40.258    2.845 2127.680
  348.000    0.337    0.376   40.276    2.846 2134.050
  348.250    0.334    0.368   38.456    2.903 2138.330
  348.500    0.333    0.373   37.244    2.905 2140.480
  348.750    0.327    0.377   36.650    2.906 2151.090
  349.000    0.319    0.371   35.438    2.908 2163.810
  349.250    0.319    0.363   32.394    2.910 2163.840
  349.500    0.328    0.366   31.796    2.858 2149.110
  349.750    0.328    0.370   32.424    2.860 2149.160
  350.000    0.324    0.367   32.436    2.861 2155.540
  350.250    0.329    0.361   33.681    2.810 2147.140
  350.500    0.340    0.359   36.753    2.812 2128.180
  350.750    0.340    0.367   48.403    2.814 2128.230
  351.000    0.319    0.385   56.377    2.815 2164.170
  351.250    0.313    0.392   52.107    2.817 2174.770
  351.500    0.333    0.393   38.651    2.819 2141.030
  351.750    0.346    0.385   34.380    2.821 2117.860
  352.000    0.329    0.376   42.355    2.823 2147.460
  352.250    0.315    0.373   43.596    2.772 2170.740
  352.500    0.317    0.382   37.487    2.774 2168.660
  352.750    0.328    0.396   35.669    2.723 2149.710
  353.000    0.329    0.407   32.621    2.725 2147.640
  353.250    0.334    0.404   28.350    2.727 2139.240
  353.500    0.328    0.395   28.976    2.781 2149.850
  353.750    0.318    0.379   33.277    2.782 2166.780
  354.000    0.304    0.372   35.744    2.837 2190.050
  354.250    0.316    0.357   33.925    2.839 2168.980
  354.500    0.329    0.361   34.549    2.841 2147.920
  354.750    0.325    0.369   36.402    2.790 2154.310
  355.000    0.322    0.374   36.417    2.792 2158.570
  355.250    0.325    0.377   39.492    2.741 2154.400
  355.500    0.329    0.373   45.630    2.795 2148.100
  355.750    0.321    0.372   50.543    2.850 2160.810
  356.000    0.303    0.366   56.683    2.961 2192.530
  356.250    0.285    0.361   59.757    3.020 2222.130
  356.500    0.301    0.364   48.754    3.022 2194.730
  356.750    0.309    0.368   46.937    3.024 2182.110
  357.000    0.304    0.367   45.721    2.969 2190.600
  357.250    0.298    0.375   40.225    2.915 2201.200
  357.500    0.310    0.386   31.669    2.917 2180.130
  357.750    0.311    0.385   34.135    2.865 2178.080
  358.000    0.304    0.372   37.822    2.921 2190.790
  358.250    0.310    0.363   36.612    2.978 2180.280
  358.500    0.316    0.358   31.121    2.980 2169.760
  358.750    0.307    0.355   31.134    3.039 2184.590
