~VERSION INFORMATION
 VERS.                 2.0:   CWLS LOG ASCII STANDARD -VERSION 2.0
 WRAP.                  NO:   ONE LINE PER DEPTH STEP
~WELL INFORMATION BLOCK
#MNEM.UNIT           DATA                    DESCRIPTION OF MNEMONIC
#---------    -------------------            -------------------------------
# Generated from Intellog Unique Number	CW_79_81/WELL/198
WELL.         SCURRY ATKINSON MISTAHAE 07-14 : Well_name    - WELL
LOC .         00/07-14-079-02W5/0            : Location     - LOCATION
UWI .         00/07-14-079-02W5/0            : Uwi          - UNIQUE WELL ID
ENTR.         JJ                             : Entered      - ENTERED BY
SRVC.         WESTERN ATLAS                  : Scn          - SERVICE COMPANY
DATE.         30 JAN 73                      : Date         - LOG DATE
STRT.M        390.144                        : top_depth    - START DEPTH
STOP.M        518.144                        : bot_depth    - STOP DEPTH
STEP.M        0.25                           : increment    - STEP LENGTH
 NULL. -999.2500:NULL Value
~CURVE INFORMATION BLOCK
#MNEM UNIT       ERCB CURVE CODE    CURVE DESCRIPTION
#-----------   ------------------   ----------------------------------
DEPT.M        00 001 00 00         : DEPTH        - DEPTH
DELT.US/F     00 520 00 00         : DELT         - SONIC TRAVEL TIME
GR  .API      00 310 00 00         : GR           - GAMMA RAY
ILD .OHMM     00 120 00 00         : RESD         - DEEP RESISTIVITY (DIL)
~PARAMETER INFORMATION
#MNEM.UNIT           DATA             DESCRIPTION OF MNEMONIC
#---------         -----------     ------------------------------
GL  .M        607.771              : gl           - GROUND LEVEL ELEVATION
EREF.M        611.124              : kb           - ELEVATION OF DEPTH REFERENCE
DATM.M        611.124              : datum        - DATUM ELEVATION
TDD .M        519.684              : tdd          - TOTAL DEPTH DRILLER
RUN .         ONE                  : Run          - RUN NUMBER
ENG .         SENKIW               : Engineer     - RECORDING ENGINEER
WIT .         KIRKPATRICK          : Witness      - WITNESSED BY
BASE.         RED DEER             : Branch       - HOME BASE OF LOGGING UNIT
MUD .         GEL                  : Mud_type     - MUD TYPE
MATR.         SANDSTONE            : Logunit      - NEUTRON MATRIX
TMAX.C        24.4444              : BHT          - MAXIMUM RECORDED TEMPERATURE
BHTD.M        520.294              : BHTDEP       - MAXIMUM RECORDED TEMPERATURE
RMT .C        18.3333              : MDTP         - TEMPERATURE OF MUD
MUDD.KG/M     1116                 : MWT          - MUD DENSITY
NEUT.         1                    : NEUTRON      - NEUTRON TYPE
RESI.         0                    : RESIST       - RESISTIVITY TYPE
RM  .OHMM     4.8                  : RM           - RESISTIVITY OF MUD
RMC .OHMM     4.8                  : RMC          - RESISTIVITY OF MUD CAKE
RMF .OHMM     4.8                  : RMF          - RESISTIVITY OF MUD FILTRATE
SUFT.C        5                    : SUFT         - SURFACE TEMPERATURE
~A  DEPTH     DELT       GR     RESD
  390.144  391.809   69.654    9.770
  390.394  395.154   69.330    9.891
  390.644  392.043   70.718    9.846
  390.894  394.606   71.004    9.727
  391.144  402.323   70.618    9.607
  391.394  407.363   69.807    9.525
  391.644  403.535   71.744    9.423
  391.894  400.030   74.846    9.378
  392.144  398.290   75.928    9.480
  392.394  392.959   78.172    9.620
  392.644  383.585   73.627    9.794
  392.894  381.321   70.553    9.988
  393.144  386.232   74.261   10.107
  393.394  387.361   75.591   10.136
  393.644  386.663   75.756   10.108
  393.894  386.682   73.169    9.952
  394.144  386.962   72.172    9.852
  394.394  390.698   71.603    9.733
  394.644  396.523   76.233    9.597
  394.894  401.434   78.965    9.531
  395.144  404.518   75.400    9.411
  395.394  407.473   80.826    9.293
  395.644  402.339   84.355    9.227
  395.894  389.183   78.220    9.497
  396.144  377.135   72.023    9.818
  396.394  379.828   67.909   10.307
  396.644  377.631   65.078   10.703
  396.894  373.147   66.342   10.971
  397.144  383.930   67.181   10.925
  397.394  382.058   70.770   10.677
  397.644  375.162   76.806   10.428
  397.894  402.185   73.731   10.163
  398.144  401.682   69.125   10.137
  398.394  374.568   68.191   10.348
  398.644  384.305   66.765   10.799
  398.894  367.300   61.487   11.453
  399.144  381.081   61.589   11.868
  399.394  395.190   63.589   11.620
  399.644  398.797   65.895   11.077
  399.894  394.120   70.279   10.332
  400.144  393.030   75.095    9.899
  400.394  396.051   77.889    9.613
  400.644  393.201   76.769    9.623
  400.894  384.936   72.776   10.095
  401.144  380.714   67.438   10.731
  401.394  384.124   62.772   11.107
  401.644  392.101   59.939   11.062
  401.894  404.578   63.591   10.721
  402.144  401.859   68.159   10.252
  402.394  398.226   71.198    9.876
  402.644  394.721   68.122   10.032
  402.894  391.935   71.097   10.300
  403.144  387.260   70.225   10.384
  403.394  386.038   67.516   10.448
  403.644  377.643   69.944   10.440
  403.894  378.967   67.661   10.395
  404.144  378.205   63.792   10.348
  404.394  379.527   67.931   10.230
  404.644  383.202   68.220   10.165
  404.894  386.218   68.017   10.047
  405.144  395.303   69.220    9.981
  405.394  397.215   72.932    9.826
  405.644  397.233   69.796    9.762
  405.894  394.123   70.264    9.679
  406.144  384.879   70.124    9.634
  406.394  382.487   69.374    9.607
  406.644  382.962   69.048    9.598
  406.894  384.677   69.765    9.607
  407.144  382.087   65.344    9.672
  407.394  375.713   69.117    9.757
  407.644  371.426   71.055    9.877
  407.894  372.490   72.687   10.107
  408.144  374.987   75.115   10.393
  408.394  372.723   76.199   10.789
  408.644  375.156   77.646   11.461
  408.894  372.960   72.064   12.318
  409.144  373.760   61.526   13.507
  409.394  376.910   53.189   14.695
  409.644  371.906   48.831   16.049
  409.894  369.054   53.951   16.777
  410.144  372.205   56.317   16.492
  410.394  373.138   53.608   15.617
  410.644  375.439   54.994   14.742
  410.894  382.829   59.378   13.815
  411.144  381.218   65.596   13.454
  411.394  378.040   70.656   13.980
  411.644  374.538   64.401   14.505
  411.894  360.728   62.854   15.344
  412.144  361.074   60.389   16.257
  412.394  359.723   56.456   16.781
  412.644  360.590   59.496   16.091
  412.894  364.066   62.169   14.572
  413.144  368.912   61.843   13.679
  413.394  371.018   66.656   13.026
  413.644  373.516   66.884   12.206
  413.894  379.666   62.643   11.277
  414.144  386.862   61.526   10.679
  414.394  390.271   68.783   10.210
  414.644  395.443   68.767    9.962
  414.894  401.594   66.608    9.658
  415.144  400.895   71.786    9.245
  415.394  400.656   76.782    8.942
  415.644  402.827   75.296    8.766
  415.894  404.019   71.302    8.536
  416.144  405.734   69.268    8.509
  416.394  403.470   69.064    8.649
  416.644  395.597   64.827    8.878
  416.894  393.856   61.202    9.590
  417.144  396.875   58.309   10.058
  417.394  393.633   60.429   10.824
  417.644  389.478   63.898   11.367
  417.894  391.585   64.736   11.800
  418.144  392.258   61.720   11.865
  418.394  392.536   58.337   11.875
  418.644  391.967   56.914   11.847
  418.894  387.616   57.568   12.281
  419.144  376.806   58.955   12.990
  419.394  361.628   55.634   13.700
  419.644  355.646   51.213   14.446
  419.894  364.145   47.403   14.768
  420.144  351.184   53.194   14.096
  420.394  336.265   59.226   14.180
  420.644  333.089   60.864   14.761
  420.894  314.453   55.647   15.249
  421.144  288.838   52.078   15.111
  421.394  294.205   51.635   13.998
  421.644  317.511   52.898   12.239
  421.894  375.321   56.305   10.315
  422.144  392.561   58.675    9.661
  422.394  394.799   59.142    9.377
  422.644  385.750   60.286    9.294
  422.894  391.770   65.529    9.343
  423.144  397.138   65.266    9.313
  423.394  393.505   68.549    9.324
  423.644  387.327   68.099    9.352
  423.894  389.889   66.740    9.437
  424.144  387.499   67.944    9.501
  424.394  388.298   69.088    9.547
  424.644  390.860   64.484    9.612
  424.894  388.139   62.202    9.639
  425.144  385.746   68.114    9.650
  425.394  381.720   67.852    9.697
  425.644  380.956   67.529    9.651
  425.894  382.868   68.610    9.550
  426.144  383.475   68.345    9.485
  426.394  384.601   70.102    9.531
  426.644  377.578   76.016    9.689
  426.894  375.705   72.695   10.694
  427.144  374.224   76.346   11.733
  427.394  370.655   76.323   13.309
  427.644  364.607   75.454   14.681
  427.894  363.388   71.949   16.458
  428.144  368.167   66.488   15.087
  428.394  366.296   74.296   12.869
  428.644  362.140   72.872   11.294
  428.894  377.291   73.036   10.088
  429.144  365.439   75.954   10.651
  429.394  349.152   73.306   11.746
  429.644  346.041   68.393   15.108
  429.894  256.894   65.746   20.716
  430.144  247.129   65.729   23.654
  430.394  238.865   60.574   23.535
  430.644  242.927   52.361   21.832
  430.894  309.608   51.608   18.747
  431.144  372.833   55.380   13.969
  431.394  376.179   63.373   11.787
  431.644  377.437   70.144   11.575
  431.894  375.565   69.452   12.065
  432.144  357.450   68.208   12.810
  432.394  339.597   64.217   12.617
  432.644  358.338   65.052   12.093
  432.894  355.160   66.994   11.605
  433.144  353.875   70.644   11.155
  433.394  352.197   75.029   10.870
  433.644  358.283   73.237   10.624
  433.894  372.980   69.918   10.505
  434.144  375.477   69.286   10.456
  434.394  364.014   71.099   10.540
  434.644  354.838   75.732   10.624
  434.894  350.159   72.167   10.689
  435.144  359.572   69.703   10.716
  435.394  369.244   67.603   10.652
  435.644  374.482   67.462   10.552
  435.894  372.543   69.827   10.340
  436.144  370.084   71.707   10.240
  436.394  374.148   73.887   10.211
  436.644  374.755   75.586    9.982
  436.894  372.948   74.952    9.698
  437.144  370.683   71.267    9.487
  437.394  371.811   67.946    9.405
  437.644  376.462   65.177    9.379
  437.894  372.436   63.813    9.296
  438.144  373.694   71.988    9.248
  438.394  380.562   73.193    9.166
  438.644  369.689   68.099    9.177
  438.894  359.011   68.627    9.131
  439.144  378.010   70.692    9.028
  439.394  390.230   73.608    8.874
  439.644  384.835   72.917    8.974
  439.894  386.548   70.758    9.925
  440.144  386.830   74.165   10.817
  440.394  376.543   68.520   12.410
  440.644  388.758   66.606   14.870
  440.894  388.126   69.524   17.109
  441.144  384.950   68.583   18.591
  441.394  377.205   68.139   20.774
  441.644  378.334   68.732   21.852
  441.894  369.676   70.550   21.881
  442.144  354.563   73.284   21.540
  442.394  342.777   63.420   20.979
  442.644  362.430   54.900   20.896
  442.894  368.252   55.067   21.992
  443.144  366.249   59.329   24.506
  443.394  365.357   55.577   28.181
  443.644  362.114   57.212   29.830
  443.894  355.871   61.349   30.502
  444.144  343.042   61.761   29.812
