~VERSION INFORMATION
 VERS.                 2.0:   CWLS LOG ASCII STANDARD -VERSION 2.0
 WRAP.                  NO:   ONE LINE PER DEPTH STEP
~WELL INFORMATION BLOCK
#MNEM.UNIT           DATA                    DESCRIPTION OF MNEMONIC
#---------    -------------------            -------------------------------
# Generated from Intellog Unique Number	CC_80_83/WELL/2305
NULL.         -999.25                        : NULL_VALUE
WELL.         HOMESTEAD ET AL COWPAR         : WELL_NAME
LOC .         07-29-080-04W4                 : Location     - LOCATION          
UWI .         00/07-29-080-04W400            : Uwi          - UNIQUE WELL ID    
ENTR.         DW                             : Entered      - ENTERED BY        
SRVC.         SCHLUMBERGER                   : Scn          - SERVICE COMPANY   
DATE.         18 JAN 74                      : Date         - LOG DATE
STRT.M        64.008                         : top_depth    - START DEPTH       
STOP.M        277.367                        : bot_depth    - STOP DEPTH        
STEP.M        0.3048                         : increment    - STEP LENGTH       
~CURVE INFORMATION BLOCK
#MNEM UNIT       ERCB CURVE CODE    CURVE DESCRIPTION
#-----------   ------------------   ----------------------------------
DEPT.M        00 001 00 00         : DEPTH        - DEPTH                       
DPHI.V/V      00 890 00 00         : PHID         - DENSITY POROSITY (LIMESTONE)
GR  .API      00 310 00 00         : GR           - GAMMA RAY                   
NPHI.V/V      00 330 00 00         : PHIN         - NEUTRON POROSITY (LIMESTONE)
ILD .OHMM     00 120 00 00         : RESD         - DEEP RESISTIVITY (DIL)      
~PARAMETER INFORMATION       
#MNEM.UNIT           DATA             DESCRIPTION OF MNEMONIC
#---------         -----------     ------------------------------
GL  .M        461.498              : gl           - GROUND LEVEL ELEVATION      
EREF.M        465.033              : kb           - ELEVATION OF DEPTH REFERENCE
DATM.M        465.033              : datum        - DATUM ELEVATION             
TDD .M        292.608              : tdd          - TOTAL DEPTH DRILLER         
RUN .         ONE                  : Run          - RUN NUMBER                  
ENG .         BILL                 : Engineer     - RECORDING ENGINEER          
WIT .         JIM                  : Witness      - WITNESSED BY                
MUD .         GEL                  : Mud_type     - MUD TYPE                    
MATR.         LIMESTONE            : Logunit      - NEUTRON MATRIX              
TMAX.C        25                   : BHT          - MAXIMUM RECORDED TEMPERATURE
BHTD.M        292.608              : BHTDEP       - MAXIMUM RECORDED TEMPERATURE
MATR.         1                    : LOGUNIT      - NEUTRON MATRIX              
RMT .C        25                   : MDTP         - TEMPERATURE OF MUD          
NEUT.         0                    : NEUTRON      - NEUTRON TYPE                
RESI.         0                    : RESIST       - RESISTIVITY TYPE            
RMC .OHMM     0.25                 : RMC          - RESISTIVITY OF MUD CAKE     
RMF .OHMM     0.25                 : RMF          - RESISTIVITY OF MUD FILTRATE 
SUFT.C        15                   : SUFT         - SURFACE TEMPERATURE         
~A  DEPTH     PHID       GR     PHIN     RESD
# ...
  223.112    0.324   60.113    0.363    1.635
  223.417    0.302   56.489    0.323    1.762
  223.722    0.348   37.526    0.356    1.762
  224.027    0.374   29.059    0.362    1.762
  224.331    0.372   33.911    0.360    1.636
  224.636    0.364   40.379    0.347    1.464
  224.941    0.358   41.598    0.328    1.385
  225.246    0.356   46.046    0.351    1.411
  225.551    0.343   47.264    0.356    1.492
  225.855    0.312   42.431    0.321    1.668
  226.160    0.312   45.668    0.302    2.009
  226.465    0.312   37.605    0.316    2.164
  226.770    0.348   27.926    0.332    1.973
  227.075    0.376   24.302    0.341    1.639
  227.379    0.385   26.328    0.351    1.336
  227.684    0.393   32.392    0.364    1.241
  227.989    0.396   40.876    0.370    1.241
  228.294    0.366   57.434    0.373    1.312
  228.599    0.341   63.497    0.376    1.413
  228.903    0.316   60.679    0.386    1.702
  229.208    0.329   38.892    0.375    1.975
  229.513    0.366   33.654    0.368    2.050
  229.818    0.398   29.223    0.372    1.869
  230.122    0.377   26.811    0.370    1.641
  230.427    0.377   26.415    0.373    1.415
  230.732    0.380   30.863    0.375    1.266
  231.037    0.362   36.926    0.384    1.198
  231.342    0.360   45.008    0.397    1.266
  231.646    0.370   44.612    0.391    1.364
  231.951    0.381   35.339    0.370    1.443
  232.256    0.383   35.346    0.382    1.470
  232.561    0.382   39.794    0.399    1.443
  232.866    0.351   48.279    0.387    1.391
  233.170    0.323   52.730    0.371    1.471
  233.475    0.300   49.912    0.348    1.584
  233.780    0.294   42.655    0.286    1.873
  234.085    0.305   37.820    0.279    1.980
  234.390    0.332   41.864    0.307    1.980
  234.694    0.335   54.387    0.335    1.805
  234.999    0.315   55.605    0.328    1.676
  235.304    0.317   48.752    0.306    1.677
  235.609    0.306   47.550    0.287    1.740
  235.914    0.318   67.336    0.312    1.773
  236.218    0.257   72.592    0.332    1.982
  236.523    0.218   77.847    0.313    2.176
  236.828    0.217   81.489    0.281    2.822
  237.133    0.213   84.323    0.286    3.660
  237.438    0.218   85.139    0.287    4.490
  237.742    0.239   75.056    0.279    4.661
  238.047    0.282   56.498    0.287    4.492
  238.352    0.317   58.929    0.304    3.872
  238.657    0.312   33.912    0.325    2.480
  238.962    0.336   29.885    0.357    1.809
  239.266    0.363   48.864    0.366    1.531
  239.571    0.347   50.487    0.363    1.395
  239.876    0.342   34.351    0.386    1.345
  240.181    0.359   26.286    0.382    1.370
  240.486    0.382   27.910    0.361    1.370
  240.790    0.369   30.746    0.370    1.371
  241.095    0.360   34.790    0.369    1.346
  241.400    0.354   36.815    0.369    1.321
  241.705    0.356   33.998    0.356    1.321
  242.009    0.365   26.742    0.353    1.322
  242.314    0.377   27.155    0.367    1.347
  242.619    0.383   27.163    0.373    1.347
  242.924    0.383   29.595    0.370    1.322
  243.229    0.380   35.253    0.375    1.298
  243.533    0.381   40.509    0.366    1.323
  243.838    0.363   43.343    0.364    1.425
  244.143    0.348   32.856    0.365    1.593
  244.448    0.369   27.618    0.367    1.716
  244.753    0.366   32.068    0.370    1.716
  245.057    0.372   35.306    0.375    1.685
  245.362    0.365   34.507    0.372    1.624
  245.667    0.364   28.864    0.341    1.565
  245.972    0.375   31.295    0.345    1.400
  246.277    0.354   32.515    0.354    1.349
  246.581    0.349   38.174    0.355    1.300
  246.886    0.345   43.429    0.388    1.350
  247.191    0.328   48.281    0.355    1.401
  247.496    0.316   53.133    0.357    1.566
  247.801    0.319   49.510    0.349    1.852
  248.105    0.314   52.747    0.343    1.958
  248.410    0.301   58.810    0.345    2.149
  248.715    0.301   60.434    0.342    2.231
  249.020    0.298   59.232    0.348    2.359
  249.325    0.279   54.801    0.354    2.403
  249.629    0.282   58.442    0.329    2.404
  249.934    0.266   61.275    0.312    2.495
  250.239    0.255   54.826    0.304    2.450
  250.544    0.278   59.274    0.318    2.496
  250.849    0.262   78.253    0.328    2.739
  251.153    0.218   81.088    0.322    3.120
  251.458    0.223   77.463    0.311    3.424
  251.763    0.248   70.610    0.322    3.424
  252.068    0.271   60.527    0.338    3.064
  252.372    0.316   50.042    0.366    2.452
  252.677    0.327   40.363    0.354    2.075
  252.982    0.379   30.686    0.340    1.724
  253.287    0.392   34.327    0.360    1.432
  253.592    0.362   46.040    0.358    1.355
  253.896    0.342   56.139    0.350    1.355
  254.201    0.350   59.377    0.346    1.487
  254.506    0.323   62.211    0.345    1.572
  254.811    0.316   65.853    0.345    1.824
  255.116    0.300   49.716    0.344    1.965
  255.420    0.297   40.441    0.310    2.117
  255.725    0.340   52.559    0.316    2.003
  256.030    0.317   72.345    0.343    1.895
  256.335    0.281   71.142    0.338    1.967
  256.640    0.295   54.603    0.319    2.240
  256.944    0.325   37.660    0.329    2.282
  257.249    0.359   36.053    0.349    1.760
  257.554    0.359   39.291    0.359    1.462
  257.859    0.331   51.409    0.372    1.462
  258.164    0.304   59.087    0.358    1.635
  258.469    0.282   60.306    0.349    1.969
  258.773    0.270   57.086    0.342    2.284
  259.078    0.276   55.075    0.328    2.461
  259.383    0.271   57.104    0.306    2.752
  259.688    0.263   59.936    0.311    2.752
  259.993    0.264   63.981    0.341    2.702
  260.297    0.296   66.009    0.330    2.329
  260.602    0.294   58.751    0.329    2.084
  260.907    0.298   44.229    0.313    2.046
  261.212    0.333   56.751    0.336    2.123
  261.517    0.305   73.711    0.323    2.374
  261.821    0.263   82.599    0.317    2.511
  262.126    0.257   84.223    0.323    2.755
  262.431    0.297   70.911    0.337    2.756
  262.736    0.336   66.078    0.359    2.559
  263.041    0.306   61.646    0.398    2.376
  263.345    0.280   67.709    0.345    2.207
  263.650    0.267   55.205    0.318    2.248
  263.955    0.309   44.316    0.318    2.291
  264.260    0.317   61.680    0.349    2.334
  264.565    0.288   76.219    0.335    2.378
  264.870    0.265   73.808    0.328    2.562
  265.174    0.260   66.953    0.325    2.918
  265.479    0.267   53.642    0.310    2.760
  265.784    0.301   39.523    0.309    2.293
  266.089    0.323   28.634    0.336    1.977
  266.394    0.356   15.323    0.326    1.496
  266.698    0.344   20.578    0.320    1.266
  267.003    0.301   41.172    0.313    1.266
  267.308    0.263   66.609    0.299    1.554
  267.613    0.241   71.462    0.281    1.803
  267.918    0.189   61.785    0.259    2.614
  268.222    0.206   61.389    0.296    4.316
  268.527    0.205   63.012    0.259    5.394
  268.832    0.219   64.231    0.250    5.496
  269.137    0.218   61.417    0.246    5.297
  269.442    0.207   62.635    0.251    5.200
  269.746    0.189   72.733    0.264    5.012
  270.051    0.189   89.694    0.276    4.830
  270.356    0.199   98.180    0.287    4.742
  270.661    0.193  101.014    0.318    4.569
  270.966    0.216  104.251    0.342    4.403
  271.271    0.211  106.277    0.354    4.165
  271.575    0.222  105.883    0.365    3.797
  271.880    0.217  108.718    0.393    3.526
  272.185    0.219  108.321    0.439    3.274
  272.490    0.267  103.890    0.457    2.984
  272.795    0.261   88.964    0.432    2.929
  273.099    0.235   72.828    0.421    2.930
  273.404    0.203   66.378    0.415    3.098
  273.709    0.267   46.609    0.446    3.216
  274.014    0.279   39.756    0.431    2.986
  274.319    0.279   59.946    0.389    2.722
  274.623    0.258   73.274    0.277    2.825
  274.928    0.218   72.073    0.283    3.531
  275.233    0.182   47.460    0.326    4.413
  275.538    0.157   36.571    0.334    5.724
  275.843    0.113   33.350    0.240    7.850
