~VERSION INFORMATION
 VERS.                 2.0:   CWLS LOG ASCII STANDARD -VERSION 2.0
 WRAP.                  NO:   ONE LINE PER DEPTH STEP
~WELL INFORMATION BLOCK
#MNEM.UNIT           DATA                    DESCRIPTION OF MNEMONIC
#---------    -------------------            -------------------------------
# Generated from Intellog Unique Number	CS_71_72/WELL/783
WELL.         BRENDA IPIATIK                 : Well_name    - WELL
LOC .         00/06-30-071-09W4/0            : Location     - LOCATION
UWI .         00/06-30-071-09W4/0            : Uwi          - UNIQUE WELL ID
ENTR.         SP                             : Entered      - ENTERED BY
SRVC.         SCHLUMBERGER                   : Scn          - SERVICE COMPANY
STRT.M        320                            : top_depth    - START DEPTH
STOP.M        525                            : bot_depth    - STOP DEPTH
STEP.M        0.25                           : increment    - STEP LENGTH
 NULL. -999.2500:NULL Value
~CURVE INFORMATION BLOCK
#MNEM UNIT       ERCB CURVE CODE    CURVE DESCRIPTION
#-----------   ------------------   ----------------------------------
DEPT.M        00 001 00 00         : DEPTH        - DEPTH
ILD .OHMM     00 120 00 00         : RESD         - DEEP RESISTIVITY (DIL)
DPHI.V/V      00 890 00 00         : PHID         - DENSITY POROSITY (LIMESTONE)
NPHI.V/V      00 330 00 00         : PHIN         - NEUTRON POROSITY (LIMESTONE)
GR  .API      00 310 00 00         : GR           - GAMMA RAY
~PARAMETER INFORMATION
#MNEM.UNIT           DATA             DESCRIPTION OF MNEMONIC
#---------         -----------     ------------------------------
GL  .M        678.5                : gl           - GROUND LEVEL ELEVATION
EREF.M        6810.4               : kb           - ELEVATION OF DEPTH REFERENCE
DATM.M        678.5                : datum        - DATUM ELEVATION
TDD .M        539                  : tdd          - TOTAL DEPTH DRILLER
RUN .         ONE                  : Run          - RUN NUMBER
ENG .         BILL                 : Engineer     - RECORDING ENGINEER
WIT .         JIM                  : Witness      - WITNESSED BY
MUD .         GEL                  : Mud_type     - MUD TYPE
MATR.         LIMESTONE            : Logunit      - NEUTRON MATRIX
TMAX.C        22                   : BHT          - MAXIMUM RECORDED TEMPERATURE
BHTD.M        539                  : BHTDEP       - MAXIMUM RECORDED TEMPERATURE
MATR.         1                    : LOGUNIT      - NEUTRON MATRIX
RMT .C        25                   : MDTP         - TEMPERATURE OF MUD
NEUT.         1                    : NEUTRON      - NEUTRON TYPE
RESI.         0                    : RESIST       - RESISTIVITY TYPE
RMC .OHMM     0.25                 : RMC          - RESISTIVITY OF MUD CAKE
RMF .OHMM     0.25                 : RMF          - RESISTIVITY OF MUD FILTRATE
SUFT.C        15                   : SUFT         - SURFACE TEMPERATURE
~A  DEPTH     RESD     PHID     PHIN       GR
# ...
  407.000   17.983    0.340    0.441   56.160
  407.250   17.988    0.332    0.433   55.314
  407.500   17.993    0.318    0.426   54.591
  407.750   17.963    0.313    0.434   54.232
  408.000   17.899    0.311    0.440   54.606
  408.250   17.769    0.316    0.440   55.775
  408.500   17.739    0.317    0.436   57.371
  408.750   17.645    0.322    0.430   59.823
  409.000   17.583    0.332    0.428   61.478
  409.250   17.553    0.330    0.433   58.312
  409.500   17.362    0.325    0.446   56.305
  409.750   17.331    0.323    0.455   55.032
  410.000   17.110    0.318    0.442   54.857
  410.250   16.985    0.324    0.426   56.025
  410.500   16.861    0.328    0.417   56.339
  410.750   16.616    0.329    0.422   56.836
  411.000   16.587    0.330    0.424   58.006
  411.250   16.436    0.334    0.427   60.029
  411.500   16.347    0.335    0.431   62.601
  411.750   16.352    0.334    0.434   63.951
  412.000   16.325    0.332    0.430   62.068
  412.250   16.359    0.327    0.429   60.185
  412.500   16.363    0.328    0.435   58.545
  412.750   16.461    0.331    0.440   57.335
  413.000   16.528    0.327    0.444   58.134
  413.250   16.499    0.322    0.441   60.950
  413.500   16.501    0.315    0.436   63.583
  413.750   16.261    0.308    0.433   65.424
  414.000   15.486    0.306    0.439   66.959
  414.250   14.178    0.310    0.440   68.003
  414.500   13.944    0.297    0.430   67.340
  414.750   14.320    0.282    0.420   64.725
  415.000   14.623    0.280    0.419   64.061
  415.250   15.018    0.311    0.437   65.535
  415.500   15.163    0.336    0.462   67.497
  415.750   15.252    0.333    0.443   68.055
  416.000   15.256    0.329    0.447   68.186
  416.250   15.259    0.324    0.448   67.827
  416.500   15.093    0.314    0.441   66.064
  416.750   14.954    0.324    0.444   64.304
  417.000   14.654    0.318    0.451   64.555
  417.250   14.655    0.322    0.445   65.907
  417.500   14.576    0.324    0.436   66.282
  417.750   14.525    0.320    0.430   64.397
  418.000   14.392    0.320    0.426   62.879
  418.250   14.233    0.314    0.440   63.437
  418.500   14.077    0.304    0.454   64.483
  418.750   13.870    0.307    0.451   64.126
  419.000   13.487    0.318    0.440   64.013
  419.250   12.944    0.319    0.436   64.388
  419.500   12.587    0.321    0.440   65.740
  419.750   12.401    0.318    0.443   68.192
  420.000   12.173    0.308    0.451   69.970
  420.250   11.682    0.302    0.457   71.015
  420.500   10.838    0.298    0.444   70.473
  420.750    9.502    0.297    0.434   69.260
  421.000    7.713    0.287    0.443   73.175
  421.250    6.537    0.274    0.445   77.152
  421.500    5.743    0.254    0.444   81.312
  421.750    5.180    0.227    0.446   86.326
  422.000    4.841    0.219    0.449   90.852
  422.250    4.699    0.224    0.451   92.204
  422.500    4.853    0.223    0.451   92.214
  422.750    5.117    0.225    0.446   90.696
  423.000    5.415    0.227    0.455   89.299
  423.250    5.785    0.233    0.465   87.659
  423.500    5.986    0.239    0.466   86.752
  423.750    6.311    0.238    0.455   88.164
  424.000    6.555    0.242    0.467   91.470
  424.250    6.821    0.244    0.480   94.593
  424.500    6.991    0.238    0.478   96.614
  424.750    7.086    0.233    0.464   98.516
  425.000    7.101    0.227    0.450   99.746
  425.250    7.103    0.225    0.446   99.938
  425.500    7.051    0.227    0.446   99.456
  425.750    6.974    0.227    0.439   98.305
  426.000    6.871    0.215    0.429   97.336
  426.250    6.644    0.222    0.439   97.588
  426.500    6.436    0.227    0.443   99.917
  426.750    6.425    0.218    0.445  101.513
  427.000    6.624    0.218    0.451   99.324
  427.250    6.738    0.226    0.452   96.708
  427.500    6.868    0.222    0.447   95.007
  427.750    6.987    0.226    0.442   95.075
  428.000    7.095    0.216    0.434   97.710
  428.250    7.177    0.187    0.419   98.877
  428.500    7.274    0.103    0.389   94.184
  428.750    7.456    0.037    0.240   85.219
  429.000    7.542    0.042    0.245   76.131
  429.250    7.674    0.074    0.251   72.720
  429.500    7.733    0.141    0.321   81.947
  429.750    7.749    0.182    0.387   89.098
  430.000    7.722    0.176    0.407   93.624
  430.250    7.696    0.174    0.416   94.183
  430.500    7.712    0.178    0.423   92.605
  430.750    7.758    0.187    0.426   91.514
  431.000    7.788    0.180    0.428   90.546
  431.250    7.954    0.170    0.428   90.250
  431.500    8.030    0.171    0.423   90.439
  431.750    8.092    0.174    0.419   91.180
  432.000    8.234    0.180    0.412   92.777
  432.250    8.359    0.190    0.405   93.639
  432.500    8.456    0.191    0.401   91.511
  432.750    8.506    0.187    0.403   89.748
  433.000    8.590    0.187    0.410   92.016
  433.250    8.591    0.194    0.416   93.612
  433.500    8.577    0.201    0.422   92.399
  433.750    8.515    0.220    0.431   88.012
  434.000    8.549    0.231    0.435   87.043
  434.250    8.583    0.212    0.429   91.569
  434.500    8.748    0.194    0.417   95.241
  434.750    9.000    0.186    0.412   97.203
  435.000    9.208    0.181    0.420   96.600
  435.250    9.228    0.182    0.421   96.365
  435.500    9.092    0.192    0.416   96.496
  435.750    8.627    0.203    0.422   95.282
  436.000    7.989    0.200    0.438   97.794
  436.250    7.524    0.210    0.448  100.306
  436.500    7.033    0.205    0.455  103.124
  436.750    6.561    0.211    0.448  104.047
  437.000    5.731    0.215    0.451  103.261
  437.250    4.282    0.217    0.465  104.735
  437.500    3.273    0.240    0.489  106.513
  437.750    2.455    0.250    0.517  108.232
  438.000    2.277    0.225    0.538  108.667
  438.250    2.173    0.210    0.560  105.135
  438.500    2.236    0.216    0.611  101.420
  438.750    2.420    0.233    0.603  100.328
  439.000    2.660    0.231    0.568  103.756
  439.250    2.923    0.221    0.536  106.146
  439.500    3.242    0.219    0.512  105.421
  439.750    3.583    0.211    0.510  102.072
  440.000    3.960    0.221    0.493   99.577
  440.250    4.426    0.249    0.466   97.632
  440.500    4.873    0.237    0.451   97.947
  440.750    5.109    0.225    0.444   98.811
  441.000    5.296    0.218    0.451   99.245
  441.250    5.307    0.214    0.465   99.070
  441.500    5.220    0.237    0.476   97.368
  441.750    5.182    0.258    0.488   93.958
  442.000    5.262    0.271    0.505   92.075
  442.250    5.475    0.282    0.501   87.993
  442.500    5.644    0.288    0.485   84.155
  442.750    5.928    0.290    0.467   80.501
  443.000    6.181    0.292    0.459   78.005
  443.250    6.287    0.302    0.453   76.915
  443.500    6.373    0.306    0.447   76.312
  443.750    6.326    0.299    0.446   76.138
  444.000    6.198    0.291    0.440   77.612
  444.250    5.982    0.291    0.449   80.981
  444.500    5.795    0.294    0.454   82.573
  444.750    5.645    0.287    0.455   84.963
  445.000    5.636    0.295    0.459   84.300
  445.250    5.843    0.271    0.443   80.157
  445.500    6.617    0.232    0.410   74.915
  445.750    7.607    0.155    0.258   69.489
  446.000    8.423    0.086    0.256   64.919
  446.250    8.998    0.187    0.270   64.744
  446.500    9.103    0.248    0.314   69.944
  446.750    7.966    0.269    0.430   72.637
  447.000    7.349    0.277    0.441   76.983
  447.250    6.742    0.272    0.444   78.698
  447.500    6.543    0.262    0.449   81.271
  447.750    6.410    0.253    0.439   83.293
  448.000    6.292    0.247    0.433   85.804
  448.250    6.294    0.244    0.433   89.171
  448.500    6.355    0.242    0.439   93.086
  448.750    6.514    0.247    0.440   93.155
  449.000    6.614    0.256    0.436   88.587
  449.250    6.754    0.256    0.438   87.556
  449.500    6.897    0.249    0.442   89.213
  449.750    6.951    0.244    0.441   91.420
  450.000    6.953    0.237    0.443   92.770
  450.250    6.851    0.237    0.445   93.694
