~VERSION INFORMATION
 VERS.                 2.0:   CWLS LOG ASCII STANDARD -VERSION 2.0
 WRAP.                  NO:   ONE LINE PER DEPTH STEP
~WELL INFORMATION BLOCK
#MNEM.UNIT           DATA                    DESCRIPTION OF MNEMONIC
#---------    -------------------            -------------------------------
# Generated from Intellog Unique Number	CS_73_76/WELL/2811
WELL.         ESSO RESOURCES CANADA LTD.     : Well_name    - WELL
LOC .         00/06-32-075-04W4/0            : Location     - LOCATION
UWI .         00/06-32-075-04W4/0            : Uwi          - UNIQUE WELL ID
ENTR.         JOETTE                         : Entered      - ENTERED BY
SRVC.         COMPUTALOG                     : Scn          - SERVICE COMPANY
DATE.         05/22/92                       : Date         - LOG DATE
STRT.M        200                            : top_depth    - START DEPTH
STOP.M        450                            : bot_depth    - STOP DEPTH
STEP.M        0.25                           : increment    - STEP LENGTH
 NULL. -999.2500:NULL Value
~CURVE INFORMATION BLOCK
#MNEM UNIT       ERCB CURVE CODE    CURVE DESCRIPTION
#-----------   ------------------   ----------------------------------
DEPT.M        00 001 00 00         : DEPTH        - DEPTH
ILD .OHMM     00 120 00 00         : RESD         - DEEP RESISTIVITY (DIL)
RHOB.KG/M3    00 350 00 00         : DENS         - BULK DENSITY
NPHI.V/V      00 330 00 00         : PHIN         - NEUTRON POROSITY (SANDSTONE)
GR  .API      00 310 00 00         : GR           - GAMMA RAY
~PARAMETER INFORMATION
#MNEM.UNIT           DATA             DESCRIPTION OF MNEMONIC
#---------         -----------     ------------------------------
GL  .M        598.7                : gl           - GROUND LEVEL ELEVATION
EREF.M        602.4                : kb           - ELEVATION OF DEPTH REFERENCE
DATM.M        602.4                : datum        - DATUM ELEVATION
TDD .M        456.6                : tdd          - TOTAL DEPTH DRILLER
RUN .         ONE                  : Run          - RUN NUMBER
ENG .         BILL                 : Engineer     - RECORDING ENGINEER
WIT .         JIM                  : Witness      - WITNESSED BY
MUD .         GEL                  : Mud_type     - MUD TYPE
MATR.         SANDSTONE            : Logunit      - NEUTRON MATRIX
TMAX.C        32                   : BHT          - MAXIMUM RECORDED TEMPERATURE
BHTD.M        456.6                : BHTDEP       - MAXIMUM RECORDED TEMPERATURE
MATR.         1                    : LOGUNIT      - NEUTRON MATRIX
RMT .C        19.7                 : MDTP         - TEMPERATURE OF MUD
NEUT.         1                    : NEUTRON      - NEUTRON TYPE
RESI.         0                    : RESIST       - RESISTIVITY TYPE
RMC .OHMM     6.4                  : RMC          - RESISTIVITY OF MUD CAKE
RMF .OHMM     4.2                  : RMF          - RESISTIVITY OF MUD FILTRATE
SUFT.C        5                    : SUFT         - SURFACE TEMPERATURE
~A  DEPTH     RESD     DENS     PHIN       GR
# ...
  417.500   10.522 2218.890    0.396   64.009
  417.750   10.335 2231.070    0.404   59.820
  418.000    9.598 2273.390    0.399   64.585
  418.250    9.252 2325.770    0.369   70.293
  418.500    8.280 2345.960    0.394   73.644
  418.750    7.833 2350.180    0.424   77.951
  419.000    7.410 2348.390    0.430   80.831
  419.250    7.145 2352.660    0.444   80.884
  419.500    7.020 2286.740    0.437   78.580
  419.750    7.028 2290.960    0.398   75.818
  420.000    7.172 2315.210    0.411   78.214
  420.250    7.457 2357.530    0.417   81.565
  420.500    7.605 2361.750    0.417   84.000
  420.750    7.908 2323.860    0.411   83.582
  421.000    8.065 2310.110    0.410   79.393
  421.250    8.233 2316.330    0.409   77.063
  421.500    8.394 2320.550    0.406   76.186
  421.750    8.893 2326.780    0.397   77.168
  422.000    9.781 2337.060    0.396   75.807
  422.250   10.557 2216.970    0.398   62.194
  422.500   11.391 2092.980    0.390   50.452
  422.750   11.408 2109.210    0.376   40.609
  423.000   10.203 2193.580    0.365   46.788
  423.250    9.299 2251.920    0.361   56.749
  423.500    8.475 2314.260    0.370   64.342
  423.750    7.870 2328.550    0.380   73.361
  424.000    7.309 2322.760    0.392   76.712
  424.250    7.317 2330.980    0.409   78.650
  424.500    8.200 2335.200    0.426   81.530
  424.750   10.883 2179.120    0.415   63.191
  425.000   16.475 2137.280    0.375   40.611
  425.250   29.545 2147.560    0.362   28.411
  425.500   34.389 2151.680    0.353   23.751
  425.750   33.788 2147.890    0.340   23.333
  426.000   30.211 2136.140    0.324   22.443
  426.250   26.024 2136.360    0.352   22.967
  426.500   17.896 2134.570    0.363   26.802
  426.750   16.930 2152.860    0.338   27.797
  427.000   15.142 2153.070    0.328   28.793
  427.250   12.801 2113.130    0.363   31.201
  427.500   11.233 2075.300    0.382   33.597
  427.750    7.303 2045.480    0.404   29.880
  428.000    6.778 2033.680    0.405   28.990
  428.250    5.950 2025.830    0.397   31.412
  428.500    4.844 2008.020    0.398   30.522
  428.750    4.498 2002.290    0.431   31.046
  429.000    4.026 2008.450    0.435   33.454
  429.250    3.880 2034.750    0.422   40.576
  429.500    3.671 2071.010    0.394   73.641
  429.750    3.411 2291.650    0.384   84.546
  430.000    3.351 2243.860    0.374   54.884
  430.250    3.292 2256.040    0.365   53.536
  430.500    3.295 2314.430    0.374   57.830
  430.750    3.238 2320.650    0.385   60.710
  431.000    3.244 2314.810    0.371   61.233
  431.250    3.246 2252.890    0.350   58.472
  431.500    3.250 2255.110    0.326   54.741
  431.750    3.253 2271.450    0.337   51.967
  432.000    3.258 2249.590    0.350   54.375
  432.250    3.324 2289.850    0.347   44.545
  432.500    3.327 2344.180    0.379   45.056
  432.750    3.459 2340.390    0.402   59.717
  433.000    3.597 2242.440    0.418   75.805
  433.250    3.599 2248.660    0.409   73.030
  433.500    3.604 2294.930    0.399   64.600
  433.750    3.676 2333.240    0.406   56.157
  434.000    3.751 2361.490    0.423   68.004
  434.250    3.826 2367.820    0.421   80.793
  434.500    3.978 2382.000    0.412   85.087
  434.750    4.057 2394.230    0.416   89.394
  435.000    4.380 2404.460    0.430   94.630
  435.250    4.553 2396.660    0.436   99.866
  435.500    4.734 2396.930    0.430   94.735
  435.750    4.740 2397.140    0.427   90.076
  436.000    4.569 2361.260    0.426   87.301
  436.250    4.166 2141.050    0.427   79.800
  436.500    3.796 2089.200    0.416   61.461
  436.750    3.394 2063.390    0.409   31.812
  437.000    2.870 2063.550    0.401   25.726
  437.250    2.472 2059.760    0.412   22.964
  437.500    2.211 2031.940    0.414   23.030
  437.750    2.053 2048.230    0.409   24.012
  438.000    1.980 2050.390    0.403   23.135
  438.250    1.909 2054.660    0.410   22.716
  438.500    2.061 2237.200    0.399   24.183
  438.750    2.266 2181.300    0.397   27.521
  439.000    3.562 2157.480    0.542   37.483
  439.250    3.918 2239.850    0.567   63.938
  439.500    5.931 2456.490    0.437   56.451
  439.750    8.811 2506.820    0.319   34.813
  440.000   11.480 2521.050    0.303   27.312
  440.250   13.870 2539.340    0.286   22.653
  440.500   14.691 2517.470    0.280   22.705
  440.750   14.713 2509.680    0.298   27.012
  441.000   14.187 2501.940    0.312   29.905
  441.250   13.178 2496.140    0.360   31.830
  441.500   12.235 2486.350    0.371   34.710
  441.750   11.147 2474.490    0.384   39.017
  442.000    9.605 2458.690    0.394   40.483
  442.250    8.920 2440.880    0.401   41.478
  442.500    8.598 2425.130    0.399   42.500
  442.750    8.141 2415.230    0.393   43.481
  443.000    7.845 2367.440    0.397   45.419
  443.250    7.713 2379.610    0.400   46.414
  443.500    7.574 2373.820    0.392   42.212
  443.750    7.305 2350.060    0.402   46.506
  444.000    7.175 2426.370    0.471   72.032
  444.250    6.792 2484.710    0.474   78.211
  444.500    6.190 2619.190    0.447   81.575
  444.750    5.746 2459.100    0.406   76.431
  445.000    5.753 2407.200    0.315   66.588
  445.250    6.823 2399.410    0.290   56.731
  445.500    8.400 2451.740    0.316   63.865
  445.750    5.562 2479.990    0.286   59.677
  446.000    4.975 2538.330    0.154   18.221
  446.250    7.531 2576.640    0.141   17.331
  446.500   11.403 2586.870    0.144   18.810
  446.750   12.075 2607.110    0.133   17.933
  447.000   16.031 2625.340    0.127   16.572
  447.250   51.480 2631.620    0.120   15.682
  447.500   62.196 2609.750    0.116   15.735
  447.750   69.701 2596.000    0.112   16.259
  448.000   79.594 2590.210    0.121   16.311
  448.250   90.944 2596.380    0.136   15.422
  448.500   86.059 2618.680    0.143   14.545
  448.750   75.538 2638.910    0.144   14.584
  449.000   68.843 2651.140    0.146   14.637
  449.250   63.913 2657.420    0.148   15.632
  449.500   57.164 2653.580    0.153   16.143
  449.750   51.128 2635.770    0.150   16.666
  450.000   48.381 2613.960    0.150   16.248
