~VERSION INFORMATION
 VERS.                 2.0:   CWLS LOG ASCII STANDARD -VERSION 2.0
 WRAP.                  NO:   ONE LINE PER DEPTH STEP
~WELL INFORMATION BLOCK
#MNEM.UNIT           DATA                    DESCRIPTION OF MNEMONIC
#---------    -------------------            -------------------------------
# Generated from Intellog Unique Number	CW_70_72/WELL/2898
NULL.         -999.25                        : NULL_VALUE
WELL.         SUN GAMBLER                    : Well_name    - WELL              
LOC .         06-07-070-20W4                 : Location     - LOCATION          
UWI .         00/06-07-070-20W4/0            : Uwi          - UNIQUE WELL ID    
ENTR.         MAX                            : Entered      - ENTERED BY        
SRVC.         SCHLUMBERGER                   : Scn          - SERVICE COMPANY   
DATE.         06 MAR 79                      : Date         - LOG DATE
STRT.M        380                            : top_depth    - START DEPTH       
STOP.M        550                            : bot_depth    - STOP DEPTH        
STEP.M        0.25                           : increment    - STEP LENGTH       
~CURVE INFORMATION BLOCK
#MNEM UNIT       ERCB CURVE CODE    CURVE DESCRIPTION
#-----------   ------------------   ----------------------------------
DEPT.M        00 001 00 00         : DEPTH        - DEPTH                       
ILD .OHMM     00 120 00 00         : RESD         - DEEP RESISTIVITY (DIL)      
NPHI.V/V      00 330 00 00         : PHIN         - NEUTRON POROSITY (SANDSTONE)
DPHI.V/V      00 890 00 00         : PHID         - DENSITY POROSITY (SANDSTONE)
CALI.MM       00 280 01 00         : CAL          - CALIPER                     
GR  .API      00 310 00 00         : GR           - GAMMA RAY                   
~PARAMETER INFORMATION       
#MNEM.UNIT           DATA             DESCRIPTION OF MNEMONIC
#---------         -----------     ------------------------------
GL  .M        634.1                : gl           - GROUND LEVEL ELEVATION      
EREF.M        637.7                : kb           - ELEVATION OF DEPTH REFERENCE
DATM.M        634.1                : datum        - DATUM ELEVATION             
TDD .M        576                  : tdd          - TOTAL DEPTH DRILLER         
RUN .         ONE                  : Run          - RUN NUMBER                  
ENG .         BILL                 : Engineer     - RECORDING ENGINEER          
WIT .         JIM                  : Witness      - WITNESSED BY                
MUD .         GEL                  : Mud_type     - MUD TYPE                    
MATR.         SANDSTONE            : Logunit      - NEUTRON MATRIX              
TMAX.C        26                   : BHT          - MAXIMUM RECORDED TEMPERATURE
BHTD.M        576                  : BHTDEP       - MAXIMUM RECORDED TEMPERATURE
RMT .C        14                   : MDTP         - TEMPERATURE OF MUD          
MUDD.KG/M     1100                 : MWT          - MUD DENSITY                 
NEUT.         1                    : NEUTRON      - NEUTRON TYPE                
RESI.         0                    : RESIST       - RESISTIVITY TYPE            
RM  .OHMM     3.6                  : RM           - RESISTIVITY OF MUD          
RMC .OHMM     0.25                 : RMC          - RESISTIVITY OF MUD CAKE     
RMF .OHMM     3.6                  : RMF          - RESISTIVITY OF MUD FILTRATE 
SUFT.C        -5                   : SUFT         - SURFACE TEMPERATURE         
~A  DEPTH     RESD     PHIN     PHID      CAL       GR
# ...
  526.000    5.812    0.379    0.140  166.523   93.158
  526.250    5.978    0.379    0.129  167.036   91.701
  526.500    6.148    0.368    0.094  167.066   88.188
  526.750    6.440    0.348    0.103  167.093   86.733
  527.000    6.747    0.332    0.102  166.629   89.102
  527.250    6.751    0.347    0.149  166.655   93.236
  527.500    6.572    0.369    0.174  166.682   92.665
  527.750    6.223    0.364    0.186  167.202   92.385
  528.000    5.840    0.366    0.169  166.255  100.051
  528.250    5.737    0.376    0.179  166.271  105.655
  528.500    5.741    0.384    0.185  167.772  103.024
  528.750    5.692    0.384    0.173  168.285   98.040
  529.000    5.696    0.380    0.162  166.351   98.354
  529.250    5.912    0.378    0.147  163.442   95.130
  529.500    6.425    0.364    0.106  163.953   83.380
  529.750    6.854    0.338    0.067  163.982   69.866
  530.000    6.921    0.275    0.060  164.016   70.176
  530.250    6.738    0.281    0.089  163.549   82.546
  530.500    6.499    0.316    0.135  163.575   93.739
  530.750    6.269    0.344    0.150  164.582   91.994
  531.000    5.829    0.376    0.158  166.076   89.359
  531.250    5.470    0.376    0.175  167.086   87.023
  531.500    4.948    0.391    0.193  166.623   88.804
  531.750    4.315    0.419    0.185  164.685   93.234
  532.000    3.660    0.459    0.175  161.280  100.015
  532.250    3.251    0.489    0.182  161.800   99.147
  532.500    2.941    0.493    0.181  164.771   96.813
  532.750    2.916    0.470    0.182  166.762   93.592
  533.000    2.999    0.433    0.176  165.311   88.900
  533.250    3.142    0.371    0.182  163.377   83.917
  533.500    3.445    0.371    0.168  161.936   85.696
  533.750    4.753    0.378    0.154  163.433   83.655
  534.000    5.072    0.403    0.128  166.891   82.788
  534.250    5.167    0.392    0.092  167.901   84.567
  534.500    5.218    0.377    0.077  167.925   87.526
  534.750    5.174    0.386    0.136  168.928   90.189
  535.000    5.130    0.403    0.146  169.452   93.735
  535.250    4.994    0.416    0.146  169.478   97.871
  535.500    4.996    0.424    0.150  168.527   98.475
  535.750    5.093    0.427    0.156  168.547   98.489
  536.000    5.142    0.419    0.161  169.558   97.624
  536.250    5.289    0.419    0.158  171.548   95.287
  536.500    5.343    0.400    0.165  172.062   92.360
  536.750    5.647    0.377    0.144  171.595   87.375
  537.000    5.861    0.349    0.089  170.641   81.508
  537.250    6.311    0.344    0.079  169.687   81.232
  537.500    6.611    0.369    0.121  170.694   79.187
  537.750    6.799    0.353    0.029  173.172   74.791
  538.000    6.804    0.347    0.074  172.224   86.574
  538.250    6.503    0.372    0.113  171.757   92.767
  538.500    5.883    0.420    0.124  170.803  100.137
  538.750    4.680    0.436    0.155  170.340  101.331
  539.000    3.828    0.424    0.163  169.882  100.463
  539.250    3.761    0.420    0.157  169.415   99.306
  539.500    3.762    0.423    0.157  169.442   99.618
  539.750    3.834    0.431    0.160  169.465   99.042
  540.000    3.944    0.431    0.143  169.498   96.410
  540.250    4.131    0.406    0.118  169.035   92.014
  540.500    4.531    0.389    0.101  169.054   90.559
  540.750    4.531    0.398    0.089  169.578   92.046
  541.000    4.793    0.416    0.124  171.075   95.297
  541.250    5.114    0.428    0.149  173.549  100.608
  541.500    5.117    0.429    0.141  173.576  100.624
  541.750    4.891    0.404    0.135  172.622   97.994
  542.000    4.761    0.413    0.152  170.694   96.540
  542.250    4.807    0.412    0.150  171.204   95.971
  542.500    4.900    0.410    0.148  172.215   95.395
  542.750    5.086    0.404    0.144  172.735   94.234
  543.000    5.426    0.377    0.136  172.268   93.662
  543.250    5.479    0.358    0.131  171.804   94.860
  543.500    5.383    0.408    0.165  171.830   96.637
  543.750    5.240    0.442    0.172  172.837  101.357
  544.000    5.008    0.417    0.160  173.848  100.197
  544.250    4.876    0.389    0.157  174.851   97.565
  544.500    4.834    0.427    0.151  176.842   93.463
  544.750    4.882    0.449    0.153  177.846   90.243
  545.000    4.975    0.434    0.145  177.385   74.376
  545.250    5.164    0.383    0.132  174.964   57.037
  545.500    9.207    0.350    0.126  172.536   44.407
  545.750   19.012    0.310    0.122  167.657   38.831
  546.000   28.739    0.291    0.189  165.232   25.022
  546.250   50.315    0.285    0.263  163.301   14.449
  546.500   57.246    0.300    0.086  162.838    9.762
  546.750   62.782    0.299    0.062  162.864   11.541
  547.000   62.242    0.292    0.057  158.969   17.440
  547.250   54.777    0.274    0.076  158.508   18.044
  547.500   46.899    0.277    0.084  159.028   14.234
  547.750   43.210    0.273    0.072  159.052   12.781
  548.000   45.272    0.263    0.066  159.078   13.091
  548.250   50.103    0.261    0.082  159.105   12.813
  548.500   56.996    0.264    0.092  159.128   11.947
  548.750   61.942    0.269    0.066  160.138   12.259
  549.000   61.409    0.309    0.095  160.655   12.863
  549.250   55.044    0.290    0.132  160.681   13.759
  549.500   51.182    0.277    0.127  159.724   13.483
  549.750   48.922    0.282    0.081  159.264   11.732
  550.000   49.402    0.282    0.073  159.294   10.571
