~VERSION INFORMATION
 VERS.                 2.0:   CWLS LOG ASCII STANDARD -VERSION 2.0
 WRAP.                  NO:   ONE LINE PER DEPTH STEP
~WELL INFORMATION BLOCK
#MNEM.UNIT           DATA                    DESCRIPTION OF MNEMONIC
#---------    -------------------            -------------------------------
# Generated from Intellog Unique Number	CW_70_72/WELL/3006
NULL.         -999.25                        : NULL_VALUE
WELL.         GAO HONDO 06-14                : Well_name    - WELL              
LOC .         06-14-070-01W5                 : Location     - LOCATION          
UWI .         00/06-14-070-01W5/0              : Uwi          - UNIQUE WELL ID    
ENTR.         J                              : Entered      - ENTERED BY        
SRVC.         SCHLUMBERGER                   : Scn          - SERVICE COMPANY   
DATE.         1 JAN 76                       : Date         - LOG DATE          
STRT.M        438.912                        : top_depth    - START DEPTH       
STOP.M        676.662                        : bot_depth    - STOP DEPTH        
STEP.M        0.25                           : increment    - STEP LENGTH       
~CURVE INFORMATION BLOCK
#MNEM UNIT       ERCB CURVE CODE    CURVE DESCRIPTION
#-----------   ------------------   ----------------------------------
DEPT.M        00 001 00 00         : DEPTH        - DEPTH                       
ILD .OHMM     00 120 00 00         : RESD         - DEEP RESISTIVITY (DIL)      
CALI.MM       00 280 01 00         : CAL          - CALIPER                     
GR  .API      00 310 00 00         : GR           - GAMMA RAY                   
NPHI.V/V      00 330 00 00         : PHIN         - NEUTRON POROSITY (SANDSTONE)
DPHI.V/V      00 890 00 00         : PHID         - DENSITY POROSITY (SANDSTONE)
~PARAMETER INFORMATION       
#MNEM.UNIT           DATA             DESCRIPTION OF MNEMONIC
#---------         -----------     ------------------------------
GL  .M        604.723              : gl           - GROUND LEVEL ELEVATION      
EREF.M        607.771              : kb           - ELEVATION OF DEPTH REFERENCE
DATM.M        604.723              : datum        - DATUM ELEVATION             
TDD .M        688.848              : tdd          - TOTAL DEPTH DRILLER         
RUN .         ONE                  : Run          - RUN NUMBER                  
ENG .         SAWASE               : Engineer     - RECORDING ENGINEER          
WIT .         CUMMIN               : Witness      - WITNESSED BY                
BASE.         EDM                  : Branch       - HOME BASE OF LOGGING UNIT   
MATR.         SANDSTONE            : Logunit      - NEUTRON MATRIX              
TMAX.C        29.4444              : BHT          - MAXIMUM RECORDED TEMPERATURE
BHTD.M        690.067              : BHTDEP       - MAXIMUM RECORDED TEMPERATURE
RMT .C        17.7778              : MDTP         - TEMPERATURE OF MUD          
MUDD.KG/M     1188                 : MWT          - MUD DENSITY                 
NEUT.         1                    : NEUTRON      - NEUTRON TYPE                
RESI.         0                    : RESIST       - RESISTIVITY TYPE            
RM  .OHMM     2.5                  : RM           - RESISTIVITY OF MUD          
RMC .OHMM     2.5                  : RMC          - RESISTIVITY OF MUD CAKE     
RMF .OHMM     2.25                 : RMF          - RESISTIVITY OF MUD FILTRATE 
SUFT.C        -17.7778             : SUFT         - SURFACE TEMPERATURE         
~A  DEPTH     RESD      CAL       GR     PHIN     PHID
# ...
  621.412    4.609  171.847  113.538    0.329    0.131
  621.662    4.481  172.056  117.314    0.345    0.132
  621.912    4.445  172.264  116.402    0.344    0.112
  622.162    4.441  171.957  115.856    0.332    0.111
  622.412    4.429  171.547  117.988    0.329    0.130
  622.662    4.475  170.725  113.606    0.332    0.144
  622.912    4.579  170.521  109.590    0.333    0.133
  623.162    4.719  170.524  107.095    0.332    0.125
  623.412    4.901  170.526  102.713    0.327    0.100
  623.662    5.061  170.734  106.671    0.314    0.071
  623.912    5.113  170.737  110.691    0.309    0.096
  624.162    5.035  170.636  113.249    0.313    0.112
  624.412    4.868  171.256  116.720    0.325    0.111
  624.662    4.749  172.599  121.531    0.336    0.123
  624.912    4.755  173.013  118.306    0.349    0.133
  625.162    4.838  173.016  113.985    0.338    0.147
  625.412    5.089  172.606  110.151    0.316    0.160
  625.662    5.382  172.093  107.596    0.309    0.130
  625.912    5.884  171.579  106.258    0.315    0.111
  626.162    6.291  171.479  103.154    0.289    0.086
  626.412    6.666  171.584  103.460    0.276    0.070
  626.662    6.698  171.380   98.348    0.280    0.055
  626.912    6.208  169.630   88.609    0.282    0.026
  627.162    5.486  167.159   96.768    0.246    0.034
  627.412    4.726  170.151  105.900    0.265    0.113
  627.662    4.238  172.936  112.903    0.306    0.123
  627.912    4.250  173.350  117.409    0.352    0.135
  628.162    4.562  171.292  106.818    0.354    0.127
  628.412    4.833  170.262   99.453    0.317    0.115
  628.662    5.102  169.028  100.185    0.294    0.110
  628.912    5.527  168.309  110.657    0.293    0.111
  629.162    5.866  168.002  114.372    0.312    0.112
  629.412    6.273  168.107  108.712    0.322    0.100
  629.662    6.574  168.316   95.503    0.330    0.094
  629.912    6.617  169.040   98.913    0.295    0.089
  630.162    6.503  169.352  101.411    0.275    0.109
  630.412    6.299  169.353  105.612    0.284    0.127
  630.662    6.079  169.356  105.127    0.305    0.134
  630.912    5.953  169.049  102.937    0.304    0.134
  631.162    5.981  168.845  102.573    0.291    0.123
  631.412    6.154  168.538  100.383    0.296    0.104
  631.662    6.509  168.334   98.192    0.304    0.083
  631.912    6.934  168.234   97.402    0.299    0.059
  632.162    7.188  168.132   99.169    0.269    0.044
  632.412    7.155  168.032  102.032    0.260    0.063
  632.662    6.755  167.931  106.781    0.272    0.095
  632.912    6.238  167.933  114.027    0.284    0.120
  633.162    5.553  168.142  120.055    0.289    0.130
  633.412    4.981  168.041  115.248    0.314    0.130
  633.662    4.841  167.940  112.935    0.328    0.113
  633.912    4.909  167.427  116.042    0.299    0.094
  634.162    5.060  166.708  117.321    0.291    0.101
  634.412    5.048  165.473  114.400    0.300    0.114
  634.662    4.989  165.166  114.341    0.304    0.118
  634.912    4.904  168.261  115.195    0.305    0.119
  635.162    4.810  169.397  117.387    0.315    0.135
  635.412    4.736  169.812  118.728    0.329    0.130
  635.662    4.891  170.020  115.077    0.340    0.112
  635.912    5.116  170.126  107.895    0.323    0.084
  636.162    5.038  170.540  105.279    0.295    0.065
  636.412    4.748  170.336  110.515    0.306    0.086
  636.662    4.823  170.132  111.552    0.322    0.113
  636.912    5.017  169.104  102.969    0.336    0.145
  637.162    5.355  166.941   95.422    0.316    0.142
  637.412    6.050  164.470   88.849    0.294    0.156
  637.662    7.077  167.462   87.146    0.279    0.121
  637.912    8.218  167.567   88.851    0.267    0.084
  638.162    9.595  166.848   78.443    0.257    0.068
  638.412   10.780  165.716   71.322    0.246    0.072
  638.662   11.113  164.688   71.627    0.238    0.104
  638.912   10.530  163.557   74.734    0.259    0.126
  639.162    9.220  163.661   79.848    0.262    0.106
  639.412    7.943  167.169   84.537    0.276    0.107
  639.662    7.084  167.377   84.234    0.303    0.131
  639.912    6.737  162.844   81.618    0.314    0.165
  640.162    7.008  161.506   80.950    0.292    0.168
  640.412    7.947  162.848   80.525    0.249    0.140
  640.662    8.798  166.149   80.039    0.231    0.102
  640.912    9.995  166.976   87.285    0.221    0.079
  641.162   10.630  166.876   93.313    0.211    0.061
  641.412    9.834  166.775   97.028    0.223    0.052
  641.662    8.754  166.880  102.630    0.244    0.073
  641.912    7.909  167.501  107.806    0.269    0.110
  642.162    7.495  168.534  107.685    0.259    0.128
  642.412    7.247  169.155  101.173    0.252    0.111
  642.662    7.083  169.157  100.018    0.246    0.093
  642.912    7.001  169.057  102.576    0.240    0.085
  643.162    6.968  169.058  107.691    0.249    0.100
  643.412    6.963  169.164  110.736    0.260    0.116
  643.662    6.995  169.476  105.989    0.257    0.107
  643.912    7.042  169.272  100.268    0.253    0.101
  644.162    7.113  168.965  100.148    0.248    0.115
  644.412    7.133  168.761  100.880    0.249    0.123
  644.662    7.141  168.867  101.429    0.260    0.132
  644.912    7.175  168.766  102.891    0.249    0.116
  645.162    7.196  168.974  105.571    0.248    0.122
  645.412    7.164  169.389  109.590    0.252    0.117
  645.662    7.055  169.494  116.166    0.267    0.124
  645.912    6.972  169.393  121.160    0.300    0.112
  646.162    6.953  169.087  111.238    0.299    0.126
  646.412    6.987  169.088  104.604    0.279    0.118
  646.662    7.019  168.988  104.605    0.255    0.113
  646.912    7.464  168.784  103.450    0.244    0.115
  647.162    8.511  168.786   93.407    0.258    0.105
  647.412    9.633  168.582   81.415    0.278    0.088
  647.662   10.646  167.760   72.163    0.257    0.064
  647.912   10.992  166.938   70.095    0.243    0.068
  648.162   10.668  166.218   79.715    0.240    0.101
  648.412    9.869  165.293   85.134    0.254    0.157
  648.662    8.786  164.471   88.545    0.267    0.163
  648.912    7.541  163.855   91.346    0.281    0.155
  649.162    6.812  163.238   90.313    0.292    0.172
  649.412    6.303  162.622   84.957    0.312    0.207
  649.662    5.897  162.212   86.237    0.302    0.218
  649.912    5.742  162.523   90.987    0.296    0.214
  650.162    5.675  162.320   94.458    0.288    0.224
  650.412    5.775  160.054   96.285    0.290    0.199
  650.662    6.053  156.448  101.218    0.300    0.191
  650.912    6.308  157.069  108.951    0.302    0.189
  651.162    6.696  162.432  110.657    0.300    0.178
  651.412    7.110  165.321  108.710    0.297    0.163
  651.662    7.327  165.117  106.033    0.281    0.152
  651.912    7.483  164.810  102.442    0.269    0.133
  652.162    7.814  165.018   98.548    0.267    0.152
  652.412    8.355  166.979   95.323    0.268    0.167
  652.662    8.984  169.971   92.767    0.267    0.135
  652.912    9.714  170.695   89.055    0.259    0.095
  653.162   10.328  170.491   82.360    0.251    0.056
  653.412   11.085  170.390   78.221    0.248    0.034
  653.662   11.510  170.599   86.380    0.251    0.031
  653.912   10.928  170.704  100.383    0.286    0.084
  654.162   10.146  170.809  105.985    0.321    0.091
  654.412    8.211  169.575  111.709    0.328    0.142
  654.662    6.314  167.722  112.989    0.318    0.131
  654.912    5.409  165.971  108.790    0.307    0.121
  655.162    4.877  165.871  105.747    0.299    0.111
  655.412    4.366  167.420  102.400    0.290    0.101
  655.662    3.859  168.864  117.317    0.272    0.091
  655.912    3.683  170.207  133.877    0.256    0.084
  656.162    3.769  171.240  141.731    0.302    0.152
  656.412    3.986  171.861  143.376    0.322    0.155
  656.662    4.365  171.863  131.567    0.339    0.141
  656.912    4.451  170.835  118.298    0.355    0.137
  657.162    4.639  169.085  104.602    0.336    0.130
  657.412    5.396  167.438   90.966    0.255    0.110
  657.662    6.512  165.997   75.749    0.234    0.129
