~VERSION INFORMATION
 VERS.                 2.0:   CWLS LOG ASCII STANDARD -VERSION 2.0
 WRAP.                  NO:   ONE LINE PER DEPTH STEP
~WELL INFORMATION BLOCK
#MNEM.UNIT           DATA                    DESCRIPTION OF MNEMONIC
#---------    -------------------            -------------------------------
# Generated from Intellog Unique Number	CS_77_79/WELL/844
WELL.         HOME OIL COMPANY LIMITED       : Well_name    - WELL
LOC .         00/03-12-077-08W4/0            : Location     - LOCATION
UWI .         00/03-12-077-08W4/0            : Uwi          - UNIQUE WELL ID
ENTR.         SP                             : Entered      - ENTERED BY
SRVC.         SCHLUMBERGER                   : Scn          - SERVICE COMPANY
STRT.M        140.25                         : top_depth    - START DEPTH
STOP.M        370.00                         : bot_depth    - STOP DEPTH
STEP.M        0.25                           : increment    - STEP LENGTH
 NULL. -999.2500:NULL Value
~CURVE INFORMATION BLOCK
#MNEM UNIT       ERCB CURVE CODE    CURVE DESCRIPTION
#-----------   ------------------   ----------------------------------
DEPT.M        00 001 00 00         : DEPTH        - DEPTH
ILD .OHMM     00 120 00 00         : RESD         - DEEP RESISTIVITY (DIL)
DPHI.V/V      00 890 00 00         : PHID         - DENSITY POROSITY (LIMESTONE)
NPHI.V/V      00 330 00 00         : PHIN         - NEUTRON POROSITY (LIMESTONE)
GR  .API      00 310 00 00         : GR           - GAMMA RAY
~PARAMETER INFORMATION
#MNEM.UNIT           DATA             DESCRIPTION OF MNEMONIC
#---------         -----------     ------------------------------
GL  .M        564                  : gl           - GROUND LEVEL ELEVATION
EREF.M        567.5                : kb           - ELEVATION OF DEPTH REFERENCE
DATM.M        564                  : datum        - DATUM ELEVATION
TDD .M        375.1                : tdd          - TOTAL DEPTH DRILLER
RUN .         ONE                  : Run          - RUN NUMBER
ENG .         BILL                 : Engineer     - RECORDING ENGINEER
WIT .         JIM                  : Witness      - WITNESSED BY
MUD .         GEL                  : Mud_type     - MUD TYPE
MATR.         LIMESTONE            : Logunit      - NEUTRON MATRIX
TMAX.C        16.5                 : BHT          - MAXIMUM RECORDED TEMPERATURE
BHTD.M        375.1                : BHTDEP       - MAXIMUM RECORDED TEMPERATURE
MATR.         1                    : LOGUNIT      - NEUTRON MATRIX
RMT .C        25                   : MDTP         - TEMPERATURE OF MUD
NEUT.         1                    : NEUTRON      - NEUTRON TYPE
RESI.         0                    : RESIST       - RESISTIVITY TYPE
RMC .OHMM     0.25                 : RMC          - RESISTIVITY OF MUD CAKE
RMF .OHMM     0.25                 : RMF          - RESISTIVITY OF MUD FILTRATE
SUFT.C        15                   : SUFT         - SURFACE TEMPERATURE
~A  DEPTH     RESD     PHID     PHIN       GR
# ...
  270.750    6.725    0.325    0.429   55.341
  271.000    6.724    0.327    0.437   55.946
  271.250    6.847    0.319    0.439   57.755
  271.500    6.845    0.322    0.435   58.962
  271.750    6.844    0.316    0.434   60.168
  272.000    6.716    0.326    0.445   61.376
  272.250    6.714    0.336    0.455   61.980
  272.500    6.713    0.332    0.458   61.983
  272.750    6.710    0.320    0.465   61.382
  273.000    6.708    0.310    0.479   61.986
  273.250    6.707    0.302    0.502   61.988
  273.500    6.957    0.310    0.515   61.991
  273.750    7.085    0.322    0.508   59.583
  274.000    7.215    0.339    0.486   57.778
  274.250    7.485    0.331    0.464   57.178
  274.500    7.623    0.336    0.456   58.386
  274.750    7.622    0.334    0.459   58.388
  275.000    7.762    0.325    0.462   58.992
  275.250    7.759    0.322    0.446   59.596
  275.500    7.758    0.320    0.449   60.201
  275.750    7.612    0.315    0.451   58.396
  276.000    7.611    0.308    0.449   58.398
  276.250    7.469    0.302    0.449   58.400
  276.500    7.467    0.317    0.449   57.799
  276.750    7.327    0.326    0.447   55.995
  277.000    7.191    0.324    0.437   54.791
  277.250    7.189    0.309    0.429   55.396
  277.500    7.187    0.310    0.429   57.809
  277.750    7.052    0.307    0.433   58.413
  278.000    7.050    0.310    0.443   59.620
  278.250    6.919    0.317    0.446   60.224
  278.500    6.667    0.320    0.449   59.624
  278.750    6.665    0.323    0.450   60.229
  279.000    6.663    0.322    0.451   60.231
  279.250    6.785    0.313    0.453   60.233
  279.500    6.911    0.308    0.456   60.236
  279.750    7.036    0.314    0.463   59.635
  280.000    7.166    0.293    0.465   59.035
  280.250    7.299    0.259    0.458   56.025
  280.500    7.714    0.123    0.439   54.219
  280.750    8.002    0.063    0.200   53.017
  281.000    8.000    0.088    0.274   57.237
  281.250    7.565    0.275    0.315   60.250
  281.500    7.023    0.311    0.391   60.855
  281.750    6.893    0.316    0.422   60.858
  282.000    6.640    0.313    0.453   60.860
  282.250    6.517    0.321    0.474   61.465
  282.500    6.162    0.327    0.474   61.466
  282.750    6.161    0.327    0.470   61.469
  283.000    6.159    0.337    0.477   60.867
  283.250    6.156    0.334    0.459   60.871
  283.500    6.270    0.323    0.458   60.873
  283.750    6.268    0.325    0.447   60.874
  284.000    6.267    0.335    0.451   60.876
  284.250    6.622    0.331    0.454   60.879
  284.500    6.745    0.346    0.445   60.278
  284.750    6.997    0.346    0.448   58.473
  285.000    7.964    0.331    0.421   56.668
  285.250    9.063    0.273    0.359   54.260
  285.500    9.061    0.180    0.280   52.456
  285.750    8.257    0.108    0.288   53.662
  286.000    7.386    0.270    0.400   57.279
  286.250    6.985    0.332    0.429   60.896
  286.500    6.605    0.345    0.448   62.706
  286.750    6.363    0.339    0.454   62.707
  287.000    6.362    0.331    0.457   60.902
  287.250    6.361    0.320    0.451   60.303
  287.500    6.599    0.311    0.448   60.907
  287.750    6.596    0.306    0.460   60.908
  288.000    6.594    0.317    0.458   61.513
  288.250    6.472    0.322    0.456   62.117
  288.500    6.469    0.329    0.459   62.722
  288.750    6.468    0.335    0.468   63.327
  289.000    6.348    0.344    0.472   63.931
  289.250    6.346    0.321    0.470   63.934
  289.500    6.228    0.315    0.465   63.333
  289.750    6.111    0.333    0.457   60.925
  290.000    6.109    0.329    0.451   59.121
  290.250    6.108    0.324    0.466   59.725
  290.500    6.106    0.340    0.489   62.740
  290.750    6.105    0.362    0.507   63.344
  291.000    5.990    0.382    0.524   64.551
  291.250    5.988    0.362    0.531   62.746
  291.500    5.986    0.344    0.518   62.748
  291.750    5.875    0.328    0.516   62.751
  292.000    5.874    0.345    0.511   62.752
  292.250    5.872    0.342    0.526   62.754
  292.500    5.870    0.338    0.510   63.359
  292.750    5.869    0.320    0.490   63.361
  293.000    5.868    0.327    0.470   63.966
  293.250    5.974    0.327    0.471   64.570
  293.500    5.973    0.338    0.482   64.572
  293.750    6.083    0.332    0.493   64.575
  294.000    6.082    0.341    0.502   63.373
  294.250    6.193    0.360    0.496   60.965
  294.500    6.308    0.350    0.477   60.364
  294.750    6.306    0.342    0.458   62.776
  295.000    6.188    0.332    0.449   64.585
  295.250    6.073    0.326    0.453   63.985
  295.500    5.743    0.321    0.447   65.192
  295.750    5.636    0.324    0.470   67.002
  296.000    5.531    0.328    0.494   69.413
  296.250    5.427    0.322    0.506   73.030
  296.500    5.427    0.311    0.498   76.647
  296.750    5.526    0.302    0.505   79.661
  297.000    5.525    0.263    0.477   79.060
  297.250    5.948    0.257    0.472   72.436
  297.500    6.644    0.262    0.478   71.233
  297.750    7.023    0.249    0.485   68.223
  298.000    7.560    0.234    0.475   66.419
  298.250    7.844    0.179    0.303   65.818
  298.500    7.697    0.081    0.309   69.434
  298.750    7.416    0.093    0.323   76.666
  299.000    6.758    0.157    0.350   80.885
  299.250    6.159    0.235    0.378   86.308
  299.500    5.407    0.244    0.422   90.527
  299.750    5.209    0.238    0.455   93.542
  300.000    4.927    0.233    0.455   95.954
  300.250    4.659    0.239    0.471   97.160
  300.500    4.573    0.247    0.488   96.561
  300.750    4.324    0.233    0.488   93.551
  301.000    4.244    0.222    0.496   92.950
  301.250    4.322    0.228    0.496   90.543
  301.500    4.653    0.217    0.488   89.341
  301.750    4.917    0.215    0.482   89.945
  302.000    5.294    0.227    0.478   94.164
  302.250    5.492    0.227    0.472   95.974
  302.500    5.593    0.221    0.469   95.975
  302.750    5.489    0.232    0.466   96.580
  303.000    5.487    0.236    0.470   97.185
  303.250    5.486    0.230    0.485   97.790
  303.500    5.484    0.223    0.494   97.791
  303.750    5.584    0.232    0.497   98.998
  304.000    5.687    0.227    0.485  100.808
  304.250    5.686    0.215    0.457  102.014
  304.500    5.684    0.199    0.446  101.414
  304.750    5.682    0.198    0.454   99.609
  305.000    5.681    0.205    0.456   95.998
  305.250    5.472    0.227    0.453   94.193
  305.500    5.273    0.230    0.443   92.989
  305.750    4.986    0.223    0.453   91.184
  306.000    4.804    0.212    0.465   90.584
  306.250    4.377    0.210    0.493   90.586
  306.500    4.217    0.221    0.478   90.588
  306.750    3.703    0.216    0.489   90.590
  307.000    2.910    0.242    0.537   90.592
  307.250    2.603    0.272    0.561   89.993
  307.500    2.286    0.289    0.580   89.391
  307.750    2.122    0.281    0.591   87.586
  308.000    2.161    0.276    0.584   86.987
  308.250    2.201    0.257    0.571   87.591
  308.500    2.242    0.258    0.562   88.195
  308.750    2.241    0.252    0.555   88.800
  309.000    2.282    0.259    0.565   90.611
  309.250    2.281    0.277    0.577   91.818
  309.500    2.239    0.268    0.587   93.025
  309.750    2.366    0.265    0.574   93.628
  310.000    2.410    0.259    0.547   94.232
  310.250    2.547    0.266    0.550   91.825
  310.500    2.898    0.241    0.574   90.622
  310.750    3.179    0.253    0.579   89.420
  311.000    3.486    0.251    0.551   90.025
  311.250    3.895    0.253    0.510   90.629
  311.500    4.351    0.209    0.491   92.439
  311.750    4.514    0.194    0.484   93.043
  312.000    4.860    0.200    0.491   93.044
  312.250    5.042    0.207    0.474   87.625
  312.500    5.427    0.217    0.454   86.422
  312.750    5.527    0.219    0.429   86.424
  313.000    5.526    0.217    0.424   90.042
  313.250    5.226    0.209    0.452   93.659
  313.500    4.675    0.206    0.466   96.070
  313.750    4.260    0.221    0.486   99.686
  314.000    4.181    0.219    0.495   99.688
