~VERSION INFORMATION
 VERS.                 2.0:   CWLS LOG ASCII STANDARD -VERSION 2.0
 WRAP.                  NO:   ONE LINE PER DEPTH STEP
~WELL INFORMATION BLOCK
#MNEM.UNIT           DATA                    DESCRIPTION OF MNEMONIC
#---------    -------------------            -------------------------------
# Generated from Intellog Unique Number	CX_WELLS/WELL/1055
WELL.         05-01-088-17W4                 : Well_name    - WELL
LOC .         00/05-01-088-17W4/0            : Location     - LOCATION
UWI .         00/05-01-088-17W400            : Uwi          - UNIQUE WELL ID
ENTR.         DW                             : Entered      - ENTERED BY
SRVC.         SCHLUMBERGER                   : Scn          - SERVICE COMPANY
STRT.M        100                            : top_depth    - START DEPTH
STOP.M        235                            : bot_depth    - STOP DEPTH
STEP.M        0.25                           : increment    - STEP LENGTH
 NULL. -999.2500:NULL Value
~CURVE INFORMATION BLOCK
#MNEM UNIT       ERCB CURVE CODE    CURVE DESCRIPTION
#-----------   ------------------   ----------------------------------
DEPT.M        00 001 00 00         : DEPTH        - DEPTH
GR  .API      00 310 00 00         : GR           - GAMMA RAY
NPHI.V/V      00 330 00 00         : PHIN         - NEUTRON POROSITY (SANDSTONE)
DPHI.V/V      00 890 00 00         : PHID         - DENSITY POROSITY (SANDSTONE)
ILD .OHMM     00 120 00 00         : RESD         - DEEP RESISTIVITY (DIL)
~PARAMETER INFORMATION
#MNEM.UNIT           DATA             DESCRIPTION OF MNEMONIC
#---------         -----------     ------------------------------
GL  .M        532.79               : gl           - GROUND LEVEL ELEVATION
EREF.M        536.09               : kb           - ELEVATION OF DEPTH REFERENCE
DATM.M        536.09               : datum        - DATUM ELEVATION
TDD .M        236                  : tdd          - TOTAL DEPTH DRILLER
RUN .         ONE                  : Run          - RUN NUMBER
ENG .         BILL                 : Engineer     - RECORDING ENGINEER
WIT .         JIM                  : Witness      - WITNESSED BY
MUD .         GEL                  : Mud_type     - MUD TYPE
MATR.         SANDSTONE            : Logunit      - NEUTRON MATRIX
TMAX.C        16                   : BHT          - MAXIMUM RECORDED TEMPERATURE
BHTD.M        236                  : BHTDEP       - MAXIMUM RECORDED TEMPERATURE
MATR.         1                    : LOGUNIT      - NEUTRON MATRIX
RMT .C        25                   : MDTP         - TEMPERATURE OF MUD
NEUT.         1                    : NEUTRON      - NEUTRON TYPE
RESI.         0                    : RESIST       - RESISTIVITY TYPE
RMC .OHMM     0.25                 : RMC          - RESISTIVITY OF MUD CAKE
RMF .OHMM     0.25                 : RMF          - RESISTIVITY OF MUD FILTRATE
SUFT.C        15                   : SUFT         - SURFACE TEMPERATURE
~A  DEPTH       GR     PHIN     PHID     RESD
# ...
  187.000   83.270    0.340    0.083   26.153
  187.250   89.853    0.375    0.104   27.729
  187.500   93.448    0.405    0.157   25.323
  187.750   94.694    0.423    0.230   22.700
  188.000   93.589    0.424    0.233   20.349
  188.250   92.454    0.418    0.212   18.922
  188.500   89.576    0.406    0.186   18.614
  188.750   87.273    0.390    0.166   18.665
  189.000   86.153    0.354    0.118   19.425
  189.250   87.415    0.334    0.094   19.446
  189.500   88.660    0.333    0.117   20.249
  189.750   90.481    0.362    0.149   20.282
  190.000   92.941    0.399    0.133   20.708
  190.250   94.155    0.406    0.117   20.753
  190.500   97.781    0.401    0.115   20.051
  190.750  100.194    0.407    0.143   19.703
  191.000  100.288    0.414    0.165   19.393
  191.250   97.985    0.412    0.177   19.436
  191.500   96.243    0.344    0.108   19.844
  191.750   93.940    0.309    0.097   20.640
  192.000   97.582    0.344    0.145   21.074
  192.250   99.404    0.382    0.170   19.974
  192.500  103.606    0.422    0.180   18.584
  192.750  108.399    0.447    0.192   16.677
  193.000  112.026    0.459    0.201   15.790
  193.250  111.497    0.458    0.195   15.238
  193.500  107.421    0.444    0.166   14.185
  193.750  105.710    0.445    0.143   13.954
  194.000  104.590    0.440    0.151   13.992
  194.250  105.244    0.432    0.178   14.015
  194.500  107.096    0.411    0.149   14.310
  194.750  108.933    0.406    0.122   14.610
  195.000  110.163    0.406    0.146   14.925
  195.250  111.408    0.408    0.169   14.950
  195.500  110.880    0.416    0.179   14.982
  195.750  109.200    0.424    0.190   14.747
  196.000  108.640    0.433    0.198   15.347
  196.250  106.945    0.436    0.204   15.669
  196.500  105.841    0.437    0.210   15.981
  196.750  105.903    0.436    0.213   16.622
  197.000  105.951    0.437    0.205   16.659
  197.250  106.636    0.441    0.198   17.018
  197.500  106.667    0.444    0.199   17.065
  197.750  105.548    0.439    0.199   16.778
  198.000  103.245    0.431    0.199   16.814
  198.250  101.534    0.412    0.196   17.490
  198.500  101.005    0.401    0.197   18.202
  198.750  101.084    0.407    0.203   19.288
  199.000  101.738    0.413    0.216   20.062
  199.250  101.785    0.409    0.209   20.484
  199.500  101.848    0.395    0.149   20.914
  199.750  100.153    0.347    0.126   20.959
  200.000   97.259    0.315    0.116   21.801
  200.250   94.940    0.283    0.101   22.664
  200.500   92.047    0.272    0.076   23.140
  200.750   93.883    0.261    0.095   22.344
  201.000  101.058    0.296    0.117   20.417
  201.250  107.625    0.373    0.143   19.341
  201.500  113.602    0.389    0.165   18.342
  201.750  114.878    0.395    0.169   17.702
  202.000  114.350    0.397    0.181   17.112
  202.250  116.762    0.399    0.194   17.130
  202.500  120.965    0.400    0.206   17.168
  202.750  124.591    0.404    0.205   16.272
  203.000  122.289    0.409    0.197   15.423
  203.250  119.986    0.415    0.199   14.349
  203.500  117.684    0.419    0.210   14.389
  203.750  115.972    0.432    0.215   13.646
  204.000  117.202    0.453    0.200   13.660
  204.250  119.646    0.466    0.191   13.198
  204.500  118.542    0.481    0.189   12.744
  204.750  115.041    0.478    0.175   12.306
  205.000  112.131    0.461    0.133   12.326
  205.250  104.507    0.412    0.100   13.818
  205.500  101.022    0.383    0.145   15.773
  205.750  107.589    0.359    0.172   15.808
  206.000  120.086    0.383    0.188   14.444
  206.250  125.486    0.412    0.200   13.184
  206.500  125.565    0.434    0.207   12.259
  206.750  123.838    0.439    0.207   11.412
  207.000  124.492    0.439    0.203   10.816
  207.250  122.189    0.440    0.197   10.840
  207.500  118.097    0.435    0.187   10.858
  207.750  114.021    0.431    0.163   11.300
  208.000  114.099    0.423    0.156   11.760
  208.250  117.119    0.425    0.118   12.000
  208.500  121.912    0.427    0.125   11.818
  208.750  126.130    0.425    0.169   11.620
  209.000  127.376    0.428    0.182   11.424
  209.250  126.847    0.421    0.195   11.449
  209.500  126.318    0.417    0.200   11.922
  209.750  124.607    0.412    0.195   12.394
  210.000  121.713    0.397    0.155   13.380
  210.250  117.637    0.376    0.103   14.715
  210.500  115.334    0.350    0.057   17.443
  210.750  115.397    0.326    0.105   18.820
  211.000  121.373    0.339    0.137   18.872
  211.250  124.393    0.377    0.176   18.555
  211.500  121.499    0.398    0.196   17.272
  211.750  118.014    0.391    0.206   16.678
  212.000  116.318    0.377    0.204   15.808
  212.250  115.198    0.380    0.206   15.843
  212.500  113.487    0.384    0.215   16.788
  212.750  112.352    0.383    0.223   17.462
  213.000  109.458    0.378    0.178   19.576
  213.250  107.171    0.370    0.097   20.733
  213.500  105.460    0.345    0.072   22.395
  213.750  105.538    0.309    0.096   21.624
  214.000  106.161    0.308    0.142   21.261
  214.250  108.029    0.314    0.176   20.163
  214.500  109.243    0.330    0.188   19.459
  214.750  111.672    0.345    0.197   18.444
  215.000  113.524    0.360    0.210   18.154
  215.250  113.618    0.366    0.220   17.858
  215.500  112.467    0.375    0.221   17.897
  215.750  111.347    0.380    0.202   17.927
  216.000  110.834    0.389    0.193   17.966
  216.250  110.882    0.392    0.197   18.353
  216.500  110.944    0.390    0.205   18.404
  216.750  111.599    0.386    0.216   18.434
  217.000  112.860    0.383    0.213   17.790
  217.250  112.923    0.382    0.213   17.501
  217.500  109.422    0.385    0.216   16.597
  217.750  102.388    0.390    0.240   15.731
  218.000   83.529    0.397    0.257   14.628
  218.250   77.071    0.317    0.279   14.390
  218.500   57.604    0.294    0.312   15.534
  218.750   43.475    0.276    0.323   17.405
  219.000   36.426    0.276    0.334   19.879
  219.250   31.183    0.295    0.341   21.076
  219.500   30.063    0.319    0.338   21.111
  219.750   30.110    0.330    0.325   21.157
  220.000   30.173    0.339    0.312   22.019
  220.250   32.041    0.348    0.302   23.770
  220.500   33.878    0.355    0.297   27.627
  220.750   35.699    0.362    0.297   37.299
  221.000   39.325    0.372    0.299   49.402
  221.250   41.738    0.377    0.306   61.952
  221.500   44.773    0.383    0.316   66.880
  221.750   44.836    0.387    0.327   70.832
  222.000   47.280    0.394    0.325   76.467
  222.250   49.692    0.399    0.323   76.635
  222.500   51.529    0.403    0.319   76.844
  222.750   51.592    0.406    0.313   75.594
  223.000   51.063    0.410    0.304   74.324
  223.250   51.126    0.414    0.296   73.155
  223.500   51.780    0.414    0.302   71.965
  223.750   50.100    0.410    0.305   74.814
  224.000   47.766    0.404    0.306   92.040
  224.250   42.507    0.401    0.306  103.125
  224.500   31.335    0.406    0.305  103.408
  224.750   27.274    0.414    0.304  101.670
  225.000   27.321    0.418    0.303   92.950
  225.250   28.567    0.409    0.302   89.656
  225.500   34.543    0.403    0.296   81.877
  225.750   44.083    0.401    0.293   70.717
  226.000   53.607    0.405    0.286   61.079
  226.250   60.781    0.408    0.278   56.795
  226.500   63.801    0.400    0.265   49.974
  226.750   65.653    0.383    0.248   48.282
  227.000   66.307    0.372    0.245   47.523
  227.250   68.144    0.382    0.252   47.601
  227.500   69.997    0.406    0.261   45.964
  227.750   71.242    0.414    0.276   41.976
  228.000   72.488    0.425    0.285   38.313
  228.250   75.507    0.430    0.286   33.712
  228.500   78.511    0.430    0.277   28.581
  228.750   83.911    0.422    0.239   23.346
  229.000   91.677    0.412    0.226   12.200
  229.250   97.638    0.402    0.197    7.265
  229.500  105.995    0.409    0.184    6.509
  229.750  112.562    0.442    0.188    5.832
  230.000  123.301    0.457    0.199    5.228
  230.250  118.617    0.472    0.212    4.600
