~VERSION INFORMATION
 VERS.                 2.0:   CWLS LOG ASCII STANDARD -VERSION 2.0
 WRAP.                  NO:   ONE LINE PER DEPTH STEP
~WELL INFORMATION BLOCK
#MNEM.UNIT           DATA                    DESCRIPTION OF MNEMONIC
#---------    -------------------            -------------------------------
# Generated from Intellog Unique Number	CS_67_68/WELL/641
WELL.         AEC FISH CREEK                 : Well_name    - WELL
LOC .         00/05-29-068-07W4/0            : Location     - LOCATION
UWI .         00/05-29-068-07W4/0            : Uwi          - UNIQUE WELL ID
ENTR.         SP                             : Entered      - ENTERED BY
SRVC.         SCHLUMBERGER                   : Scn          - SERVICE COMPANY
STRT.M        290                            : top_depth    - START DEPTH
STOP.M        530                            : bot_depth    - STOP DEPTH
STEP.M        0.25                           : increment    - STEP LENGTH
 NULL. -999.2500:NULL Value
~CURVE INFORMATION BLOCK
#MNEM UNIT       ERCB CURVE CODE    CURVE DESCRIPTION
#-----------   ------------------   ----------------------------------
DEPT.M        00 001 00 00         : DEPTH        - DEPTH
ILD .OHMM     00 120 00 00         : RESD         - DEEP RESISTIVITY (DIL)
DPHI.V/V      00 890 00 00         : PHID         - DENSITY POROSITY (LIMESTONE)
NPHI.V/V      00 330 00 00         : PHIN         - NEUTRON POROSITY (LIMESTONE)
GR  .API      00 310 00 00         : GR           - GAMMA RAY
~PARAMETER INFORMATION
#MNEM.UNIT           DATA             DESCRIPTION OF MNEMONIC
#---------         -----------     ------------------------------
GL  .M        628.32               : gl           - GROUND LEVEL ELEVATION
EREF.M        631.9                : kb           - ELEVATION OF DEPTH REFERENCE
DATM.M        628.32               : datum        - DATUM ELEVATION
TDD .M        539                  : tdd          - TOTAL DEPTH DRILLER
RUN .         ONE                  : Run          - RUN NUMBER
ENG .         BILL                 : Engineer     - RECORDING ENGINEER
WIT .         JIM                  : Witness      - WITNESSED BY
MUD .         GEL                  : Mud_type     - MUD TYPE
MATR.         LIMESTONE            : Logunit      - NEUTRON MATRIX
TMAX.C        23                   : BHT          - MAXIMUM RECORDED TEMPERATURE
BHTD.M        539                  : BHTDEP       - MAXIMUM RECORDED TEMPERATURE
MATR.         1                    : LOGUNIT      - NEUTRON MATRIX
RMT .C        25                   : MDTP         - TEMPERATURE OF MUD
NEUT.         1                    : NEUTRON      - NEUTRON TYPE
RESI.         0                    : RESIST       - RESISTIVITY TYPE
RMC .OHMM     0.25                 : RMC          - RESISTIVITY OF MUD CAKE
RMF .OHMM     0.25                 : RMF          - RESISTIVITY OF MUD FILTRATE
SUFT.C        15                   : SUFT         - SURFACE TEMPERATURE
~A  DEPTH     RESD     PHID     PHIN       GR
# ...
  507.500    3.494    0.341    0.376   29.258
  507.750    3.530    0.337    0.370   31.001
  508.000    3.566    0.334    0.370   34.531
  508.250    3.615    0.337    0.390   36.276
  508.500    3.659    0.342    0.389   32.104
  508.750    3.710    0.343    0.383   28.978
  509.000    3.740    0.331    0.377   27.765
  509.250    3.842    0.316    0.366   27.660
  509.500    3.873    0.307    0.358   27.614
  509.750    3.973    0.302    0.358   29.789
  510.000    3.835    0.336    0.387   31.834
  510.250    3.767    0.335    0.395   28.078
  510.500    3.693    0.334    0.390   27.564
  510.750    3.669    0.329    0.384   30.680
  511.000    3.625    0.325    0.381   34.215
  511.250    3.581    0.324    0.384   37.509
  511.500    3.557    0.330    0.386   37.005
  511.750    3.520    0.332    0.377   34.226
  512.000    3.497    0.335    0.383   32.482
  512.250    3.481    0.335    0.393   30.881
  512.500    3.451    0.335    0.393   30.119
  512.750    3.409    0.335    0.397   29.912
  513.000    3.348    0.339    0.410   32.165
  513.250    3.302    0.343    0.395   32.451
  513.500    3.268    0.345    0.385   32.862
  513.750    3.265    0.346    0.392   35.300
  514.000    3.262    0.344    0.402   36.695
  514.250    3.259    0.340    0.391   37.104
  514.500    3.281    0.337    0.378   36.907
  514.750    3.303    0.336    0.370   34.862
  515.000    3.319    0.335    0.368   31.038
  515.250    3.353    0.332    0.379   27.951
  515.500    3.383    0.330    0.386   30.998
  515.750    3.405    0.329    0.388   36.686
  516.000    3.435    0.329    0.383   39.731
  516.250    3.418    0.332    0.383   41.309
  516.500    3.370    0.334    0.387   40.498
  516.750    3.323    0.336    0.384   39.257
  517.000    3.246    0.336    0.382   38.742
  517.250    3.224    0.334    0.383   38.046
  517.500    3.239    0.332    0.387   36.497
  517.750    3.305    0.330    0.384   33.050
  518.000    3.397    0.329    0.377   35.358
  518.250    3.472    0.325    0.370   38.100
  518.500    3.590    0.319    0.374   38.201
  518.750    3.725    0.316    0.387   37.324
  519.000    3.887    0.318    0.382   39.388
  519.250    4.119    0.284    0.342   41.456
  519.500    4.289    0.169    0.310   45.668
  519.750    4.510    0.125    0.272  100.665
  520.000    4.815    0.102    0.266  117.635
  520.250    5.101    0.089    0.273  113.753
  520.500    5.385    0.100    0.276   99.814
  520.750    5.545    0.106    0.275   90.781
  521.000    5.467    0.110    0.279   86.467
  521.250    5.400    0.116    0.297   73.264
  521.500    5.386    0.158    0.314   58.403
  521.750    5.380    0.185    0.314   55.021
  522.000    5.316    0.200    0.307   57.139
  522.250    5.263    0.217    0.314   58.104
  522.500    5.208    0.230    0.322   54.035
  522.750    5.153    0.247    0.327   47.280
  523.000    5.090    0.262    0.334   46.086
  523.250    5.018    0.253    0.329   45.584
  523.500    4.920    0.248    0.318   46.543
  523.750    4.833    0.248    0.318   45.850
  524.000    4.801    0.254    0.334   44.115
  524.250    4.742    0.257    0.341   42.499
  524.500    4.649    0.264    0.347   40.516
  524.750    4.558    0.275    0.351   37.801
  525.000    4.460    0.282    0.358   35.584
  525.250    4.465    0.289    0.369   34.394
  525.500    4.520    0.294    0.383   33.702
  525.750    4.620    0.301    0.391   33.504
  526.000    4.713    0.311    0.398   33.788
  526.250    4.909    0.306    0.408   34.316
  526.500    5.190    0.299    0.390   36.322
  526.750    5.573    0.292    0.381   38.519
  527.000    6.040    0.289    0.383   43.276
  527.250    6.825    0.289    0.249   47.370
  527.500    8.721    0.030    0.200   49.804
  527.750   10.630   -0.002    0.171   48.008
  528.000   14.405   -0.001    0.157   36.091
  528.250   18.373    0.029    0.148   29.692
  528.500   23.303    0.047    0.144   24.154
  528.750   28.456    0.050    0.143   20.149
  529.000   32.091    0.039    0.140   19.274
  529.250   35.318    0.034    0.136   19.634
  529.500   38.131    0.029    0.133   20.281
  529.750   42.700    0.026    0.131   20.939
  530.000   43.459    0.029    0.132   21.782
