~VERSION INFORMATION
 VERS.                 2.0:   CWLS LOG ASCII STANDARD -VERSION 2.0
 WRAP.                  NO:   ONE LINE PER DEPTH STEP
~WELL INFORMATION BLOCK
#MNEM.UNIT           DATA                    DESCRIPTION OF MNEMONIC
#---------    -------------------            -------------------------------
# Generated from Intellog Unique Number	CS_77_79/WELL/2918
WELL.         CAN WORLDWIDE ENR              : Well_name    - WELL
LOC .         00/07-06-079-03W4/0            : Location     - LOCATION
UWI .         00/07-06-079-03W4/0            : Uwi          - UNIQUE WELL ID
ENTR.         TIM                            : Entered      - ENTERED BY
SRVC.         SCHLUMBERGER                   : Scn          - SERVICE COMPANY
STRT.M        135                            : top_depth    - START DEPTH
STOP.M        405                            : bot_depth    - STOP DEPTH
STEP.M        0.25                           : increment    - STEP LENGTH
 NULL. -999.2500:NULL Value
~CURVE INFORMATION BLOCK
#MNEM UNIT       ERCB CURVE CODE    CURVE DESCRIPTION
#-----------   ------------------   ----------------------------------
DEPT.M        00 001 00 00         : DEPTH        - DEPTH
GR  .API      00 310 00 00         : GR           - GAMMA RAY
NPHI.V/V      00 330 00 00         : PHIN         - NEUTRON POROSITY (SANDSTONE)
DPHI.V/V      00 890 00 00         : PHID         - DENSITY POROSITY (SANDSTONE)
ILD .OHMM     00 120 00 00         : RESD         - DEEP RESISTIVITY (DIL)
~PARAMETER INFORMATION
#MNEM.UNIT           DATA             DESCRIPTION OF MNEMONIC
#---------         -----------     ------------------------------
GL  .M        552.02               : gl           - GROUND LEVEL ELEVATION
EREF.M        556.38               : kb           - ELEVATION OF DEPTH REFERENCE
DATM.M        556.38               : datum        - DATUM ELEVATION
TDD .M        410                  : tdd          - TOTAL DEPTH DRILLER
RUN .         ONE                  : Run          - RUN NUMBER
ENG .         BILL                 : Engineer     - RECORDING ENGINEER
WIT .         JIM                  : Witness      - WITNESSED BY
MUD .         GEL                  : Mud_type     - MUD TYPE
MATR.         SANDSTONE            : Logunit      - NEUTRON MATRIX
TMAX.C        20                   : BHT          - MAXIMUM RECORDED TEMPERATURE
BHTD.M        410                  : BHTDEP       - MAXIMUM RECORDED TEMPERATURE
MATR.         1                    : LOGUNIT      - NEUTRON MATRIX
RMT .C        15                   : MDTP         - TEMPERATURE OF MUD
NEUT.         1                    : NEUTRON      - NEUTRON TYPE
RESI.         4.4                  : RESIST       - RESISTIVITY TYPE
RMC .OHMM     4.5                  : RMC          - RESISTIVITY OF MUD CAKE
RMF .OHMM     4                    : RMF          - RESISTIVITY OF MUD FILTRATE
SUFT.C        15                   : SUFT         - SURFACE TEMPERATURE
~A  DEPTH       GR     PHIN     PHID     RESD
# ...
  352.500   28.276    0.362    0.340    1.728
  352.750   28.273    0.360    0.339    1.728
  353.000   28.270    0.359    0.339    1.696
  353.250   29.484    0.357    0.338    1.696
  353.500   30.089    0.357    0.338    1.665
  353.750   31.304    0.357    0.338    1.634
  354.000   32.518    0.360    0.338    1.605
  354.250   33.125    0.361    0.339    1.605
  354.500   31.903    0.361    0.344    1.605
  354.750   30.683    0.361    0.344    1.606
  355.000   28.242    0.361    0.343    1.606
  355.250   27.632    0.361    0.342    1.606
  355.500   27.626    0.362    0.342    1.606
  355.750   28.234    0.362    0.343    1.607
  356.000   28.231    0.364    0.343    1.607
  356.250   30.053    0.364    0.342    1.607
  356.500   30.052    0.364    0.342    1.608
  356.750   30.658    0.370    0.343    1.608
  357.000   29.436    0.376    0.345    1.608
  357.250   29.433    0.375    0.348    1.609
  357.500   29.429    0.375    0.349    1.609
  357.750   30.036    0.375    0.350    1.609
  358.000   31.858    0.377    0.344    1.640
  358.250   33.073    0.375    0.341    1.671
  358.500   34.288    0.367    0.335    1.703
  358.750   34.285    0.364    0.331    1.736
  359.000   34.890    0.365    0.333    1.803
  359.250   34.888    0.365    0.337    1.872
  359.500   34.275    0.367    0.339    1.944
  359.750   32.444    0.369    0.338    2.018
  360.000   31.224    0.371    0.332    2.136
  360.250   30.003    0.374    0.324    2.218
  360.500   30.001    0.372    0.315    2.303
  360.750   30.605    0.366    0.305    2.391
  361.000   31.212    0.364    0.303    2.483
  361.250   33.643    0.357    0.301    2.484
  361.500   37.295    0.352    0.301    2.531
  361.750   43.990    0.357    0.299    2.485
  362.000   51.903    0.365    0.298    2.349
  362.250   51.290    0.366    0.298    2.221
  362.500   48.243    0.373    0.298    2.023
  362.750   45.195    0.366    0.303    1.877
  363.000   48.845    0.363    0.317    1.775
  363.250   50.669    0.359    0.326    1.742
  363.500   50.057    0.360    0.345    1.678
  363.750   46.401    0.365    0.345    1.617
  364.000   43.352    0.370    0.343    1.587
  364.250   42.131    0.375    0.342    1.587
  364.500   40.910    0.374    0.341    1.587
  364.750   38.470    0.369    0.342    1.588
  365.000   35.423    0.364    0.343    1.588
  365.250   31.767    0.369    0.340    1.619
  365.500   28.718    0.370    0.333    1.650
  365.750   29.933    0.369    0.328    1.650
  366.000   32.975    0.368    0.326    1.681
  366.250   37.234    0.367    0.323    1.713
  366.500   37.231    0.368    0.320    1.746
  366.750   37.228    0.373    0.319    1.747
  367.000   37.224    0.376    0.318    1.747
  367.250   37.828    0.383    0.317    1.747
  367.500   38.435    0.386    0.322    1.715
  367.750   40.867    0.384    0.328    1.684
  368.000   41.474    0.378    0.331    1.684
  368.250   40.862    0.375    0.333    1.684
  368.500   43.294    0.375    0.336    1.717
  368.750   45.727    0.385    0.342    1.717
  369.000   43.897    0.400    0.346    1.750
  369.250   40.850    0.411    0.344    1.783
  369.500   35.365    0.403    0.336    1.784
  369.750   32.927    0.392    0.332    1.784
  370.000   32.315    0.383    0.329    1.751
  370.250   31.703    0.372    0.333    1.719
  370.500   31.698    0.363    0.334    1.687
  370.750   31.695    0.363    0.337    1.656
  371.000   32.301    0.365    0.334    1.596
  371.250   32.907    0.363    0.332    1.596
  371.500   35.339    0.361    0.327    1.596
  371.750   37.163    0.357    0.322    1.627
  372.000   40.815    0.355    0.320    1.658
  372.250   46.901    0.350    0.317    1.722
  372.500   51.769    0.346    0.300    1.754
  372.750   52.984    0.341    0.296    1.822
  373.000   48.109    0.345    0.299    1.928
  373.250   38.972    0.350    0.303    2.118
  373.500   39.577    0.355    0.304    2.199
  373.750   44.445    0.361    0.295    2.283
  374.000   48.705    0.370    0.282    2.371
  374.250   55.400    0.372    0.275    2.416
  374.500   51.134    0.376    0.276    2.372
  374.750   46.260    0.370    0.276    2.372
  375.000   40.776    0.361    0.275    2.329
  375.250   35.293    0.348    0.269    2.329
  375.500   32.245    0.339    0.260    2.374
  375.750   34.677    0.337    0.256    2.419
  376.000   35.891    0.339    0.271    2.465
  376.250   35.888    0.342    0.282    2.466
  376.500   36.495    0.345    0.284    2.513
  376.750   41.362    0.348    0.263    2.467
  377.000   53.538    0.341    0.238    2.377
  377.250   56.579    0.336    0.241    2.164
  377.500   55.358    0.333    0.257    2.008
  377.750   43.785    0.333    0.271    1.935
  378.000   32.822    0.332    0.278    1.935
  378.250   30.383    0.330    0.282    1.935
  378.500   26.117    0.328    0.286    1.936
  378.750   23.069    0.327    0.289    1.973
  379.000   23.065    0.327    0.292    2.049
  379.250   24.279    0.330    0.297    2.168
  379.500   24.887    0.343    0.298    2.426
  379.750   28.535    0.353    0.269    2.873
  380.000   30.969    0.352    0.223    3.466
  380.250   38.882    0.327    0.178    3.880
  380.500   48.622    0.314    0.156    4.262
  380.750   49.227    0.319    0.182    4.426
  381.000   49.224    0.321    0.190    4.106
  381.250   48.611    0.323    0.203    3.671
  381.500   48.000    0.320    0.207    3.603
  381.750   47.997    0.316    0.207    3.604
  382.000   47.385    0.315    0.209    3.604
  382.250   47.381    0.314    0.213    3.673
  382.500   47.378    0.313    0.218    3.674
  382.750   47.374    0.319    0.224    3.674
  383.000   46.154    0.327    0.229    3.540
  383.250   41.279    0.324    0.237    3.347
  383.500   30.315    0.321    0.245    3.164
  383.750   29.094    0.331    0.253    2.776
  384.000   27.874    0.337    0.265    2.528
  384.250   24.825    0.342    0.275    2.481
  384.500   21.169    0.348    0.283    2.391
  384.750   17.512    0.354    0.291    2.347
  385.000   16.291    0.362    0.294    2.303
  385.250   16.896    0.371    0.300    2.261
  385.500   16.893    0.382    0.317    2.219
  385.750   17.498    0.386    0.315    2.305
  386.000   17.495    0.378    0.309    2.439
  386.250   18.710    0.365    0.309    2.485
  386.500   20.534    0.365    0.308    2.629
  386.750   22.967    0.372    0.297    2.835
  387.000   31.489    0.380    0.211    2.944
  387.250   48.536    0.375    0.193    3.295
  387.500   53.404    0.358    0.189    3.688
  387.750   57.053    0.341    0.183    4.206
  388.000   59.486    0.323    0.178    4.450
  388.250   59.484    0.314    0.137    4.452
  388.500   59.481    0.318    0.126    3.978
  388.750   55.824    0.327    0.139    2.634
  389.000   48.513    0.338    0.180    2.225
  389.250   41.203    0.346    0.232    1.989
  389.500   31.457    0.355    0.273    1.846
  389.750   24.146    0.357    0.291    1.745
  390.000   22.316    0.364    0.304    1.681
  390.250   21.095    0.371    0.316    1.650
  390.500   21.092    0.375    0.322    1.682
  390.750   21.088    0.383    0.329    1.714
  391.000   21.085    0.389    0.337    1.747
  391.250   21.082    0.389    0.338    1.848
  391.500   21.079    0.384    0.330    1.992
  391.750   21.075    0.378    0.324    2.069
  392.000   22.900    0.372    0.310    2.404
  392.250   27.768    0.378    0.178    2.691
  392.500   50.295    0.389    0.170    3.069
  392.750   71.604    0.416    0.177    3.309
  393.000   90.478    0.433    0.184    3.635
  393.250  141.016    0.437    0.180    3.993
  393.500  135.532    0.446    0.169    4.146
  393.750  136.137    0.468    0.173    4.387
  394.000  137.353    0.496    0.183    4.642
  394.250  135.523    0.521    0.186    4.820
  394.500  130.647    0.523    0.169    4.912
  394.750  127.600    0.518    0.165    4.913
  395.000  124.552    0.512    0.189    4.915
  395.250  119.677    0.523    0.203    4.916
  395.500  116.630    0.562    0.203    4.916
  395.750  111.755    0.489    0.172    5.202
