~VERSION INFORMATION
 VERS.                 2.0:   CWLS LOG ASCII STANDARD -VERSION 2.0
 WRAP.                  NO:   ONE LINE PER DEPTH STEP
~WELL INFORMATION BLOCK
#MNEM.UNIT           DATA                    DESCRIPTION OF MNEMONIC
#---------    -------------------            -------------------------------
# Generated from Intellog Unique Number	CW_70_72/WELL/3302
NULL.         -999.25                        : NULL_VALUE
WELL.         CALSTAN MITSUE                 : Well_name    - WELL              
LOC .         04-18-072-04W5                 : Location     - LOCATION          
UWI .         00/04-18-072-04W5/0            : Uwi          - UNIQUE WELL ID    
ENTR.         CAMPBELL                       : Entered      - ENTERED BY        
SRVC.         SCHLUMBERGER                   : Scn          - SERVICE COMPANY   
DATE.         10 OCT 1964                    : Date         - LOG DATE          
STRT.M        481.584                        : top_depth    - START DEPTH       
STOP.M        624.834                        : bot_depth    - STOP DEPTH        
STEP.M        0.25                           : increment    - STEP LENGTH       
~CURVE INFORMATION BLOCK
#MNEM UNIT       ERCB CURVE CODE    CURVE DESCRIPTION
#-----------   ------------------   ----------------------------------
DEPT.M        00 001 00 00         : DEPTH        - DEPTH                       
ILD .OHMM     00 120 00 00         : RESD         - DEEP RESISTIVITY (DIL)      
DELT.US/F     00 520 00 00         : DELT         - SONIC TRAVEL TIME           
GR  .API      00 310 00 00         : GR           - GAMMA RAY                   
~PARAMETER INFORMATION       
#MNEM.UNIT           DATA             DESCRIPTION OF MNEMONIC
#---------         -----------     ------------------------------
GL  .M        589.3                : gl           - GROUND LEVEL ELEVATION      
EREF.M        593.446              : kb           - ELEVATION OF DEPTH REFERENCE
DATM.M        593.446              : datum        - DATUM ELEVATION             
TDD .M        1691.34              : tdd          - TOTAL DEPTH DRILLER         
RUN .         ONE                  : Run          - RUN NUMBER                  
MUD .         GEL                  : Mud_type     - MUD TYPE                    
MATR.         SANDSTONE            : Logunit      - NEUTRON MATRIX              
TMAX.C        53.3333              : BHT          - MAXIMUM RECORDED TEMPERATURE
BHTD.M        1691.34              : BHTDEP       - MAXIMUM RECORDED TEMPERATURE
RMT .C        17.7778              : MDTP         - TEMPERATURE OF MUD          
MUDD.KG/M     9600                 : MWT          - MUD DENSITY                 
NEUT.         1                    : NEUTRON      - NEUTRON TYPE                
RESI.         0                    : RESIST       - RESISTIVITY TYPE            
RM  .OHMM     1.38                 : RM           - RESISTIVITY OF MUD          
RMC .OHMM     1.97                 : RMC          - RESISTIVITY OF MUD CAKE     
RMF .OHMM     1.1                  : RMF          - RESISTIVITY OF MUD FILTRATE 
SUFT.C        10                   : SUFT         - SURFACE TEMPERATURE         
~A  DEPTH     RESD     DELT       GR
# ...
  535.834    4.606  276.850   65.378
  536.084    5.002  294.884   64.660
  536.334    5.398  310.663   63.703
  536.584    5.254  331.595   63.928
  536.834    4.915  365.083   65.570
  537.084    4.135  375.390   68.631
  537.334    3.650  379.256   69.802
  537.584    3.409  382.802   68.373
  537.834    3.412  385.381   66.945
  538.084    3.416  386.028   68.824
  538.334    3.421  385.065   71.881
  538.584    3.425  382.815   74.234
  538.834    3.526  378.310   73.986
  539.084    3.530  370.587   71.612
  539.334    3.387  372.200   70.655
  539.584    3.243  379.287   70.647
  539.834    3.346  381.866   71.343
  540.084    3.447  384.123   70.624
  540.334    3.598  382.195   70.612
  540.584    3.699  384.452   70.838
  540.834    3.801  388.318   67.046
  541.084    3.659  387.356   66.091
  541.334    3.515  379.310   68.674
  541.584    3.421  375.450   69.849
  541.834    3.327  364.828   68.656
  542.084    3.282  371.271   64.628
  542.334    3.237  378.358   62.727
  542.584    3.192  385.122   62.243
  542.834    3.245  388.346   63.650
  543.084    3.395  387.061   63.875
  543.334    3.595  382.557   67.644
  543.584    3.697  372.901   74.484
  543.834    3.554  373.227   74.001
  544.084    3.362  371.620   69.501
  544.334    3.365  367.438   67.128
  544.584    3.272  367.120   66.641
  544.834    3.177  361.649   67.340
  545.084    3.132  362.941   68.983
  545.334    3.087  362.622   68.972
  545.584    3.042  359.405   69.195
  545.834    3.046  357.478   70.132
  546.084    3.050  364.886   75.552
  546.334    3.053  371.329   77.432
  546.584    3.057  379.059   74.585
  546.834    3.061  360.710   76.463
  547.084    3.065  336.244   77.635
  547.334    3.020  335.604   77.623
  547.584    3.024  335.285   75.956
  547.834    2.979  347.523   75.476
  548.084    2.934  357.185   77.119
  548.334    2.937  363.306   79.468
  548.584    2.991  368.139   79.931
  548.834    3.043  364.279   78.975
  549.084    3.047  378.127   74.711
  549.334    3.198  379.740   74.935
  549.584    3.250  366.221   77.052
  549.834    3.304  371.054   77.275
  550.084    3.356  374.599   77.973
  550.334    3.361  373.958   78.671
  550.584    3.364  371.064   79.602
  550.834    3.270  377.506   80.066
  551.084    3.126  382.340   80.527
  551.334    3.033  372.684   81.224
  551.584    2.938  357.876   81.921
  551.834    2.845  390.399   82.382
  552.084    2.799  364.645   83.080
  552.334    2.754  361.106   82.834
  552.584    2.758  371.091   82.350
  552.834    2.761  368.518   81.867
  553.084    2.717  370.776   82.091
  553.334    2.721  371.423   82.553
  553.584    2.725  373.680   82.778
  553.834    2.728  376.904   82.767
  554.084    2.733  373.687   82.520
  554.334    2.736  370.793   81.563
  554.584    2.740  358.239   79.664
  554.834    2.744  360.496   77.288
  555.084    2.797  365.007   74.444
  555.334    2.850  367.908   77.976
  555.584    2.853  368.877   82.217
  555.834    2.857  361.798   82.676
  556.084    2.763  387.880   82.665
  556.334    2.669  377.903   82.656
  556.584    2.624  360.842   80.519
  556.834    2.579  359.235   79.325
  557.084    2.533  368.898   80.022
  557.334    2.489  373.409   80.014
  557.584    2.443  371.158   79.766
  557.834    2.496  366.010   79.517
  558.084    2.549  362.472   78.798
  558.334    2.700  361.831   78.315
  558.584    2.851  364.411   75.941
  558.834    2.952  367.956   74.749
  559.084    3.103  369.247   75.445
  559.334    3.352  369.250   76.380
  559.584    3.601  346.716   74.007
  559.834    3.800  317.420   67.381
  560.084    3.999  293.920   64.769
  560.334    4.298  284.264   63.343
  560.584    4.693  259.154   64.513
  560.834    5.137  249.176   72.534
  561.084    5.485  364.444   79.136
  561.334    4.411  365.092   77.945
  561.584    3.876  339.981   78.171
  561.834    3.390  343.527   79.811
  562.084    3.002  398.264   80.509
  562.334    2.468  412.756   80.497
  562.584    2.374  307.154   80.488
  562.834    2.279  293.313   79.532
  563.084    2.185  313.601   79.281
  563.334    2.189  326.805   79.036
  563.584    2.144  349.023   76.663
  563.834    2.197  349.349   70.274
  564.084    2.543  370.602   63.886
  564.334    2.939  383.485   60.330
  564.584    3.579  382.200   60.791
  564.834    4.416  365.139   61.724
  565.084    4.811  359.990   64.075
  565.334    4.815  363.214   67.609
  565.584    4.525  373.842   70.668
  565.834    3.844  387.046   71.838
  566.084    3.309  373.205   69.938
  566.334    2.920  380.935   67.800
  566.584    2.729  378.685   69.915
  566.834    2.683  388.025   72.502
  567.084    2.688  397.366   74.855
  567.334    2.691  383.203   78.622
  567.584    2.695  370.005   75.068
  567.834    2.601  358.740   73.404
  568.084    2.458  359.709   72.683
  568.334    2.413  370.981   73.854
  568.584    2.270  360.682   75.020
  568.834    2.225  364.227   76.193
  569.084    2.228  371.958   74.290
  569.334    2.232  374.859   70.265
  569.584    2.334  373.896   65.763
  569.834    2.584  389.032   63.156
  570.084    2.831  389.035   60.547
  570.334    3.227  389.682   55.575
  570.584    3.574  396.769   53.437
  570.834    3.676  397.416   58.623
  571.084    3.728  393.556   60.265
  571.334    3.732  389.696   60.725
  571.584    3.736  386.480   60.477
  571.834    3.740  397.109   59.994
  572.084    3.694  399.366   59.747
  572.334    3.552  400.013   60.209
  572.584    3.310  401.626   61.851
  572.834    3.364  402.596   62.785
  573.084    3.368  403.243   61.829
  573.334    3.421  403.246   61.110
  573.584    3.474  406.147   61.099
  573.834    3.526  407.438   60.142
  574.084    3.579  383.616   56.116
  574.334    3.680  391.990   55.397
  574.584    3.684  398.433   56.327
  574.834    3.737  376.221   56.319
  575.084    3.791  372.039   55.126
  575.334    3.842  357.553   53.934
  575.584    3.846  352.083   54.632
  575.834    3.850  341.139   57.218
  576.084    3.854  356.276   59.334
  576.334    3.858  390.085   57.906
  576.584    3.862  387.835   55.768
  576.834    3.866  388.804   59.537
  577.084    3.870  392.672   61.888
  577.334    3.873  394.607   64.476
  577.584    3.877  395.898   60.447
  577.834    3.881  396.867   59.491
  578.084    3.886  381.738   58.301
  578.334    3.938  376.912   57.108
  578.584    3.991  347.616   55.678
  578.834    4.044  301.256   55.430
  579.084    4.145  284.517   57.073
  579.334    4.100  376.281   57.772
  579.584    3.957  379.182   58.705
  579.834    3.814  389.167   59.876
  580.084    3.769  379.511   61.045
  580.334    3.723  375.007   61.979
  580.584    3.631  372.113   60.551
  580.834    3.584  376.624   60.539
  581.084    3.539  373.407   59.820
  581.334    3.543  367.615   59.572
  581.584    3.547  359.891   57.199
  581.834    3.551  369.876   56.479
  582.084    3.555  376.641   57.648
  582.334    3.558  378.576   58.110
  582.584    3.563  383.087   59.516
  582.834    3.518  374.397   59.032
  583.084    3.423  364.419   60.438
  583.334    3.329  370.540   62.317
  583.584    3.333  367.646   60.890
  583.834    3.337  367.005   62.532
  584.084    3.390  362.501   65.120
  584.334    3.443  366.690   65.109
  584.584    3.495  365.727   62.971
  584.834    3.548  359.292   60.834
  585.084    3.552  361.226   58.696
  585.334    3.556  369.923   60.574
  585.584    3.609  376.366   61.273
  585.834    3.613  374.437   60.788
  586.084    3.616  355.445   62.194
  586.334    3.620  364.463   63.601
  586.584    3.673  378.312   64.771
  586.834    3.676  366.080   63.580
  587.084    3.681  362.219   62.859
  587.334    3.684  359.326   63.319
  587.584    3.591  358.041   64.254
  587.834    3.496  358.366   65.660
  588.084    3.403  368.672   67.303
  588.334    3.357  371.251   66.109
  588.584    3.361  365.459   65.627
  588.834    3.413  359.989   65.853
  589.084    3.418  364.822   66.078
  589.334    3.422  365.148   67.249
  589.584    3.425  365.795   68.890
  589.834    3.479  364.510   68.878
