~VERSION INFORMATION
 VERS.                 2.0:   CWLS LOG ASCII STANDARD -VERSION 2.0
 WRAP.                  NO:   ONE LINE PER DEPTH STEP
~WELL INFORMATION BLOCK
#MNEM.UNIT           DATA                    DESCRIPTION OF MNEMONIC
#---------    -------------------            -------------------------------
# Generated from Intellog Unique Number	CW_70_72/WELL/3298
NULL.         -999.25                        : NULL_VALUE
WELL.         CALSTAN SOBC HONDO             : Well_name    - WELL              
LOC .         02-03-071-04W5                 : Location     - LOCATION          
UWI .         00/02-03-071-04W5/0            : Uwi          - UNIQUE WELL ID    
ENTR.         CAMPBELL                       : Entered      - ENTERED BY        
SRVC.         SCHLUMBERGER                   : Scn          - SERVICE COMPANY   
DATE.         10 OCT 1964                    : Date         - LOG DATE          
STRT.M        676.656                        : top_depth    - START DEPTH       
STOP.M        819.906                        : bot_depth    - STOP DEPTH        
STEP.M        0.25                           : increment    - STEP LENGTH       
~CURVE INFORMATION BLOCK
#MNEM UNIT       ERCB CURVE CODE    CURVE DESCRIPTION
#-----------   ------------------   ----------------------------------
DEPT.M        00 001 00 00         : DEPTH        - DEPTH                       
GR  .API      00 310 00 00         : GR           - GAMMA RAY                   
ILD .OHMM     00 120 00 00         : RESD         - DEEP RESISTIVITY (DIL)      
DELT.US/F     00 520 00 00         : DELT         - SONIC TRAVEL TIME           
~PARAMETER INFORMATION       
#MNEM.UNIT           DATA             DESCRIPTION OF MNEMONIC
#---------         -----------     ------------------------------
GL  .M        742.334              : gl           - GROUND LEVEL ELEVATION      
EREF.M        746.15               : kb           - ELEVATION OF DEPTH REFERENCE
DATM.M        746.15               : datum        - DATUM ELEVATION             
TDD .M        1853.18              : tdd          - TOTAL DEPTH DRILLER         
RUN .         ONE                  : Run          - RUN NUMBER                  
ENG .         KAWOLSKI             : Engineer     - RECORDING ENGINEER          
WIT .         BROWN                : Witness      - WITNESSED BY                
MUD .         GEL                  : Mud_type     - MUD TYPE                    
MATR.         SANDSTONE            : Logunit      - NEUTRON MATRIX              
TMAX.C        124                  : BHT          - MAXIMUM RECORDED TEMPERATURE
BHTD.M        1853.18              : BHTDEP       - MAXIMUM RECORDED TEMPERATURE
RMT .C        23.8889              : MDTP         - TEMPERATURE OF MUD          
MUDD.KG/M     10500                : MWT          - MUD DENSITY                 
NEUT.         1                    : NEUTRON      - NEUTRON TYPE                
RESI.         0                    : RESIST       - RESISTIVITY TYPE            
RM  .OHMM     0.97                 : RM           - RESISTIVITY OF MUD          
RMC .OHMM     1.29                 : RMC          - RESISTIVITY OF MUD CAKE     
RMF .OHMM     0.76                 : RMF          - RESISTIVITY OF MUD FILTRATE 
SUFT.C        10                   : SUFT         - SURFACE TEMPERATURE         
~A  DEPTH       GR     RESD     DELT
# ...
  730.906   71.668    6.753  328.951
  731.156   70.266    6.962  335.381
  731.406   68.392    7.271  339.552
  731.656   66.281    7.477  329.542
  731.906   63.700    7.785  333.713
  732.156   63.479    7.599  333.696
  732.406   67.746    5.948  324.007
  732.656   73.195    4.984  328.179
  732.906   75.810    4.507  336.862
  733.156   75.591    4.131  349.413
  733.406   76.315    4.045  349.717
  733.656   76.801    4.153  340.351
  733.906   76.109    4.166  334.532
  734.156   76.360    4.178  336.448
  734.406   77.320    4.092  340.617
  734.656   77.099    4.107  334.799
  734.906   75.463    4.511  350.572
  735.156   74.297    4.914  359.577
  735.406   74.549    5.318  330.876
  735.656   74.800    4.841  325.057
  735.906   74.815    3.974  338.896
  736.156   71.051    3.498  352.091
  736.406   66.344    3.313  358.841
  736.656   64.708    3.131  354.954
  736.906   65.430    3.145  363.637
  737.156   65.921    3.155  371.676
  737.406   65.932    3.463  399.695
  737.656   65.007    3.964  359.391
  737.906   62.894    5.052  361.629
  738.156   59.839    6.731  255.579
  738.406   56.075    7.817  303.581
  738.656   55.617    7.732  251.676
  738.906   55.873    7.452  346.407
  739.156   57.539    7.073  327.375
  739.406   60.153    6.793  330.255
  739.656   61.589    6.904  340.550
  739.906   61.838    6.524  341.819
  740.156   61.148    6.536  342.125
  740.406   60.453    6.548  343.394
  740.656   59.996    6.563  340.796
  740.906   59.066    6.379  339.814
  741.156   57.664    6.292  344.307
  741.406   56.736    6.014  349.766
  741.656   53.919    6.122  347.492
  741.906   51.572    6.431  345.863
  742.156   50.643    6.833  350.356
  742.406   50.185    7.139  351.303
  742.656   50.675    7.151  340.973
  742.906   51.635    7.751  346.111
  743.156   52.831    8.253  347.060
  743.406   53.791    8.464  344.459
  743.656   54.987    8.376  344.764
  743.906   55.475    8.682  350.871
  744.156   54.783    9.186  351.816
  744.406   53.617    9.588  350.833
  744.656   52.451    9.701  350.171
  744.906   53.177    9.813  348.861
  745.156   52.956    9.920  345.939
  745.406   49.903   10.030  346.245
  745.656   47.085   10.046  349.772
  745.906   46.388   10.057  350.399
  746.156   48.058   10.069  349.414
  746.406   48.546    9.789  348.429
  746.656   47.854    9.312  349.056
  746.906   49.521    8.835  345.813
  747.156   50.245    8.260  343.539
  747.406   51.445    7.783  345.777
  747.656   51.930    8.089  349.624
  747.906   51.709    8.884  354.116
  748.156   47.473    9.582  353.133
  748.406   44.656    9.987  349.248
  748.656   41.130   10.001  276.716
  748.906   39.962   10.013  250.270
  749.156   39.741    9.830  240.260
  749.406   42.592    9.255  239.595
  749.656   44.735    9.267  238.933
  749.906   46.638    8.987  241.171
  750.156   50.434    8.998  238.252
  750.406   53.286    9.014  299.145
  750.656   54.480    9.026  312.340
  750.906   52.608    9.037  335.525
  751.156   51.680    9.049  340.663
  751.406   50.750    9.061  343.546
  751.656   48.874    9.073  343.206
  751.906   47.237    9.087  343.185
  752.156   48.672    9.099  340.909
  752.406   49.395    9.113  338.638
  752.656   49.411    9.127  337.971
  752.906   48.955    9.137  338.600
  753.156   49.913    8.954  334.715
  753.406   51.820    8.578  325.349
  753.656   53.252    8.001  298.903
  753.906   53.978    7.038  331.758
  754.156   54.464    6.460  353.974
  754.406   54.951    5.690  358.793
  754.656   55.443    5.608  355.550
  754.906   54.511    5.813  352.632
  755.156   54.056    6.217  353.258
  755.406   54.071    6.426  356.461
  755.656   53.850    5.853  334.851
  755.906   53.158    5.573  295.515
  756.156   52.701    5.489  314.510
  756.406   54.371    5.499  338.985
  756.656   56.038    5.511  353.791
  756.906   54.638    5.424  355.062
  757.156   53.234    5.438  357.300
  757.406   53.487    5.841  359.536
  757.656   55.630    6.346  363.063
  757.906   57.062    6.653  366.590
  758.156   56.133    6.861  355.612
  758.406   54.258    6.871  355.595
  758.656   53.801    6.883  359.442
  758.906   52.873    6.602  360.713
  759.156   52.889    6.224  360.050
  759.406   53.140    5.747  352.942
  759.656   53.627    5.370  298.780
  759.906   55.296    5.382  279.748
  760.156   55.787    5.397  368.997
  760.406   54.856    5.308  377.038
  760.656   56.052    5.224  374.120
  760.906   58.903    5.140  367.335
  761.156   61.517    5.054  380.530
  761.406   63.187    5.068  361.818
  761.656   62.966    5.082  359.218
  761.906   61.800    5.092  360.811
  762.156   60.400    5.103  364.338
  762.406   59.234    4.921  366.256
  762.656   59.488    5.226  364.624
  762.906   60.446    5.532  358.481
  763.156   60.697    5.741  361.366
  763.406   58.590    5.853  366.504
  763.656   56.952    5.961  359.072
  763.906   55.314    6.270  357.120
  764.156   56.746    6.284  350.975
  764.406   56.997    6.097  354.182
  764.656   55.832    5.819  356.420
  764.906   54.904    5.831  357.689
  765.156   54.683    5.841  356.704
  765.406   56.113    5.757  355.073
  765.656   58.492    5.769  351.512
  765.906   58.507    5.882  351.814
  766.156   57.109    5.892  351.152
  766.406   56.648    6.200  357.579
  766.656   57.376    6.407  353.049
  766.906   58.570    6.616  347.226
  767.156   59.768    6.925  346.242
  767.406   59.785    7.033  346.226
  767.656   59.798    7.241  344.914
  767.906   60.050    7.450  343.607
  768.156   60.775    7.754  343.270
  768.406   61.971    8.061  337.771
  768.656   62.931    8.662  330.985
  768.906   62.474    9.162  327.420
  769.156   61.076    9.960  327.402
  769.406   60.619   10.265  321.906
  769.656   60.870   10.375  308.995
  769.906   59.704    9.996  300.921
  770.156   59.251    8.639  296.066
  770.406   58.790    7.183  293.468
  770.656   60.696    6.119  294.097
  770.906   63.074    5.742  306.325
  771.156   65.216    5.559  315.975
  771.406   68.536    5.570  302.418
  771.656   73.277    5.584  314.648
  771.906   76.127    5.596  340.411
  772.156   78.740    5.706  328.792
  772.406   79.940    5.817  341.987
  772.656   79.011    5.927  317.797
  772.906   78.315    5.941  294.574
  773.156   77.153    5.953  328.073
  773.406   76.224    5.967  315.485
  773.656   75.764    5.977  300.318
  773.906   76.018    6.185  289.666
  774.156   76.980    6.395  286.425
  774.406   76.997    6.700  318.311
  774.656   76.537    7.205  299.278
  774.906   74.899    7.610  288.303
  775.156   72.078    7.914  318.900
  775.406   68.552    8.024  313.081
  775.656   67.623    7.939  300.493
  775.906   66.697    7.267  324.645
  776.156   66.944    6.594  325.916
  776.406   71.685    6.216  311.394
  776.656   75.952    6.129  334.259
  776.906   77.859    6.241  347.776
  777.156   72.441    6.644  350.979
  777.406   68.441    7.243  356.762
  777.656   65.151    8.137  380.594
  777.906   61.860    8.934  334.165
  778.156   59.039    8.357  286.772
  778.406   57.166    7.000  292.555
  778.656   58.362    6.133  304.781
  778.906   62.867    6.049  305.085
  779.156   65.953    6.059  326.983
  779.406   68.804    6.171  338.245
  779.656   70.943    6.281  293.105
  779.906   73.795    6.392  304.689
  780.156   75.936    6.405  307.571
  780.406   77.604    6.417  305.620
  780.656   77.149    6.430  302.377
  780.906   74.570    6.343  295.914
  781.156   72.691    5.868  290.739
  781.406   73.181    5.296  306.513
  781.656   77.920    4.718  316.485
  781.906   82.187    4.241  320.010
  782.156   84.091    3.472  389.283
  782.406   81.748    2.899  429.548
  782.656   78.927    2.616  295.139
  782.906   76.584    2.334  306.078
  783.156   74.944    2.152  353.436
  783.406   72.834    2.068  393.056
  783.656   70.487    2.079  472.320
  783.906   67.195    2.092  563.828
  784.156   69.810    2.302  562.843
  784.406   70.296    2.410  561.858
  784.656   70.785    2.619  469.021
  784.906   73.873    2.827  435.808
