~VERSION INFORMATION
 VERS.                 2.0:   CWLS LOG ASCII STANDARD -VERSION 2.0
 WRAP.                  NO:   ONE LINE PER DEPTH STEP
~WELL INFORMATION BLOCK
#MNEM.UNIT           DATA                    DESCRIPTION OF MNEMONIC
#---------    -------------------            -------------------------------
# Generated from Intellog Unique Number	CC_80_83/WELL/2317
NULL.         -999.25                        : NULL_VALUE
WELL.         CWWE THORNBURY                 : Well_name    - WELL
LOC .         08-02-080-13W4                 : Location     - LOCATION          
UWI .         00/08-02-080-13W4/0            : Uwi          - UNIQUE WELL ID    
ENTR.         DW                             : Entered      - ENTERED BY        
SRVC.         SCHLUMBERGER                   : Scn          - SERVICE COMPANY   
STRT.M        265                            : top_depth    - START DEPTH       
STOP.M        495.091                        : bot_depth    - STOP DEPTH        
STEP.M        0.3                            : increment    - STEP LENGTH       
~CURVE INFORMATION BLOCK
#MNEM UNIT       ERCB CURVE CODE    CURVE DESCRIPTION
#-----------   ------------------   ----------------------------------
DEPT.M        00 001 00 00         : DEPTH        - DEPTH                       
DPHI.V/V      00 890 00 00         : PHID         - DENSITY POROSITY (LIMESTONE)
NPHI.V/V      00 330 00 00         : PHIN         - NEUTRON POROSITY (LIMESTONE)
GR  .API      00 310 00 00         : GR           - GAMMA RAY                   
ILD .OHMM     00 120 00 00         : RESD         - DEEP RESISTIVITY (DIL)      
~PARAMETER INFORMATION       
#MNEM.UNIT           DATA             DESCRIPTION OF MNEMONIC
#---------         -----------     ------------------------------
GL  .M        686.67               : gl           - GROUND LEVEL ELEVATION      
EREF.M        692.7                : kb           - ELEVATION OF DEPTH REFERENCE
DATM.M        692.7                : datum        - DATUM ELEVATION             
TDD .M        502                  : tdd          - TOTAL DEPTH DRILLER         
RUN .         ONE                  : Run          - RUN NUMBER                  
ENG .         BILL                 : Engineer     - RECORDING ENGINEER          
WIT .         JIM                  : Witness      - WITNESSED BY                
MUD .         GEL                  : Mud_type     - MUD TYPE                    
MATR.         LIMESTONE            : Logunit      - NEUTRON MATRIX              
TMAX.C        21                   : BHT          - MAXIMUM RECORDED TEMPERATURE
BHTD.M        503                  : BHTDEP       - MAXIMUM RECORDED TEMPERATURE
MATR.         1                    : LOGUNIT      - NEUTRON MATRIX              
RMT .C        25                   : MDTP         - TEMPERATURE OF MUD          
NEUT.         1                    : NEUTRON      - NEUTRON TYPE                
RESI.         0                    : RESIST       - RESISTIVITY TYPE            
RMC .OHMM     0.25                 : RMC          - RESISTIVITY OF MUD CAKE     
RMF .OHMM     0.25                 : RMF          - RESISTIVITY OF MUD FILTRATE 
SUFT.C        15                   : SUFT         - SURFACE TEMPERATURE         
~A  DEPTH     PHID     PHIN       GR     RESD
# ...
  317.198    0.199    0.464  104.233    8.864
  317.498    0.196    0.459   93.076    8.858
  317.798    0.255    0.464   98.660    8.844
  318.098    0.262    0.449  110.446    9.012
  318.398    0.265    0.428  107.969    9.911
  318.698    0.274    0.426   99.293   11.768
  318.998    0.289    0.421  100.536   12.453
  319.298    0.303    0.417   95.579   12.686
  319.598    0.305    0.413   96.203   12.917
  319.898    0.312    0.405   94.968   12.416
  320.198    0.310    0.418   93.112   11.709
  320.498    0.296    0.418   92.495   10.831
  320.798    0.289    0.429   93.119    9.634
  321.098    0.283    0.418   96.224    9.441
  321.398    0.271    0.426   99.328    9.615
  321.698    0.265    0.429   99.331    9.986
  321.998    0.271    0.433   96.236   11.634
  322.298    0.284    0.452   91.278   13.820
  322.598    0.295    0.470   81.981   18.782
  322.898    0.305    0.473   68.344   24.092
  323.198    0.365    0.517   57.807   29.169
  323.498    0.356    0.472   47.271   33.335
  323.798    0.345    0.422   46.035   35.277
  324.098    0.345    0.395   47.898   35.250
  324.398    0.351    0.387   57.823   32.596
  324.698    0.364    0.407   52.247   29.567
  324.998    0.376    0.453   48.531   28.432
  325.298    0.364    0.450   51.636   26.291
  325.598    0.355    0.432   51.639   25.284
  325.898    0.346    0.416   50.402   23.372
  326.198    0.348    0.407   47.306   22.911
  326.497    0.357    0.406   47.309   22.018
  326.797    0.361    0.438   51.034   21.997
  327.097    0.360    0.455   53.518   21.968
  327.397    0.357    0.437   52.283   21.951
  327.697    0.357    0.418   52.285   21.924
  327.997    0.360    0.431   52.910   21.905
  328.297    0.357    0.443   51.054   21.888
  328.597    0.355    0.447   49.198   21.860
  328.897    0.351    0.437   51.682   21.839
  329.197    0.345    0.416   52.925   21.820
  329.497    0.343    0.405   52.930   21.365
  329.797    0.354    0.401   54.173   20.943
  330.097    0.361    0.398   52.319   20.527
  330.397    0.350    0.401   50.462   20.499
  330.697    0.347    0.414   50.465   20.486
  330.997    0.341    0.424   51.709   20.854
  331.297    0.352    0.432   54.813   21.237
  331.597    0.359    0.465   56.678   21.635
  331.897    0.360    0.435   59.161   22.032
  332.197    0.356    0.426   58.545   23.312
  332.497    0.351    0.439   54.829   23.287
  332.797    0.336    0.504   54.833   23.258
  333.097    0.266    0.375   54.218   23.244
  333.397    0.297    0.333   52.981   22.763
  333.697    0.357    0.412   52.364   22.742
  333.997    0.362    0.442   52.368   22.725
  334.297    0.368    0.443   54.853   22.706
  334.597    0.361    0.449   55.476   22.674
  334.897    0.352    0.452   57.961   22.654
  335.197    0.333    0.442   59.824   21.770
  335.497    0.326    0.442   55.488   21.341
  335.797    0.339    0.454   50.532   20.512
  336.097    0.356    0.444   52.396   20.103
  336.397    0.360    0.430   53.639   19.685
  336.697    0.356    0.435   53.644   19.664
  336.997    0.356    0.442   53.027   19.646
  337.297    0.361    0.464   53.031   19.630
  337.597    0.366    0.465   52.416   19.614
  337.897    0.368    0.466   51.179   19.976
  338.197    0.362    0.447   49.323   19.566
  338.497    0.366    0.428   46.847   19.549
  338.797    0.365    0.421   46.231   18.786
  339.097    0.360    0.424   46.236   18.774
  339.397    0.359    0.437   46.239   18.395
  339.697    0.359    0.438   46.862   18.727
  339.997    0.357    0.442   51.207   18.715
  340.297    0.358    0.435   52.451   19.050
  340.597    0.365    0.458   51.835   19.037
  340.897    0.371    0.466   51.219   18.647
  341.197    0.373    0.439   50.603   18.633
  341.497    0.342    0.432   50.606   18.254
  341.797    0.345    0.460   50.610   18.243
  342.097    0.368    0.479   51.855   18.217
  342.397    0.366    0.447   56.819   18.195
  342.697    0.356    0.422   52.483   18.184
  342.997    0.370    0.425   53.107   18.158
  343.297    0.358    0.470   53.731   18.147
  343.597    0.332    0.471   53.734   17.777
  343.897    0.335    0.448   51.879   17.753
  344.197    0.357    0.423   51.882   17.743
  344.497    0.360    0.419   55.606   17.723
  344.797    0.351    0.445   58.090   17.701
  345.097    0.345    0.459   58.095   17.687
  345.397    0.353    0.445   58.098   17.327
  345.697    0.363    0.434   60.582   16.982
  345.997    0.355    0.430   62.447   16.634
  346.297    0.339    0.413   59.970   16.620
  346.597    0.348    0.410   56.873   16.609
  346.897    0.356    0.441   60.598   16.273
  347.197    0.357    0.446   56.261   16.574
  347.497    0.346    0.458   59.365   17.201
  347.797    0.332    0.453   63.090   17.518
  348.097    0.341    0.435   58.133   17.171
  348.397    0.341    0.428   58.758   16.821
  348.697    0.339    0.423   63.103   16.488
  348.997    0.336    0.423   64.346   16.470
  349.297    0.330    0.433   64.969   16.128
  349.597    0.326    0.464   64.354   16.114
  349.897    0.343    0.436   63.117   16.105
  350.197    0.350    0.434   61.882   15.476
  350.497    0.347    0.444   61.266   14.879
  350.797    0.332    0.446   62.510   14.304
  351.096    0.322    0.439   64.374   14.283
  351.396    0.334    0.420   66.238   14.274
  351.696    0.311    0.408   69.961   14.533
  351.996    0.284    0.409   74.305   15.083
  352.296    0.289    0.438   66.870   15.367
  352.596    0.320    0.445   69.353   15.952
  352.896    0.310    0.453   68.738   16.245
  353.196    0.303    0.460   64.400   16.225
  353.496    0.315    0.433   63.164   16.205
  353.796    0.326    0.476   64.409   16.192
  354.096    0.329    0.465   65.652   16.170
  354.396    0.330    0.444   66.278   16.156
  354.696    0.327    0.464   65.661   16.142
  354.996    0.322    0.445   64.424   15.813
  355.296    0.322    0.446   63.808   15.203
  355.596    0.327    0.459   63.812   13.532
  355.896    0.331    0.448   61.956   12.278
  356.196    0.332    0.422   61.960   12.030
  356.496    0.319    0.399   68.164   12.017
  356.796    0.320    0.402   71.269   11.551
  357.096    0.335    0.466   65.071   10.893
  357.396    0.333    0.457   61.355    9.694
  357.696    0.326    0.453   61.980    9.143
  357.996    0.329    0.487   65.084    8.137
  358.296    0.330    0.506   65.707    8.129
  358.596    0.316    0.475   60.751    9.114
  358.896    0.304    0.441   67.576   11.919
  359.196    0.305    0.508   71.919   14.429
  359.496    0.324    0.533   72.544   15.566
  359.796    0.336    0.454   56.427   15.549
  360.096    0.336    0.410   52.710   14.943
  360.396    0.333    0.419   52.713   14.646
  360.696    0.321    0.423   55.818   14.627
  360.996    0.316    0.417   53.342   14.898
  361.296    0.330    0.420   53.346   15.469
  361.596    0.333    0.450   55.210   17.011
  361.896    0.332    0.455   54.594   18.352
  362.196    0.331    0.446   55.838   18.685
  362.496    0.326    0.456   57.702   18.313
  362.796    0.271    0.457   58.946   17.599
  363.096    0.217    0.421   50.270   16.923
  363.396    0.269    0.353   52.753   16.583
  363.696    0.312    0.423   56.477   15.637
  363.996    0.328    0.439   57.722   14.747
  364.296    0.331    0.434   57.105   11.253
  364.596    0.340    0.430   54.629   10.210
  364.896    0.341    0.433   54.013    9.441
  365.196    0.335    0.423   59.597    8.567
  365.496    0.257    0.442   73.243    7.339
  365.796    0.285    0.460   69.525    5.388
  366.096    0.300    0.436   72.011    4.526
  366.396    0.304    0.429   76.354    4.029
  366.696    0.300    0.439   77.599    3.655
  366.996    0.275    0.441   83.183    3.652
  367.296    0.250    0.508   97.448    3.648
  367.596    0.256    0.540  120.394    3.506
  367.896    0.255    0.568  116.677    3.371
  368.196    0.240    0.573  105.521    3.118
  368.496    0.233    0.543  109.866    2.996
  368.796    0.238    0.545  114.209    2.994
  369.096    0.258    0.570  115.454    2.990
