~VERSION INFORMATION
 VERS.                 2.0:   CWLS LOG ASCII STANDARD -VERSION 2.0
 WRAP.                  NO:   ONE LINE PER DEPTH STEP
~WELL INFORMATION BLOCK
#MNEM.UNIT           DATA                    DESCRIPTION OF MNEMONIC
#---------    -------------------            -------------------------------
# Generated from Intellog Unique Number	CW_76_78/WELL/642
WELL.         07-32-077-22W4                 : Well_name    - WELL
LOC .         00/07-32-077-22W4/0            : Location     - LOCATION
UWI .         00/07-32-077-22W4/0            : Uwi          - UNIQUE WELL ID
ENTR.         jj                             : Entered      - ENTERED BY
SRVC.         WESTERN ATLAS                  : Scn          - SERVICE COMPANY
DATE.         06 MAR 1983                    : Date         - LOG DATE
STRT.M        300                            : top_depth    - START DEPTH
STOP.M        537                            : bot_depth    - STOP DEPTH
STEP.M        0.25                           : increment    - STEP LENGTH
 NULL. -999.2500:NULL Value
~CURVE INFORMATION BLOCK
#MNEM UNIT       ERCB CURVE CODE    CURVE DESCRIPTION
#-----------   ------------------   ----------------------------------
DEPT.M        00 001 00 00         : DEPTH        - DEPTH
ILD .OHMM     00 120 00 00         : RESD         - DEEP RESISTIVITY (DIL)
DPHI.V/V      00 890 00 00         : PHID         - DENSITY POROSITY (SANDSTONE)
NPHI.V/V      00 330 00 00         : PHIN         - NEUTRON POROSITY (SANDSTONE)
GR  .API      00 310 00 00         : GR           - GAMMA RAY
CALI.MM       00 280 01 00         : CAL          - CALIPER
~PARAMETER INFORMATION
#MNEM.UNIT           DATA             DESCRIPTION OF MNEMONIC
#---------         -----------     ------------------------------
GL  .M        630.9                : gl           - GROUND LEVEL ELEVATION
EREF.M        635.4                : kb           - ELEVATION OF DEPTH REFERENCE
DATM.M        630.9                : datum        - DATUM ELEVATION
TDD .M        537                  : tdd          - TOTAL DEPTH DRILLER
RUN .         ONE                  : Run          - RUN NUMBER
ENG .         RUTHERFORD           : Engineer     - RECORDING ENGINEER
WIT .         RAGHER               : Witness      - WITNESSED BY
BASE.         RED DEER             : Branch       - HOME BASE OF LOGGING UNIT
MUD .         GEL CHEM             : Mud_type     - MUD TYPE
MATR.         SANDSTONE            : Logunit      - NEUTRON MATRIX
TMAX.C        27                   : BHT          - MAXIMUM RECORDED TEMPERATURE
BHTD.M        536                  : BHTDEP       - MAXIMUM RECORDED TEMPERATURE
RMT .C        17                   : MDTP         - TEMPERATURE OF MUD
MUDD.KG/M     1055                 : MWT          - MUD DENSITY
NEUT.         1                    : NEUTRON      - NEUTRON TYPE
RESI.         0                    : RESIST       - RESISTIVITY TYPE
RM  .OHMM     0.4                  : RM           - RESISTIVITY OF MUD
RMC .OHMM     0.44                 : RMC          - RESISTIVITY OF MUD CAKE
RMF .OHMM     0.34                 : RMF          - RESISTIVITY OF MUD FILTRATE
SUFT.C        4.5                  : SUFT         - SURFACE TEMPERATURE
~A  DEPTH     RESD     PHID     PHIN       GR      CAL
# ...
  482.500   14.965    0.286    0.327   41.905    6.477
  482.750   21.332    0.289    0.332   39.940    6.472
  483.000   25.280    0.290    0.330   39.661    6.465
  483.250   29.959    0.284    0.328   40.261    6.459
  483.500   32.191    0.267    0.327   41.976    6.445
  483.750   31.957    0.262    0.328   46.947    6.426
  484.000   32.268    0.264    0.330   48.980    6.399
  484.250   32.643    0.282    0.335   48.580    6.377
  484.500   33.146    0.291    0.348   48.489    6.366
  484.750   34.753    0.293    0.352   48.645    6.369
  485.000   36.437    0.291    0.349   49.304    6.392
  485.250   35.565    0.287    0.355   49.711    6.402
  485.500   30.768    0.277    0.350   50.059    6.405
  485.750   23.640    0.254    0.340   50.779    6.407
  486.000   16.130    0.223    0.339   55.063    6.413
  486.250   11.385    0.187    0.344   61.404    6.449
  486.500    8.649    0.152    0.349   70.060    6.464
  486.750    6.721    0.135    0.350   80.029    6.466
  487.000    6.176    0.150    0.342   84.373    6.468
  487.250    5.816    0.173    0.337   88.593    6.458
  487.500    6.332    0.191    0.336   87.127    6.436
  487.750    6.868    0.203    0.319   84.166    6.429
  488.000    7.928    0.215    0.302   81.135    6.415
  488.250    9.237    0.227    0.305   74.545    6.409
  488.500   12.028    0.240    0.321   63.772    6.394
  488.750   15.663    0.250    0.322   57.185    6.388
  489.000   21.419    0.258    0.317   57.280    6.378
  489.250   27.268    0.270    0.325   54.253    6.359
  489.500   34.454    0.287    0.339   49.537    6.316
  489.750   44.361    0.298    0.327   39.949    6.264
  490.000   53.978    0.299    0.314   33.174    6.241
  490.250   57.672    0.298    0.317   32.648    6.281
  490.500   55.552    0.296    0.316   34.556    6.329
  490.750   50.952    0.291    0.314   36.961    6.348
  491.000   45.774    0.289    0.325   38.057    6.363
  491.250   40.967    0.291    0.346   37.468    6.365
  491.500   36.528    0.290    0.337   37.562    6.359
  491.750   31.841    0.288    0.325   38.352    6.357
  492.000   28.931    0.286    0.317   39.383    6.351
  492.250   26.237    0.283    0.319   40.289    6.370
  492.500   24.019    0.281    0.323   41.136    6.368
  492.750   22.072    0.279    0.329   42.795    6.358
  493.000   20.513    0.277    0.336   44.766    6.351
  493.250   19.317    0.276    0.343   44.862    6.370
  493.500   18.157    0.273    0.342   44.270    6.381
  493.750   17.293    0.267    0.334   44.617    6.379
  494.000   16.689    0.261    0.323   46.838    6.361
  494.250   16.228    0.265    0.322   49.932    6.338
  494.500   15.929    0.264    0.323   54.403    6.315
  494.750   15.783    0.260    0.318   60.495    6.314
  495.000   15.876    0.253    0.319   58.846    6.303
  495.250   16.091    0.246    0.321   58.002    6.284
  495.500   16.339    0.241    0.317   57.662    6.278
  495.750   16.748    0.238    0.310   56.508    6.301
  496.000   17.200    0.231    0.303   57.728    6.316
  496.250   17.466    0.224    0.306   60.200    6.202
  496.500   17.569    0.220    0.314   61.797    6.158
  496.750   17.706    0.217    0.316   62.077    6.173
  497.000   17.845    0.212    0.314   62.362    6.204
  497.250   17.849    0.201    0.301   64.207    6.232
  497.500   17.820    0.182    0.279   64.181    6.276
  497.750   17.924    0.153    0.249   62.466    6.299
  498.000   18.339    0.125    0.221   61.562    6.305
  498.250   18.692    0.086    0.227   61.596    6.324
  498.500   19.088    0.093    0.238   62.317    6.364
  498.750   18.950    0.143    0.253   63.288    6.403
  499.000   18.253    0.168    0.279   65.445    6.443
  499.250   17.418    0.172    0.308   68.664    6.437
  499.500   16.588    0.170    0.312   73.074    6.423
  499.750   15.301    0.172    0.303   76.291    6.412
  500.000   12.798    0.174    0.298   75.014    6.411
  500.250   12.211    0.176    0.299   73.048    6.438
  500.500   11.608    0.183    0.309   75.145    6.436
  500.750   10.684    0.190    0.325   77.926    6.409
  501.000    9.816    0.191    0.326   80.396    6.399
  501.250    9.438    0.190    0.318   79.185    6.418
  501.500    9.443    0.184    0.309   77.465    6.429
  501.750    9.591    0.164    0.294   74.564    6.414
  502.000   10.021    0.143    0.278   71.162    6.392
  502.250   11.063    0.121    0.253   66.446    6.377
  502.500   12.352    0.106    0.216   58.609    6.375
  502.750   14.134    0.090    0.154   50.645    6.381
  503.000   20.570    0.067    0.149   32.560    6.367
  503.250   27.964    0.066    0.170   32.160    6.361
  503.500   24.273    0.077    0.192   36.066    6.375
  503.750   16.474    0.138    0.227   40.347    6.440
  504.000   13.232    0.192    0.344   45.754    6.501
  504.250    9.760    0.250    0.432   51.161    6.549
  504.500    6.712    0.297    0.475   59.192    6.572
  504.750    5.557    0.297    0.503   86.840    6.566
  505.000    4.806    0.299    0.535   90.999    6.522
  505.250    4.718    0.317    0.566   84.348    6.479
  505.500    4.874    0.310    0.562   78.007    6.473
  505.750    5.045    0.276    0.516   81.917    6.504
  506.000    5.292    0.239    0.431   91.570    6.490
  506.250    5.689    0.223    0.388   93.042    6.384
  506.500    6.257    0.241    0.361   87.395    6.294
  506.750    6.880    0.242    0.347   82.612    6.239
  507.000    7.524    0.241    0.351   75.401    6.195
  507.250    8.012    0.239    0.355   80.933    6.247
  507.500    7.895    0.232    0.363   89.464    6.353
  507.750    7.491    0.215    0.372   94.806    6.456
  508.000    6.922    0.196    0.371   99.651    6.504
  508.250    6.642    0.190    0.353  102.371    6.493
  508.500    6.785    0.289    0.314   93.471    6.479
  508.750    7.735    0.316    0.300   67.014    6.452
  509.000    9.493    0.328    0.306   42.309    6.438
  509.250   14.540    0.326    0.356   39.343    6.423
  509.500   18.995    0.322    0.355   43.068    6.413
  509.750   30.562    0.318    0.344   47.221    6.403
  510.000   32.793    0.319    0.336   47.691    6.389
  510.250   30.821    0.317    0.345   46.350    6.383
  510.500   27.524    0.316    0.345   45.886    6.364
  510.750   24.766    0.316    0.349   45.607    6.349
  511.000   23.145    0.330    0.361   45.703    6.318
  511.250   21.225    0.341    0.374   44.737    6.279
  511.500   19.872    0.367    0.429   41.709    6.252
  511.750   18.501    0.386    0.440   41.122    6.234
  512.000   16.998    0.358    0.421   45.090    6.240
  512.250   16.219    0.337    0.395   55.056    6.242
  512.500   16.196    0.331    0.377   58.089    6.253
  512.750   17.711    0.336    0.368   52.562    6.276
  513.000   19.439    0.329    0.354   50.411    6.291
  513.250   24.269    0.316    0.341   52.319    6.297
  513.500   27.460    0.308    0.346   56.102    6.316
  513.750   28.910    0.305    0.359   59.946    6.301
  514.000   28.706    0.306    0.371   62.419    6.166
  514.250   27.132    0.305    0.375   64.886    6.102
  514.500   24.600    0.303    0.367   67.609    6.071
  514.750   19.279    0.295    0.368   70.827    6.123
  515.000   15.721    0.288    0.375   75.796    6.267
  515.250   13.015    0.283    0.372   78.017    6.290
  515.500   11.341    0.275    0.356   76.929    6.317
  515.750   10.659    0.273    0.344   72.837    6.336
  516.000   10.929    0.282    0.341   65.687    6.339
  516.250   12.271    0.300    0.343   61.221    6.349
  516.500   14.284    0.298    0.335   62.442    6.351
  516.750   15.768    0.291    0.326   66.099    6.345
  517.000   15.598    0.281    0.326   72.570    6.360
  517.250   14.223    0.271    0.352   78.287    6.362
  517.500   11.466    0.265    0.369   83.195    6.360
  517.750    8.969    0.271    0.405   89.228    6.375
  518.000    7.610    0.290    0.414   95.259    6.398
  518.250    6.848    0.304    0.401   96.854    6.405
  518.500    6.735    0.295    0.388   86.454    6.390
  518.750    7.200    0.282    0.369   86.864    6.384
