~VERSION INFORMATION
 VERS.                 2.0:   CWLS LOG ASCII STANDARD -VERSION 2.0
 WRAP.                  NO:   ONE LINE PER DEPTH STEP
~WELL INFORMATION BLOCK
#MNEM.UNIT           DATA                    DESCRIPTION OF MNEMONIC
#---------    -------------------            -------------------------------
# Generated from Intellog Unique Number	CW_70_72/WELL/3010
NULL.         -999.25                        : NULL_VALUE
WELL.         GULF POC CALLS 6-25            : Well_name    - WELL              
LOC .         06-25-070-22W4                 : Location     - LOCATION          
UWI .         00/06-25-070-22W4/0            : Uwi          - UNIQUE WELL ID    
ENTR.         dgm                            : Entered      - ENTERED BY        
SRVC.         SCHLUMBERGER                   : Scn          - SERVICE COMPANY   
DATE.         18 DEC 1982                    : Date         - LOG DATE          
STRT.M        425                            : top_depth    - START DEPTH       
STOP.M        606                            : bot_depth    - STOP DEPTH        
STEP.M        0.25                           : increment    - STEP LENGTH       
~CURVE INFORMATION BLOCK
#MNEM UNIT       ERCB CURVE CODE    CURVE DESCRIPTION
#-----------   ------------------   ----------------------------------
DEPT.M        00 001 00 00         : DEPTH        - DEPTH                       
DPHI.V/V      00 890 00 00         : PHID         - DENSITY POROSITY (SANDSTONE)
NPHI.V/V      00 330 00 00         : PHIN         - NEUTRON POROSITY (SANDSTONE)
GR  .API      00 310 00 00         : GR           - GAMMA RAY                   
CALI.MM       00 280 01 00         : CAL          - CALIPER                     
ILD .OHMM     00 120 00 00         : RESD         - DEEP RESISTIVITY (DIL)      
~PARAMETER INFORMATION       
#MNEM.UNIT           DATA             DESCRIPTION OF MNEMONIC
#---------         -----------     ------------------------------
GL  .M        676.9                : gl           - GROUND LEVEL ELEVATION      
EREF.M        680.17               : kb           - ELEVATION OF DEPTH REFERENCE
DATM.M        680.17               : datum        - DATUM ELEVATION             
TDD .M        635                  : tdd          - TOTAL DEPTH DRILLER         
RUN .         ONE                  : Run          - RUN NUMBER                  
ENG .         WRIGHT               : Engineer     - RECORDING ENGINEER          
WIT .         KERESTES             : Witness      - WITNESSED BY                
BASE.         EDMONTON             : Branch       - HOME BASE OF LOGGING UNIT   
MUD .         GEL CHEM             : Mud_type     - MUD TYPE                    
MATR.         SANDSTONE            : Logunit      - NEUTRON MATRIX              
TMAX.C        23.3                 : BHT          - MAXIMUM RECORDED TEMPERATURE
BHTD.M        635.3                : BHTDEP       - MAXIMUM RECORDED TEMPERATURE
RMT .C        23.3                 : MDTP         - TEMPERATURE OF MUD          
MUDD.KG/M     1140                 : MWT          - MUD DENSITY                 
NEUT.         1                    : NEUTRON      - NEUTRON TYPE                
RESI.         0                    : RESIST       - RESISTIVITY TYPE            
RM  .OHMM     3.422                : RM           - RESISTIVITY OF MUD          
RMC .OHMM     2.675                : RMC          - RESISTIVITY OF MUD CAKE     
RMF .OHMM     3.173                : RMF          - RESISTIVITY OF MUD FILTRATE 
SUFT.C        5                    : SUFT         - SURFACE TEMPERATURE         
~A  DEPTH     PHID     PHIN       GR      CAL     RESD
  425.000    0.230    0.546   95.510  176.863    2.142
  425.250    0.237    0.531   94.198  176.547    2.175
  425.500    0.229    0.521   94.257  173.540    2.217
  425.750    0.219    0.521   97.745  170.636    2.252
  426.000    0.214    0.501  102.105  169.181    2.283
  426.250    0.211    0.479  105.780  170.211    2.309
  426.500    0.207    0.479  106.837  172.173    2.311
  426.750    0.211    0.489  103.654  174.134    2.333
  427.000    0.218    0.498  101.344  175.164    2.343
  427.250    0.217    0.488  102.276  174.330    2.379
  427.500    0.205    0.483  103.706  173.601    2.394
  427.750    0.209    0.491  105.012  174.631    2.427
  428.000    0.213    0.504  104.011  175.661    2.441
  428.250    0.212    0.513  104.008  176.380    2.452
  428.500    0.208    0.521  103.256  177.513    2.471
  428.750    0.203    0.502  100.572  177.922    2.454
  429.000    0.205    0.499   97.950  177.503    2.455
  429.250    0.216    0.503   98.383  177.601    2.484
  429.500    0.220    0.510  104.303  176.975    2.490
  429.750    0.193    0.488  105.172  174.899    2.519
  430.000    0.174    0.466  104.608  173.030    2.554
  430.250    0.174    0.472  108.532  174.992    2.637
  430.500    0.174    0.493  109.713  176.022    2.688
  430.750    0.187    0.515  109.149  175.706    2.715
  431.000    0.206    0.502  106.714  173.009    2.746
  431.250    0.193    0.495  104.154  173.936    2.784
  431.500    0.190    0.498  103.652  178.382    2.827
  431.750    0.202    0.486  105.582  181.171    2.818
  432.000    0.199    0.503  105.142  181.166    2.741
  432.250    0.185    0.530   96.598  179.711    2.672
  432.500    0.189    0.534   97.405  176.808    2.580
  432.750    0.201    0.548   99.833  174.836    2.596
  433.000    0.219    0.562  100.078  175.555    2.636
  433.250    0.228    0.570  103.317  175.032    2.707
  433.500    0.221    0.502  104.623  170.265    2.770
  433.750    0.208    0.519  106.178  167.879    2.845
  434.000    0.199    0.532  110.850  165.389    2.878
  434.250    0.195    0.510  110.723  164.452    2.961
  434.500    0.200    0.479  105.607  164.861    3.070
  434.750    0.196    0.483   98.746  166.304    3.236
  435.000    0.189    0.516   92.259  167.024    3.450
  435.250    0.184    0.521   83.715  162.775    3.623
  435.500    0.162    0.404   67.003  153.349    3.848
  435.750    0.208    0.408   73.795  147.753    3.929
  436.000    0.230    0.429   84.016  152.200    4.058
  436.250    0.244    0.430   82.891  154.058    4.222
  436.500    0.266    0.429   72.663  148.152    4.451
  436.750    0.300    0.419   64.929  144.834    4.745
  437.000    0.337    0.425   57.881  143.793    4.864
  437.250    0.451    0.461   52.703  145.548    4.785
  437.500    0.434    0.584   57.500  149.165    4.629
  437.750    0.296    0.460   65.040  149.989    4.445
  438.000    0.247    0.412   65.162  150.294    4.422
  438.250    0.244    0.397   63.288  152.462    4.516
  438.500    0.238    0.384   58.422  152.767    4.630
  438.750    0.220    0.368   58.356  152.142    4.728
  439.000    0.223    0.364   54.986  148.617    4.801
  439.250    0.239    0.361   55.669  147.369    4.741
  439.500    0.237    0.379   64.082  148.709    4.612
  439.750    0.229    0.384   61.460  151.913    4.479
  440.000    0.224    0.389   58.588  154.806    4.293
  440.250    0.240    0.400   59.707  153.663    4.023
  440.500    0.236    0.404   62.385  152.932    3.777
  440.750    0.234    0.426   66.746  152.720    3.507
  441.000    0.249    0.440   73.725  153.439    3.262
  441.250    0.266    0.433   80.205  156.746    3.063
  441.500    0.227    0.433   83.381  159.329    2.969
  441.750    0.179    0.449   83.939  161.705    2.998
  442.000    0.190    0.460   89.484  163.253    3.131
  442.250    0.227    0.462   93.471  162.109    3.246
  442.500    0.248    0.460   94.340  159.929    3.346
  442.750    0.237    0.465   87.978  158.372    3.411
  443.000    0.232    0.454   85.294  155.778    3.483
  443.250    0.255    0.429   85.290  154.634    3.577
  443.500    0.249    0.428   85.474  157.942    3.660
  443.750    0.216    0.442   90.209  161.663    3.744
  444.000    0.197    0.385   98.185  161.658    3.760
  444.250    0.192    0.413   94.379  165.690    3.631
  444.500    0.238    0.439   82.655  162.682    3.297
  444.750    0.272    0.426   69.248  153.671    2.938
  445.000    0.312    0.406   52.599  147.972    2.816
  445.250    0.310    0.393   55.027  145.793    2.791
  445.500    0.302    0.373   68.303  145.477    2.834
  445.750    0.286    0.371   74.409  145.471    3.004
  446.000    0.273    0.363   76.712  145.880    3.155
  446.250    0.270    0.379   77.644  147.531    3.314
  446.500    0.267    0.395   75.521  148.458    3.506
  446.750    0.257    0.387   71.777  150.315    3.614
  447.000    0.231    0.374   79.442  151.449    3.657
  447.250    0.250    0.393   81.184  152.169    3.686
  447.500    0.262    0.366   75.632  153.198    3.599
  447.750    0.238    0.374   77.437  154.331    3.450
  448.000    0.234    0.382   82.733  155.258    3.233
  448.250    0.237    0.372   82.916  156.392    2.935
  448.500    0.256    0.362   82.227  157.422    2.715
  448.750    0.268    0.370   83.533  156.174    2.530
  449.000    0.273    0.363   74.303  153.374    2.416
  449.250    0.277    0.349   54.786  151.919    2.491
  449.500    0.289    0.339   45.930  150.879    2.592
  449.750    0.272    0.329   50.665  150.046    2.768
  450.000    0.232    0.345   69.801  150.454    3.063
  450.250    0.212    0.370   79.835  151.277    3.352
  450.500    0.205    0.385   87.126  153.756    3.586
  450.750    0.207    0.382   93.419  156.753    3.888
  451.000    0.211    0.377   96.221  159.232    4.199
  451.250    0.212    0.388  100.021  160.573    4.410
  451.500    0.205    0.412  102.386  159.739    4.512
  451.750    0.212    0.394   94.029  158.595    4.341
  452.000    0.220    0.368   89.724  157.348    3.912
  452.250    0.229    0.370   98.137  156.100    3.371
  452.500    0.193    0.374  107.298  156.716    2.993
  452.750    0.183    0.406  113.217  161.162    2.702
  453.000    0.200    0.500  112.653  168.300    2.513
  453.250    0.216    0.515  115.019  170.365    2.360
  453.500    0.189    0.510  118.319  170.876    2.410
  453.750    0.203    0.517  122.805  172.942    2.536
  454.000    0.223    0.520  128.786  175.835    2.759
  454.250    0.226    0.529  132.337  174.795    3.042
  454.500    0.220    0.474  121.361  170.752    3.404
  454.750    0.219    0.423  110.634  165.778    3.969
  455.000    0.211    0.410  104.895  163.081    4.484
  455.250    0.188    0.417   95.915  161.523    4.762
  455.500    0.147    0.434   78.767  159.344    4.881
  455.750    0.162    0.436   64.923  154.266    4.794
  456.000    0.244    0.415   57.376  151.776    4.681
  456.250    0.300    0.398   57.311  151.875    4.528
  456.500    0.286    0.401   72.332  153.422    4.324
  456.750    0.246    0.424   85.608  155.901    4.152
  457.000    0.279    0.446   86.851  156.310    4.009
  457.250    0.300    0.445   73.195  154.338    4.011
  457.500    0.306    0.427   69.139  151.227    4.035
  457.750    0.289    0.428   73.749  150.704    4.129
  458.000    0.264    0.428   76.614  153.598    4.296
  458.250    0.247    0.437   77.109  156.491    4.428
  458.500    0.245    0.447   75.111  157.417    4.531
  458.750    0.243    0.459   69.247  155.031    4.499
  459.000    0.238    0.468   65.939  153.059    4.264
  459.250    0.239    0.447   71.609  153.363    4.056
  459.500    0.266    0.439   79.586  154.704    3.983
  459.750    0.272    0.426   81.016  155.837    4.114
  460.000    0.246    0.417   82.198  155.418    4.369
  460.250    0.223    0.436   90.735  157.484    4.614
  460.500    0.230    0.450   94.597  158.307    4.864
  460.750    0.254    0.444   80.754  152.608    5.090
  461.000    0.274    0.435   73.269  152.188    5.246
  461.250    0.243    0.432   73.889  153.011    5.459
