~VERSION INFORMATION
 VERS.                 2.0:   CWLS LOG ASCII STANDARD -VERSION 2.0
 WRAP.                  NO:   ONE LINE PER DEPTH STEP
~WELL INFORMATION BLOCK
#MNEM.UNIT           DATA                    DESCRIPTION OF MNEMONIC
#---------    -------------------            -------------------------------
# Generated from Intellog Unique Number	CS_71_72/WELL/822
WELL.         MAYNARD ET AL TWEEDIE          : Well_name    - WELL
LOC .         00/07-29-072-12W4/0            : Location     - LOCATION
UWI .         00/07-29-072-12W4/0            : Uwi          - UNIQUE WELL ID
ENTR.         SP                             : Entered      - ENTERED BY
SRVC.         SCHLUMBERGER                   : Scn          - SERVICE COMPANY
STRT.M        275                            : top_depth    - START DEPTH
STOP.M        510                            : bot_depth    - STOP DEPTH
STEP.M        0.25                           : increment    - STEP LENGTH
 NULL. -999.2500:NULL Value
~CURVE INFORMATION BLOCK
#MNEM UNIT       ERCB CURVE CODE    CURVE DESCRIPTION
#-----------   ------------------   ----------------------------------
DEPT.M        00 001 00 00         : DEPTH        - DEPTH
GR  .API      00 310 00 00         : GR           - GAMMA RAY
NPHI.V/V      00 330 00 00         : PHIN         - NEUTRON POROSITY (LIMESTONE)
DPHI.V/V      00 890 00 00         : PHID         - DENSITY POROSITY (LIMESTONE)
ILD .OHMM     00 120 00 00         : RESD         - DEEP RESISTIVITY (DIL)
~PARAMETER INFORMATION
#MNEM.UNIT           DATA             DESCRIPTION OF MNEMONIC
#---------         -----------     ------------------------------
GL  .M        622.95               : gl           - GROUND LEVEL ELEVATION
EREF.M        626.55               : kb           - ELEVATION OF DEPTH REFERENCE
DATM.M        622.95               : datum        - DATUM ELEVATION
TDD .M        521                  : tdd          - TOTAL DEPTH DRILLER
RUN .         ONE                  : Run          - RUN NUMBER
ENG .         BILL                 : Engineer     - RECORDING ENGINEER
WIT .         JIM                  : Witness      - WITNESSED BY
MUD .         GEL                  : Mud_type     - MUD TYPE
MATR.         LIMESTONE            : Logunit      - NEUTRON MATRIX
TMAX.C        25                   : BHT          - MAXIMUM RECORDED TEMPERATURE
BHTD.M        521                  : BHTDEP       - MAXIMUM RECORDED TEMPERATURE
MATR.         1                    : LOGUNIT      - NEUTRON MATRIX
RMT .C        25                   : MDTP         - TEMPERATURE OF MUD
NEUT.         1                    : NEUTRON      - NEUTRON TYPE
RESI.         0                    : RESIST       - RESISTIVITY TYPE
RMC .OHMM     0.25                 : RMC          - RESISTIVITY OF MUD CAKE
RMF .OHMM     0.25                 : RMF          - RESISTIVITY OF MUD FILTRATE
SUFT.C        15                   : SUFT         - SURFACE TEMPERATURE
~A  DEPTH       GR     PHIN     PHID     RESD
# ...
  318.500   76.757    0.424    0.278   11.052
  318.750   77.361    0.427    0.273   10.968
  319.000   78.574    0.438    0.263   10.884
  319.250   80.394    0.444    0.252   10.393
  319.500   85.857    0.448    0.246    9.493
  319.750   92.535    0.451    0.235    8.756
  320.000   96.177    0.459    0.231    8.264
  320.250  101.034    0.463    0.227    7.854
  320.500  102.853    0.465    0.225    7.607
  320.750  101.029    0.465    0.222    7.278
  321.000  100.419    0.466    0.222    7.194
  321.250  101.632    0.482    0.235    6.947
  321.500  105.273    0.499    0.241    6.782
  321.750  107.701    0.506    0.243    6.535
  322.000  110.735    0.505    0.260    6.370
  322.250  111.341    0.489    0.271    6.123
  322.500  111.946    0.474    0.266    6.120
  322.750  111.943    0.461    0.262    6.199
  323.000  112.549    0.445    0.251    6.361
  323.250  113.760    0.440    0.240    6.766
  323.500  113.759    0.434    0.228    7.009
  323.750  113.149    0.432    0.218    7.171
  324.000  110.718    0.428    0.232    7.250
  324.250  107.680    0.424    0.246    7.166
  324.500  105.856    0.429    0.256    7.082
  324.750  105.246    0.439    0.261    6.835
  325.000  107.672    0.452    0.254    6.669
  325.250  108.886    0.454    0.250    6.586
  325.500  110.098    0.456    0.239    6.584
  325.750  108.274    0.461    0.225    6.582
  326.000  106.451    0.471    0.205    6.742
  326.250  101.590    0.483    0.195    6.822
  326.500  100.981    0.485    0.191    7.064
  326.750  101.586    0.488    0.186    7.226
  327.000  103.405    0.494    0.185    7.306
  327.250  105.226    0.504    0.208    7.304
  327.500  109.474    0.506    0.218    7.301
  327.750  113.116    0.483    0.230    7.300
  328.000  111.899    0.454    0.238    7.215
  328.250  107.646    0.434    0.236    7.132
  328.500  102.178    0.426    0.238    7.129
  328.750   99.747    0.441    0.235    7.290
  329.000   99.745    0.463    0.234    7.370
  329.250  100.350    0.481    0.234    7.530
  329.500   99.134    0.485    0.241    7.611
  329.750   94.879    0.471    0.259    7.608
  330.000   93.664    0.467    0.276    7.607
  330.250   91.839    0.463    0.283    7.767
  330.500   93.052    0.456    0.297    8.173
  330.750   94.264    0.440    0.278    8.579
  331.000   95.477    0.435    0.262    8.822
  331.250   96.082    0.426    0.249    9.065
  331.500   96.079    0.421    0.234    9.145
  331.750   95.471    0.422    0.219    9.224
  332.000   96.075    0.437    0.212    9.140
  332.250   96.074    0.462    0.214    9.055
  332.500   95.465    0.474    0.234    8.972
  332.750   95.461    0.454    0.253    8.889
  333.000   94.246    0.441    0.270    8.886
  333.250   89.992    0.432    0.289    8.884
  333.500   91.811    0.428    0.292    8.964
  333.750   92.417    0.428    0.278    9.043
  334.000   93.023    0.423    0.250    9.122
  334.250   93.020    0.417    0.229    9.202
  334.500   91.196    0.415    0.215    9.282
  334.750   93.623    0.422    0.203    9.360
  335.000   96.657    0.427    0.194    9.358
  335.250   99.084    0.417    0.188    9.356
  335.500  101.511    0.410    0.200    9.354
  335.750  102.725    0.406    0.216    9.352
  336.000  103.937    0.417    0.232    9.351
  336.250   99.076    0.427    0.249    9.511
  336.500   93.001    0.421    0.262    9.509
  336.750   87.534    0.407    0.276    9.506
  337.000   79.637    0.395    0.292    9.504
  337.250   74.776    0.385    0.298    9.503
  337.500   69.308    0.378    0.300    9.501
  337.750   65.055    0.371    0.300    9.662
  338.000   62.624    0.373    0.291    9.822
  338.250   62.622    0.377    0.277    9.902
  338.500   67.477    0.379    0.271   10.063
  338.750   70.512    0.389    0.269   10.142
  339.000   72.332    0.395    0.264   10.141
  339.250   75.973    0.405    0.265   10.139
  339.500   78.401    0.429    0.304   10.055
  339.750   83.863    0.449    0.324    9.889
  340.000   86.898    0.468    0.302    9.724
  340.250   88.719    0.492    0.296    9.150
  340.500   91.145    0.500    0.299    8.413
  340.750   93.572    0.493    0.297    8.004
  341.000   95.999    0.487    0.298    7.348
  341.250   97.212    0.486    0.305    6.856
  341.500   99.032    0.486    0.276    6.364
  341.750  101.457    0.494    0.245    6.199
  342.000  102.670    0.505    0.232    5.788
  342.250  103.883    0.517    0.215    5.623
  342.500  105.096    0.522    0.223    5.458
  342.750  106.916    0.521    0.238    5.293
  343.000  110.557    0.525    0.242    4.963
  343.250  113.592    0.528    0.242    4.880
  343.500  114.197    0.499    0.240    4.797
  343.750  111.158    0.467    0.233    4.794
  344.000  109.334    0.443    0.227    5.282
  344.250  108.117    0.445    0.233    6.259
  344.500  106.901    0.448    0.238    7.318
  344.750  105.684    0.446    0.250    8.704
  345.000  102.645    0.434    0.250    9.436
  345.250  100.215    0.409    0.249    9.760
  345.500   92.925    0.399    0.248    9.840
  345.750   90.494    0.394    0.247    9.757
  346.000   87.456    0.388    0.252    9.590
  346.250   81.380    0.383    0.269    9.589
  346.500   75.913    0.384    0.287    9.667
  346.750   68.016    0.388    0.298    9.828
  347.000   62.548    0.398    0.313    9.990
  347.250   60.116    0.406    0.324   10.152
  347.500   60.115    0.400    0.323   10.476
  347.750   60.718    0.390    0.319   10.881
  348.000   60.717    0.385    0.317   11.042
  348.250   61.322    0.380    0.313   11.123
  348.500   61.320    0.373    0.304   11.202
  348.750   61.317    0.369    0.298   11.200
  349.000   60.708    0.387    0.295   11.280
  349.250   60.100    0.395    0.290   11.277
  349.500   60.705    0.394    0.287   11.438
  349.750   60.703    0.385    0.288   11.517
  350.000   61.308    0.378    0.291   11.515
  350.250   61.306    0.376    0.296   11.594
  350.500   62.518    0.373    0.312   11.592
  350.750   64.945    0.382    0.314   11.590
  351.000   66.158    0.393    0.324   11.588
  351.250   67.370    0.404    0.335   11.505
  351.500   68.583    0.417    0.339   11.420
  351.750   69.795    0.422    0.331   11.337
  352.000   70.400    0.412    0.319   11.254
  352.250   67.969    0.409    0.314   11.088
  352.500   66.753    0.406    0.313   11.004
  352.750   64.927    0.410    0.314   10.921
  353.000   63.711    0.404    0.318   10.754
  353.250   64.317    0.396    0.323   10.752
  353.500   64.921    0.390    0.335   10.668
  353.750   64.919    0.398    0.339   10.748
  354.000   65.525    0.412    0.339   10.746
  354.250   66.738    0.423    0.335   10.825
  354.500   69.163    0.427    0.329   10.905
  354.750   71.591    0.429    0.314   10.985
  355.000   72.804    0.420    0.307   10.983
  355.250   73.409    0.412    0.296   10.898
  355.500   71.585    0.407    0.293   10.815
  355.750   70.368    0.401    0.295   10.650
  356.000   68.544    0.424    0.300   10.402
  356.250   67.328    0.432    0.312   10.237
  356.500   64.896    0.442    0.323   10.235
  356.750   63.680    0.443    0.330   10.232
  357.000   61.855    0.431    0.329   10.312
  357.250   60.032    0.425    0.325   10.553
  357.500   58.208    0.418    0.320   10.633
  357.750   57.598    0.416    0.308   10.713
  358.000   58.204    0.410    0.302   10.792
  358.250   58.809    0.404    0.297   10.872
  358.500   60.021    0.400    0.295   10.870
  358.750   59.412    0.398    0.295   10.949
  359.000   57.589    0.398    0.298   10.947
  359.250   57.586    0.399    0.302   10.945
  359.500   58.191    0.403    0.300   10.943
  359.750   60.617    0.404    0.300   11.022
  360.000   61.830    0.407    0.300   11.020
  360.250   63.042    0.416    0.301   11.100
  360.500   63.648    0.421    0.306   11.179
  360.750   64.254    0.423    0.308   11.177
  361.000   65.466    0.423    0.308   11.257
  361.250   64.249    0.414    0.306   11.255
  361.500   62.425    0.409    0.302   11.253
  361.750   61.209    0.403    0.300   11.251
