~VERSION INFORMATION
 VERS.                 2.0:   CWLS LOG ASCII STANDARD -VERSION 2.0
 WRAP.                  NO:   ONE LINE PER DEPTH STEP
~WELL INFORMATION BLOCK
#MNEM.UNIT           DATA                    DESCRIPTION OF MNEMONIC
#---------    -------------------            -------------------------------
# Generated from Intellog Unique Number	CW_73_75/WELL/2724
WELL.         GASCAN MITSUE 04-24            : Well_name    - WELL
LOC .         00/04-24-073-04W5/0            : Location     - LOCATION
UWI .         00/04-24-073-04W5/0            : Uwi          - UNIQUE WELL ID
ENTR.         JAYE                           : Entered      - ENTERED BY
SRVC.         SCHLUMBERGER                   : Scn          - SERVICE COMPANY
DATE.         1 FEB 82                       : Date         - LOG DATE
STRT.M        360                            : top_depth    - START DEPTH
STOP.M        570                            : bot_depth    - STOP DEPTH
STEP.M        0.25                           : increment    - STEP LENGTH
 NULL. -999.2500:NULL Value
~CURVE INFORMATION BLOCK
#MNEM UNIT       ERCB CURVE CODE    CURVE DESCRIPTION
#-----------   ------------------   ----------------------------------
DEPT.M        00 001 00 00         : DEPTH        - DEPTH
DPHI.V/V      00 890 00 00         : PHID         - DENSITY POROSITY (SANDSTONE)
NPHI.V/V      00 330 00 00         : PHIN         - NEUTRON POROSITY (SANDSTONE)
GR  .API      00 310 00 00         : GR           - GAMMA RAY
CALI.MM       00 280 01 00         : CAL          - CALIPER
ILD .OHMM     00 120 00 00         : RESD         - DEEP RESISTIVITY (DLL)
~PARAMETER INFORMATION
#MNEM.UNIT           DATA             DESCRIPTION OF MNEMONIC
#---------         -----------     ------------------------------
GL  .M        587                  : gl           - GROUND LEVEL ELEVATION
EREF.M        591.3                : kb           - ELEVATION OF DEPTH REFERENCE
DATM.M        587                  : datum        - DATUM ELEVATION
TDD .M        1624                 : tdd          - TOTAL DEPTH DRILLER
RUN .         ONE                  : Run          - RUN NUMBER
ENG .         WALTERHOUSE          : Engineer     - RECORDING ENGINEER
WIT .         IRELAND              : Witness      - WITNESSED BY
BASE.         EDM                  : Branch       - HOME BASE OF LOGGING UNIT
MUD .         GEL CHEM             : Mud_type     - MUD TYPE
MATR.         SANDSTONE            : Logunit      - NEUTRON MATRIX
TMAX.C        51.6                 : BHT          - MAXIMUM RECORDED TEMPERATURE
BHTD.M        1624                 : BHTDEP       - MAXIMUM RECORDED TEMPERATURE
RMT .C        51.6                 : MDTP         - TEMPERATURE OF MUD
MUDD.KG/M     1110                 : MWT          - MUD DENSITY
NEUT.         0                    : NEUTRON      - NEUTRON TYPE
RESI.         1                    : RESIST       - RESISTIVITY TYPE
RM  .OHMM     0                    : RM           - RESISTIVITY OF MUD
RMC .OHMM     0                    : RMC          - RESISTIVITY OF MUD CAKE
RMF .OHMM     0                    : RMF          - RESISTIVITY OF MUD FILTRATE
SUFT.C        0                    : SUFT         - SURFACE TEMPERATURE
~A  DEPTH     PHID     PHIN       GR      CAL     RESD
# ...
  433.000    0.371    0.380   65.746  259.775    5.149
  433.250    0.374    0.373   68.629  260.104    5.192
  433.500    0.353    0.381   73.011  259.910    5.234
  433.750    0.343    0.389   69.334  259.927    5.287
  434.000    0.343    0.377   70.405  259.940    5.381
  434.250    0.344    0.376   73.663  259.953    5.538
  434.500    0.344    0.386   75.609  260.594    5.679
  434.750    0.341    0.394   77.304  261.441    5.693
  435.000    0.330    0.389   79.624  262.079    5.529
  435.250    0.312    0.390   82.631  267.094    5.259
  435.500    0.288    0.399   85.014  272.938    5.135
  435.750    0.262    0.411   88.335  281.179    5.100
  436.000    0.272    0.408   92.279  284.942    5.161
  436.250    0.309    0.397   88.040  278.917    5.243
  436.500    0.339    0.388   83.800  274.871    5.356
  436.750    0.341    0.390   79.561  276.344    5.420
  437.000    0.323    0.384   76.321  280.005    5.414
  437.250    0.287    0.369   78.079  286.474    5.327
  437.500    0.269    0.356   82.399  293.153    5.201
  437.750    0.250    0.359   87.405  296.916    5.051
  438.000    0.244    0.363   88.601  298.389    4.942
  438.250    0.244    0.384   85.112  298.612    4.871
  438.500    0.250    0.400   84.433  298.730    4.847
  438.750    0.264    0.380   85.129  298.849    4.823
  439.000    0.269    0.371   87.138  299.176    4.826
  439.250    0.263    0.382   90.957  301.481    4.839
  439.500    0.259    0.415   95.651  305.557    4.878
  439.750    0.263    0.412   94.973  301.095    4.854
  440.000    0.253    0.393   90.234  304.545    4.785
  440.250    0.383    0.394   87.556  324.552    4.726
  440.500    0.356    0.399   94.688  307.698    4.685
  440.750    0.288    0.389   92.510  294.490    4.670
  441.000    0.270    0.391   89.021  287.736    4.612
  441.250    0.274    0.389   88.841  285.460    4.563
  441.500    0.308    0.390   90.225  284.955    4.549
  441.750    0.319    0.388   91.171  285.073    4.527
  442.000    0.296    0.390   89.930  285.504    4.513
  442.250    0.271    0.379   87.440  285.623    4.541
  442.500    0.280    0.380   86.512  285.639    4.604
  442.750    0.278    0.379   83.647  285.029    4.651
  443.000    0.284    0.368   82.344  284.523    4.663
  443.250    0.299    0.378   85.663  283.808    4.648
  443.500    0.309    0.399   85.985  282.886    4.643
  443.750    0.328    0.412   88.555  282.381    4.603
  444.000    0.333    0.411   91.375  281.041    4.580
  444.250    0.307    0.377   89.385  278.452    4.600
  444.500    0.296    0.371   90.019  280.549    4.655
  444.750    0.280    0.382   90.465  286.916    4.685
  445.000    0.265    0.373   88.662  292.138    4.688
  445.250    0.258    0.358   85.047  295.381    4.709
  445.500    0.258    0.351   86.993  296.227    4.765
  445.750    0.259    0.342   93.624  296.242    4.858
  446.000    0.279    0.361   90.697  294.070    4.926
  446.250    0.319    0.389   87.082  287.005    4.995
  446.500    0.356    0.410   83.030  275.357    5.103
  446.750    0.336    0.401   79.790  271.416    5.232
  447.000    0.316    0.381   76.238  270.389    5.385
  447.250    0.314    0.370   70.374  270.092    5.669
  447.500    0.309    0.355   72.132  270.731    5.968
  447.750    0.303    0.364   73.453  271.474    6.306
  448.000    0.317    0.354   70.088  270.032    6.639
  448.250    0.319    0.338   65.161  265.881    6.910
  448.500    0.325    0.346   65.170  261.731    7.193
  448.750    0.338    0.369   66.491  258.725    7.673
  449.000    0.344    0.377   65.688  256.555    8.122
  449.250    0.322    0.361   59.824  255.633    8.174
  449.500    0.306    0.320   59.271  255.438    7.761
  449.750    0.331    0.320   62.653  255.973    7.522
  450.000    0.349    0.327   66.535  255.572    7.331
  450.250    0.366    0.341   65.607  254.754    7.066
  450.500    0.375    0.352   67.240  254.768    6.913
  450.750    0.370    0.362   70.685  254.366    6.725
  451.000    0.340    0.373   74.068  254.382    6.518
  451.250    0.334    0.369   75.888  254.085    6.282
  451.500    0.335    0.376   71.961  253.787    6.033
  451.750    0.334    0.387   72.532  253.386    5.868
  452.000    0.321    0.381   80.663  253.191    5.709
  452.250    0.316    0.368   87.044  252.788    5.554
  452.500    0.333    0.379   84.367  252.388    5.485
  452.750    0.344    0.386   75.567  252.090    5.499
  453.000    0.351    0.374   69.890  251.584    5.639
  453.250    0.354    0.359   66.400  251.077    5.892
  453.500    0.352    0.350   65.972  250.988    5.918
  453.750    0.339    0.340   68.667  252.877    5.651
  454.000    0.341    0.337   72.550  256.538    5.466
  454.250    0.337    0.365   72.621  259.779    5.219
  454.500    0.324    0.378   75.816  262.710    5.087
  454.750    0.326    0.373   80.073  264.391    5.014
  455.000    0.333    0.359   85.205  265.550    4.698
  455.250    0.334    0.373   75.530  266.815    4.571
  455.500    0.328    0.395   70.541  268.913    4.549
  455.750    0.319    0.400   71.613  271.529    4.551
  456.000    0.310    0.387   73.807  274.876    4.614
  456.250    0.320    0.410   71.380  279.056    4.531
  456.500    0.328    0.423   71.514  282.925    4.535
  456.750    0.316    0.412   76.208  285.750    4.580
  457.000    0.303    0.407   76.779  289.305    4.618
  457.250    0.300    0.404   77.725  292.339    4.682
  457.500    0.304    0.387   81.295  295.374    4.659
  457.750    0.314    0.395   78.680  297.367    4.671
  458.000    0.330    0.398   75.690  298.736    4.754
  458.250    0.339    0.395   75.199  299.792    4.802
  458.500    0.331    0.393   78.144  301.160    4.742
  458.750    0.325    0.400   81.152  303.048    4.631
  459.000    0.331    0.421   79.036  304.834    4.617
  459.250    0.339    0.424   75.484  306.306    4.586
  459.500    0.332    0.406   75.993  307.883    4.537
  459.750    0.336    0.402   79.937  310.085    4.583
  460.000    0.333    0.409   86.506  312.597    4.629
  460.250    0.326    0.400   82.954  317.714    4.632
  460.500    0.332    0.400   78.965  320.228    4.697
  460.750    0.335    0.414   75.599  316.077    4.753
  461.000    0.333    0.420   75.858  314.739    4.792
  461.250    0.328    0.419   77.617  317.460    4.795
  461.500    0.312    0.408   79.687  315.810    4.798
  461.750    0.292    0.397   79.134  316.659    4.642
  462.000    0.273    0.398   77.455  317.610    4.440
  462.250    0.296    0.379   78.589  318.041    4.304
  462.500    0.290    0.364   84.595  317.224    4.226
  462.750    0.275    0.377   85.292  316.820    4.158
  463.000    0.299    0.381   84.738  317.046    4.153
  463.250    0.313    0.379   85.560  317.267    4.203
  463.500    0.313    0.370   84.631  317.281    4.238
  463.750    0.300    0.358   82.016  318.441    4.289
  464.000    0.288    0.398   78.276  320.437    4.340
  464.250    0.276    0.425   80.284  321.387    4.368
  464.500    0.278    0.410   83.729  323.381    4.354
  464.750    0.287    0.394   82.863  325.061    4.324
  465.000    0.294    0.411   80.186  325.699    4.295
  465.250    0.301    0.421   84.693  325.714    4.314
  465.500    0.302    0.412   87.388  325.937    4.284
  465.750    0.302    0.397   81.399  326.890    4.215
  466.000    0.293    0.378   76.972  327.218    4.186
  466.250    0.301    0.408   79.730  327.127    4.221
  466.500    0.335    0.439   80.489  326.725    4.328
  466.750    0.335    0.438   76.374  326.428    4.522
  467.000    0.344    0.399   71.135  326.546    5.055
  467.250    0.366    0.391   65.646  326.877    5.759
  467.500    0.376    0.390   63.406  327.306    6.294
  467.750    0.366    0.381   64.164  327.737    6.515
  468.000    0.338    0.397   65.922  328.272    6.643
  468.250    0.320    0.385   67.181  329.225    6.787
  468.500    0.290    0.348   68.189  331.010    6.830
  468.750    0.272    0.336   68.885  333.730    6.808
  469.000    0.304    0.359   69.894  335.307    6.825
  469.250    0.334    0.373   69.216  336.469    6.805
