~VERSION INFORMATION
 VERS.                 2.0:   CWLS LOG ASCII STANDARD -VERSION 2.0
 WRAP.                  NO:   ONE LINE PER DEPTH STEP
~WELL INFORMATION BLOCK
#MNEM.UNIT           DATA                    DESCRIPTION OF MNEMONIC
#---------    -------------------            -------------------------------
# Generated from Intellog Unique Number	CS_73_76/WELL/2000
WELL.         BOW VALLEY INDUSTRIES LTD.     : Well_name    - WELL
LOC .         00/06-36-075-15W4/0            : Location     - LOCATION
UWI .         00/06-36-075-15W4/0            : Uwi          - UNIQUE WELL ID
ENTR.         SP                             : Entered      - ENTERED BY
SRVC.         SCHLUMBERGER                   : Scn          - SERVICE COMPANY
STRT.M        353.568                        : top_depth    - START DEPTH
STOP.M        548.318                        : bot_depth    - STOP DEPTH
STEP.M        0.25                           : increment    - STEP LENGTH
 NULL. -999.2500:NULL Value
~CURVE INFORMATION BLOCK
#MNEM UNIT       ERCB CURVE CODE    CURVE DESCRIPTION
#-----------   ------------------   ----------------------------------
DEPT.M        00 001 00 00         : DEPTH        - DEPTH
GR  .API      00 310 00 00         : GR           - GAMMA RAY
DPHI.V/V      00 890 00 00         : PHID         - DENSITY POROSITY (SANDSTONE)
NPHI.V/V      00 330 00 00         : PHIN         - NEUTRON POROSITY (SANDSTONE)
ILD .OHMM     00 120 00 00         : RESD         - DEEP RESISTIVITY (DIL)
~PARAMETER INFORMATION
#MNEM.UNIT           DATA             DESCRIPTION OF MNEMONIC
#---------         -----------     ------------------------------
GL  .M        729.082              : gl           - GROUND LEVEL ELEVATION
EREF.M        732.13               : kb           - ELEVATION OF DEPTH REFERENCE
DATM.M        729.082              : datum        - DATUM ELEVATION
TDD .M        558.394              : tdd          - TOTAL DEPTH DRILLER
RUN .         ONE                  : Run          - RUN NUMBER
ENG .         BILL                 : Engineer     - RECORDING ENGINEER
WIT .         JIM                  : Witness      - WITNESSED BY
MUD .         GEL                  : Mud_type     - MUD TYPE
MATR.         SANDSTONE            : Logunit      - NEUTRON MATRIX
TMAX.C        60                   : BHT          - MAXIMUM RECORDED TEMPERATURE
BHTD.M        558.394              : BHTDEP       - MAXIMUM RECORDED TEMPERATURE
MATR.         1                    : LOGUNIT      - NEUTRON MATRIX
RMT .C        25                   : MDTP         - TEMPERATURE OF MUD
NEUT.         1                    : NEUTRON      - NEUTRON TYPE
RESI.         0                    : RESIST       - RESISTIVITY TYPE
RMC .OHMM     0.25                 : RMC          - RESISTIVITY OF MUD CAKE
RMF .OHMM     0.25                 : RMF          - RESISTIVITY OF MUD FILTRATE
SUFT.C        15                   : SUFT         - SURFACE TEMPERATURE
~A  DEPTH       GR     PHID     PHIN     RESD
  353.568   94.642    0.184    0.604    2.518
  353.818   94.454    0.218    0.527    2.507
  354.068   98.564    0.226    0.534    2.629
  354.318  103.892    0.218    0.539    2.755
  354.568  108.829    0.217    0.528    2.872
  354.818  111.412    0.211    0.519    2.983
  355.068  111.352    0.204    0.509    3.076
  355.318  109.723    0.200    0.497    3.170
  355.568  108.811    0.201    0.491    3.264
  355.818  107.962    0.197    0.495    3.261
  356.068  105.600    0.195    0.506    3.265
  356.318  104.085    0.203    0.513    3.199
  356.568  104.870    0.206    0.518    3.065
  356.818  107.964    0.197    0.520    2.978
  357.068  110.018    0.201    0.519    2.868
  357.318  112.831    0.211    0.526    2.834
  357.568  115.076    0.216    0.540    2.804
  357.818  115.986    0.210    0.550    2.761
  358.068  115.084    0.207    0.535    2.786
  358.318  113.271    0.212    0.522    2.881
  358.568  109.758    0.213    0.511    3.021
  358.818  106.846    0.218    0.508    3.114
  359.068  103.911    0.213    0.497    3.139
  359.318  102.108    0.215    0.485    3.054
  359.568  103.804    0.210    0.473    2.836
  359.818  103.463    0.212    0.479    2.814
  360.068  100.152    0.221    0.489    3.218
  360.318   98.979    0.211    0.498    3.983
  360.568   97.070    0.194    0.491    4.935
  360.818   92.773    0.177    0.455    6.075
  361.068   86.237    0.171    0.415    6.946
  361.318   81.555    0.274    0.381    7.470
  361.568   74.859    0.319    0.386    7.516
  361.818   64.397    0.317    0.404    7.207
  362.068   62.703    0.296    0.417    7.419
  362.318   66.109    0.284    0.431    7.950
  362.568   71.450    0.281    0.424    8.359
  362.818   72.747    0.264    0.415    7.689
  363.068   71.605    0.247    0.408    6.700
  363.318   75.366    0.230    0.413    5.796
  363.568   81.076    0.219    0.423    5.361
  363.818   87.932    0.211    0.432    5.712
  364.068   96.431    0.217    0.442    6.170
  364.318  102.188    0.247    0.444    6.967
  364.568  104.703    0.284    0.439    7.853
  364.818  102.771    0.309    0.428    8.602
  365.068   96.547    0.317    0.430    9.167
  365.318   88.658    0.322    0.446    9.527
  365.568   82.664    0.312    0.455    9.397
  365.818   78.894    0.300    0.458    9.113
  366.068   80.242    0.286    0.448    8.839
  366.318   84.918    0.281    0.443    8.957
  366.568   86.689    0.272    0.439    9.005
  366.818   91.866    0.268    0.436    9.001
  367.068   95.476    0.266    0.436    9.189
  367.318   98.358    0.265    0.439    9.175
  367.568   99.213    0.267    0.440    9.174
  367.818   99.188    0.274    0.432    9.174
  368.068   99.165    0.282    0.430    9.174
  368.318   99.669    0.292    0.425    9.178
  368.568   99.814    0.294    0.420    9.234
  368.818   99.162    0.288    0.419    9.536
  369.068   98.315    0.280    0.403   10.249
  369.318   96.773    0.272    0.382   11.542
  369.568   92.055    0.263    0.365   12.785
  369.818   86.926    0.269    0.336   13.483
  370.068   79.312    0.281    0.306   13.213
  370.318   73.787    0.299    0.282   13.941
  370.568   69.387    0.316    0.283   15.140
  370.818   68.096    0.318    0.287   16.033
  371.068   66.745    0.326    0.280   16.401
  371.318   62.148    0.363    0.266   14.209
  371.568   58.984    0.350    0.264   12.901
  371.818   57.356    0.328    0.306   11.236
  372.068   62.407    0.297    0.349    9.982
  372.318   66.452    0.270    0.385    9.510
  372.568   70.816    0.258    0.403    8.874
  372.818   74.273    0.259    0.409    8.328
  373.068   76.459    0.253    0.415    7.649
  373.318   78.444    0.254    0.419    6.587
  373.568   80.651    0.254    0.423    5.535
  373.818   85.011    0.242    0.428    4.940
  374.068   89.611    0.215    0.437    4.326
  374.318   94.342    0.190    0.451    3.983
  374.568  102.135    0.177    0.473    3.991
  374.818  110.168    0.171    0.487    4.072
  375.068  115.936    0.157    0.496    4.149
  375.318  118.682    0.146    0.497    4.156
  375.568  118.741    0.144    0.501    3.921
  375.818  118.700    0.136    0.500    3.578
  376.068  121.207    0.130    0.502    3.309
  376.318  124.747    0.182    0.514    3.054
  376.568  131.442    0.200    0.526    2.818
  376.818  136.931    0.192    0.534    2.985
  377.068  138.184    0.196    0.540    3.570
  377.318  137.238    0.211    0.501    4.218
  377.568  136.276    0.215    0.476    4.762
  377.818  134.508    0.214    0.450    5.747
  378.068  130.692    0.221    0.432    6.776
  378.318  124.259    0.229    0.421    7.607
  378.568  119.129    0.222    0.429    8.066
  378.818  114.056    0.225    0.442    8.164
  379.068  116.142    0.229    0.451    8.216
  379.318  118.577    0.242    0.453    8.067
  379.568  121.141    0.247    0.456    7.737
  379.818  117.102    0.241    0.449    7.437
  380.068  112.927    0.246    0.439    6.983
  380.318  108.177    0.247    0.433    6.565
  380.568  103.507    0.235    0.439    6.509
  380.818  108.316    0.222    0.446    6.908
  381.068  110.957    0.215    0.448    7.642
  381.318  113.308    0.208    0.440    8.085
  381.568  112.535    0.218    0.432    8.621
  381.818  108.766    0.230    0.426    8.725
  382.068  105.517    0.237    0.431    8.841
  382.318  103.102    0.241    0.437    8.472
  382.568  104.535    0.246    0.442    8.181
  382.818  106.002    0.245    0.451    7.791
  383.068  108.217    0.229    0.457    7.230
  383.318  111.062    0.217    0.453    7.054
  383.568  114.591    0.216    0.453    6.706
  383.818  118.132    0.224    0.455    6.644
  384.068  122.361    0.235    0.455    6.580
  384.318  123.777    0.242    0.454    6.659
  384.568  124.251    0.235    0.458    7.074
  384.818  120.797    0.232    0.471    7.360
  385.068  113.538    0.237    0.481    7.727
  385.318  104.540    0.259    0.472    7.882
  385.568   97.853    0.270    0.466    7.770
  385.818   89.900    0.280    0.459    7.527
  386.068   84.572    0.274    0.460    7.499
  386.318   77.715    0.281    0.463    8.019
  386.568   75.222    0.285    0.464    8.699
  386.818   75.009    0.298    0.455    9.398
  387.068   71.579    0.295    0.448    9.989
  387.318   65.901    0.280    0.445   10.544
  387.568   61.766    0.263    0.445   10.854
  387.818   60.508    0.260    0.449   11.059
  388.068   61.374    0.269    0.454   10.739
  388.318   61.977    0.261    0.455   10.634
  388.568   63.290    0.256    0.455   10.327
  388.818   65.223    0.257    0.465    9.761
  389.068   68.339    0.258    0.472    9.208
  389.318   72.415    0.270    0.471    8.254
  389.568   78.759    0.273    0.470    7.399
  389.818   83.463    0.268    0.471    6.533
  390.068   90.121    0.264    0.479    6.078
  390.318   97.519    0.257    0.491    5.541
  390.568  100.738    0.245    0.500    5.212
  390.818  103.956    0.235    0.503    5.044
  391.068  105.435    0.229    0.491    4.892
  391.318  106.054    0.234    0.482    4.691
  391.568  105.330    0.234    0.475    4.437
  391.818  105.355    0.229    0.473    4.226
  392.068  107.317    0.226    0.472    4.460
  392.318  109.267    0.222    0.467    4.806
  392.568  110.650    0.222    0.454    5.238
  392.818  111.147    0.228    0.445    5.929
  393.068  108.446    0.235    0.431    6.272
  393.318  103.559    0.225    0.430    6.555
  393.568   98.140    0.221    0.438    6.656
  393.818   95.850    0.225    0.446    6.577
  394.068   97.536    0.219    0.453    6.279
  394.318   97.541    0.209    0.456    6.061
  394.568   98.193    0.204    0.461    5.997
  394.818   99.981    0.198    0.468    5.951
  395.068  101.264    0.192    0.474    6.188
  395.318   99.475    0.205    0.476    6.923
  395.568   95.941    0.230    0.469    7.809
  395.818   89.929    0.253    0.457    8.777
  396.068   80.794    0.268    0.448    9.282
  396.318   67.323    0.286    0.438   10.015
  396.568   60.797    0.302    0.432   10.055
  396.818   56.965    0.314    0.428   10.215
