~VERSION INFORMATION
 VERS.                 2.0:   CWLS LOG ASCII STANDARD -VERSION 2.0
 WRAP.                  NO:   ONE LINE PER DEPTH STEP
~WELL INFORMATION BLOCK
#MNEM.UNIT           DATA                    DESCRIPTION OF MNEMONIC
#---------    -------------------            -------------------------------
# Generated from Intellog Unique Number	CW_70_72/WELL/529
NULL.         -999.25                        : NULL_VALUE
WELL.         CHIEFCO SCEPTRE SPURFIELD 06-0 : Well_name    - WELL              
LOC .         06-02-072-02W5                 : Location     - LOCATION          
UWI .         00/06-02-072-02W5/0            : Uwi          - UNIQUE WELL ID    
ENTR.         JAYE                           : Entered      - ENTERED BY        
SRVC.         SCHLUMBERGER                   : Scn          - SERVICE COMPANY   
DATE.         21 JAN 78                      : Date         - LOG DATE          
STRT.M        387.096                        : top_depth    - START DEPTH       
STOP.M        640.096                        : bot_depth    - STOP DEPTH        
STEP.M        0.25                           : increment    - STEP LENGTH       
~CURVE INFORMATION BLOCK
#MNEM UNIT       ERCB CURVE CODE    CURVE DESCRIPTION
#-----------   ------------------   ----------------------------------
DEPT.M        00 001 00 00         : DEPTH        - DEPTH                       
DPHI.V/V      00 890 00 00         : PHID         - DENSITY POROSITY (SANDSTONE)
NPHI.V/V      00 330 00 00         : PHIN         - NEUTRON POROSITY (SANDSTONE)
GR  .API      00 310 00 00         : GR           - GAMMA RAY                   
CALI.MM       00 280 01 00         : CAL          - CALIPER                     
ILD .OHMM     00 120 00 00         : RESD         - DEEP RESISTIVITY (DIL)      
~PARAMETER INFORMATION       
#MNEM.UNIT           DATA             DESCRIPTION OF MNEMONIC
#---------         -----------     ------------------------------
GL  .M        588.416              : gl           - GROUND LEVEL ELEVATION      
EREF.M        591.312              : kb           - ELEVATION OF DEPTH REFERENCE
DATM.M        588.416              : datum        - DATUM ELEVATION             
TDD .M        659.892              : tdd          - TOTAL DEPTH DRILLER         
RUN .         ONE                  : Run          - RUN NUMBER                  
ENG .         CONQUIST/DALY        : Engineer     - RECORDING ENGINEER          
WIT .         SIFERD               : Witness      - WITNESSED BY                
BASE.         EDM                  : Branch       - HOME BASE OF LOGGING UNIT   
MUD .         GEL CHEM             : Mud_type     - MUD TYPE                    
MATR.         SANDSTONE            : Logunit      - NEUTRON MATRIX              
TMAX.C        25.5556              : BHT          - MAXIMUM RECORDED TEMPERATURE
BHTD.M        660.197              : BHTDEP       - MAXIMUM RECORDED TEMPERATURE
RMT .C        18.8889              : MDTP         - TEMPERATURE OF MUD          
MUDD.KG/M     1128                 : MWT          - MUD DENSITY                 
NEUT.         1                    : NEUTRON      - NEUTRON TYPE                
RESI.         0                    : RESIST       - RESISTIVITY TYPE            
RM  .OHMM     6.55                 : RM           - RESISTIVITY OF MUD          
RMC .OHMM     0                    : RMC          - RESISTIVITY OF MUD CAKE     
RMF .OHMM     5.8                  : RMF          - RESISTIVITY OF MUD FILTRATE 
SUFT.C        0                    : SUFT         - SURFACE TEMPERATURE         
~A  DEPTH     PHID     PHIN       GR      CAL     RESD
# ...
  460.096    0.279    0.431   53.422  158.014    2.599
  460.346    0.284    0.446   54.617  158.146    2.796
  460.596    0.281    0.446   55.377  158.268    2.991
  460.846    0.268    0.441   55.203  158.291    3.152
  461.096    0.261    0.424   54.781  158.528    3.346
  461.346    0.256    0.435   54.670  158.653    3.447
  461.596    0.286    0.452   54.621  158.890    3.491
  461.846    0.291    0.451   54.695  158.812    3.266
  462.096    0.295    0.437   55.830  158.727    3.055
  462.346    0.291    0.427   53.415  158.639    2.863
  462.596    0.282    0.444   51.935  158.238    2.658
  462.846    0.294    0.457   52.757  157.949    2.505
  463.096    0.307    0.468   54.077  157.757    2.406
  463.346    0.316    0.464   55.957  157.572    2.338
  463.596    0.309    0.447   58.709  157.387    2.301
  463.846    0.297    0.444   61.648  157.402    2.304
  464.096    0.302    0.442   62.595  157.424    2.307
  464.346    0.312    0.448   62.111  157.762    2.306
  464.596    0.330    0.453   61.254  158.001    2.300
  464.846    0.310    0.445   61.141  158.018    2.303
  465.096    0.308    0.443   60.659  158.151    2.298
  465.346    0.302    0.436   61.044  158.170    2.288
  465.596    0.298    0.439   63.048  158.193    2.278
  465.846    0.299    0.449   67.045  158.216    2.285
  466.096    0.304    0.458   69.424  158.345    2.310
  466.346    0.303    0.463   64.021  158.788    2.348
  466.596    0.310    0.472   62.417  159.548    2.451
  466.846    0.261    0.480   64.298  160.203    2.553
  467.096    0.269    0.471   66.116  160.645    2.635
  467.346    0.285    0.439   67.809  162.249    2.644
  467.596    0.287    0.436   66.329  164.064    2.593
  467.846    0.281    0.446   63.417  165.560    2.548
  468.096    0.284    0.454   63.678  165.899    2.479
  468.346    0.282    0.461   63.880  165.924    2.445
  468.596    0.287    0.464   64.141  166.051    2.426
  468.846    0.295    0.452   65.274  166.072    2.401
  469.096    0.305    0.454   68.338  166.098    2.400
  469.346    0.298    0.460   71.338  166.011    2.440
  469.596    0.285    0.453   70.669  166.040    2.494
  469.846    0.276    0.456   70.556  166.270    2.564
  470.096    0.273    0.473   70.445  166.818    2.662
  470.346    0.276    0.479   69.588  167.686    2.826
  470.596    0.233    0.453   67.422  168.653    3.041
  470.846    0.247    0.408   64.012  170.363    3.328
  471.096    0.256    0.397   64.958  171.544    3.718
  471.346    0.185    0.414   62.296  172.410    4.154
  471.596    0.126    0.400   61.438  173.066    4.590
  471.846    0.097    0.365   62.508  173.404    5.325
  472.096    0.077    0.298   62.023  173.532    5.850
  472.346    0.061    0.264   59.921  173.449    6.649
  472.596    0.061    0.238   58.379  172.736    7.715
  472.846    0.068    0.218   57.707  171.805    8.869
  473.096    0.056    0.212   56.475  169.511   10.079
  473.346    0.039    0.175   53.501  167.741   11.370
  473.596    0.020    0.157   53.267  166.605   12.679
  473.846    0.008    0.143   54.025  165.993   13.641
  474.096   -0.003    0.142   52.109  165.810   14.594
  474.346    0.009    0.155   50.441  165.828   14.780
  474.596    0.065    0.182   51.762  165.746   12.915
  474.846    0.097    0.208   55.635  165.664   10.039
  475.096    0.163    0.245   59.569  165.792    7.642
  475.346    0.205    0.280   63.379  165.813    6.145
  475.596    0.221    0.366   67.064  165.312    5.421
  475.846    0.244    0.383   70.501  164.386    4.773
  476.096    0.235    0.398   71.884  163.668    4.292
  476.346    0.243    0.419   67.104  162.636    3.961
  476.596    0.235    0.432   66.123  161.822    3.827
  476.846    0.232    0.434   66.822  161.419    3.725
  477.096    0.219    0.424   68.451  161.229    3.694
  477.346    0.211    0.416   70.581  161.356    3.713
  477.596    0.215    0.436   70.532  161.591    3.725
  477.846    0.251    0.431   67.370  162.352    3.744
  478.096    0.242    0.419   63.774  163.002    3.749
  478.346    0.233    0.408   61.796  163.872    3.740
  478.596    0.218    0.402   58.946  164.422    3.716
  478.846    0.199    0.410   62.134  164.969    3.722
  479.096    0.243    0.420   66.067  165.836    3.726
  479.346    0.237    0.405   69.130  167.331    3.689
  479.596    0.251    0.387   71.136  169.462    3.632
  479.846    0.252    0.373   72.643  172.016    3.521
  480.096    0.234    0.376   74.586  174.461    3.408
  480.346    0.240    0.408   78.085  176.487    3.368
  480.596    0.224    0.441   80.650  177.563    3.366
  480.846    0.206    0.440   82.531  178.112    3.454
  481.096    0.186    0.432   83.913  178.030    3.598
  481.346    0.170    0.432   85.420  176.685    3.770
  481.596    0.160    0.431   87.861  176.070    3.936
  481.846    0.183    0.427   87.127  176.204    4.032
  482.096    0.182    0.421   87.576  176.536    4.083
  482.346    0.171    0.416   92.010  177.195    4.080
  482.596    0.145    0.412   95.758  177.743    4.086
  482.846    0.162    0.405   98.758  178.399    4.091
  483.096    0.167    0.412  102.008  178.948    4.097
  483.346    0.153    0.438  102.955  179.600    4.125
  483.596    0.158    0.440   98.487  180.468    4.178
  483.846    0.134    0.437   94.703  181.017    4.255
  484.096    0.134    0.447   98.077  181.252    4.342
  484.346    0.142    0.440  101.825  181.274    4.422
  484.596    0.159    0.431  100.531  181.510    4.512
  484.846    0.140    0.438   95.938  181.739    4.535
  485.096    0.141    0.412   98.130  182.183    4.456
  485.346    0.150    0.417   97.397  182.944    4.305
  485.596    0.144    0.441   95.357  183.808    3.790
  485.846    0.155    0.472   95.369  184.993    3.453
  486.096    0.218    0.506   96.814  185.961    3.304
  486.346    0.251    0.514   98.010  186.405    3.321
  486.596    0.216    0.486   97.277  185.689    3.499
  486.846    0.192    0.457   95.609  184.130    3.722
  487.096    0.182    0.435   93.506  181.623    3.900
  487.346    0.184    0.421   91.030  178.590    4.033
  487.596    0.178    0.409   87.495  172.183    3.986
  487.846    0.207    0.424   83.089  165.564    3.597
  488.096    0.245    0.444   78.869  163.164    3.203
  488.346    0.262    0.425   74.774  162.452    2.968
  488.596    0.275    0.440   71.178  162.788    2.792
  488.846    0.289    0.462   66.647  163.020    2.662
  489.096    0.298    0.454   65.043  163.253    2.552
  489.346    0.297    0.439   65.307  163.381    2.488
  489.596    0.301    0.427   66.501  163.087    2.431
  489.846    0.283    0.417   69.252  162.058    2.402
  490.096    0.263    0.418   72.192  161.028    2.365
  490.346    0.279    0.433   73.262  160.414    2.354
  490.596    0.279    0.432   71.159  159.911    2.375
  490.846    0.284    0.410   67.501  160.358    2.406
  491.096    0.292    0.413   65.709  161.325    2.478
  491.346    0.286    0.423   65.535  162.720    2.582
  491.596    0.294    0.426   64.740  163.794    2.685
  491.846    0.209    0.283   62.076  165.399    2.808
  492.096    0.174    0.244   57.608  167.319    2.871
  492.346    0.133    0.250   58.492  169.131    2.837
  492.596    0.183    0.310   62.738  167.574    2.756
  492.846    0.233    0.349   67.794  161.798    2.682
  493.096    0.290    0.381   69.302  159.292    2.533
  493.346    0.308    0.442   70.498  159.528    2.410
  493.596    0.294    0.441   72.065  161.552    2.355
  493.846    0.276    0.430   75.192  163.683    2.425
  494.096    0.276    0.430   78.814  165.284    2.585
  494.346    0.281    0.452   80.384  166.043    2.755
  494.596    0.278    0.475   78.967  166.066    2.914
  494.846    0.267    0.482   78.916  165.879    3.036
  495.096    0.267    0.447   79.739  165.584    2.972
  495.346    0.270    0.421   81.682  165.607    2.785
  495.596    0.266    0.408   76.902  165.632    2.737
  495.846    0.273    0.420   72.247  165.447    2.922
  496.096    0.255    0.432   71.141  165.465    3.109
  496.346    0.262    0.417   72.710  165.067    3.440
