~VERSION INFORMATION
 VERS.                 2.0:   CWLS LOG ASCII STANDARD -VERSION 2.0
 WRAP.                  NO:   ONE LINE PER DEPTH STEP
~WELL INFORMATION BLOCK
#MNEM.UNIT           DATA                    DESCRIPTION OF MNEMONIC
#---------    -------------------            -------------------------------
# Generated from Intellog Unique Number	CS_69_70/WELL/799
WELL.         AEC FISHER                     : Well_name    - WELL
LOC .         00/06-06-069-04W4/0            : Location     - LOCATION
UWI .         00/06-06-069-04W4/0            : Uwi          - UNIQUE WELL ID
ENTR.         SP                             : Entered      - ENTERED BY
SRVC.         SCHLUMBERGER                   : Scn          - SERVICE COMPANY
STRT.M        340                            : top_depth    - START DEPTH
STOP.M        595                            : bot_depth    - STOP DEPTH
STEP.M        0.25                           : increment    - STEP LENGTH
 NULL. -999.2500:NULL Value
~CURVE INFORMATION BLOCK
#MNEM UNIT       ERCB CURVE CODE    CURVE DESCRIPTION
#-----------   ------------------   ----------------------------------
DEPT.M        00 001 00 00         : DEPTH        - DEPTH
ILD .OHMM     00 120 00 00         : RESD         - DEEP RESISTIVITY (DIL)
DPHI.V/V      00 890 00 00         : PHID         - DENSITY POROSITY (LIMESTONE)
NPHI.V/V      00 330 00 00         : PHIN         - NEUTRON POROSITY (LIMESTONE)
GR  .API      00 310 00 00         : GR           - GAMMA RAY
~PARAMETER INFORMATION
#MNEM.UNIT           DATA             DESCRIPTION OF MNEMONIC
#---------         -----------     ------------------------------
GL  .M        695.6                : gl           - GROUND LEVEL ELEVATION
EREF.M        699.3                : kb           - ELEVATION OF DEPTH REFERENCE
DATM.M        695.6                : datum        - DATUM ELEVATION
TDD .M        600                  : tdd          - TOTAL DEPTH DRILLER
RUN .         ONE                  : Run          - RUN NUMBER
ENG .         BILL                 : Engineer     - RECORDING ENGINEER
WIT .         JIM                  : Witness      - WITNESSED BY
MUD .         GEL                  : Mud_type     - MUD TYPE
MATR.         LIMESTONE            : Logunit      - NEUTRON MATRIX
TMAX.C        22                   : BHT          - MAXIMUM RECORDED TEMPERATURE
BHTD.M        600                  : BHTDEP       - MAXIMUM RECORDED TEMPERATURE
MATR.         1                    : LOGUNIT      - NEUTRON MATRIX
RMT .C        25                   : MDTP         - TEMPERATURE OF MUD
NEUT.         1                    : NEUTRON      - NEUTRON TYPE
RESI.         0                    : RESIST       - RESISTIVITY TYPE
RMC .OHMM     0.25                 : RMC          - RESISTIVITY OF MUD CAKE
RMF .OHMM     0.25                 : RMF          - RESISTIVITY OF MUD FILTRATE
SUFT.C        15                   : SUFT         - SURFACE TEMPERATURE
~A  DEPTH     RESD     PHID     PHIN       GR
# ...
  470.500   17.075    0.326    0.442   58.777
  470.750   17.112    0.323    0.452   58.216
  471.000   17.314    0.329    0.448   56.740
  471.250   17.481    0.331    0.452   55.691
  471.500   17.921    0.330    0.460   55.071
  471.750   18.165    0.329    0.450   55.853
  472.000   17.107    0.324    0.439   57.916
  472.250   15.810    0.321    0.433   59.672
  472.500   14.475    0.329    0.427   60.699
  472.750   13.917    0.339    0.447   61.419
  473.000   13.457    0.345    0.457   62.567
  473.250   13.185    0.331    0.457   62.556
  473.500   14.575    0.295    0.471   56.626
  473.750   16.793    0.231    0.285   51.431
  474.000   20.092    0.131    0.243   46.722
  474.250   19.948    0.074    0.188   49.639
  474.500   19.916    0.111    0.432   59.386
  474.750   17.659    0.227    0.446   63.097
  475.000   15.866    0.301    0.465   65.099
  475.250   15.083    0.341    0.477   63.560
  475.500   14.529    0.340    0.489   61.780
  475.750   14.289    0.347    0.485   60.184
  476.000   14.456    0.344    0.469   59.258
  476.250   14.736    0.344    0.467   60.100
  476.500   15.364    0.350    0.459   60.090
  476.750   16.481    0.335    0.449   59.041
  477.000   17.249    0.321    0.454   55.613
  477.250   17.984    0.324    0.453   55.418
  477.500   18.680    0.325    0.435   57.236
  477.750   19.186    0.317    0.425   59.177
  478.000   18.552    0.312    0.421   60.629
  478.250   17.373    0.310    0.422   60.803
  478.500   15.549    0.314    0.427   59.998
  478.750   13.453    0.320    0.435   55.290
  479.000   13.636    0.328    0.442   50.215
  479.250   14.932    0.146    0.417   47.153
  479.500   16.351    0.111    0.210   48.119
  479.750   18.876    0.159    0.315   52.378
  480.000   20.591    0.218    0.377   53.587
  480.250   22.463    0.248    0.416   51.805
  480.500   23.823    0.267    0.345   49.598
  480.750   23.875    0.286    0.322   50.867
  481.000   22.570    0.297    0.397   55.307
  481.250   20.011    0.328    0.437   58.592
  481.500   17.216    0.336    0.468   61.631
  481.750   16.030    0.333    0.467   63.875
  482.000   14.956    0.332    0.459   64.353
  482.250   14.273    0.335    0.454   64.219
  482.500   14.089    0.340    0.463   63.659
  482.750   14.281    0.348    0.467   63.160
  483.000   14.779    0.327    0.458   62.416
  483.250   15.467    0.312    0.458   59.478
  483.500   16.589    0.297    0.452   55.745
  483.750   15.565    0.294    0.441   60.917
  484.000   14.412    0.311    0.437   64.993
  484.250   13.909    0.327    0.452   68.641
  484.500   13.223    0.334    0.441   69.485
  484.750   12.406    0.338    0.435   66.058
  485.000   11.773    0.341    0.446   66.718
  485.250   11.534    0.335    0.455   67.070
  485.500   11.409    0.332    0.463   65.231
  485.750   11.455    0.333    0.492   68.085
  486.000   10.546    0.317    0.464   71.184
  486.250    6.107    0.295    0.458   73.613
  486.500    4.112    0.283    0.502   75.860
  486.750    3.077    0.296    0.524   77.251
  487.000    2.303    0.306    0.537   73.885
  487.250    1.970    0.306    0.524   71.311
  487.500    1.800    0.302    0.568   69.775
  487.750    1.721    0.298    0.561   69.703
  488.000    1.693    0.305    0.519   72.559
  488.250    1.677    0.315    0.533   74.438
  488.500    1.678    0.313    0.551   74.976
  488.750    1.685    0.303    0.540   74.477
  489.000    1.711    0.293    0.532   76.722
  489.250    1.751    0.289    0.534   78.663
  489.500    1.781    0.288    0.523   78.103
  489.750    1.850    0.283    0.514   79.433
  490.000    1.988    0.289    0.512   81.679
  490.250    2.157    0.294    0.499   84.290
  490.500    2.274    0.279    0.494   86.900
  490.750    2.314    0.264    0.502   88.292
  491.000    2.323    0.267    0.516   89.378
  491.250    2.337    0.261    0.525   90.040
  491.500    2.351    0.256    0.522   90.029
  491.750    2.447    0.251    0.510   86.113
  492.000    2.580    0.233    0.509   82.380
  492.250    2.951    0.209    0.460   79.135
  492.500    3.393    0.189    0.404   81.199
  492.750    3.612    0.204    0.391   84.663
  493.000    3.634    0.226    0.429   88.433
  493.250    3.403    0.246    0.457   91.045
  493.500    3.104    0.249    0.471   92.011
  493.750    2.890    0.250    0.477   88.217
  494.000    2.832    0.252    0.481   85.703
  494.250    2.790    0.251    0.485   86.181
  494.500    2.786    0.241    0.497   87.879
  494.750    2.802    0.231    0.510   88.781
  495.000    2.862    0.219    0.513   89.320
  495.250    2.951    0.213    0.532   88.636
  495.500    3.053    0.217    0.472   88.076
  495.750    3.190    0.210    0.447   86.968
  496.000    3.364    0.209    0.432   87.200
  496.250    3.832    0.214    0.443   89.995
  496.500    4.072    0.213    0.456   91.753
  496.750    4.174    0.209    0.469   93.265
  497.000    4.199    0.207    0.454   93.681
  497.250    4.224    0.209    0.428   93.671
  497.500    4.202    0.204    0.407   93.720
  497.750    4.187    0.201    0.414   95.171
  498.000    4.188    0.203    0.449   96.504
  498.250    4.245    0.208    0.486   91.673
  498.500    4.336    0.184    0.490   82.450
  498.750    4.748    0.050    0.238   71.093
  499.000    5.821    0.030    0.223   54.856
  499.250    8.506    0.020    0.218   50.757
  499.500   11.634    0.013    0.253   50.746
  499.750   14.157    0.215    0.381   51.526
  500.000   17.523    0.274    0.420   51.029
  500.250   20.459    0.315    0.428   51.504
  500.500   23.308    0.320    0.435   54.299
  500.750   25.428    0.314    0.426   57.338
  501.000   26.263    0.308    0.418   60.194
  501.250   27.127    0.304    0.422   62.195
  501.500   28.391    0.316    0.433   59.256
  501.750   30.393    0.333    0.423   59.121
  502.000   33.160    0.337    0.414   59.903
  502.250   34.898    0.339    0.407   60.137
  502.500   38.071    0.344    0.401   62.992
  502.750   39.250    0.350    0.396   69.018
  503.000   32.581    0.342    0.431   72.058
  503.250   28.561    0.333    0.448   72.474
  503.500   23.664    0.327    0.454   71.363
  503.750   21.459    0.325    0.450   71.536
  504.000   19.462    0.327    0.429   72.683
  504.250   17.921    0.316    0.416   75.111
  504.500   17.164    0.312    0.417   79.247
  504.750   16.074    0.306    0.430   83.324
  505.000   15.110    0.289    0.440   88.009
  505.250   14.419    0.276    0.425   86.045
  505.500   13.733    0.264    0.384   82.863
  505.750   12.982    0.287    0.379   79.801
  506.000   11.886    0.283    0.385   79.791
  506.250   11.109    0.269    0.380   82.403
  506.500   10.132    0.257    0.374   85.928
  506.750    9.035    0.247    0.370   89.028
  507.000    8.349    0.239    0.385   90.847
  507.250    7.819    0.236    0.395   89.799
  507.500    7.561    0.232    0.404   86.005
  507.750    7.606    0.230    0.401   82.944
  508.000    7.724    0.249    0.408   79.455
  508.250    7.873    0.280    0.427   76.150
  508.500    8.334    0.289    0.396   73.760
  508.750    8.973    0.276    0.376   72.956
  509.000   10.183    0.291    0.384   68.796
  509.250   13.414    0.307    0.371   59.511
  509.500   22.028    0.315    0.367   54.317
  509.750   32.366    0.315    0.381   48.266
  510.000   46.145    0.312    0.394   52.767
  510.250   52.769    0.308    0.406   57.820
  510.500   45.656    0.312    0.401   61.589
  510.750   36.221    0.318    0.386   66.154
  511.000   29.951    0.293    0.376   70.901
  511.250   23.851    0.274    0.387   75.038
  511.500   19.648    0.261    0.395   59.593
  511.750   16.744    0.293    0.365   46.955
  512.000   17.295    0.282    0.315   39.319
  512.250   20.654    0.210    0.270   51.630
  512.500   24.899    0.015    0.240   65.221
  512.750   28.635    0.068    0.264   74.847
  513.000   26.714    0.123    0.290   85.023
  513.250   17.063    0.156    0.340   89.038
  513.500   13.184    0.182    0.360   83.350
  513.750   10.499    0.228    0.362   79.620
