~VERSION INFORMATION
 VERS.                 2.0:   CWLS LOG ASCII STANDARD -VERSION 2.0
 WRAP.                  NO:   ONE LINE PER DEPTH STEP
~WELL INFORMATION BLOCK
#MNEM.UNIT           DATA                    DESCRIPTION OF MNEMONIC
#---------    -------------------            -------------------------------
# Generated from Intellog Unique Number	CS_67_68/WELL/689
WELL.         DOME PETROLEUM LIMITED         : Well_name    - WELL
LOC .         00/06-26-068-02W4/0            : Location     - LOCATION
UWI .         00/06-26-068-02W4/0            : Uwi          - UNIQUE WELL ID
ENTR.         SP                             : Entered      - ENTERED BY
SRVC.         SCHLUMBERGER                   : Scn          - SERVICE COMPANY
STRT.M        385                            : top_depth    - START DEPTH
STOP.M        630                            : bot_depth    - STOP DEPTH
STEP.M        0.25                           : increment    - STEP LENGTH
 NULL. -999.2500:NULL Value
~CURVE INFORMATION BLOCK
#MNEM UNIT       ERCB CURVE CODE    CURVE DESCRIPTION
#-----------   ------------------   ----------------------------------
DEPT.M        00 001 00 00         : DEPTH        - DEPTH
ILD .OHMM     00 120 00 00         : RESD         - DEEP RESISTIVITY (DIL)
DPHI.V/V      00 890 00 00         : PHID         - DENSITY POROSITY (LIMESTONE)
NPHI.V/V      00 330 00 00         : PHIN         - NEUTRON POROSITY (LIMESTONE)
GR  .API      00 310 00 00         : GR           - GAMMA RAY
~PARAMETER INFORMATION
#MNEM.UNIT           DATA             DESCRIPTION OF MNEMONIC
#---------         -----------     ------------------------------
GL  .M        709.94               : gl           - GROUND LEVEL ELEVATION
EREF.M        713.29               : kb           - ELEVATION OF DEPTH REFERENCE
DATM.M        709.94               : datum        - DATUM ELEVATION
TDD .M        640                  : tdd          - TOTAL DEPTH DRILLER
RUN .         ONE                  : Run          - RUN NUMBER
ENG .         BILL                 : Engineer     - RECORDING ENGINEER
WIT .         JIM                  : Witness      - WITNESSED BY
MUD .         GEL                  : Mud_type     - MUD TYPE
MATR.         LIMESTONE            : Logunit      - NEUTRON MATRIX
TMAX.C        29                   : BHT          - MAXIMUM RECORDED TEMPERATURE
BHTD.M        640                  : BHTDEP       - MAXIMUM RECORDED TEMPERATURE
MATR.         1                    : LOGUNIT      - NEUTRON MATRIX
RMT .C        25                   : MDTP         - TEMPERATURE OF MUD
NEUT.         1                    : NEUTRON      - NEUTRON TYPE
RESI.         0                    : RESIST       - RESISTIVITY TYPE
RMC .OHMM     0.25                 : RMC          - RESISTIVITY OF MUD CAKE
RMF .OHMM     0.25                 : RMF          - RESISTIVITY OF MUD FILTRATE
SUFT.C        15                   : SUFT         - SURFACE TEMPERATURE
~A  DEPTH     RESD     PHID     PHIN       GR
# ...
  559.000    7.994    0.200    0.374  102.622
  559.250    7.890    0.219    0.370  100.166
  559.500    7.773    0.234    0.367   89.958
  559.750    7.281    0.250    0.352   78.284
  560.000    7.133    0.265    0.338   66.671
  560.250    6.846    0.279    0.350   63.971
  560.500    6.583    0.286    0.344   58.889
  560.750    6.201    0.292    0.329   52.709
  561.000    5.919    0.298    0.319   46.714
  561.250    5.798    0.303    0.330   44.503
  561.500    5.808    0.309    0.336   42.717
  561.750    5.840    0.308    0.336   43.011
  562.000    5.850    0.291    0.325   48.368
  562.250    5.584    0.268    0.330   55.128
  562.500    5.646    0.257    0.350   60.246
  562.750    5.751    0.253    0.355   65.481
  563.000    5.892    0.249    0.361   69.008
  563.250    6.036    0.248    0.364   69.665
  563.500    6.217    0.257    0.357   69.654
  563.750    6.346    0.267    0.352   69.760
  564.000    6.333    0.277    0.348   67.368
  564.250    6.321    0.289    0.348   57.524
  564.500    6.227    0.290    0.357   51.956
  564.750    6.100    0.280    0.356   54.446
  565.000    6.020    0.275    0.349   58.885
  565.250    6.042    0.276    0.351   60.583
  565.500    6.064    0.286    0.349   56.420
  565.750    6.086    0.292    0.342   51.641
  566.000    6.097    0.298    0.346   49.737
  566.250    6.028    0.301    0.352   48.075
  566.500    5.818    0.304    0.355   46.658
  566.750    5.710    0.307    0.350   44.385
  567.000    5.583    0.301    0.347   46.813
  567.250    5.510    0.292    0.358   52.416
  567.500    5.520    0.298    0.349   57.409
  567.750    5.592    0.296    0.342   60.936
  568.000    5.665    0.290    0.332   53.351
  568.250    5.707    0.289    0.333   51.812
  568.500    5.802    0.287    0.344   52.712
  568.750    5.889    0.274    0.334   51.296
  569.000    5.921    0.256    0.329   57.081
  569.250    6.032    0.251    0.340   61.769
  569.500    6.133    0.269    0.341   63.648
  569.750    6.260    0.278    0.340   63.634
  570.000    6.377    0.278    0.363   61.912
  570.250    6.400    0.259    0.385   68.674
  570.500    6.435    0.240    0.386   76.963
  570.750    6.458    0.244    0.376   82.322
  571.000    5.851    0.261    0.362   72.174
  571.250    5.894    0.275    0.349   61.843
  571.500    5.893    0.287    0.337   55.114
  571.750    5.849    0.295    0.327   54.245
  572.000    5.805    0.293    0.328   52.949
  572.250    5.772    0.307    0.340   51.532
  572.500    5.707    0.309    0.334   48.405
  572.750    5.654    0.297    0.325   46.679
  573.000    5.591    0.289    0.317   48.682
  573.250    5.538    0.282    0.317   50.500
  573.500    5.548    0.252    0.314   51.464
  573.750    5.599    0.211    0.347   61.950
  574.000    5.757    0.188    0.373   75.244
  574.250    5.920    0.184    0.393   90.188
  574.500    6.167    0.192    0.404  104.338
  574.750    6.412    0.199    0.413  108.475
  575.000    6.581    0.200    0.413  106.752
  575.250    6.654    0.192    0.401  108.935
  575.500    6.666    0.214    0.386   89.510
  575.750    6.702    0.254    0.372   77.103
  576.000    6.689    0.308    0.355   67.749
  576.250    6.517    0.333    0.340   56.075
  576.500    5.882    0.340    0.351   42.264
  576.750    5.449    0.345    0.349   40.846
  577.000    5.142    0.352    0.334   41.443
  577.250    4.890    0.354    0.321   36.179
  577.500    4.547    0.354    0.343   31.404
  577.750    4.331    0.352    0.351   28.582
  578.000    4.219    0.349    0.349   27.651
  578.250    4.057    0.343    0.337   27.149
  578.500    3.923    0.335    0.327   27.320
  578.750    3.908    0.317    0.318   30.419
  579.000    3.900    0.305    0.330   36.877
  579.250    3.922    0.294    0.338   45.837
  579.500    3.980    0.282    0.340   53.700
  579.750    4.093    0.272    0.341   61.195
  580.000    4.255    0.264    0.338   64.477
  580.250    4.567    0.258    0.346   65.502
  580.500    4.883    0.268    0.345   66.954
  580.750    5.212    0.277    0.338   59.369
  581.000    5.329    0.258    0.353   59.722
  581.250    5.348    0.250    0.370   66.544
  581.500    5.398    0.266    0.374   71.599
  581.750    5.387    0.276    0.367   68.350
  582.000    5.377    0.262    0.359   64.368
  582.250    5.346    0.249    0.353   67.955
  582.500    5.355    0.243    0.346   70.140
  582.750    5.375    0.253    0.348   70.249
  583.000    5.384    0.257    0.341   69.198
  583.250    5.444    0.255    0.338   70.038
  583.500    5.505    0.254    0.344   72.710
  583.750    5.474    0.263    0.357   71.843
  584.000    5.205    0.278    0.368   64.990
  584.250    4.831    0.293    0.371   60.154
  584.500    4.610    0.310    0.359   54.036
  584.750    4.433    0.324    0.347   47.795
  585.000    4.263    0.336    0.331   40.456
  585.250    4.091    0.340    0.320   33.726
  585.500    3.941    0.340    0.315   30.233
  585.750    3.825    0.340    0.319   26.922
  586.000    3.782    0.339    0.314   25.383
  586.250    3.768    0.331    0.310   26.100
  586.500    3.774    0.309    0.316   27.979
  586.750    3.802    0.297    0.331   31.079
  587.000    3.859    0.286    0.338   37.842
  587.250    4.088    0.279    0.328   46.072
  587.500    4.282    0.294    0.316   48.438
  587.750    4.387    0.309    0.309   37.801
  588.000    4.265    0.321    0.303   32.172
  588.250    4.163    0.327    0.303   29.472
  588.500    4.010    0.329    0.306   29.091
  588.750    3.921    0.329    0.307   29.259
  589.000    3.834    0.324    0.312   29.675
  589.250    3.791    0.313    0.320   32.039
  589.500    3.784    0.307    0.328   33.921
  589.750    3.811    0.306    0.337   36.167
  590.000    3.847    0.305    0.333   38.534
  590.250    3.904    0.313    0.324   38.887
  590.500    4.000    0.330    0.326   34.172
  590.750    4.090    0.339    0.334   30.677
  591.000    4.059    0.341    0.341   27.975
  591.250    3.947    0.346    0.339   27.355
  591.500    3.895    0.352    0.335   29.355
  591.750    3.830    0.354    0.331   31.478
  592.000    3.773    0.352    0.331   32.259
  592.250    3.717    0.355    0.330   29.498
  592.500    3.702    0.375    0.330   28.323
  592.750    3.709    0.389    0.336   31.180
  593.000    3.715    0.389    0.349   41.178
  593.250    3.715    0.368    0.366   58.014
  593.500    3.842    0.303    0.384   70.209
  593.750    4.154    0.249    0.404   85.397
  594.000    4.714    0.217    0.418  103.759
  594.250    5.241    0.215    0.407  111.133
  594.500    5.521    0.226    0.391  109.531
  594.750    5.531    0.236    0.380  107.379
  595.000    5.520    0.243    0.380  105.719
  595.250    5.278    0.249    0.378  102.592
  595.500    5.085    0.274    0.373   90.612
  595.750    4.871    0.285    0.365   84.004
  596.000    4.754    0.283    0.357   79.840
  596.250    4.727    0.279    0.354   76.652
  596.500    4.727    0.277    0.352   74.990
  596.750    4.744    0.276    0.340   76.686
  597.000    4.770    0.281    0.329   79.236
  597.250    4.743    0.287    0.321   81.420
  597.500    4.655    0.293    0.317   81.102
  597.750    4.603    0.297    0.325   73.640
  598.000    4.543    0.301    0.332   69.290
  598.250    4.458    0.307    0.338   62.441
  598.500    4.351    0.320    0.343   49.729
  598.750    4.287    0.325    0.347   47.640
  599.000    4.286    0.321    0.351   49.636
  599.250    4.326    0.310    0.353   50.969
  599.500    4.382    0.302    0.353   54.678
  599.750    4.540    0.298    0.354   56.559
  600.000    4.694    0.291    0.347   56.118
  600.250    4.881    0.281    0.340   61.538
  600.500    5.065    0.271    0.338   72.330
  600.750    5.179    0.279    0.343   78.604
  601.000    5.266    0.286    0.342   67.540
  601.250    5.266    0.284    0.340   60.811
  601.500    5.197    0.275    0.339   72.764
  601.750    5.158    0.275    0.326   79.282
  602.000    5.110    0.285    0.312   72.064
  602.250    5.109    0.290    0.326   60.879
