~VERSION INFORMATION
 VERS.                 2.0:   CWLS LOG ASCII STANDARD -VERSION 2.0
 WRAP.                  NO:   ONE LINE PER DEPTH STEP
~WELL INFORMATION BLOCK
#MNEM.UNIT           DATA                    DESCRIPTION OF MNEMONIC
#---------    -------------------            -------------------------------
# Generated from Intellog Unique Number	CS_77_79/WELL/916
WELL.         PCI PCEJ CHARD                 : Well_name    - WELL
LOC .         00/08-04-079-06W4/0            : Location     - LOCATION
UWI .         00/08-04-079-06W4/0            : Uwi          - UNIQUE WELL ID
ENTR.         JHS                            : Entered      - ENTERED BY
SRVC.         SCHLUMBERGER                   : Scn          - SERVICE COMPANY
STRT.M        80                             : top_depth    - START DEPTH
STOP.M        325                            : bot_depth    - STOP DEPTH
STEP.M        0.25                           : increment    - STEP LENGTH
 NULL. -999.2500:NULL Value
~CURVE INFORMATION BLOCK
#MNEM UNIT       ERCB CURVE CODE    CURVE DESCRIPTION
#-----------   ------------------   ----------------------------------
DEPT.M        00 001 00 00         : DEPTH        - DEPTH
DPHI.V/V      00 890 00 00         : PHID         - DENSITY POROSITY (LIMESTONE)
NPHI.V/V      00 330 00 00         : PHIN         - NEUTRON POROSITY (LIMESTONE)
GR  .API      00 310 00 00         : GR           - GAMMA RAY
ILD .OHMM     00 120 00 00         : RESD         - DEEP RESISTIVITY (DIL)
RHOB.KG/M3    00 350 00 00         : DENS         - BULK DENSITY
~PARAMETER INFORMATION
#MNEM.UNIT           DATA             DESCRIPTION OF MNEMONIC
#---------         -----------     ------------------------------
GL  .M        509.4                : gl           - GROUND LEVEL ELEVATION
EREF.M        512.4                : kb           - ELEVATION OF DEPTH REFERENCE
DATM.M        512.4                : datum        - DATUM ELEVATION
TDD .M        331                  : tdd          - TOTAL DEPTH DRILLER
RUN .         ONE                  : Run          - RUN NUMBER
ENG .         BILL                 : Engineer     - RECORDING ENGINEER
WIT .         JIM                  : Witness      - WITNESSED BY
MUD .         GEL                  : Mud_type     - MUD TYPE
MATR.         LIMESTONE            : Logunit      - NEUTRON MATRIX
TMAX.C        22                   : BHT          - MAXIMUM RECORDED TEMPERATURE
BHTD.M        331                  : BHTDEP       - MAXIMUM RECORDED TEMPERATURE
MATR.         1                    : LOGUNIT      - NEUTRON MATRIX
RMT .C        25                   : MDTP         - TEMPERATURE OF MUD
NEUT.         1                    : NEUTRON      - NEUTRON TYPE
RESI.         0                    : RESIST       - RESISTIVITY TYPE
RMC .OHMM     0.25                 : RMC          - RESISTIVITY OF MUD CAKE
RMF .OHMM     0.25                 : RMF          - RESISTIVITY OF MUD FILTRATE
SUFT.C        15                   : SUFT         - SURFACE TEMPERATURE
~A  DEPTH     PHID     PHIN       GR     RESD     DENS
# ...
  153.000    0.347    0.430   59.669   23.803    0.000
  153.250    0.355    0.427   60.281   25.193    0.000
  153.500    0.356    0.414   64.551   25.203    0.000
  153.750    0.357    0.400   65.773   25.215    0.000
  154.000    0.367    0.409   63.336   25.704    0.000
  154.250    0.365    0.432   62.727   26.698    0.000
  154.500    0.362    0.412   60.900   26.713    0.000
  154.750    0.371    0.403   62.121   26.225    0.000
  155.000    0.362    0.421   63.953   25.272    0.000
  155.250    0.349    0.411   63.954   23.903    0.000
  155.500    0.354    0.405   63.346   23.907    0.000
  155.750    0.360    0.423   62.129   22.610    0.000
  156.000    0.366    0.457   61.520   22.621    0.000
  156.250    0.365    0.448   62.132   22.210    0.000
  156.500    0.363    0.444   60.304   22.217    0.000
  156.750    0.358    0.447   61.526   22.228    0.000
  157.000    0.360    0.441   62.137   22.239    0.000
  157.250    0.362    0.422   62.748   21.834    0.000
  157.500    0.360    0.412   60.921   21.439    0.000
  157.750    0.360    0.431   63.972   21.045    0.000
  158.000    0.362    0.441   65.803   20.279    0.000
  158.250    0.358    0.423   63.976   18.822    0.000
  158.500    0.358    0.425   63.977   18.138    0.000
  158.750    0.371    0.438   67.028   17.805    0.000
  159.000    0.365    0.436   68.250   17.483    0.000
  159.250    0.353    0.434   67.641   18.162    0.000
  159.500    0.357    0.434   63.984   18.513    0.000
  159.750    0.361    0.434   59.718   18.872    0.000
  160.000    0.346    0.433   57.890   18.528    0.000
  160.250    0.341    0.437   54.843   17.855    0.000
  160.500    0.337    0.447   57.894   17.528    0.000
  160.750    0.344    0.460   62.774   16.576    0.000
  161.000    0.344    0.464   65.214   15.973    0.000
  161.250    0.345    0.464   62.777   15.685    0.000
  161.500    0.355    0.461   67.047   15.690    0.000
  161.750    0.361    0.482   66.439   15.994    0.000
  162.000    0.361    0.449   59.734   16.612    0.000
  162.250    0.367    0.432   53.638   17.584    0.000
  162.500    0.373    0.427   57.298   19.325    0.000
  162.750    0.369    0.422   61.568   19.332    0.000
  163.000    0.363    0.407   62.790   18.980    0.000
  163.250    0.350    0.406   66.450   17.949    0.000
  163.500    0.342    0.426   68.891   16.973    0.000
  163.750    0.347    0.469   66.454   15.462    0.000
  164.000    0.350    0.461   63.407   14.895    0.000
  164.250    0.339    0.453   62.189   14.625    0.000
  164.500    0.323    0.454   62.800   14.359    0.000
  164.750    0.314    0.453   60.973   14.369    0.000
  165.000    0.328    0.447   61.585   14.372    0.000
  165.250    0.339    0.453   65.245   15.212    0.000
  165.500    0.347    0.461   60.369   15.506    0.000
  165.750    0.341    0.475   54.273   16.411    0.000
  166.000    0.296    0.342   46.958   19.080    0.000
  166.250    0.043    0.204   42.081   22.181    0.000
  166.500    0.010    0.178   42.083   25.306    0.000
  166.750    0.090    0.209   53.670   28.877    0.000
  167.000    0.130    0.293   62.819   28.888    0.000
  167.250    0.301    0.366   67.698   27.319    0.000
  167.500    0.352    0.442   68.920   25.352    0.000
  167.750    0.366    0.460   67.092   22.242    0.000
  168.000    0.369    0.450   63.435   20.257    0.000
  168.250    0.375    0.461   59.779   18.450    0.000
  168.500    0.380    0.476   58.561   17.778    0.000
  168.750    0.367    0.477   58.562   17.455    0.000
  169.000    0.350    0.488   57.345   17.464    0.000
  169.250    0.340    0.491   57.346   17.148    0.000
  169.500    0.341    0.461   59.178   16.837    0.000
  169.750    0.353    0.459   59.789   16.842    0.000
  170.000    0.364    0.472   58.572   16.536    0.000
  170.250    0.364    0.447   55.525   16.236    0.000
  170.500    0.357    0.437   56.746   16.245    0.000
  170.750    0.358    0.458   56.748   16.249    0.000
  171.000    0.342    0.482   53.091   16.881    0.000
  171.250    0.321    0.475   52.483   17.206    0.000
  171.500    0.326    0.455   57.973   18.210    0.000
  171.750    0.353    0.445   61.023   18.564    0.000
  172.000    0.366    0.435   65.903   17.888    0.000
  172.250    0.361    0.435   73.832   15.991    0.000
  172.500    0.325    0.451   82.370   13.510    0.000
  172.750    0.304    0.465   79.323    8.943    0.000
  173.000    0.308    0.453   72.008    6.879    0.000
  173.250    0.329    0.450   68.351    6.883    0.000
  173.500    0.340    0.447   74.451    8.001    0.000
  173.750    0.337    0.435   78.720   10.810    0.000
  174.000    0.310    0.426   84.210   11.657    0.000
  174.250    0.308    0.442   84.822   12.110    0.000
  174.500    0.305    0.434   86.043   11.451    0.000
  174.750    0.300    0.424   89.703   10.235    0.000
  175.000    0.294    0.422   94.583    9.149    0.000
  175.250    0.273    0.451   98.244    8.027    0.000
  175.500    0.248    0.467   98.245    7.734    0.000
  175.750    0.165    0.469   89.101    7.884    0.000
  176.000    0.121    0.454   79.346    8.037    0.000
  176.250    0.118    0.399   85.446    8.193    0.000
  176.500    0.180    0.410   89.106    8.352    0.000
  176.750    0.261    0.432   93.986    8.355    0.000
  177.000    0.257    0.451   99.475    8.052    0.000
  177.250    0.257    0.465   98.258    7.614    0.000
  177.500    0.255    0.460   96.430    7.200    0.000
  177.750    0.251    0.456  101.920    6.683    0.000
  178.000    0.254    0.445   99.483    6.318    0.000
  178.250    0.255    0.460   98.265    5.864    0.000
  178.500    0.243    0.482  101.315    5.545    0.000
  178.750    0.238    0.469  106.195    5.344    0.000
  179.000    0.248    0.488  104.368    5.149    0.000
  179.250    0.260    0.499  100.711    4.962    0.000
  179.500    0.266    0.525  101.323    4.781    0.000
  179.750    0.270    0.542  100.715    4.606    0.000
  180.000    0.278    0.531   98.278    4.275    0.000
  180.250    0.282    0.493  101.328    3.968    0.000
  180.500    0.268    0.468  104.988    3.823    0.000
  180.750    0.262    0.470  104.380    3.615    0.000
  181.000    0.266    0.508   98.895    3.550    0.000
  181.250    0.278    0.546  100.116    3.552    0.000
  181.500    0.276    0.546  100.727    3.621    0.000
  181.750    0.264    0.518   97.681    3.690    0.000
  182.000    0.260    0.510   94.024    4.055    0.000
  182.250    0.277    0.505   91.587    4.895    0.000
  182.500    0.295    0.491   86.100    5.481    0.000
  182.750    0.292    0.480   90.980    5.588    0.000
  183.000    0.281    0.475   97.080    5.186    0.000
  183.250    0.268    0.506  101.350    4.723    0.000
  183.500    0.261    0.545  105.011    4.301    0.000
  183.750    0.261    0.542  105.012    3.635    0.000
  184.000    0.268    0.516  103.185    3.311    0.000
  184.250    0.265    0.529   99.528    3.312    0.000
  184.500    0.264    0.554   94.651    3.440    0.000
  184.750    0.262    0.568   99.532    3.573    0.000
  185.000    0.266    0.556  101.362    3.643    0.000
  185.250    0.271    0.524  100.144    3.576    0.000
  185.500    0.271    0.515  100.757    3.446    0.000
  185.750    0.276    0.535  100.758    3.321    0.000
  186.000    0.287    0.564   98.321    3.261    0.000
  186.250    0.293    0.548   95.883    3.324    0.000
  186.500    0.308    0.544   89.178    3.653    0.000
  186.750    0.297    0.532   83.082    4.013    0.000
  187.000    0.293    0.498   75.157    4.844    0.000
  187.250    0.299    0.466   73.329    5.958    0.000
  187.500    0.305    0.443   72.112    6.926    0.000
  187.750    0.313    0.449   73.943    8.205    0.000
  188.000    0.319    0.466   76.384    9.187    0.000
  188.250    0.320    0.479   77.605    9.365    0.000
  188.500    0.313    0.470   78.826    9.195    0.000
  188.750    0.298    0.454   80.047    8.696    0.000
  189.000    0.284    0.455   81.269    8.070    0.000
  189.250    0.271    0.462   80.051    7.489    0.000
