~VERSION INFORMATION
 VERS.                 2.0:   CWLS LOG ASCII STANDARD -VERSION 2.0
 WRAP.                  NO:   ONE LINE PER DEPTH STEP
~WELL INFORMATION BLOCK
#MNEM.UNIT           DATA                    DESCRIPTION OF MNEMONIC
#---------    -------------------            -------------------------------
# Generated from Intellog Unique Number	CS_73_76/WELL/2213
WELL.         PRECAMBRIAN SHIELD RESOURC     : Well_name    - WELL
LOC .         00/07-20-076-09W4/0            : Location     - LOCATION
UWI .         00/07-20-076-09W4/0            : Uwi          - UNIQUE WELL ID
ENTR.         SP                             : Entered      - ENTERED BY
SRVC.         SCHLUMBERGER                   : Scn          - SERVICE COMPANY
STRT.M        245                            : top_depth    - START DEPTH
STOP.M        495                            : bot_depth    - STOP DEPTH
STEP.M        0.25                           : increment    - STEP LENGTH
 NULL. -999.2500:NULL Value
~CURVE INFORMATION BLOCK
#MNEM UNIT       ERCB CURVE CODE    CURVE DESCRIPTION
#-----------   ------------------   ----------------------------------
DEPT.M        00 001 00 00         : DEPTH        - DEPTH
ILD .OHMM     00 120 00 00         : RESD         - DEEP RESISTIVITY (DIL)
DPHI.V/V      00 890 00 00         : PHID         - DENSITY POROSITY (LIMESTONE)
NPHI.V/V      00 330 00 00         : PHIN         - NEUTRON POROSITY (LIMESTONE)
GR  .API      00 310 00 00         : GR           - GAMMA RAY
~PARAMETER INFORMATION
#MNEM.UNIT           DATA             DESCRIPTION OF MNEMONIC
#---------         -----------     ------------------------------
GL  .M        677.49               : gl           - GROUND LEVEL ELEVATION
EREF.M        681.99               : kb           - ELEVATION OF DEPTH REFERENCE
DATM.M        677.49               : datum        - DATUM ELEVATION
TDD .M        498                  : tdd          - TOTAL DEPTH DRILLER
RUN .         ONE                  : Run          - RUN NUMBER
ENG .         BILL                 : Engineer     - RECORDING ENGINEER
WIT .         JIM                  : Witness      - WITNESSED BY
MUD .         GEL                  : Mud_type     - MUD TYPE
MATR.         LIMESTONE            : Logunit      - NEUTRON MATRIX
TMAX.C        20                   : BHT          - MAXIMUM RECORDED TEMPERATURE
BHTD.M        498                  : BHTDEP       - MAXIMUM RECORDED TEMPERATURE
MATR.         1                    : LOGUNIT      - NEUTRON MATRIX
RMT .C        25                   : MDTP         - TEMPERATURE OF MUD
NEUT.         1                    : NEUTRON      - NEUTRON TYPE
RESI.         0                    : RESIST       - RESISTIVITY TYPE
RMC .OHMM     0.25                 : RMC          - RESISTIVITY OF MUD CAKE
RMF .OHMM     0.25                 : RMF          - RESISTIVITY OF MUD FILTRATE
SUFT.C        15                   : SUFT         - SURFACE TEMPERATURE
~A  DEPTH     RESD     PHID     PHIN       GR
# ...
  375.500    8.992    0.276    0.446   76.140
  375.750    8.826    0.268    0.436   77.372
  376.000    8.666    0.259    0.432   76.768
  376.250    8.670    0.262    0.439   76.772
  376.500    8.353    0.263    0.416   76.170
  376.750    8.202    0.248    0.424   76.178
  377.000    8.205    0.229    0.445   76.796
  377.250    8.367    0.231    0.463   78.027
  377.500    8.371    0.251    0.456   79.261
  377.750    8.373    0.256    0.443   81.103
  378.000    8.378    0.256    0.446   83.559
  378.250    8.381    0.256    0.452   87.241
  378.500    8.546    0.257    0.452   83.574
  378.750    8.712    0.257    0.448   78.072
  379.000    9.399    0.237    0.441   71.345
  379.250    9.404    0.150    0.414   64.004
  379.500    9.060    0.152    0.364   59.727
  379.750    8.565    0.185    0.369   68.306
  380.000    7.946    0.216    0.395   76.885
  380.250    7.374    0.230    0.448   80.567
  380.500    7.239    0.238    0.448   82.410
  380.750    7.242    0.238    0.447   81.805
  381.000    7.109    0.236    0.459   81.201
  381.250    6.980    0.228    0.463   83.045
  381.500    6.600    0.226    0.447   79.990
  381.750    6.479    0.228    0.433   82.448
  382.000    6.242    0.228    0.442   86.740
  382.250    6.246    0.226    0.459   89.809
  382.500    6.248    0.226    0.471   87.980
  382.750    6.252    0.226    0.465   86.765
  383.000    6.374    0.225    0.460   88.609
  383.250    6.376    0.237    0.464   89.840
  383.500    5.915    0.241    0.431   91.686
  383.750    4.994    0.241    0.428   94.144
  384.000    3.836    0.253    0.447   95.374
  384.250    2.947    0.270    0.481   95.992
  384.500    2.488    0.275    0.528   92.325
  384.750    2.308    0.285    0.581   88.662
  385.000    2.182    0.296    0.642   86.832
  385.250    2.267    0.297    0.588   85.003
  385.500    2.588    0.293    0.559   83.786
  385.750    3.310    0.277    0.545   81.956
  386.000    4.153    0.266    0.517   80.126
  386.250    5.113    0.274    0.487   78.297
  386.500    5.729    0.286    0.470   78.916
  386.750    6.181    0.293    0.453   78.923
  387.000    6.545    0.296    0.450   78.319
  387.250    6.930    0.293    0.477   75.264
  387.500    7.338    0.297    0.442   75.883
  387.750    7.481    0.290    0.434   78.341
  388.000    7.771    0.290    0.440   75.898
  388.250    8.076    0.294    0.430   70.396
  388.500    8.079    0.310    0.418   63.057
  388.750    8.238    0.323    0.406   54.492
  389.000    8.398    0.329    0.395   49.601
  389.250    8.401    0.331    0.391   50.834
  389.500    8.730    0.335    0.395   49.005
  389.750    8.732    0.339    0.381   46.564
  390.000    8.738    0.325    0.371   45.347
  390.250    8.743    0.320    0.366   47.190
  390.500    8.745    0.323    0.377   49.034
  390.750    8.751    0.324    0.387   50.266
  391.000    8.754    0.325    0.392   47.826
  391.250    8.760    0.335    0.381   48.445
  391.500    8.600    0.341    0.380   49.676
  391.750    8.603    0.347    0.394   50.297
  392.000    8.448    0.350    0.401   47.243
  392.250    8.452    0.351    0.410   46.027
  392.500    8.297    0.342    0.404   45.423
  392.750    8.300    0.339    0.412   45.428
  393.000    8.307    0.336    0.408   44.825
  393.250    8.310    0.335    0.384   45.444
  393.500    8.313    0.332    0.388   46.675
  393.750    8.161    0.339    0.389   48.518
  394.000    8.164    0.340    0.399   49.139
  394.250    8.172    0.332    0.411   50.371
  394.500    8.022    0.329    0.411   52.216
  394.750    8.025    0.334    0.415   53.449
  395.000    7.878    0.337    0.429   54.068
  395.250    7.881    0.340    0.430   54.688
  395.500    7.740    0.347    0.415   54.081
  395.750    7.743    0.341    0.415   53.477
  396.000    7.747    0.333    0.421   53.484
  396.250    7.604    0.337    0.409   53.494
  396.500    7.608    0.349    0.401   53.499
  396.750    7.612    0.359    0.392   52.895
  397.000    7.615    0.367    0.384   52.905
  397.250    7.765    0.376    0.378   52.909
  397.500    7.768    0.375    0.367   52.919
  397.750    7.771    0.364    0.358   52.924
  398.000    7.775    0.351    0.353   51.709
  398.250    7.930    0.349    0.348   50.490
  398.500    7.933    0.346    0.416   49.274
  398.750    7.935    0.344    0.415   49.893
  399.000    7.939    0.349    0.420   50.512
  399.250    7.944    0.350    0.425   49.909
  399.500    7.947    0.354    0.400   50.529
  399.750    7.950    0.362    0.382   52.371
  400.000    7.955    0.362    0.382   54.217
  400.250    7.958    0.359    0.396   55.449
  400.500    7.961    0.359    0.422   55.457
  400.750    7.968    0.350    0.404   54.852
  401.000    7.971    0.337    0.397   54.859
  401.250    7.975    0.329    0.391   54.253
  401.500    7.979    0.324    0.388   52.424
  401.750    7.981    0.327    0.405   52.433
  402.000    7.836    0.328    0.418   53.051
  402.250    7.990    0.331    0.390   53.675
  402.500    8.144    0.331    0.397   53.679
  402.750    9.477    0.328    0.410   53.685
  403.000   10.419    0.264    0.406   52.468
  403.250   12.124    0.126    0.222   50.026
  403.500   14.107    0.050    0.189   47.586
  403.750   14.935    0.057    0.169   46.370
  404.000   14.943    0.073    0.177   45.764
  404.250   13.862    0.069    0.179   46.383
  404.500   11.060    0.035    0.177   49.454
  404.750   10.454    0.191    0.201   52.524
  405.000    9.340    0.255    0.294   53.752
  405.250    8.503    0.332    0.386   53.760
  405.500    8.194    0.346    0.400   50.707
  405.750    8.044    0.354    0.406   50.713
  406.000    8.047    0.357    0.433   53.169
  406.250    8.051    0.360    0.445   52.568
  406.500    8.056    0.354    0.430   53.185
  406.750    8.058    0.349    0.427   53.804
  407.000    8.063    0.350    0.418   52.589
  407.250    8.066    0.357    0.419   52.597
  407.500    7.919    0.372    0.441   53.217
  407.750    7.924    0.381    0.467   53.837
  408.000    7.927    0.383    0.493   53.843
  408.250    7.932    0.360    0.444   53.850
  408.500    7.787    0.354    0.430   52.022
  408.750    7.790    0.345    0.417   51.416
  409.000    7.793    0.344    0.406   52.035
  409.250    7.652    0.347    0.387   52.656
  409.500    7.655    0.351    0.399   52.664
  409.750    7.516    0.362    0.402   52.057
  410.000    7.522    0.368    0.408   51.455
  410.250    7.524    0.366    0.410   51.459
  410.500    7.528    0.342    0.398   52.692
  410.750    7.530    0.328    0.418   53.924
  411.000    7.678    0.334    0.431   53.320
  411.250    7.977    0.341    0.414   54.552
  411.500    8.770    0.337    0.425   55.783
  411.750    9.827    0.315    0.423   55.791
  412.000   10.404    0.291    0.328   52.737
  412.250   10.410    0.230    0.251   50.908
  412.500   10.029    0.069    0.174   52.141
  412.750    8.960    0.102    0.202   53.986
  413.000    8.313    0.206    0.303   54.607
  413.250    8.008    0.265    0.397   54.612
  413.500    7.716    0.339    0.399   54.620
  413.750    7.719    0.341    0.384   54.626
  414.000    8.020    0.340    0.386   54.634
  414.250    8.333    0.334    0.402   54.028
  414.500    8.656    0.331    0.393   52.811
  414.750    9.165    0.335    0.389   49.757
  415.000    8.830    0.341    0.389   44.255
  415.250    8.506    0.346    0.392   46.714
  415.500    8.197    0.331    0.385   48.555
  415.750    8.048    0.273    0.398   52.237
  416.000    7.900    0.258    0.406   51.019
  416.250    7.904    0.288    0.410   50.414
  416.500    7.908    0.337    0.415   50.426
  416.750    7.912    0.343    0.424   50.431
  417.000    7.917    0.349    0.420   50.437
  417.250    7.920    0.356    0.404   49.834
  417.500    7.774    0.351    0.401   49.841
  417.750    7.780    0.346    0.409   49.235
  418.000    7.783    0.342    0.395   49.242
  418.250    7.786    0.332    0.390   48.638
  418.500    7.789    0.327    0.398   51.709
  418.750    7.793    0.323    0.384   54.165
