~VERSION INFORMATION
 VERS.                 2.0:   CWLS LOG ASCII STANDARD -VERSION 2.0
 WRAP.                  NO:   ONE LINE PER DEPTH STEP
~WELL INFORMATION BLOCK
#MNEM.UNIT           DATA                    DESCRIPTION OF MNEMONIC
#---------    -------------------            -------------------------------
# Generated from Intellog Unique Number	CW_70_72/WELL/2899
NULL.         -999.25                        : NULL_VALUE
WELL.         MESA SULPETRO CALLS            : Well_name    - WELL              
LOC .         06-13-070-22W4                 : Location     - LOCATION          
UWI .         00/06-13-070-22W4/0            : Uwi          - UNIQUE WELL ID    
ENTR.         MAX                            : Entered      - ENTERED BY        
SRVC.         DRESSER ATLAS                  : Scn          - SERVICE COMPANY   
DATE.         24 FEB 79                      : Date         - LOG DATE
STRT.M        430                            : top_depth    - START DEPTH       
STOP.M        605                            : bot_depth    - STOP DEPTH        
STEP.M        0.25                           : increment    - STEP LENGTH       
~CURVE INFORMATION BLOCK
#MNEM UNIT       ERCB CURVE CODE    CURVE DESCRIPTION
#-----------   ------------------   ----------------------------------
DEPT.M        00 001 00 00         : DEPTH        - DEPTH                       
ILD .OHMM     00 120 00 00         : RESD         - DEEP RESISTIVITY (DIL)      
NPHI.V/V      00 330 00 00         : PHIN         - NEUTRON POROSITY (SANDSTONE)
DPHI.V/V      00 890 00 00         : PHID         - DENSITY POROSITY (SANDSTONE)
CALI.MM       00 280 01 00         : CAL          - CALIPER                     
GR  .API      00 310 00 00         : GR           - GAMMA RAY                   
~PARAMETER INFORMATION       
#MNEM.UNIT           DATA             DESCRIPTION OF MNEMONIC
#---------         -----------     ------------------------------
GL  .M        672.3                : gl           - GROUND LEVEL ELEVATION      
EREF.M        676.4                : kb           - ELEVATION OF DEPTH REFERENCE
DATM.M        672.3                : datum        - DATUM ELEVATION             
TDD .M        641                  : tdd          - TOTAL DEPTH DRILLER         
RUN .         ONE                  : Run          - RUN NUMBER                  
ENG .         BILL                 : Engineer     - RECORDING ENGINEER          
WIT .         JIM                  : Witness      - WITNESSED BY                
MUD .         GEL                  : Mud_type     - MUD TYPE                    
MATR.         SANDSTONE            : Logunit      - NEUTRON MATRIX              
TMAX.C        19                   : BHT          - MAXIMUM RECORDED TEMPERATURE
BHTD.M        641                  : BHTDEP       - MAXIMUM RECORDED TEMPERATURE
RMT .C        20                   : MDTP         - TEMPERATURE OF MUD          
MUDD.KG/M     1080                 : MWT          - MUD DENSITY                 
NEUT.         1                    : NEUTRON      - NEUTRON TYPE                
RESI.         0                    : RESIST       - RESISTIVITY TYPE            
RM  .OHMM     3                    : RM           - RESISTIVITY OF MUD          
RMC .OHMM     3.5                  : RMC          - RESISTIVITY OF MUD CAKE     
RMF .OHMM     1.8                  : RMF          - RESISTIVITY OF MUD FILTRATE 
SUFT.C        -20                  : SUFT         - SURFACE TEMPERATURE         
~A  DEPTH     RESD     PHIN     PHID      CAL       GR
  430.000    3.207    0.446    0.181  185.867   96.803
  430.250    3.208    0.429    0.202  185.838   97.674
  430.500    3.180    0.427    0.225  184.815   97.951
  430.750    3.123    0.427    0.248  180.335   97.342
  431.000    3.011    0.424    0.228  184.265   95.836
  431.250    2.877    0.420    0.208  189.683   96.120
  431.500    2.826    0.419    0.187  192.128   95.508
  431.750    2.827    0.422    0.159  195.563   94.600
  432.000    2.880    0.435    0.148  195.530   95.766
  432.250    2.934    0.445    0.153  195.501   97.235
  432.500    3.017    0.443    0.154  195.464   98.405
  432.750    3.131    0.443    0.194  195.934   96.604
  433.000    3.132    0.446    0.215  195.406   93.322
  433.250    3.104    0.441    0.220  194.889   89.444
  433.500    3.163    0.416    0.223  193.870   85.859
  433.750    3.252    0.404    0.233  192.353   84.064
  434.000    3.566    0.391    0.331  188.357   78.106
  434.250    4.019    0.371    0.402  184.867   69.181
  434.500    4.447    0.351    0.455  177.913   61.443
  434.750    5.105    0.319    0.247  170.956   53.404
  435.000    5.914    0.311    0.175  171.421   50.716
  435.250    6.137    0.299    0.195  169.896   50.400
  435.500    6.253    0.295    0.196  168.885   50.978
  435.750    6.429    0.290    0.194  168.855   51.253
  436.000    6.858    0.282    0.165  171.792   51.240
  436.250    7.520    0.264    0.062  173.738   51.220
  436.500    8.711    0.259    0.008  173.716   51.499
  436.750    8.556    0.276    0.027  173.683   53.558
  437.000    7.390    0.340    0.055  174.153   62.449
  437.250    6.501    0.381    0.192  174.120   73.123
  437.500    5.564    0.392    0.189  173.093   76.668
  437.750    4.895    0.386    0.162  172.569   76.945
  438.000    4.386    0.380    0.145  172.052   77.225
  438.250    4.077    0.377    0.137  172.514   78.100
  438.500    4.078    0.382    0.121  172.485   78.677
  438.750    4.472    0.376    0.115  172.452   79.550
  439.000    4.683    0.382    0.121  172.423   82.200
  439.250    4.642    0.386    0.138  172.892   84.857
  439.500    4.476    0.385    0.159  173.350   85.733
  439.750    4.396    0.376    0.185  174.318   83.337
  440.000    4.398    0.380    0.215  174.777   82.724
  440.250    4.439    0.372    0.215  176.239   85.678
  440.500    4.441    0.360    0.188  177.196   88.627
  440.750    4.442    0.359    0.234  173.703   86.236
  441.000    4.484    0.353    0.241  172.185   81.763
  441.250    4.611    0.337    0.211  170.671   77.588
  441.500    4.741    0.337    0.222  168.666   74.005
  441.750    4.657    0.339    0.209  167.152   73.396
  442.000    4.532    0.339    0.186  166.624   73.671
  442.250    4.251    0.330    0.166  167.585   73.950
  442.500    4.175    0.329    0.167  170.030   73.937
  442.750    4.333    0.325    0.195  170.001   70.354
  443.000    5.066    0.310    0.209  167.493   63.507
  443.250    5.257    0.298    0.236  165.980   54.285
  443.500    5.556    0.317    0.312  165.459   52.486
  443.750    6.036    0.305    0.257  165.426   56.326
  444.000    6.038    0.331    0.176  165.400   63.136
  444.250    5.769    0.337    0.150  165.371   66.686
  444.500    5.169    0.340    0.162  165.338   71.120
  444.750    4.762    0.347    0.174  165.309   74.074
  445.000    4.591    0.359    0.191  166.270   77.613
  445.250    4.229    0.363    0.203  167.230   77.897
  445.500    4.040    0.363    0.204  166.207   81.442
  445.750    4.117    0.356    0.200  166.182   84.392
  446.000    4.272    0.352    0.175  167.637   85.267
  446.250    4.352    0.348    0.166  169.584   87.922
  446.500    4.354    0.350    0.155  169.551   93.249
  446.750    4.315    0.362    0.145  169.030   94.122
  447.000    4.519    0.360    0.145  167.014   92.620
  447.250    4.605    0.396    0.248  164.514   94.085
  447.500    4.320    0.430    0.295  163.990   95.554
  447.750    3.835    0.462    0.388  169.903   97.019
  448.000    3.313    0.472    0.359  201.546   98.187
  448.250    2.995    0.488    0.240  208.940   99.061
  448.500    2.784    0.488    0.169  203.467   99.639
  448.750    2.760    0.468    0.264  200.469  100.809
  449.000    2.613    0.468    0.322  205.883  101.977
  449.250    2.543    0.469    0.362  212.782  102.853
  449.500    2.615    0.452    0.392  210.770  101.348
  449.750    2.814    0.419    0.360  204.802   96.877
  450.000    3.541    0.395    0.233  195.865   88.545
  450.250    4.415    0.392    0.293  186.433   77.541
  450.500    4.841    0.383    0.290  175.017   65.644
  450.750    5.506    0.377    0.288  170.534   60.579
  451.000    6.263    0.377    0.289  168.522   57.293
  451.250    7.189    0.384    0.281  166.509   56.681
  451.500    7.599    0.391    0.273  164.995   58.742
  451.750    7.742    0.389    0.260  164.974   64.663
  452.000    7.816    0.391    0.261  166.418   68.209
  452.250    8.261    0.393    0.259  167.386   69.676
  452.500    8.188    0.384    0.256  167.851   65.796
  452.750    7.896    0.372    0.247  168.812   62.807
  453.000    7.475    0.380    0.231  168.779   61.307
  453.250    6.576    0.385    0.226  168.753   60.993
  453.500    5.680    0.382    0.225  168.724   60.680
  453.750    4.951    0.377    0.222  168.695   60.359
  454.000    4.356    0.375    0.217  168.167   60.938
  454.250    3.903    0.376    0.195  167.144   62.999
  454.500    3.868    0.378    0.192  166.122   65.953
  454.750    4.126    0.379    0.187  165.106   69.795
  455.000    4.243    0.379    0.170  164.578   71.553
  455.250    4.206    0.380    0.180  164.553   73.026
  455.500    4.206    0.382    0.187  164.520   76.273
  455.750    4.209    0.374    0.162  164.494   79.519
  456.000    4.210    0.372    0.124  164.960   81.879
  456.250    4.289    0.377    0.109  164.931   83.641
  456.500    4.370    0.378    0.100  165.891   83.626
  456.750    4.412    0.379    0.122  166.852   83.012
  457.000    4.495    0.388    0.187  168.303   81.807
  457.250    4.795    0.397    0.227  169.755   78.523
  457.500    5.257    0.396    0.211  170.224   72.272
  457.750    6.146    0.391    0.221  168.703   67.499
  458.000    7.593    0.389    0.247  167.197   67.484
  458.250    8.557    0.385    0.256  165.683   68.060
  458.500    9.383    0.380    0.242  165.151   68.340
  458.750    9.047    0.376    0.210  164.627   68.619
  459.000    8.257    0.368    0.203  165.595   68.896
  459.250    7.467    0.370    0.208  166.555   69.772
  459.500    6.569    0.388    0.217  165.533   71.529
  459.750    5.622    0.392    0.208  164.506   73.003
  460.000    4.991    0.395    0.225  164.484   75.651
  460.250    4.233    0.409    0.258  165.936   77.714
  460.500    3.557    0.439    0.425  167.391   80.668
  460.750    3.430    0.455    0.455  168.348   87.183
  461.000    3.399    0.410    0.430  169.811   93.104
  461.250    3.528    0.405    0.232  172.252   95.165
  461.500    3.763    0.397    0.126  172.714   97.521
  461.750    4.241    0.393    0.160  172.681  101.068
  462.000    4.441    0.394    0.248  173.154  107.286
  462.250    4.443    0.395    0.259  175.101  106.970
  462.500    4.363    0.400    0.285  178.041  103.389
  462.750    4.246    0.399    0.348  178.507   98.326
  463.000    4.171    0.381    0.301  175.508   84.645
  463.250    4.211    0.373    0.256  172.015   86.708
  463.500    4.251    0.371    0.200  169.507   87.579
  463.750    4.252    0.373    0.225  168.485   85.186
  464.000    4.453    0.369    0.251  166.974   83.389
  464.250    4.255    0.371    0.256  165.457   80.697
  464.500    4.415    0.375    0.247  165.431   78.007
  464.750    4.797    0.366    0.250  164.903   75.313
  465.000    4.754    0.363    0.250  164.878   74.409
  465.250    4.670    0.365    0.255  164.845   73.798
  465.500    4.757    0.361    0.260  164.816   74.370
  465.750    5.169    0.361    0.264  164.790   74.651
  466.000    5.218    0.362    0.260  164.761   74.928
  466.250    5.125    0.359    0.245  164.731   74.913
