~VERSION INFORMATION
 VERS.                 2.0:   CWLS LOG ASCII STANDARD -VERSION 2.0
 WRAP.                  NO:   ONE LINE PER DEPTH STEP
~WELL INFORMATION BLOCK
#MNEM.UNIT           DATA                    DESCRIPTION OF MNEMONIC
#---------    -------------------            -------------------------------
# Generated from Intellog Unique Number	nealta/WELL/2348
WELL.         CDN-SUP MARTEN 07-01           : Well_name    - WELL
LOC .         07-01-077-03W5                 : Location     - LOCATION
UWI .         00/07-01-077-03W5/0            : Uwi          - UNIQUE WELL ID
ENTR.         JAYE                           : Entered      - ENTERED BY
SRVC.         SCHLUMBERGER                   : Scn          - SERVICE COMPANY
DATE.         10 JAN 78                      : Date         - LOG DATE
STRT.M        480.06                         : top_depth    - START DEPTH
STOP.M        707.06                         : bot_depth    - STOP DEPTH
STEP.M        0.25                           : increment    - STEP LENGTH
 NULL. -999.2500:NULL Value
~CURVE INFORMATION BLOCK
#MNEM UNIT       ERCB CURVE CODE    CURVE DESCRIPTION
#-----------   ------------------   ----------------------------------
DEPT.M        00 001 00 00         : DEPTH        - DEPTH
NPHI.V/V      00 330 00 00         : PHIN         - NEUTRON POROSITY (SANDSTONE)
DPHI.V/V      00 890 00 00         : PHID         - DENSITY POROSITY (SANDSTONE)
ILD .OHMM     00 120 00 00         : RESD         - DEEP RESISTIVITY (DIL)
GR  .API      00 310 00 00         : GR           - GAMMA RAY
CALI.MM       00 280 01 00         : CAL          - CALIPER
~PARAMETER INFORMATION
#MNEM.UNIT           DATA             DESCRIPTION OF MNEMONIC
#---------         -----------     ------------------------------
GL  .M        769.925              : gl           - GROUND LEVEL ELEVATION
EREF.M        774.192              : kb           - ELEVATION OF DEPTH REFERENCE
DATM.M        769.925              : datum        - DATUM ELEVATION
TDD .M        736.092              : tdd          - TOTAL DEPTH DRILLER
RUN .         ONE                  : Run          - RUN NUMBER
ENG .         ACKERMAN/VAN STEENBE : Engineer     - RECORDING ENGINEER
WIT .         CRAIMAIN/SMAILES     : Witness      - WITNESSED BY
BASE.         EDMONTON             : Branch       - HOME BASE OF LOGGING UNIT
MUD .         GEL                  : Mud_type     - MUD TYPE
MATR.         SANDSTONE            : Logunit      - NEUTRON MATRIX
TMAX.C        27.7778              : BHT          - MAXIMUM RECORDED TEMPERATURE
BHTD.M        736.092              : BHTDEP       - MAXIMUM RECORDED TEMPERATURE
RMT .C        10                   : MDTP         - TEMPERATURE OF MUD
MUDD.KG/M     1140                 : MWT          - MUD DENSITY
NEUT.         1                    : NEUTRON      - NEUTRON TYPE
RESI.         0                    : RESIST       - RESISTIVITY TYPE
RM  .OHMM     2.95                 : RM           - RESISTIVITY OF MUD
RMC .OHMM     0                    : RMC          - RESISTIVITY OF MUD CAKE
RMF .OHMM     3.82                 : RMF          - RESISTIVITY OF MUD FILTRATE
SUFT.C        4.5                  : SUFT         - SURFACE TEMPERATURE
~A  DEPTH     PHIN     PHID     RESD       GR      CAL
  480.060    0.602    0.236    1.658  103.037  189.666
  480.310    0.590    0.254    1.670  101.957  192.273
  480.560    0.594    0.251    1.704  104.549  192.023
  480.810    0.570    0.243    1.762  105.837  191.559
  481.060    0.592    0.243    1.843  105.631  190.786
  481.310    0.601    0.241    1.912  106.041  190.110
  481.560    0.593    0.222    1.970  106.582  189.752
  481.810    0.554    0.197    1.988  102.126  190.768
  482.060    0.530    0.161    1.995   99.358  192.417
  482.310    0.517    0.156    1.991   99.270  194.287
  482.560    0.549    0.223    1.972  104.053  193.504
  482.810    0.560    0.238    1.975  105.403  192.616
  483.060    0.570    0.237    1.986  105.634  194.593
  483.310    0.573    0.229    2.000  105.919  194.760
  483.560    0.562    0.225    2.019  106.519  194.295
  483.810    0.557    0.227    2.060  107.869  194.680
  484.060    0.557    0.221    2.102  109.844  195.178
  484.310    0.563    0.210    2.161  111.193  194.923
  484.560    0.582    0.219    2.231  112.106  194.246
  484.810    0.552    0.233    2.306  112.085  192.833
  485.060    0.534    0.235    2.336  110.373  190.891
  485.310    0.535    0.217    2.323  108.166  189.167
  485.560    0.551    0.213    2.305  105.272  188.384
  485.810    0.548    0.239    2.283  104.686  189.823
  486.060    0.558    0.254    2.266  105.661  192.425
  486.310    0.582    0.244    2.265  106.637  194.288
  486.560    0.594    0.230    2.290  106.989  194.247
  486.810    0.575    0.223    2.333  104.470  194.005
  487.060    0.555    0.226    2.390  102.887  193.328
  487.310    0.541    0.237    2.517  102.676  192.334
  487.560    0.528    0.250    2.677  101.466  191.982
  487.810    0.546    0.264    2.752   98.384  192.049
  488.060    0.575    0.266    2.772   93.555  193.064
  488.310    0.581    0.256    2.735   85.483  194.079
  488.560    0.557    0.244    2.635   78.281  194.473
  488.810    0.477    0.259    2.519   80.755  194.222
  489.060    0.507    0.270    2.542   87.972  193.750
  489.310    0.528    0.282    2.780   91.506  193.185
  489.560    0.547    0.292    3.496   87.238  192.085
  489.810    0.557    0.290    4.307   81.660  190.888
  490.060    0.535    0.287    5.308   72.092  190.110
  490.310    0.503    0.307    6.407   66.013  189.434
  490.560    0.485    0.319    8.013   58.251  188.972
  490.810    0.476    0.327    9.459   51.492  188.719
  491.060    0.471    0.333   10.756   47.532  189.534
  491.310    0.474    0.334   12.072   48.574  190.329
  491.560    0.480    0.328   13.201   51.735  190.927
  491.810    0.480    0.315   14.845   53.641  191.629
  492.060    0.472    0.304   16.477   53.684  192.010
  492.310    0.480    0.305   16.535   53.282  191.975
  492.560    0.469    0.305   16.286   51.888  191.626
  492.810    0.477    0.310   16.012   50.306  191.265
  493.060    0.474    0.314   15.859   49.595  190.810
  493.310    0.464    0.304   15.856   50.195  190.346
  493.560    0.451    0.294   16.002   50.734  189.763
  493.810    0.434    0.291   16.208   51.712  189.091
  494.060    0.445    0.311   16.326   53.809  188.947
  494.310    0.462    0.333   16.354   54.410  189.544
  494.560    0.477    0.339   16.411   52.328  190.038
  494.810    0.473    0.334   16.748   51.868  190.103
  495.060    0.467    0.340   17.092   52.029  190.163
  495.310    0.462    0.339   17.216   52.887  190.230
  495.560    0.455    0.329   17.149   53.355  190.299
  495.810    0.453    0.322   16.517   53.397  190.260
  496.060    0.453    0.311   15.761   52.435  190.110
  496.310    0.441    0.293   14.845   51.913  189.969
  496.560    0.415    0.279   13.903   52.082  189.828
  496.810    0.388    0.259   13.095   53.426  190.205
  497.060    0.420    0.301   11.992   55.151  190.384
  497.310    0.445    0.317   11.529   54.880  190.658
  497.560    0.463    0.327   11.335   53.547  190.405
  497.810    0.475    0.332   11.332   52.716  190.157
  498.060    0.467    0.322   11.288   51.941  189.693
  498.310    0.464    0.320   11.286   51.667  188.603
  498.560    0.467    0.319   11.347   52.080  187.393
  498.810    0.468    0.319   11.451   51.932  186.403
  499.060    0.445    0.321   11.513   51.347  186.684
  499.310    0.438    0.314   11.424   50.200  186.853
  499.560    0.448    0.303   11.337   49.056  186.709
  499.810    0.455    0.287   11.146   48.718  185.931
  500.060    0.444    0.279   10.616   49.880  185.892
  500.310    0.446    0.267   10.149   50.606  186.494
  500.560    0.445    0.252    9.922   50.645  187.187
  500.810    0.438    0.271    9.828   50.246  188.102
  501.060    0.455    0.321    9.863   47.602  188.384
  501.310    0.482    0.329   10.028   44.459  188.231
  501.560    0.469    0.329   10.195   43.063  188.296
  501.810    0.457    0.329   10.385   43.104  188.256
  502.060    0.456    0.330   10.519   44.267  188.639
  502.310    0.462    0.340   10.478   46.052  188.711
  502.560    0.463    0.335   10.360   48.089  188.780
  502.810    0.463    0.330   10.280   48.064  188.849
  503.060    0.460    0.336   10.221   48.042  188.905
  503.310    0.469    0.344   10.162   48.642  189.085
  503.560    0.481    0.338   10.217   48.559  189.253
  503.810    0.471    0.333   10.272   47.786  189.535
  504.060    0.461    0.327   10.308   47.262  189.698
  504.310    0.447    0.318   10.402   46.803  189.976
  504.560    0.437    0.317   10.517   47.527  190.465
  504.810    0.461    0.322   10.457   49.501  190.852
  505.060    0.471    0.322   10.223   49.979  190.708
  505.310    0.472    0.322   10.069   50.016  189.401
  505.560    0.464    0.325    9.826   49.870  187.987
  505.810    0.462    0.334    9.660   50.282  186.684
  506.060    0.467    0.342    9.533   51.756  185.479
  506.310    0.465    0.345    9.320   53.357  185.228
  506.560    0.459    0.346    9.044   53.148  188.360
  506.810    0.467    0.349    8.875   52.062  189.902
  507.060    0.475    0.350    8.742   51.538  190.397
  507.310    0.484    0.346    8.643   51.142  190.560
  507.560    0.482    0.345    8.545   50.683  190.418
  507.810    0.489    0.339    8.463   50.782  190.173
  508.060    0.484    0.324    8.290   51.447  190.343
  508.310    0.482    0.305    8.135   51.548  190.615
  508.560    0.487    0.297    7.909   50.404  190.577
  508.810    0.477    0.329    7.646   50.877  190.757
  509.060    0.480    0.351    7.269   53.913  190.501
  509.310    0.481    0.323    6.936   57.133  190.460
  509.560    0.474    0.299    6.472   60.856  190.319
  509.810    0.478    0.284    5.983   66.138  190.490
  510.060    0.475    0.271    5.269   71.296  190.452
  510.310    0.464    0.246    4.512   75.575  190.513
  510.560    0.465    0.221    3.674   88.159  190.792
  510.810    0.474    0.230    3.236  102.240  192.444
  511.060    0.495    0.238    3.364   97.350  194.728
  511.310    0.482    0.262    4.223   86.405  194.479
  511.560    0.468    0.292    5.117   71.715  191.163
  511.810    0.451    0.303    5.984   58.399  189.641
  512.060    0.438    0.304    6.423   55.942  189.187
  512.310    0.424    0.277    6.326   59.665  189.035
  512.560    0.411    0.271    6.231   68.565  189.001
  512.810    0.426    0.275    6.539   73.659  189.062
  513.060    0.440    0.281    7.018   65.461  188.921
  513.310    0.453    0.296    7.325   56.825  188.884
  513.560    0.442    0.310    7.378   47.815  189.059
  513.810    0.417    0.307    6.988   52.973  188.918
  514.060    0.413    0.283    6.460   64.869  189.506
  514.310    0.437    0.260    5.938   77.950  189.887
  514.560    0.460    0.273    5.479   79.802  189.530
  514.810    0.479    0.283    5.229   76.782  188.545
  515.060    0.496    0.296    5.131   75.011  187.862
  515.310    0.493    0.280    5.139   77.046  187.092
  515.560    0.502    0.275    5.274   76.960  186.727
  515.810    0.518    0.287    5.484   73.756  186.370
  516.060    0.537    0.300    6.030   67.370  186.226
  516.310    0.528    0.305    6.496   62.225  187.669
