~VERSION INFORMATION
 VERS.                 2.0:   CWLS LOG ASCII STANDARD -VERSION 2.0
 WRAP.                  NO:   ONE LINE PER DEPTH STEP
~WELL INFORMATION BLOCK
#MNEM.UNIT           DATA                    DESCRIPTION OF MNEMONIC
#---------    -------------------            -------------------------------
# Generated from Intellog Unique Number	CS_69_70/WELL/608
WELL.         08-11-069-08W4                 : Well_name    - WELL
LOC .         00/08-11-069-08W4/0            : Location     - LOCATION
UWI .         00/08-11-069-08W4/0            : Uwi          - UNIQUE WELL ID
ENTR.         ANDERSEN                       : Entered      - ENTERED BY
SRVC.         SCHLUMBERGER                   : Scn          - SERVICE COMPANY
STRT.M        345                            : top_depth    - START DEPTH
STOP.M        505                            : bot_depth    - STOP DEPTH
STEP.M        0.25                           : increment    - STEP LENGTH
 NULL. -999.2500:NULL Value
~CURVE INFORMATION BLOCK
#MNEM UNIT       ERCB CURVE CODE    CURVE DESCRIPTION
#-----------   ------------------   ----------------------------------
DEPT.M        00 001 00 00         : DEPTH        - DEPTH
GR  .API      00 310 00 00         : GR           - GAMMA RAY
CALI.MM       00 280 01 00         : CAL          - CALIPER
NPHI.V/V      00 330 00 00         : PHIN         - NEUTRON POROSITY (SANDSTONE)
DPHI.V/V      00 890 00 00         : PHID         - DENSITY POROSITY (SANDSTONE)
ILD .OHMM     00 120 00 00         : RESD         - DEEP RESISTIVITY (DIL)
~PARAMETER INFORMATION
#MNEM.UNIT           DATA             DESCRIPTION OF MNEMONIC
#---------         -----------     ------------------------------
GL  .M        615.3                : gl           - GROUND LEVEL ELEVATION
EREF.M        618                  : kb           - ELEVATION OF DEPTH REFERENCE
DATM.M        618                  : datum        - DATUM ELEVATION
TDD .M        511                  : tdd          - TOTAL DEPTH DRILLER
RUN .         ONE                  : Run          - RUN NUMBER
ENG .         BILL                 : Engineer     - RECORDING ENGINEER
WIT .         JIM                  : Witness      - WITNESSED BY
MUD .         GEL                  : Mud_type     - MUD TYPE
MATR.         SANDSTONE            : Logunit      - NEUTRON MATRIX
TMAX.C        24                   : BHT          - MAXIMUM RECORDED TEMPERATURE
BHTD.M        511                  : BHTDEP       - MAXIMUM RECORDED TEMPERATURE
RMT .C        17                   : MDTP         - TEMPERATURE OF MUD
MUDD.KG/M     1100                 : MWT          - MUD DENSITY
NEUT.         1                    : NEUTRON      - NEUTRON TYPE
RESI.         0                    : RESIST       - RESISTIVITY TYPE
RM  .OHMM     4.64                 : RM           - RESISTIVITY OF MUD
RMC .OHMM     0                    : RMC          - RESISTIVITY OF MUD CAKE
RMF .OHMM     6.14                 : RMF          - RESISTIVITY OF MUD FILTRATE
SUFT.C        15                   : SUFT         - SURFACE TEMPERATURE
~A  DEPTH       GR      CAL     PHIN     PHID     RESD
# ...
  381.500   89.086  157.945    0.473    0.241    5.229
  381.750   84.500  157.942    0.443    0.237    5.045
  382.000   84.498  157.939    0.427    0.234    4.779
  382.250   86.215  157.937    0.434    0.236    4.529
  382.500   84.495  157.933    0.450    0.245    4.372
  382.750   83.920  158.884    0.469    0.259    4.216
  383.000   89.647  158.882    0.479    0.273    4.144
  383.250   93.655  159.834    0.482    0.279    4.075
  383.500   94.225  161.739    0.490    0.279    4.005
  383.750   93.651  162.690    0.497    0.288    3.938
  384.000   92.503  165.552    0.491    0.307    3.799
  384.250   91.928  172.233    0.469    0.342    3.668
  384.500   90.780  182.732    0.469    0.367    3.538
  384.750   90.779  182.729    0.482    0.322    3.351
  385.000   91.350  180.816    0.513    0.275    3.175
  385.250   91.348  176.994    0.517    0.274    3.180
  385.500   89.054  178.899    0.510    0.279    3.558
  385.750   87.906  181.760    0.500    0.280    3.980
  386.000   89.623  183.667    0.496    0.281    4.291
  386.250   89.621  180.799    0.505    0.289    4.541
  386.500   88.473  176.023    0.518    0.304    4.806
  386.750   87.326  168.381    0.524    0.305    4.813
  387.000   85.606  160.739    0.505    0.288    4.731
  387.250   83.312  155.962    0.469    0.269    4.650
  387.500   82.165  153.095    0.467    0.265    4.573
  387.750   87.318  154.046    0.487    0.260    4.494
  388.000   86.171  155.953    0.473    0.262    4.500
  388.250   86.169  155.950    0.466    0.282    4.425
  388.500   82.157  153.082    0.475    0.299    4.430
  388.750   75.280  151.169    0.495    0.315    4.436
  389.000   69.550  150.212    0.505    0.335    4.444
  389.250   66.110  150.208    0.515    0.351    4.529
  389.500   66.109  151.158    0.495    0.361    4.620
  389.750   64.387  151.156    0.483    0.368    4.800
  390.000   62.094  148.289    0.478    0.384    4.810
  390.250   57.510  148.286    0.473    0.381    4.904
  390.500   54.643  150.192    0.489    0.380    4.914
  390.750   56.933  150.189    0.499    0.377    4.919
  391.000   61.514  150.186    0.490    0.367    4.925
  391.250   62.658  148.273    0.462    0.365    5.024
  391.500   63.802  147.314    0.446    0.368    5.220
  391.750   68.382  149.220    0.450    0.371    5.324
  392.000   74.109  150.171    0.453    0.366    5.138
  392.250   75.253  150.169    0.452    0.348    5.241
  392.500   72.387  150.166    0.455    0.333    5.443
  392.750   68.375  149.207    0.458    0.335    5.868
  393.000   67.227  149.205    0.460    0.337    7.200
  393.250   67.225  149.202    0.459    0.347   13.515
  393.500   65.505  149.199    0.451    0.353   19.952
  393.750   63.211  149.194    0.437    0.346   24.480
  394.000   63.209  150.146    0.443    0.328   28.416
  394.250   63.207  150.143    0.455    0.312   24.096
  394.500   59.768  150.140    0.405    0.266   19.691
  394.750   55.183  151.092    0.245    0.149   16.697
  395.000   52.889  152.044    0.200    0.023   11.132
  395.250   51.742  152.041    0.190    0.007    9.616
  395.500   49.449  152.037    0.172   -0.002    7.034
  395.750   55.748  152.033    0.308    0.104    5.748
  396.000   68.350  152.030    0.351    0.159    5.650
  396.250   72.930  153.936    0.413    0.227    5.556
  396.500   69.492  153.932    0.438    0.247    5.461
  396.750   64.333  152.976    0.410    0.220    5.367
  397.000   63.186  152.018    0.339    0.175    5.179
  397.250   65.475  151.060    0.308    0.127    5.091
  397.500   70.057  150.102    0.382    0.113    5.004
  397.750   72.919  150.097    0.398    0.227    4.831
  398.000   71.771  150.095    0.409    0.266    4.837
  398.250   70.623  150.090    0.422    0.275    4.757
  398.500   71.195  150.089    0.432    0.280    4.673
  398.750   74.630  150.086    0.436    0.284    4.682
  399.000   76.346  151.037    0.429    0.284    4.685
  399.250   75.772  151.034    0.432    0.283    4.605
  399.500   75.197  151.031    0.451    0.280    4.613
  399.750   74.049  151.026    0.462    0.277    4.619
  400.000   75.193  151.024    0.450    0.272    4.628
  400.250   79.774  151.020    0.432    0.268    4.550
  400.500   81.491  151.972    0.448    0.264    4.471
  400.750   81.489  152.923    0.463    0.257    4.317
  401.000   81.487  153.876    0.449    0.255    4.242
  401.250   81.485  153.873    0.439    0.255    4.167
  401.500   82.056  154.824    0.438    0.261    4.177
  401.750   85.491  154.820    0.428    0.261    4.180
  402.000   87.780  154.817    0.437    0.258    4.262
  402.250   88.352  154.814    0.457    0.257    4.268
  402.500   86.631  153.856    0.465    0.259    4.436
  402.750   82.619  152.898    0.452    0.263    4.523
  403.000   82.044  151.940    0.446    0.263    4.701
  403.250   83.761  151.937    0.468    0.259    4.796
  403.500   88.915  151.934    0.484    0.258    4.889
  403.750   87.767  151.930    0.470    0.258    4.806
  404.000   84.901  151.927    0.456    0.255    4.469
  404.250   86.618  151.924    0.448    0.253    4.157
  404.500   88.334  152.875    0.438    0.255    3.796
  404.750   88.332  152.872    0.435    0.258    3.340
  405.000   87.184  152.869    0.430    0.259    3.163
  405.250   87.756  152.866    0.423    0.264    2.733
  405.500   87.181  155.727    0.425    0.280    2.494
  405.750   83.742  166.226    0.435    0.303    2.278
  406.000   87.177  179.590    0.441    0.349    2.198
  406.250   89.466  195.818    0.550    0.357    2.082
  406.500   85.455  210.137    0.553    0.342    2.010
  406.750   84.880  217.771    0.550    0.339    2.012
  407.000   84.878  221.588    0.562    0.351    2.014
  407.250   82.584  220.630    0.583    0.364    2.017
  407.500   83.155  218.717    0.596    0.385    2.020
  407.750   83.726  212.986    0.577    0.402    2.101
  408.000   83.724  208.207    0.542    0.417    2.102
  408.250   84.868  207.249    0.544    0.414    2.186
  408.500   84.293  207.247    0.540    0.390    2.228
  408.750   81.999  210.108    0.513    0.357    2.359
  409.000   81.998  217.743    0.520    0.319    2.543
  409.250   80.850  225.378    0.544    0.385    2.793
  409.500   80.849  228.240    0.559    0.388    3.010
  409.750   81.993  227.282    0.567    0.373    3.495
  410.000   82.562  217.730    0.568    0.363    3.982
  410.250   80.843  207.224    0.555    0.366    4.293
  410.500   79.695  195.764    0.524    0.356    4.461
  410.750   80.266  173.800    0.493    0.335    4.550
  411.000   83.701  159.476    0.500    0.313    4.556
  411.250   88.855  154.698    0.503    0.302    4.737
  411.500   91.717  154.695    0.485    0.306    4.830
  411.750   91.715  154.691    0.428    0.279    4.835
  412.000   87.703  155.643    0.452    0.265    4.935
  412.250   83.118  156.595    0.464    0.244    5.032
  412.500   78.533  156.592    0.454    0.234    5.134
  412.750   80.250  156.588    0.456    0.226    5.137
  413.000   77.384  155.631    0.447    0.207    5.146
  413.250   80.247  155.627    0.429    0.174    5.153
  413.500   85.974  155.624    0.435    0.168    5.160
  413.750   86.544  155.620    0.451    0.247    5.168
  414.000   83.105  155.617    0.444    0.251    5.175
  414.250   81.957  155.614    0.429    0.243    5.182
  414.500   79.663  155.610    0.425    0.238    5.189
  414.750   78.516  155.607    0.427    0.239    5.194
  415.000   78.514  155.604    0.427    0.240    5.106
  415.250   76.793  155.602    0.424    0.241    5.020
  415.500   76.219  155.598    0.428    0.239    4.937
  415.750   77.363  155.595    0.431    0.239    4.850
  416.000   80.798  155.591    0.436    0.242    4.680
  416.250   84.233  156.543    0.440    0.250    4.602
  416.500   84.804  156.540    0.447    0.262    4.694
  416.750   85.375  155.581    0.447    0.260    4.968
  417.000   84.800  154.624    0.438    0.254    5.354
  417.250   83.653  153.665    0.428    0.251    6.694
  417.500   86.515  152.708    0.434    0.252    7.630
  417.750   89.377  152.705    0.445    0.259    7.643
