~VERSION INFORMATION
 VERS.                 2.0:   CWLS LOG ASCII STANDARD -VERSION 2.0
 WRAP.                  NO:   ONE LINE PER DEPTH STEP
~WELL INFORMATION BLOCK
#MNEM.UNIT           DATA                    DESCRIPTION OF MNEMONIC
#---------    -------------------            -------------------------------
# Generated from Intellog Unique Number	CS_77_79/WELL/3292
WELL.         ALLIED ROXANA MINERALS LTD.    : Well_name    - WELL
LOC .         00/06-16-079-16W4/0            : Location     - LOCATION
UWI .         00/06-16-079-16W4/0            : Uwi          - UNIQUE WELL ID
ENTR.         JOETTE                         : Entered      - ENTERED BY
SRVC.         SCHLUMBERGER                   : Scn          - SERVICE COMPANY
DATE.         08-24-92                       : Date         - LOG DATE
STRT.M        213.36                         : top_depth    - START DEPTH
STOP.M        390.11                         : bot_depth    - STOP DEPTH
STEP.M        0.25                           : increment    - STEP LENGTH
 NULL. -999.2500:NULL Value
~CURVE INFORMATION BLOCK
#MNEM UNIT       ERCB CURVE CODE    CURVE DESCRIPTION
#-----------   ------------------   ----------------------------------
DEPT.M        00 001 00 00         : DEPTH        - DEPTH
GR  .API      00 310 00 00         : GR           - GAMMA RAY
NPHI.V/V      00 330 00 00         : PHIN         - NEUTRON POROSITY (SANDSTONE)
ILD .OHMM     00 120 00 00         : RESD         - DEEP RESISTIVITY (DIL)
~PARAMETER INFORMATION
#MNEM.UNIT           DATA             DESCRIPTION OF MNEMONIC
#---------         -----------     ------------------------------
GL  .M        575.462              : gl           - GROUND LEVEL ELEVATION
EREF.M        578.51               : kb           - ELEVATION OF DEPTH REFERENCE
DATM.M        578.51               : datum        - DATUM ELEVATION
TDD .M        389.23               : tdd          - TOTAL DEPTH DRILLER
RUN .         ONE                  : Run          - RUN NUMBER
ENG .         BILL                 : Engineer     - RECORDING ENGINEER
WIT .         JIM                  : Witness      - WITNESSED BY
MUD .         GEL                  : Mud_type     - MUD TYPE
MATR.         SANDSTONE            : Logunit      - NEUTRON MATRIX
TMAX.C        15.5556              : BHT          - MAXIMUM RECORDED TEMPERATURE
BHTD.M        389.23               : BHTDEP       - MAXIMUM RECORDED TEMPERATURE
MATR.         1                    : LOGUNIT      - NEUTRON MATRIX
RMT .C        15.5556              : MDTP         - TEMPERATURE OF MUD
NEUT.         1                    : NEUTRON      - NEUTRON TYPE
RESI.         0                    : RESIST       - RESISTIVITY TYPE
RMC .OHMM     4.71                 : RMC          - RESISTIVITY OF MUD CAKE
RMF .OHMM     4.71                 : RMF          - RESISTIVITY OF MUD FILTRATE
SUFT.C        5                    : SUFT         - SURFACE TEMPERATURE
~A  DEPTH       GR     PHIN     RESD
# ...
  267.610   53.404    0.468   12.270
  267.860   56.501    0.473   12.735
  268.110   60.817    0.491   12.738
  268.360   61.462    0.498   13.221
  268.610   59.642    0.487   13.223
  268.860   57.214    0.476   13.473
  269.110   56.014    0.464   13.477
  269.360   54.813    0.376   13.482
  269.610   55.457    0.342   13.237
  269.860   57.322    0.380   12.762
  270.110   61.025    0.464   12.302
  270.360   62.883    0.471   11.860
  270.610   61.695    0.477   11.020
  270.860   59.268    0.496   10.623
  271.110   61.132    0.476    9.870
  271.360   63.603    0.475    9.004
  271.610   67.307    0.427    7.915
  271.860   73.463    0.490    6.958
  272.110   79.006    0.516    6.005
  272.360   86.388    0.569    5.477
  272.610   95.615    0.606    5.184
  272.860   99.319    0.625    5.380
  273.110   96.892    0.645    6.012
  273.360   93.239    0.603    6.595
  273.610   92.657    0.555    6.843
  273.860   93.915    0.536    7.507
  274.110   90.868    0.528    7.791
  274.360   89.667    0.518    8.086
  274.610   90.925    0.512    8.239
  274.860   90.938    0.522    8.394
  275.110   90.356    0.516    8.398
  275.360   87.929    0.511    8.399
  275.610   84.269    0.511    8.097
  275.860   81.849    0.524    7.951
  276.110   84.326    0.543    7.525
  276.360   88.643    0.544    7.254
  276.610   94.799    0.534    6.866
  276.860   97.276    0.547    6.619
  277.110   93.629    0.570    6.381
  277.360   92.435    0.577    6.266
  277.610   92.454    0.589    6.385
  277.860   89.407    0.582    6.750
  278.110   87.600    0.582    6.877
  278.360   86.399    0.583    7.270
  278.610   83.972    0.567    7.545
  278.860   81.538    0.546    7.831
  279.110   83.415    0.515    7.979
  279.360   86.499    0.552    7.982
  279.610   86.525    0.541    7.984
  279.860   85.324    0.526    7.985
  280.110   84.123    0.520    7.842
  280.360   82.922    0.548    7.560
  280.610   82.960    0.557    7.424
  280.860   82.979    0.550    7.426
  281.110   83.617    0.560    7.566
  281.360   84.868    0.562    7.708
  281.610   84.280    0.549    8.456
  281.860   83.073    0.539    9.624
  282.110   80.039    0.551   10.363
  282.360   76.386    0.557   11.160
  282.610   73.340    0.509    5.338
  282.860   70.300    0.523    3.245
  283.110   74.010    0.566    2.649
  283.360   78.326    0.601    2.085
  283.610   83.869    0.625    1.767
  283.860   90.025    0.644    1.735
  284.110   96.181    0.656    1.800
  284.360   96.206    0.677    2.087
  284.610   91.940    0.693    2.290
  284.860   91.965    0.691    3.134
  285.110   95.681    0.698    3.438
  285.360   98.159    0.706    3.986
  285.610   99.410    0.713    4.213
  285.860   97.596    0.696    4.707
  286.110   95.169    0.672    6.210
  286.360   93.968    0.645    6.565
  286.610   96.452    0.600    7.069
  286.860   97.078    0.534    7.474
  287.110  100.168    0.545    8.048
  287.360  101.426    0.540    8.508
  287.610   99.612    0.533    8.355
  287.860   97.798    0.528    7.763
  288.110   96.597    0.557    7.081
  288.360   96.015    0.572    5.782
  288.610   95.427    0.569    4.635
  288.860   95.459    0.551    3.855
  289.110   95.478    0.540    3.517
  289.360   96.116    0.532    3.328
  289.610   96.141    0.550    3.329
  289.860   94.334    0.542    3.652
  290.110   91.894    0.549    5.793
  290.360   88.854    0.550    6.473
  290.610   85.814    0.538    6.475
  290.860   84.006    0.537    6.242
  291.110   84.644    0.514    6.129
  291.360   87.735    0.555    5.909
  291.610   91.439    0.580    6.363
  291.860   93.922    0.597    7.110
  292.110   89.650    0.586    7.655
  292.360   81.705    0.557    8.397
  292.610   72.534    0.524    9.211
  292.860   68.268    0.494    9.920
  293.110   65.841    0.469   10.107
  293.360   64.647    0.472   10.110
  293.610   66.517    0.478   10.301
  293.860   68.369    0.487   10.303
  294.110   70.853    0.494   10.118
  294.360   71.485    0.493   10.120
  294.610   71.510    0.493   10.124
  294.860   69.696    0.499   10.126
  295.110   67.888    0.494   10.128
  295.360   66.081    0.499   10.132
  295.610   66.093    0.525    9.950
  295.860   69.196    0.543    9.952
  296.110   71.067    0.530    9.954
  296.360   70.467    0.530    9.776
  296.610   70.492    0.522    9.777
  296.860   71.743    0.507    9.601
  297.110   70.542    0.499    9.604
  297.360   68.115    0.507    9.607
  297.610   69.367    0.527    9.609
  297.860   71.844    0.532    9.612
  298.110   71.869    0.511    9.615
  298.360   70.675    0.502    9.796
  298.610   70.081    0.499   10.358
  298.860   68.273    0.491   10.748
  299.110   66.465    0.491   11.574
  299.360   65.258    0.489   12.464
  299.610   63.444    0.481   15.272
  299.860   59.797    0.464   19.060
  300.110   56.138    0.296   31.372
  300.360   51.878    0.255   42.156
  300.610   49.444    0.146   47.981
  300.860   47.024    0.155   28.632
  301.110   48.281    0.170   16.468
  301.360   50.139    0.199   13.698
  301.610   53.837    0.278   11.822
  301.860   58.766    0.406   10.586
  302.110   63.083    0.468    9.656
  302.360   67.406    0.463    9.139
  302.610   69.277    0.460    8.974
  302.860   69.909    0.475    8.976
  303.110   71.779    0.482    8.978
  303.360   72.411    0.484    8.981
  303.610   69.984    0.507    8.985
  303.860   68.784    0.507    9.154
  304.110   70.035    0.504    9.327
  304.360   73.745    0.498    9.329
  304.610   76.835    0.480    9.332
  304.860   78.087    0.476    9.507
  305.110   77.499    0.482    9.511
  305.360   76.911    0.489    9.512
  305.610   76.942    0.497    9.516
  305.860   76.968    0.494    9.519
  306.110   76.993    0.478    9.520
  306.360   77.631    0.472    9.178
  306.610   78.269    0.508    8.373
  306.860   78.901    0.511    8.071
  307.110   80.778    0.516    7.500
  307.360   82.017    0.516    7.229
  307.610   87.566    0.520    6.969
  307.860   93.109    0.528    6.972
  308.110   96.812    0.535    6.973
  308.360   93.772    0.504    6.974
  308.610   90.732    0.493    7.106
  308.860   94.436    0.518    7.240
  309.110   90.170    0.525    7.243
  309.360   86.523    0.517    7.380
  309.610   85.935    0.511    7.382
  309.860   85.954    0.547    7.521
  310.110   86.592    0.549    7.524
  310.360   90.915    0.541    7.525
  310.610   95.845    0.542    7.390
  310.860   96.483    0.513    7.256
  311.110   99.574    0.538    6.996
  311.360  102.664    0.568    6.869
  311.610  101.470    0.580    6.871
  311.860   98.423    0.579    6.874
  312.110   97.222    0.555    7.004
  312.360   98.474    0.568    7.136
  312.610  100.951    0.564    7.543
  312.860  100.363    0.530    8.429
  313.110   92.425    0.490    9.593
  313.360   88.152    0.462   10.141
  313.610   86.951    0.449   10.332
  313.860   87.596    0.447    9.962
  314.110   90.080    0.443    9.603
  314.360   94.396    0.470    8.600
  314.610   96.261    0.500    8.138
  314.860   95.673    0.501    7.562
  315.110   94.472    0.493    7.290
  315.360   94.497    0.499    7.158
  315.610   95.755    0.489    7.568
  315.860   95.154    0.465    8.302
  316.110   90.275    0.436    8.776
  316.360   84.170    0.423    9.450
  316.610   81.142    0.444   10.176
  316.860   83.607    0.452   10.561
  317.110   97.745    0.461   10.963
  317.360  102.056    0.429   11.169
  317.610   91.659    0.411   11.380
  317.860   85.553    0.417   11.383
  318.110   85.579    0.419   11.179
  318.360   83.152    0.407   11.181
  318.610   78.279    0.394   10.979
  318.860   74.619    0.474   10.783
  319.110   70.966    0.516   10.785
  319.360   67.926    0.484   10.988
  319.610   65.499    0.426   11.617
  319.860   68.596    0.360   11.836
  320.110   72.906    0.392   12.286
  320.360   76.616    0.445   12.517
  320.610   73.576    0.484   12.520
  320.860   71.756    0.510   12.294
  321.110   73.633    0.519   12.072
  321.360   71.819    0.512   11.855
  321.610   71.844    0.513   11.429
