~VERSION INFORMATION
 VERS.                 2.0:   CWLS LOG ASCII STANDARD -VERSION 2.0
 WRAP.                  NO:   ONE LINE PER DEPTH STEP
~WELL INFORMATION BLOCK
#MNEM.UNIT           DATA                    DESCRIPTION OF MNEMONIC
#---------    -------------------            -------------------------------
# Generated from Intellog Unique Number	CW_79_81/WELL/532
WELL.         HB AMOCO PELICAN               : Well_name    - WELL
LOC .         00/07-01-079-24W4/0            : Location     - LOCATION
UWI .         00/07-01-079-24W4/0            : Uwi          - UNIQUE WELL ID
ENTR.         MAX                            : Entered      - ENTERED BY
SRVC.         WESTERN ATLAS                  : Scn          - SERVICE COMPANY
STRT.M        304.8                          : top_depth    - START DEPTH
STOP.M        524.3                          : bot_depth    - STOP DEPTH
STEP.M        0.25                           : increment    - STEP LENGTH
 NULL. -999.2500:NULL Value
~CURVE INFORMATION BLOCK
#MNEM UNIT       ERCB CURVE CODE    CURVE DESCRIPTION
#-----------   ------------------   ----------------------------------
DEPT.M        00 001 00 00         : DEPTH        - DEPTH
ILD .OHMM     00 120 00 00         : RESD         - DEEP RESISTIVITY (DIL)
NPHI.V/V      00 330 00 00         : PHIN         - NEUTRON POROSITY (SANDSTONE)
DPHI.V/V      00 890 00 00         : PHID         - DENSITY POROSITY (SANDSTONE)
CALI.MM       00 280 01 00         : CAL          - CALIPER
GR  .API      00 310 00 00         : GR           - GAMMA RAY
~PARAMETER INFORMATION
#MNEM.UNIT           DATA             DESCRIPTION OF MNEMONIC
#---------         -----------     ------------------------------
GL  .M        583.387              : gl           - GROUND LEVEL ELEVATION
EREF.M        587.045              : kb           - ELEVATION OF DEPTH REFERENCE
DATM.M        583.387              : datum        - DATUM ELEVATION
TDD .M        484.937              : tdd          - TOTAL DEPTH DRILLER
RUN .         ONE                  : Run          - RUN NUMBER
ENG .         BILL                 : Engineer     - RECORDING ENGINEER
WIT .         JIM                  : Witness      - WITNESSED BY
MUD .         GEL                  : Mud_type     - MUD TYPE
MATR.         SANDSTONE            : Logunit      - NEUTRON MATRIX
TMAX.C        43.3333              : BHT          - MAXIMUM RECORDED TEMPERATURE
BHTD.M        484.937              : BHTDEP       - MAXIMUM RECORDED TEMPERATURE
RMT .C        20                   : MDTP         - TEMPERATURE OF MUD
MUDD.KG/M     9200                 : MWT          - MUD DENSITY
NEUT.         1                    : NEUTRON      - NEUTRON TYPE
RESI.         0                    : RESIST       - RESISTIVITY TYPE
RM  .OHMM     1.6                  : RM           - RESISTIVITY OF MUD
RMC .OHMM     0.25                 : RMC          - RESISTIVITY OF MUD CAKE
RMF .OHMM     1.6                  : RMF          - RESISTIVITY OF MUD FILTRATE
SUFT.C        -20.5556             : SUFT         - SURFACE TEMPERATURE
~A  DEPTH     RESD     PHIN     PHID      CAL       GR
# ...
  450.800    9.820    0.364    0.146  163.785   99.888
  451.050   10.201    0.360    0.138  163.343  102.632
  451.300   11.304    0.344    0.115  162.403  102.965
  451.550   14.514    0.341    0.095  162.468   97.913
  451.800   16.535    0.326    0.081  162.533   90.760
  452.050   17.337    0.317    0.174  162.598   83.613
  452.300   17.846    0.310    0.163  163.171   84.549
  452.550   17.876    0.317    0.138  163.236   89.983
  452.800   17.092    0.315    0.114  163.309   94.513
  453.050   15.754    0.315    0.109  163.415   96.053
  453.300   14.518    0.315    0.104  163.432   97.589
  453.550   13.382    0.316    0.100  162.982   99.723
  453.800   12.221    0.319    0.108  162.049  100.660
  454.050   11.476    0.326    0.126  161.608  100.699
  454.300   11.599    0.330    0.133  161.166  103.432
  454.550   11.938    0.338    0.136  160.732  105.567
  454.800   12.986    0.344    0.143  160.781   99.617
  455.050   14.656    0.347    0.166  160.855   92.768
  455.300   16.096    0.343    0.173  160.928   91.609
  455.550   16.115    0.342    0.169  160.977   92.546
  455.800   15.555    0.338    0.163  161.549   92.884
  456.050   15.011    0.332    0.162  161.631   95.018
  456.300   14.893    0.333    0.162  161.688   96.564
  456.550   14.917    0.336    0.161  162.268   94.796
  456.800   14.917    0.330    0.159  163.855   93.941
  457.050   14.952    0.315    0.153  164.926   90.985
  457.300   14.701    0.301    0.136  166.512   86.233
  457.550   13.928    0.298    0.112  168.107   85.972
  457.800   13.197    0.288    0.078  168.172   85.412
  458.050   12.975    0.281    0.081  168.229   83.350
  458.300   13.607    0.287    0.190  168.294   78.597
  458.550   15.077    0.291    0.215  168.875   68.755
  458.800   17.489    0.275    0.249  169.962   59.806
  459.050   19.382    0.277    0.273  170.028   49.963
  459.300   23.764    0.283    0.288  170.101   43.414
  459.550   26.825    0.286    0.302  169.152   41.357
  459.800   31.701    0.277    0.319  168.195   33.914
  460.050   37.120    0.265    0.331  167.246   32.456
  460.300   37.873    0.265    0.330  166.290   31.895
  460.550   37.569    0.264    0.315  165.848   31.335
  460.800   37.287    0.244    0.299  166.420   31.374
  461.050   38.024    0.249    0.297  167.516   31.412
  461.300   39.140    0.258    0.300  167.597   31.745
  461.550   40.283    0.265    0.303  167.646   33.590
  461.800   42.648    0.271    0.304  167.703   34.218
  462.050   43.484    0.275    0.301  168.284   33.967
  462.300   44.351    0.277    0.288  168.284   32.209
  462.550   45.661    0.277    0.286  168.954   31.344
  462.800   47.002    0.274    0.287  168.987   31.387
  463.050   47.938    0.269    0.290  169.044   31.421
  463.300   48.470    0.268    0.294  169.109   31.465
  463.550   48.510    0.270    0.299  168.675   31.503
  463.800   47.252    0.277    0.303  167.727   31.542
  464.050   45.604    0.284    0.307  166.271   31.276
  464.300   41.663    0.275    0.308  164.316   31.319
  464.550   38.750    0.270    0.308  163.866   31.058
  464.800   34.738    0.274    0.303  163.441   31.392
  465.050   30.298    0.275    0.289  163.490   32.029
  465.300   26.670    0.275    0.275  164.078   32.372
  465.550   23.265    0.276    0.264  164.078   33.309
  465.800   21.839    0.278    0.270  164.716   34.550
  466.050   20.503    0.279    0.282  165.280   35.781
  466.300   19.250    0.280    0.277  165.345   38.220
  466.550   18.075    0.278    0.271  164.912   40.659
  466.800   17.127    0.274    0.264  163.955   42.494
  467.050   16.530    0.273    0.249  163.014   44.034
  467.300   15.956    0.271    0.246  163.087   46.159
  467.550   15.680    0.269    0.248  163.144   50.689
  467.800   15.420    0.269    0.253  163.709   56.422
  468.050   15.154    0.272    0.258  163.782   61.550
  468.300   15.154    0.274    0.263  163.839   64.289
  468.550   14.929    0.275    0.270  164.411   63.134
  468.800   14.532    0.276    0.276  164.485   63.767
  469.050   13.897    0.277    0.278  165.564   63.506
  469.300   13.410    0.286    0.263  168.181   57.855
  469.550   12.707    0.289    0.239  170.266   52.799
  469.800   11.931    0.285    0.207  172.359   49.544
  470.050   11.307    0.274    0.183  174.445   52.881
  470.300   10.811    0.262    0.160  178.574   66.094
  470.550   10.249    0.281    0.187  182.696   77.815
  470.800   10.072    0.294    0.207  185.296   77.858
  471.050   10.273    0.305    0.195  187.398   70.406
  471.300   11.486    0.318    0.221  188.992   65.654
  471.550   13.454    0.325    0.254  186.007   59.105
  471.800   14.771    0.310    0.282  180.994   54.947
  472.050   16.219    0.302    0.302  173.969   50.200
  472.300   19.344    0.299    0.312  167.950   47.239
  472.550   19.549    0.295    0.309  165.472   44.587
  472.800   20.683    0.281    0.288  164.523   45.819
  473.050   22.297    0.274    0.276  164.523   49.161
  473.300   23.813    0.264    0.260  164.654   52.194
  473.550   24.747    0.251    0.225  166.240   55.821
  473.800   24.549    0.239    0.206  166.820   59.752
  474.050   22.836    0.226    0.171  167.908   64.885
  474.300   19.732    0.213    0.073  169.494   68.517
  474.550   16.136    0.216    0.132  171.580   74.549
  474.800   12.372    0.240    0.196  174.180   79.378
  475.050   11.091    0.256    0.203  176.290   83.314
  475.300   10.129    0.269    0.205  177.868   88.742
  475.550    9.167    0.287    0.199  179.961   93.871
  475.800    8.527    0.300    0.196  183.069   99.000
  476.050    7.933    0.307    0.234  185.178  102.047
  476.300    7.726    0.320    0.297  185.743   99.381
  476.550    7.667    0.334    0.310  187.836   92.528
  476.800    8.037    0.341    0.304  190.436   87.182
  477.050    8.991    0.349    0.300  190.502   85.718
  477.300   11.330    0.334    0.276  189.054   80.367
  477.550   16.863    0.317    0.248  180.483   70.225
  477.800   19.382    0.311    0.251  174.979   65.169
  478.050   22.288    0.305    0.251  174.979   62.812
  478.300   23.151    0.293    0.249  174.129   61.957
  478.550   23.186    0.288    0.251  174.169   62.894
  478.800   23.213    0.283    0.254  172.705   64.434
  479.050   22.820    0.276    0.251  166.694   64.468
  479.300   22.640    0.268    0.215  158.647   64.207
  479.550   21.658    0.258    0.054  157.698   62.449
  479.800   20.896    0.236    0.059  158.271   57.697
  480.050   19.621    0.185    0.088  161.877   63.424
  480.300   18.249    0.208    0.122  168.542   67.056
  480.550   16.365    0.230    0.161  169.629   69.495
  480.800   13.883    0.252    0.167  170.202   69.838
  481.050   12.914    0.258    0.153  170.774   71.378
  481.300   11.686    0.260    0.149  172.368   72.919
  481.550   10.287    0.263    0.145  172.941   74.749
  481.800    9.393    0.270    0.139  172.483   75.681
  482.050    8.501    0.275    0.118  171.550   75.719
  482.300    7.981    0.281    0.047  171.092   64.674
  482.550    7.774    0.224    0.106  171.664   61.724
  482.800    7.786    0.203    0.149  172.237   70.745
  483.050    7.940    0.246    0.160  174.338   82.166
  483.300    8.173    0.261    0.207  177.961   78.906
  483.550    8.492    0.290    0.269  180.046   76.559
  483.800    8.492    0.326    0.297  181.641   73.594
  484.050    8.758    0.349    0.294  181.706   68.542
  484.300    9.436    0.355    0.257  178.729   64.698
  484.550    9.715    0.332    0.163  175.752   63.230
  484.800   10.000    0.303    0.190  173.282   60.578
  485.050   10.196    0.279    0.241  171.834   59.414
  485.300   10.499    0.286    0.250  171.834   58.863
  485.550   10.417    0.290    0.258  171.973   57.699
  485.800    9.870    0.305    0.274  172.529   62.524
  486.050    9.352    0.335    0.303  176.152   70.951
  486.300    9.279    0.361    0.330  184.828   85.667
  486.550    9.551    0.383    0.359  188.958   88.999
  486.800   10.107    0.413    0.341  179.381   89.936
  487.050   10.307    0.422    0.324  176.413   87.584
