~VERSION INFORMATION
 VERS.                 2.0:   CWLS LOG ASCII STANDARD -VERSION 2.0
 WRAP.                  NO:   ONE LINE PER DEPTH STEP
~WELL INFORMATION BLOCK
#MNEM.UNIT           DATA                    DESCRIPTION OF MNEMONIC
#---------    -------------------            -------------------------------
# Generated from Intellog Unique Number	CW_73_75/WELL/554
WELL.         GULF POC DROWNED 06-26         : Well_name    - WELL
LOC .         00/06-26-075-21W4/0            : Location     - LOCATION
UWI .         00/06-26-075-21W4/0            : Uwi          - UNIQUE WELL ID
ENTR.         JAYE                           : Entered      - ENTERED BY
SRVC.         SCHLUMBERGER                   : Scn          - SERVICE COMPANY
DATE.         2 MAR 78                       : Date         - LOG DATE
STRT.M        393.192                        : top_depth    - START DEPTH
STOP.M        594.442                        : bot_depth    - STOP DEPTH
STEP.M        0.25                           : increment    - STEP LENGTH
 NULL. -999.2500:NULL Value
~CURVE INFORMATION BLOCK
#MNEM UNIT       ERCB CURVE CODE    CURVE DESCRIPTION
#-----------   ------------------   ----------------------------------
DEPT.M        00 001 00 00         : DEPTH        - DEPTH
ILD .OHMM     00 120 00 00         : RESD         - DEEP RESISTIVITY (DIL)
NPHI.V/V      00 330 00 00         : PHIN         - NEUTRON POROSITY (SANDSTONE)
DPHI.V/V      00 890 00 00         : PHID         - DENSITY POROSITY (SANDSTONE)
GR  .API      00 310 00 00         : GR           - GAMMA RAY
CALI.MM       00 280 01 00         : CAL          - CALIPER
~PARAMETER INFORMATION
#MNEM.UNIT           DATA             DESCRIPTION OF MNEMONIC
#---------         -----------     ------------------------------
GL  .M        698.297              : gl           - GROUND LEVEL ELEVATION
EREF.M        702.412              : kb           - ELEVATION OF DEPTH REFERENCE
DATM.M        698.297              : datum        - DATUM ELEVATION
TDD .M        595.884              : tdd          - TOTAL DEPTH DRILLER
RUN .         ONE                  : Run          - RUN NUMBER
ENG .         VERRAIRES            : Engineer     - RECORDING ENGINEER
WIT .         BRINKMAN             : Witness      - WITNESSED BY
BASE.         EDM                  : Branch       - HOME BASE OF LOGGING UNIT
MUD .         GEL CHEM             : Mud_type     - MUD TYPE
MATR.         SANDSTONE            : Logunit      - NEUTRON MATRIX
TMAX.C        28.3333              : BHT          - MAXIMUM RECORDED TEMPERATURE
BHTD.M        590.702              : BHTDEP       - MAXIMUM RECORDED TEMPERATURE
RMT .C        15.5556              : MDTP         - TEMPERATURE OF MUD
MUDD.KG/M     1104                 : MWT          - MUD DENSITY
NEUT.         1                    : NEUTRON      - NEUTRON TYPE
RESI.         0                    : RESIST       - RESISTIVITY TYPE
RM  .OHMM     3.39                 : RM           - RESISTIVITY OF MUD
RMC .OHMM     0                    : RMC          - RESISTIVITY OF MUD CAKE
RMF .OHMM     4.56                 : RMF          - RESISTIVITY OF MUD FILTRATE
SUFT.C        -17.7778             : SUFT         - SURFACE TEMPERATURE
~A  DEPTH     RESD     PHIN     PHID       GR      CAL
# ...
  575.692   18.299    0.312    0.234   52.644  157.396
  575.942   17.535    0.336    0.211   75.319  158.892
  576.192   16.342    0.361    0.183   94.659  160.910
  576.442   15.203    0.391    0.206   93.443  163.137
  576.692   14.116    0.332    0.231   81.608  164.943
  576.942   13.377    0.319    0.240   72.551  165.916
  577.192   12.795    0.321    0.238   72.325  165.525
  577.442   12.513    0.337    0.229   76.970  165.557
  577.692   12.351    0.339    0.246   89.954  165.491
  577.942   12.419    0.345    0.258   98.120  165.411
  578.192   12.235    0.357    0.238   97.459  165.233
  578.442   11.573    0.359    0.253   95.254  165.163
  578.692   10.707    0.324    0.234  104.224  164.979
  578.942   10.146    0.303    0.226  114.366  164.595
  579.192    9.722    0.315    0.208  120.866  164.209
  579.442    9.959    0.330    0.203  123.600  164.861
  579.692   10.449    0.361    0.194  117.014  166.878
  579.942   10.944    0.406    0.202  101.104  167.751
  580.192   11.547    0.479    0.238   88.282  166.939
  580.442   12.138    0.341    0.182   69.854  165.300
  580.692   12.878    0.324    0.139   70.788  164.074
  580.942   13.689    0.327    0.131   71.855  163.270
  581.192   13.944    0.311    0.117   75.269  162.571
  581.442   13.611    0.286    0.085   80.101  162.288
  581.692   12.089    0.281    0.096   85.737  162.111
  581.942   10.579    0.300    0.107   87.669  163.083
  582.192    9.842    0.304    0.106   88.243  164.051
  582.442    9.483    0.298    0.103   90.545  165.756
  582.692    9.257    0.297    0.104   95.008  166.829
  582.942    9.070    0.320    0.113  101.199  167.280
  583.192    8.853    0.324    0.115  103.811  167.315
  583.442    8.771    0.319    0.110  102.038  167.340
  583.692    8.626    0.316    0.111  103.661  167.267
  583.942    8.514    0.319    0.126  108.434  167.093
  584.192    8.514    0.338    0.134  113.389  166.702
  584.442    8.513    0.367    0.128  114.580  166.313
  584.692    8.560    0.340    0.110  107.252  166.032
  584.942    8.623    0.329    0.106  105.790  165.644
  585.192    8.735    0.337    0.124  112.789  165.360
  585.442    8.832    0.346    0.123  109.838  165.498
  585.692    8.963    0.354    0.115  103.005  165.630
  585.942    9.266    0.354    0.104   95.058  165.559
  586.192    9.633    0.319    0.085   87.607  165.276
  586.442   10.089    0.309    0.069   84.107  164.993
  586.692   10.392    0.301    0.057   82.150  164.813
  586.942   10.644    0.283    0.038   76.734  164.011
  587.192   10.565    0.265    0.046   68.234  163.934
  587.442   10.086    0.267    0.085   23.876  163.861
  587.692    9.523    0.282    0.095   24.749  164.204
  587.942    8.826    0.291    0.079   25.508  164.970
  588.192    8.333    0.324    0.094   26.392  165.624
  588.442    8.060    0.334    0.114   26.348  165.972
  588.692    8.179    0.322    0.126   25.439  165.792
  588.942    8.551    0.305    0.124   24.161  165.091
  589.192    8.906    0.300    0.116   23.315  165.331
  589.442    9.122    0.307    0.089   22.593  165.257
  589.692    8.937    0.333    0.123   21.622  164.344
  589.942    8.314    0.348    0.145   20.344  163.647
  590.192    7.371    0.355    0.187   20.794  162.742
  590.442    6.534    0.362    0.182   24.763  162.457
  590.692    5.634    0.373    0.186   57.870  162.171
  590.942    5.069    0.381    0.199   63.197  161.887
  591.192    4.420    0.398    0.234   63.647  161.502
  591.442    3.861    0.407    0.278   63.913  161.219
  591.692    3.341    0.416    0.310   65.288  160.828
  591.942    3.149    0.431    0.307   69.567  160.754
  592.192    3.102    0.448    0.228   72.426  160.367
  592.442    3.125    0.373    0.194   72.998  159.667
  592.692    3.213    0.355    0.055   73.017  159.592
  592.942    3.255    0.333    0.082   72.788  159.834
  593.192    3.346    0.309    0.101   72.622  159.867
  593.442    3.428    0.357    0.130   72.639  160.103
  593.692    3.453    0.354    0.116   72.410  160.346
  593.942    3.453    0.346    0.120   72.244  160.063
  594.192    3.484    0.358    0.084   71.335  159.362
  594.442    3.478    0.353    0.060   69.995  158.971
