~VERSION INFORMATION
 VERS.                 2.0:   CWLS LOG ASCII STANDARD -VERSION 2.0
 WRAP.                  NO:   ONE LINE PER DEPTH STEP
~WELL INFORMATION BLOCK
#MNEM.UNIT           DATA                    DESCRIPTION OF MNEMONIC
#---------    -------------------            -------------------------------
# Generated from Intellog Unique Number	CS_71_72/WELL/774
WELL.         SUN OIL COMPANY                : Well_name    - WELL
LOC .         00/06-22-072-16W4/0            : Location     - LOCATION
UWI .         00/06-22-072-16W4/0            : Uwi          - UNIQUE WELL ID
ENTR.         SP                             : Entered      - ENTERED BY
SRVC.         SCHLUMBERGER                   : Scn          - SERVICE COMPANY
STRT.M        256.032                        : top_depth    - START DEPTH
STOP.M        435.532                        : bot_depth    - STOP DEPTH
STEP.M        0.25                           : increment    - STEP LENGTH
 NULL. -999.2500:NULL Value
~CURVE INFORMATION BLOCK
#MNEM UNIT       ERCB CURVE CODE    CURVE DESCRIPTION
#-----------   ------------------   ----------------------------------
DEPT.M        00 001 00 00         : DEPTH        - DEPTH
GR  .API      00 310 00 00         : GR           - GAMMA RAY
DPHI.V/V      00 890 00 00         : PHID         - DENSITY POROSITY (SANDSTONE)
NPHI.V/V      00 330 00 00         : PHIN         - NEUTRON POROSITY (SANDSTONE)
ILD .OHMM     00 120 00 00         : RESD         - DEEP RESISTIVITY (DIL)
~PARAMETER INFORMATION
#MNEM.UNIT           DATA             DESCRIPTION OF MNEMONIC
#---------         -----------     ------------------------------
GL  .M        579.577              : gl           - GROUND LEVEL ELEVATION
EREF.M        582.473              : kb           - ELEVATION OF DEPTH REFERENCE
DATM.M        579.577              : datum        - DATUM ELEVATION
TDD .M        437.388              : tdd          - TOTAL DEPTH DRILLER
RUN .         ONE                  : Run          - RUN NUMBER
ENG .         BILL                 : Engineer     - RECORDING ENGINEER
WIT .         JIM                  : Witness      - WITNESSED BY
MUD .         GEL                  : Mud_type     - MUD TYPE
MATR.         SANDSTONE            : Logunit      - NEUTRON MATRIX
TMAX.C        18.3333              : BHT          - MAXIMUM RECORDED TEMPERATURE
BHTD.M        437.388              : BHTDEP       - MAXIMUM RECORDED TEMPERATURE
MATR.         1                    : LOGUNIT      - NEUTRON MATRIX
RMT .C        25                   : MDTP         - TEMPERATURE OF MUD
NEUT.         1                    : NEUTRON      - NEUTRON TYPE
RESI.         0                    : RESIST       - RESISTIVITY TYPE
RMC .OHMM     0.25                 : RMC          - RESISTIVITY OF MUD CAKE
RMF .OHMM     0.25                 : RMF          - RESISTIVITY OF MUD FILTRATE
SUFT.C        15                   : SUFT         - SURFACE TEMPERATURE
~A  DEPTH       GR     PHID     PHIN     RESD
# ...
  343.032   66.424    0.327    0.460    5.965
  343.282   66.402    0.323    0.462    6.027
  343.532   67.160    0.322    0.463    6.102
  343.782   66.620    0.328    0.466    6.424
  344.032   66.306    0.339    0.460    6.702
  344.282   65.942    0.340    0.456    7.218
  344.532   64.333    0.343    0.453    7.443
  344.782   63.412    0.353    0.448    7.678
  345.032   62.440    0.357    0.443    7.927
  345.282   61.041    0.348    0.448    7.948
  345.532   60.579    0.343    0.454    7.764
  345.782   60.054    0.334    0.467    7.418
  346.032   60.791    0.338    0.471    7.043
  346.282   60.776    0.340    0.472    6.847
  346.532   60.808    0.328    0.474    6.658
  346.782   61.026    0.323    0.465    6.328
  347.032   62.828    0.318    0.455    6.161
  347.282   65.962    0.316    0.446    6.172
  347.532   68.356    0.320    0.441    6.186
  347.782   69.460    0.329    0.442    6.067
  348.032   68.158    0.335    0.453    6.077
  348.282   63.581    0.327    0.467    6.080
  348.532   61.206    0.332    0.474    6.086
  348.782   59.750    0.329    0.470    6.102
  349.032   61.950    0.329    0.466    5.974
  349.282   64.537    0.333    0.462    5.989
  349.532   66.252    0.330    0.452    5.940
  349.782   68.672    0.331    0.455    5.893
  350.032   69.575    0.341    0.461    5.895
  350.282   70.283    0.338    0.463    5.899
  350.532   72.305    0.331    0.455    5.903
  350.782   71.908    0.323    0.474    5.797
  351.032   70.165    0.318    0.491    5.802
  351.282   69.923    0.314    0.488    5.923
  351.532   69.694    0.313    0.476    5.939
  351.782   70.105    0.310    0.462    5.814
  352.032   70.599    0.304    0.453    5.832
  352.282   71.605    0.299    0.442    5.839
  352.532   72.635    0.297    0.437    5.854
  352.782   73.144    0.303    0.439    6.050
  353.032   72.969    0.316    0.445    6.259
  353.282   71.194    0.323    0.453    6.956
  353.532   69.090    0.301    0.458    7.593
  353.782   68.167    0.242    0.445    8.376
  354.032   67.215    0.192    0.422    9.005
  354.282   66.213    0.186    0.391    8.636
  354.532   66.243    0.244    0.356    7.918
  354.782   67.262    0.271    0.374    7.108
  355.032   70.282    0.299    0.431    6.548
  355.282   73.287    0.303    0.466    6.333
  355.532   75.408    0.301    0.495    6.139
  355.782   75.222    0.302    0.474    6.138
  356.032   77.358    0.304    0.462    6.143
  356.282   80.107    0.302    0.452    6.148
  356.532   81.298    0.302    0.460    6.152
  356.782   80.268    0.300    0.465    6.160
  357.032   78.941    0.299    0.460    6.164
  357.282   76.978    0.297    0.461    6.171
  357.532   74.377    0.307    0.457    6.177
  357.782   73.112    0.317    0.460    6.179
  358.032   73.214    0.319    0.468    6.161
  358.282   73.215    0.311    0.472    6.078
  358.532   73.956    0.305    0.471    6.085
  358.782   74.026    0.299    0.470    6.091
  359.032   74.480    0.293    0.472    6.093
  359.282   76.163    0.288    0.477    6.050
  359.532   77.108    0.284    0.478    5.998
  359.782   78.228    0.296    0.467    6.002
  360.032   77.438    0.304    0.460    6.007
  360.282   76.498    0.299    0.455    6.012
  360.532   74.413    0.295    0.462    6.018
  360.782   74.167    0.305    0.450    6.017
  361.032   74.764    0.300    0.438    6.140
  361.282   76.909    0.296    0.435    6.145
  361.532   77.381    0.294    0.441    6.152
  361.782   78.422    0.295    0.438    6.159
  362.032   79.828    0.295    0.431    6.164
  362.282   80.454    0.296    0.433    6.169
  362.532   81.415    0.294    0.454    6.175
  362.782   82.460    0.292    0.460    6.182
  363.032   81.095    0.277    0.462    6.188
  363.282   80.790    0.271    0.442    6.189
  363.532   79.943    0.265    0.441    6.161
  363.782   80.021    0.263    0.448    6.091
  364.032   79.720    0.282    0.467    6.095
  364.282   78.935    0.293    0.485    6.102
  364.532   80.078    0.288    0.472    6.108
  364.782   81.518    0.280    0.461    6.114
  365.032   81.113    0.274    0.457    6.118
  365.282   80.136    0.269    0.459    6.134
  365.532   80.841    0.275    0.465    6.015
  365.782   81.519    0.276    0.459    5.899
  366.032   81.941    0.280    0.455    5.650
  366.282   82.895    0.285    0.457    5.287
  366.532   85.281    0.273    0.478    4.821
  366.782   89.429    0.258    0.491    4.390
  367.032   93.268    0.243    0.500    3.821
  367.282   96.803    0.231    0.516    3.419
  367.532  100.709    0.235    0.533    3.086
  367.782  102.648    0.240    0.545    2.994
  368.032  103.161    0.241    0.553    3.102
  368.282  103.028    0.224    0.552    3.289
  368.532  104.441    0.210    0.535    3.659
  368.782  106.624    0.213    0.504    4.080
  369.032  106.653    0.226    0.479    4.413
  369.282  104.256    0.235    0.472    5.003
  369.532  100.347    0.236    0.464    5.488
  369.782   98.225    0.224    0.456    5.835
  370.032   96.598    0.216    0.453    5.897
  370.282   96.582    0.224    0.453    5.900
  370.532   97.234    0.227    0.459    5.885
  370.782   95.594    0.222    0.461    5.703
  371.032   94.540    0.219    0.471    5.704
  371.282   95.803    0.224    0.486    5.709
  371.532   96.812    0.234    0.501    5.713
  371.782   96.317    0.244    0.478    5.720
  372.032   94.202    0.247    0.464    5.723
  372.282   92.124    0.240    0.466    5.730
  372.532   91.132    0.234    0.469    5.734
  372.782   91.559    0.227    0.455    5.739
  373.032   92.732    0.225    0.456    5.757
  373.282   93.308    0.218    0.460    5.634
  373.532   92.211    0.214    0.449    5.650
  373.782   92.303    0.219    0.445    5.655
  374.032   91.630    0.224    0.442    5.661
  374.282   91.174    0.225    0.441    5.667
  374.532   90.724    0.237    0.444    5.671
  374.782   91.773    0.261    0.450    5.675
  375.032   91.894    0.279    0.454    5.690
  375.282   89.115    0.276    0.459    5.569
  375.532   86.169    0.277    0.458    5.581
  375.782   82.075    0.271    0.445    5.482
  376.032   78.165    0.267    0.446    5.459
  376.282   74.295    0.271    0.451    5.401
  376.532   67.969    0.280    0.458    5.404
  376.782   67.239    0.298    0.464    5.412
  377.032   69.496    0.295    0.472    5.416
  377.282   70.542    0.293    0.487    5.422
  377.532   71.629    0.292    0.494    5.431
  377.782   71.611    0.291    0.483    5.333
  378.032   70.830    0.290    0.478    5.394
  378.282   71.673    0.291    0.473    5.331
  378.532   72.165    0.293    0.471    5.251
  378.782   72.898    0.296    0.468    5.142
  379.032   72.872    0.299    0.479    5.156
  379.282   72.936    0.302    0.502    5.064
  379.532   71.986    0.306    0.489    5.069
  379.782   69.346    0.310    0.478    5.173
  380.032   67.277    0.311    0.467    5.325
  380.282   66.923    0.308    0.476    5.622
  380.532   68.098    0.302    0.485    5.786
  380.782   69.218    0.301    0.478    5.910
  381.032   69.549    0.307    0.469    6.036
  381.282   70.187    0.305    0.463    6.040
  381.532   69.311    0.303    0.472    5.886
  381.782   67.666    0.314    0.473    5.597
  382.032   66.697    0.312    0.467    5.444
  382.282   66.673    0.308    0.459    5.310
  382.532   66.025    0.302    0.458    5.324
  382.782   66.080    0.308    0.461    5.225
  383.032   66.098    0.310    0.477    5.237
  383.282   66.133    0.304    0.489    5.242
  383.532   66.102    0.305    0.496    5.256
  383.782   66.858    0.312    0.497    5.148
  384.032   66.875    0.316    0.473    5.161
  384.282   66.198    0.316    0.460    5.162
  384.532   66.286    0.313    0.453    5.159
  384.782   66.327    0.312    0.463    5.076
  385.032   66.393    0.311    0.471    5.084
  385.282   65.736    0.306    0.467    5.089
  385.532   64.320    0.301    0.459    5.094
  385.782   63.228    0.293    0.455    5.098
  386.032   62.238    0.288    0.458    5.104
  386.282   62.703    0.297    0.465    5.098
