~VERSION INFORMATION
 VERS.                 2.0:   CWLS LOG ASCII STANDARD -VERSION 2.0
 WRAP.                  NO:   ONE LINE PER DEPTH STEP
~WELL INFORMATION BLOCK
#MNEM.UNIT           DATA                    DESCRIPTION OF MNEMONIC
#---------    -------------------            -------------------------------
# Generated from Intellog Unique Number	CS_69_70/WELL/838
WELL.         PARAMOUNT RESOURCES LTD        : Well_name    - WELL
LOC .         00/07-18-070-17W4/0            : Location     - LOCATION
UWI .         00/07-18-070-17W4/0            : Uwi          - UNIQUE WELL ID
ENTR.         SP                             : Entered      - ENTERED BY
SRVC.         SCHLUMBERGER                   : Scn          - SERVICE COMPANY
STRT.M        275                            : top_depth    - START DEPTH
STOP.M        445                            : bot_depth    - STOP DEPTH
STEP.M        0.25                           : increment    - STEP LENGTH
 NULL. -999.2500:NULL Value
~CURVE INFORMATION BLOCK
#MNEM UNIT       ERCB CURVE CODE    CURVE DESCRIPTION
#-----------   ------------------   ----------------------------------
DEPT.M        00 001 00 00         : DEPTH        - DEPTH
ILD .OHMM     00 120 00 00         : RESD         - DEEP RESISTIVITY (DIL)
GR  .API      00 310 00 00         : GR           - GAMMA RAY
NPHI.V/V      00 330 00 00         : PHIN         - NEUTRON POROSITY (LIMESTONE)
DPHI.V/V      00 890 00 00         : PHID         - DENSITY POROSITY (LIMESTONE)
~PARAMETER INFORMATION
#MNEM.UNIT           DATA             DESCRIPTION OF MNEMONIC
#---------         -----------     ------------------------------
GL  .M        554.2                : gl           - GROUND LEVEL ELEVATION
EREF.M        557.2                : kb           - ELEVATION OF DEPTH REFERENCE
DATM.M        554.2                : datum        - DATUM ELEVATION
TDD .M        446                  : tdd          - TOTAL DEPTH DRILLER
RUN .         ONE                  : Run          - RUN NUMBER
ENG .         BILL                 : Engineer     - RECORDING ENGINEER
WIT .         JIM                  : Witness      - WITNESSED BY
MUD .         GEL                  : Mud_type     - MUD TYPE
MATR.         LIMESTONE            : Logunit      - NEUTRON MATRIX
TMAX.C        22                   : BHT          - MAXIMUM RECORDED TEMPERATURE
BHTD.M        446                  : BHTDEP       - MAXIMUM RECORDED TEMPERATURE
MATR.         1                    : LOGUNIT      - NEUTRON MATRIX
RMT .C        25                   : MDTP         - TEMPERATURE OF MUD
NEUT.         1                    : NEUTRON      - NEUTRON TYPE
RESI.         0                    : RESIST       - RESISTIVITY TYPE
RMC .OHMM     0.25                 : RMC          - RESISTIVITY OF MUD CAKE
RMF .OHMM     0.25                 : RMF          - RESISTIVITY OF MUD FILTRATE
SUFT.C        15                   : SUFT         - SURFACE TEMPERATURE
~A  DEPTH     RESD       GR     PHIN     PHID
# ...
  362.000    4.617   91.534    0.435    0.246
  362.250    4.611   90.322    0.424    0.219
  362.500    4.587   89.839    0.418    0.219
  362.750    4.547   89.780    0.415    0.216
  363.000    4.506   90.873    0.421    0.207
  363.250    4.491   92.936    0.415    0.209
  363.500    4.444   95.120    0.410    0.230
  363.750    4.388   96.940    0.409    0.233
  364.000    4.326   98.882    0.414    0.224
  364.250    4.336  101.248    0.427    0.215
  364.500    4.362  102.947    0.423    0.203
  364.750    4.347  103.252    0.428    0.212
  365.000    4.167  101.495    0.438    0.216
  365.250    3.855   97.859    0.455    0.226
  365.500    3.601   91.737    0.442    0.241
  365.750    3.510   87.494    0.433    0.265
  366.000    3.384   83.191    0.434    0.270
  366.250    3.378   80.221    0.431    0.279
  366.500    3.399   76.403    0.443    0.292
  366.750    3.464   74.707    0.456    0.301
  367.000    3.537   75.254    0.452    0.294
  367.250    3.639   75.983    0.446    0.275
  367.500    3.730   77.561    0.434    0.264
  367.750    3.866   80.109    0.418    0.265
  368.000    3.962   82.233    0.393    0.273
  368.250    4.153   84.841    0.403    0.275
  368.500    4.248   86.783    0.416    0.261
  368.750    4.379   87.815    0.420    0.248
  369.000    4.429   88.362    0.409    0.253
  369.250    4.464   87.272    0.398    0.253
  369.500    4.508   87.274    0.394    0.244
  369.750    4.527   89.519    0.407    0.238
  370.000    4.529   89.763    0.419    0.232
  370.250    4.515   86.975    0.426    0.234
  370.500    4.499   86.734    0.422    0.244
  370.750    4.468   88.797    0.422    0.249
  371.000    4.445   90.436    0.424    0.251
  371.250    4.414   91.165    0.413    0.255
  371.500    4.392   90.560    0.411    0.247
  371.750    4.369   88.985    0.416    0.240
  372.000    4.371   88.320    0.412    0.249
  372.250    4.372   88.079    0.396    0.244
  372.500    4.366   87.777    0.387    0.239
  372.750    4.353   87.172    0.398    0.245
  373.000    4.298   84.991    0.411    0.248
  373.250    4.252   84.689    0.422    0.262
  373.500    4.199   88.147    0.419    0.249
  373.750    4.146   90.149    0.408    0.243
  374.000    4.087   88.392    0.414    0.236
  374.250    4.059   82.513    0.425    0.231
  374.500    4.038   80.453    0.430    0.245
  374.750    4.002   79.424    0.418    0.258
  375.000    3.974   81.608    0.422    0.260
  375.250    3.953   85.126    0.416    0.263
  375.500    3.748   86.764    0.408    0.259
  375.750    3.619   87.009    0.402    0.268
  376.000    3.534   82.887    0.400    0.272
  376.250    3.407   80.585    0.398    0.275
  376.500    3.315   79.070    0.397    0.286
  376.750    3.261   78.526    0.402    0.293
  377.000    3.220   78.831    0.423    0.288
  377.250    3.151   78.165    0.446    0.275
  377.500    3.129   75.863    0.438    0.285
  377.750    3.095   74.410    0.439    0.294
  378.000    3.085   74.593    0.442    0.296
  378.250    3.058   75.746    0.439    0.290
  378.500    3.059   77.142    0.436    0.284
  378.750    3.061   77.871    0.434    0.282
  379.000    3.102   78.479    0.430    0.288
  379.250    3.127   77.571    0.422    0.300
  379.500    3.140   75.754    0.419    0.299
  379.750    3.176   76.543    0.418    0.292
  380.000    3.232   77.091    0.419    0.288
  380.250    3.263   78.305    0.424    0.291
  380.500    3.246   79.641    0.431    0.303
  380.750    3.176   81.461    0.437    0.303
  381.000    3.096   82.796    0.433    0.291
  381.250    2.929   84.798    0.429    0.272
  381.500    2.640   88.438    0.430    0.279
  381.750    2.341   94.866    0.446    0.261
  382.000    2.102  101.537    0.489    0.227
  382.250    1.909  105.419    0.508    0.230
  382.500    1.921  107.179    0.535    0.250
  382.750    2.161  106.877    0.549    0.267
  383.000    2.490  105.303    0.553    0.273
  383.250    2.780  103.910    0.566    0.271
  383.500    3.132  104.093    0.544    0.259
  383.750    3.504  106.216    0.543    0.267
  384.000    3.762  107.249    0.534    0.241
  384.250    3.943  106.765    0.498    0.222
  384.500    4.034  103.553    0.451    0.214
  384.750    4.066   99.553    0.425    0.223
  385.000    4.075   97.554    0.421    0.225
  385.250    4.069   94.766    0.426    0.225
  385.500    4.071   92.888    0.427    0.232
  385.750    4.042   91.496    0.414    0.226
  386.000    3.999   91.921    0.405    0.232
  386.250    3.877   93.681    0.412    0.228
  386.500    3.814   95.319    0.411    0.219
  386.750    3.697   97.504    0.415    0.224
  387.000    3.550   98.354    0.418    0.244
  387.250    3.391   96.901    0.413    0.247
  387.500    3.251   95.811    0.413    0.260
  387.750    3.227   94.357    0.421    0.269
  388.000    3.259   92.297    0.433    0.267
  388.250    3.371   89.509    0.440    0.265
  388.500    3.462   87.025    0.445    0.260
  388.750    3.496   84.298    0.452    0.249
  389.000    3.536   79.388    0.474    0.237
  389.250    3.538   70.780    0.447    0.178
  389.500    3.373   64.961    0.348    0.143
  389.750    3.115   76.604    0.384    0.163
  390.000    2.772   85.761    0.414    0.234
  390.250    2.513   90.613    0.431    0.267
  390.500    2.303   93.403    0.447    0.293
  390.750    2.321   90.313    0.452    0.293
  391.000    2.592   78.127    0.459    0.277
  391.250    2.878   72.611    0.468    0.285
  391.500    3.416   69.157    0.471    0.322
  391.750    3.929   66.915    0.443    0.338
  392.000    4.494   68.069    0.427    0.333
  392.250    5.140   70.071    0.418    0.318
  392.500    5.717   67.587    0.398    0.300
  392.750    6.161   66.254    0.263    0.263
  393.000    5.137   67.165    0.253    0.118
  393.250    4.252   69.895    0.273    0.148
  393.500    3.734   72.382    0.309    0.205
  393.750    3.430   74.324    0.346    0.246
  394.000    3.227   76.569    0.386    0.279
  394.250    3.099   79.541    0.415    0.300
  394.500    3.043   82.999    0.432    0.312
  394.750    3.057   85.123    0.437    0.241
  395.000    3.151   84.397    0.430    0.226
  395.250    3.180   80.942    0.426    0.241
  395.500    3.254   78.276    0.416    0.252
  395.750    3.292   77.732    0.422    0.255
  396.000    3.331   78.582    0.424    0.263
  396.250    3.382   78.705    0.422    0.267
  396.500    3.447   78.464    0.424    0.256
  396.750    3.520   76.768    0.430    0.237
  397.000    3.614   75.496    0.417    0.238
  397.250    3.738   78.044    0.408    0.249
  397.500    3.867   80.653    0.400    0.261
  397.750    4.099   80.775    0.399    0.266
  398.000    4.201   76.351    0.406    0.258
  398.250    4.289   75.746    0.415    0.241
  398.500    4.388   79.385    0.412    0.240
  398.750    4.490   80.175    0.401    0.237
  399.000    4.541   81.086    0.411    0.223
  399.250    4.561   82.846    0.411    0.208
  399.500    4.504   84.909    0.402    0.212
  399.750    4.382   87.457    0.395    0.219
  400.000    4.255   88.671    0.392    0.210
  400.250    4.094   87.581    0.396    0.221
  400.500    4.013   88.249    0.399    0.230
  400.750    3.904   90.252    0.405    0.237
  401.000    3.681   89.889    0.419    0.241
  401.250    3.541   85.162    0.429    0.249
  401.500    3.205   83.284    0.435    0.244
  401.750    2.960   83.103    0.436    0.234
  402.000    2.795   84.621    0.426    0.241
  402.250    2.669   86.562    0.423    0.247
  402.500    2.577   93.537    0.427    0.246
  402.750    2.507   97.964    0.439    0.241
  403.000    2.494  102.149    0.464    0.230
  403.250    2.519  106.092    0.481    0.239
  403.500    2.534  107.124    0.507    0.255
  403.750    2.531  107.550    0.509    0.259
  404.000    2.508  107.612    0.509    0.249
  404.250    2.500  106.947    0.517    0.234
  404.500    2.456  106.281    0.511    0.230
  404.750    2.443  105.070    0.500    0.235
  405.000    2.425  103.980    0.510    0.245
  405.250    2.454  103.375    0.523    0.258
