~VERSION INFORMATION
 VERS.                 2.0:   CWLS LOG ASCII STANDARD -VERSION 2.0
 WRAP.                  NO:   ONE LINE PER DEPTH STEP
~WELL INFORMATION BLOCK
#MNEM.UNIT           DATA                    DESCRIPTION OF MNEMONIC
#---------    -------------------            -------------------------------
# Generated from Intellog Unique Number	CW_79_81/WELL/3694
WELL.         AMCO                           : Well_name    - WELL
LOC .         00/07-09-078-23W4/0            : Location     - LOCATION
UWI .         00/07-09-078-23W4/0            : Uwi          - UNIQUE WELL ID
ENTR.         TIM                            : Entered      - ENTERED BY
SRVC.         SCHLUMBERGER                   : Scn          - SERVICE COMPANY
DATE.         05\15\92                       : Date         - LOG DATE
STRT.M        250                            : top_depth    - START DEPTH
STOP.M        525                            : bot_depth    - STOP DEPTH
STEP.M        0.25                           : increment    - STEP LENGTH
 NULL. -999.2500:NULL Value
~CURVE INFORMATION BLOCK
#MNEM UNIT       ERCB CURVE CODE    CURVE DESCRIPTION
#-----------   ------------------   ----------------------------------
DEPT.M        00 001 00 00         : DEPTH        - DEPTH
GR  .API      00 310 00 00         : GR           - GAMMA RAY
DPHI.V/V      00 890 00 00         : PHID         - DENSITY POROSITY (SANDSTONE)
ILD .OHMM     00 120 00 00         : RESD         - DEEP RESISTIVITY (DIL)
NPHI.V/V      00 330 00 00         : PHIN         - NEUTRON POROSITY (SANDSTONE)
~PARAMETER INFORMATION
#MNEM.UNIT           DATA             DESCRIPTION OF MNEMONIC
#---------         -----------     ------------------------------
GL  .M        605                  : gl           - GROUND LEVEL ELEVATION
EREF.M        609                  : kb           - ELEVATION OF DEPTH REFERENCE
DATM.M        609                  : datum        - DATUM ELEVATION
TDD .M        525                  : tdd          - TOTAL DEPTH DRILLER
RUN .         ONE                  : Run          - RUN NUMBER
ENG .         JO                   : Engineer     - RECORDING ENGINEER
WIT .         TIM                  : Witness      - WITNESSED BY
MUD .         GEL                  : Mud_type     - MUD TYPE
MATR.         SANDSTONE            : Logunit      - NEUTRON MATRIX
TMAX.C        27                   : BHT          - MAXIMUM RECORDED TEMPERATURE
BHTD.M        525                  : BHTDEP       - MAXIMUM RECORDED TEMPERATURE
RMT .C        20                   : MDTP         - TEMPERATURE OF MUD
MUDD.KG/M     1090                 : MWT          - MUD DENSITY
NEUT.         1                    : NEUTRON      - NEUTRON TYPE
RESI.         0                    : RESIST       - RESISTIVITY TYPE
RM  .OHMM     5.2                  : RM           - RESISTIVITY OF MUD
RMC .OHMM     4                    : RMC          - RESISTIVITY OF MUD CAKE
RMF .OHMM     6.3                  : RMF          - RESISTIVITY OF MUD FILTRATE
SUFT.C        4                    : SUFT         - SURFACE TEMPERATURE
~A  DEPTH       GR     PHID     RESD     PHIN
# ...
  337.000   59.937    0.328   12.468    0.518
  337.250   61.154    0.328   12.480    0.522
  337.500   61.761    0.324   12.495    0.537
  337.750   62.368    0.329   12.511    0.550
  338.000   62.974    0.332   12.530    0.568
  338.250   63.577    0.326   12.546    0.557
  338.500   62.959    0.326   12.561    0.539
  338.750   62.336    0.328   12.577    0.541
  339.000   60.491    0.327   12.588    0.548
  339.250   59.873    0.327   12.608    0.547
  339.500   57.413    0.326   12.631    0.528
  339.750   56.182    0.317   12.643    0.490
  340.000   54.950    0.296   12.662    0.457
  340.250   56.168    0.221   12.670    0.376
  340.500   59.222    0.086   12.924    0.310
  340.750   61.667    0.049   13.175    0.171
  341.000   59.822    0.023   13.687    0.149
  341.250   53.688    0.014   15.011    0.148
  341.500   54.294    0.024   18.046    0.146
  341.750   53.057    0.036   22.115    0.141
  342.000   54.888    0.043   20.954    0.158
  342.250   56.721    0.053   19.494    0.216
  342.500   59.777    0.090   17.489    0.261
  342.750   61.606    0.254   15.701    0.395
  343.000   62.212    0.205   15.146    0.348
  343.250   62.819    0.271   14.629    0.423
  343.500   60.359    0.303   14.638    0.491
  343.750   56.678    0.275   14.927    0.525
  344.000   54.832    0.299   14.954    0.524
  344.250   54.823    0.310   14.968    0.512
  344.500   55.431    0.312   14.987    0.506
  344.750   57.260    0.312   15.005    0.512
  345.000   60.318    0.309   14.756    0.510
  345.250   62.758    0.312   14.770    0.495
  345.500   62.749    0.316   14.515    0.487
  345.750   62.745    0.317   13.757    0.484
  346.000   59.674    0.319   12.803    0.482
  346.250   57.827    0.313   12.138    0.483
  346.500   57.820    0.317   11.936    0.507
  346.750   59.649    0.323   11.947    0.516
  347.000   59.645    0.327   12.187    0.518
  347.250   57.797    0.330   12.660    0.494
  347.500   57.793    0.324   12.668    0.493
  347.750   59.011    0.310   12.684    0.496
  348.000   63.293    0.300   12.247    0.493
  348.250   67.571    0.302   11.191    0.498
  348.500   68.180    0.302   10.225    0.510
  348.750   69.396    0.280    9.340    0.523
  349.000   74.289    0.280    8.853    0.532
  349.250   75.505    0.293    9.030    0.523
  349.500   74.887    0.292    9.205    0.520
  349.750   73.042    0.285    9.563    0.529
  350.000   73.645    0.290    9.748    0.522
  350.250   73.025    0.299   10.130    0.509
  350.500   71.184    0.309   10.143    0.492
  350.750   65.050    0.320   10.152    0.482
  351.000   69.331    0.330    9.797    0.473
  351.250   80.352    0.327    9.117    0.476
  351.500   91.984    0.314    7.886    0.481
  351.750   93.204    0.301    7.205    0.484
  352.000   95.646    0.262    6.234    0.505
  352.250   98.089    0.259    5.907    0.520
  352.500   94.406    0.254    5.600    0.539
  352.750   84.596    0.282    5.504    0.568
  353.000   82.751    0.305    5.716    0.592
  353.250   79.680    0.324    6.506    0.585
  353.500   74.157    0.312    7.270    0.562
  353.750   70.476    0.276    8.426    0.545
  354.000   66.180    0.286    9.415    0.491
  354.250   61.884    0.301   10.142    0.491
  354.500   57.588    0.302   10.727    0.515
  354.750   55.742    0.302   11.350    0.521
  355.000   55.735    0.303   12.008    0.523
  355.250   54.499    0.303   12.705    0.497
  355.500   53.879    0.306   12.952    0.486
  355.750   51.423    0.307   13.207    0.455
  356.000   51.416    0.310   13.232    0.438
  356.250   53.247    0.310   13.240    0.430
  356.500   52.014    0.308   13.252    0.478
  356.750   50.782    0.306   13.036    0.497
  357.000   51.385    0.304   13.048    0.514
  357.250   50.153    0.309   13.060    0.506
  357.500   49.531    0.314   12.843    0.491
  357.750   50.140    0.315   12.855    0.487
  358.000   50.131    0.312   12.871    0.500
  358.250   47.675    0.308   12.891    0.505
  358.500   50.730    0.308   13.145    0.481
  358.750   53.786    0.308   13.161    0.471
  359.000   55.617    0.311   13.421    0.463
  359.250   56.222    0.314   13.437    0.469
  359.500   54.988    0.318   13.458    0.474
  359.750   54.368    0.320   13.470    0.474
  360.000   54.971    0.323   13.243    0.471
  360.250   54.968    0.324   13.259    0.472
  360.500   54.961    0.329   13.275    0.476
  360.750   58.015    0.333   13.292    0.480
  361.000   56.170    0.339   13.308    0.486
  361.250   55.550    0.337   13.083    0.490
  361.500   57.381    0.320   13.103    0.531
  361.750   54.925    0.311   13.120    0.539
  362.000   50.627    0.306   13.132    0.552
  362.250   54.294    0.290   13.395    0.457
  362.500   55.512    0.257   13.667    0.413
  362.750   61.021    0.280   13.676    0.424
  363.000   66.528    0.295   13.693    0.468
  363.250   67.133    0.311   13.710    0.484
  363.500   62.835    0.305   13.726    0.481
  363.750   63.441    0.308   13.498    0.486
  364.000   64.659    0.312   13.519    0.482
  364.250   67.102    0.322   13.287    0.508
  364.500   67.708    0.328   13.066    0.518
  364.750   67.701    0.328   12.837    0.492
  365.000   67.695    0.317   12.628    0.458
  365.250   66.461    0.308   12.639    0.458
  365.500   63.389    0.310   12.651    0.460
  365.750   60.320    0.313   12.671    0.463
  366.000   56.636    0.314   12.457    0.464
  366.250   71.334    0.305   11.592    0.471
  366.500   78.066    0.278   10.400    0.524
  366.750   81.122    0.268    9.854    0.557
  367.000   77.439    0.278   10.051    0.577
  367.250   79.269    0.285   10.442    0.546
  367.500   83.549    0.294   10.262    0.463
  367.750   85.382    0.296    9.550    0.441
  368.000   89.051    0.257    8.729    0.446
  368.250   92.720    0.238    8.579    0.451
  368.500   95.163    0.224    8.434    0.459
  368.750   96.994    0.223    8.143    0.470
  369.000   93.923    0.245    7.860    0.474
  369.250   92.078    0.240    7.725    0.485
  369.500   91.455    0.215    7.735    0.490
  369.750   91.449    0.210    7.604    0.496
  370.000   92.666    0.210    7.759    0.504
  370.250   92.660    0.203    7.909    0.494
  370.500   93.873    0.189    7.916    0.464
  370.750   94.480    0.173    7.646    0.461
  371.000   94.475    0.178    7.515    0.487
  371.250   94.469    0.186    7.385    0.478
  371.500   94.462    0.188    7.263    0.467
  371.750   97.515    0.184    7.272    0.450
  372.000   98.737    0.183    7.283    0.440
  372.250   98.117    0.180    7.158    0.446
  372.500   95.659    0.177    7.166    0.470
  372.750   94.424    0.173    7.047    0.492
  373.000   95.028    0.171    7.054    0.495
  373.250   93.183    0.174    7.063    0.492
  373.500   91.339    0.176    7.206    0.486
  373.750   93.783    0.182    7.211    0.481
  374.000   93.772    0.188    7.489    0.478
  374.250   91.929    0.197    7.500    0.468
  374.500   93.758    0.198    7.509    0.447
  374.750   94.976    0.193    7.516    0.445
  375.000   95.583    0.189    7.392    0.490
  375.250   96.190    0.183    7.264    0.501
  375.500   97.407    0.178    7.014    0.496
  375.750   98.625    0.174    7.021    0.467
  376.000   99.843    0.169    6.779    0.443
  376.250   99.221    0.172    6.546    0.427
  376.500   97.989    0.177    6.435    0.418
  376.750   97.980    0.187    6.441    0.471
  377.000   97.362    0.203    6.219    0.518
  377.250   96.129    0.203    6.225    0.524
  377.500   94.898    0.209    6.350    0.502
  377.750   93.053    0.222    6.968    0.489
  378.000   91.819    0.216    7.366    0.516
  378.250   90.584    0.219    8.537    0.545
  378.500   89.355    0.224   12.103    0.567
  378.750   87.510    0.227   14.286    0.513
  379.000   85.665    0.192   16.863    0.452
  379.250   80.753    0.136   17.201    0.311
  379.500   74.008    0.092   16.603    0.253
  379.750   66.036    0.090   15.171    0.218
  380.000   61.127    0.151   13.365    0.313
  380.250   68.472    0.208   12.433    0.394
