~VERSION INFORMATION
 VERS.                 2.0:   CWLS LOG ASCII STANDARD -VERSION 2.0
 WRAP.                  NO:   ONE LINE PER DEPTH STEP
~WELL INFORMATION BLOCK
#MNEM.UNIT           DATA                    DESCRIPTION OF MNEMONIC
#---------    -------------------            -------------------------------
# Generated from Intellog Unique Number	CW_73_75/WELL/528
LOC .         00/06-04-075-24W4/0            : Location     - LOCATION
UWI .         00/06-04-075-24W4/0            : Uwi          - UNIQUE WELL ID
ENTR.         JAYE                           : Entered      - ENTERED BY
SRVC.         SCHLUMBERGER                   : Scn          - SERVICE COMPANY
DATE.         26 FEB 75                      : Date         - LOG DATE
STRT.M        438.912                        : top_depth    - START DEPTH
STOP.M        640.162                        : bot_depth    - STOP DEPTH
STEP.M        0.25                           : increment    - STEP LENGTH
 NULL. -999.2500:NULL Value
~CURVE INFORMATION BLOCK
#MNEM UNIT       ERCB CURVE CODE    CURVE DESCRIPTION
#-----------   ------------------   ----------------------------------
DEPT.M        00 001 00 00         : DEPTH        - DEPTH
ILD .OHMM     00 120 00 00         : RESD         - DEEP RESISTIVITY (DIL)
NPHI.V/V      00 330 00 00         : PHIN         - NEUTRON POROSITY (SANDSTONE)
DPHI.V/V      00 890 00 00         : PHID         - DENSITY POROSITY (SANDSTONE)
GR  .API      00 310 00 00         : GR           - GAMMA RAY
CALI.MM       00 280 01 00         : CAL          - CALIPER
~PARAMETER INFORMATION
#MNEM.UNIT           DATA             DESCRIPTION OF MNEMONIC
#---------         -----------     ------------------------------
GL  .M        718.322              : gl           - GROUND LEVEL ELEVATION
EREF.M        723.199              : kb           - ELEVATION OF DEPTH REFERENCE
DATM.M        718.322              : datum        - DATUM ELEVATION
TDD .M        640.385              : tdd          - TOTAL DEPTH DRILLER
RUN .         ONE                  : Run          - RUN NUMBER
ENG .         FETTERLEY            : Engineer     - RECORDING ENGINEER
WIT .         HARDMAN              : Witness      - WITNESSED BY
BASE.         EDM                  : Branch       - HOME BASE OF LOGGING UNIT
MUD .         GEL CHEM             : Mud_type     - MUD TYPE
MATR.         SANDSTONE            : Logunit      - NEUTRON MATRIX
TMAX.C        26.6667              : BHT          - MAXIMUM RECORDED TEMPERATURE
BHTD.M        641.604              : BHTDEP       - MAXIMUM RECORDED TEMPERATURE
RMT .C        15.5556              : MDTP         - TEMPERATURE OF MUD
MUDD.KG/M     1020                 : MWT          - MUD DENSITY
NEUT.         1                    : NEUTRON      - NEUTRON TYPE
RESI.         0                    : RESIST       - RESISTIVITY TYPE
RM  .OHMM     7.78                 : RM           - RESISTIVITY OF MUD
RMC .OHMM     0                    : RMC          - RESISTIVITY OF MUD CAKE
RMF .OHMM     5.63                 : RMF          - RESISTIVITY OF MUD FILTRATE
SUFT.C        -17.7778             : SUFT         - SURFACE TEMPERATURE
~A  DEPTH     RESD     PHIN     PHID       GR      CAL
# ...
  548.412    8.849    0.235    0.107   58.749  229.643
  548.662    9.035    0.273    0.055   60.704  230.311
  548.912    8.844    0.304    0.101   63.385  230.251
  549.162    8.608    0.390    0.176   65.520  230.296
  549.412    7.817    0.410    0.217   67.534  230.335
  549.662    7.240    0.396    0.228   68.947  229.878
  549.912    6.141    0.398    0.226   69.760  228.797
  550.162    5.394    0.426    0.259   70.391  227.002
  550.412    4.686    0.433    0.275   70.534  223.792
  550.662    4.373    0.439    0.259   70.681  222.609
  550.912    4.320    0.445    0.246   71.675  222.249
  551.162    4.354    0.438    0.251   72.904  222.698
  551.412    4.480    0.432    0.268   74.196  223.666
  551.662    4.632    0.421    0.271   74.465  224.834
  551.912    4.943    0.415    0.245   69.911  225.487
  552.162    5.332    0.404    0.227   65.900  226.148
  552.412    5.764    0.395    0.244   67.676  226.190
  552.662    6.218    0.393    0.231   71.318  225.824
  552.912    6.671    0.399    0.213   74.659  223.320
  553.162    6.639    0.450    0.239   77.277  220.914
  553.412    6.039    0.462    0.256   80.738  220.962
  553.662    5.362    0.481    0.286   82.632  223.458
  553.912    4.549    0.490    0.273   82.660  225.545
  554.162    4.069    0.490    0.247   82.566  225.485
  554.412    3.911    0.473    0.236   81.808  217.470
  554.662    3.986    0.448    0.219   79.065  220.578
  554.912    4.412    0.419    0.195   76.262  224.301
  555.162    4.910    0.414    0.184   76.287  224.137
  555.412    5.221    0.437    0.214   80.412  221.328
  555.662    5.292    0.433    0.224   84.053  222.190
  555.912    5.237    0.430    0.229   87.816  224.986
  556.162    5.024    0.438    0.236   89.951  227.583
  556.412    4.882    0.431    0.251   89.255  227.631
  556.662    4.867    0.429    0.257   88.862  226.768
  556.912    4.906    0.451    0.226   90.814  226.393
  557.162    4.936    0.455    0.204   92.529  226.437
  557.412    5.012    0.444    0.205   92.436  227.303
  557.662    5.136    0.432    0.212   91.076  227.854
  557.912    5.312    0.415    0.196   88.210  227.595
  558.162    5.463    0.397    0.186   89.806  228.356
  558.412    5.548    0.402    0.205   92.786  228.808
  558.662    5.561    0.416    0.195   96.187  228.344
  558.912    5.544    0.433    0.183   97.356  228.493
  559.162    5.497    0.445    0.191   97.204  228.239
  559.412    5.481    0.450    0.204   97.410  227.865
  559.662    5.464    0.445    0.180   98.524  228.018
  559.912    5.468    0.438    0.165   99.937  228.673
  560.162    5.491    0.436    0.163  100.563  229.430
  560.412    5.526    0.441    0.188  100.410  230.603
  560.662    5.538    0.442    0.193   97.062  230.955
  560.912    5.603    0.435    0.173   95.945  229.576
  561.162    5.628    0.434    0.193   97.718  228.491
  561.412    5.652    0.441    0.206   95.575  227.215
  561.662    5.676    0.441    0.190   92.770  226.957
  561.912    5.669    0.436    0.191   91.894  226.486
  562.162    5.642    0.434    0.201   96.019  225.515
  562.412    5.635    0.433    0.209   96.106  223.720
  562.662    5.670    0.423    0.203   92.878  221.931
  562.912    5.673    0.417    0.193   92.605  222.792
  563.162    5.676    0.424    0.182   97.149  224.780
  563.412    5.711    0.429    0.158   96.820  226.044
  563.662    5.810    0.382    0.135   94.493  227.416
  563.912    6.009    0.339    0.123   86.082  227.765
  564.162    6.471    0.337    0.123   85.688  227.402
  564.412    6.668    0.364    0.171   94.271  225.412
  564.662    6.647    0.416    0.187   97.310  221.677
  564.912    6.555    0.416    0.183   93.180  223.053
  565.162    6.405    0.400    0.165   90.675  226.461
  565.412    6.315    0.382    0.137   90.945  230.384
  565.662    6.250    0.383    0.109   91.634  230.429
  565.912    6.208    0.397    0.133   92.263  229.974
  566.162    6.189    0.413    0.172   93.133  229.397
  566.412    6.115    0.425    0.206   94.062  228.738
  566.662    6.062    0.427    0.208   99.032  228.684
  566.912    6.010    0.428    0.204  104.663  228.828
  567.162    6.003    0.437    0.191  104.328  230.093
  567.412    6.029    0.436    0.204  100.318  231.160
  567.662    6.212    0.436    0.207   93.599  230.287
  567.912    6.509    0.422    0.189   91.271  229.006
  568.162    6.793    0.441    0.172   95.516  227.727
  568.412    7.383    0.464    0.197   98.678  226.951
  568.662    8.369    0.444    0.230   93.161  226.795
  568.912    9.063    0.427    0.226   86.620  227.244
  569.162    9.186    0.393    0.211   82.971  227.596
  569.412    8.942    0.437    0.180   81.912  228.160
  569.662    8.314    0.453    0.147   84.352  228.607
  569.912    7.801    0.441    0.171   88.834  229.375
  570.162    7.415    0.421    0.181   92.960  229.934
  570.412    7.113    0.411    0.202   94.072  230.595
  570.662    6.861    0.427    0.209   94.099  230.929
  570.912    6.729    0.423    0.189   93.641  231.382
  571.162    6.708    0.418    0.175   93.972  232.158
  571.412    6.699    0.413    0.161   97.011  232.193
  571.662    6.656    0.413    0.206   94.988  231.938
  571.912    6.671    0.415    0.192   91.462  231.568
  572.162    6.675    0.418    0.187   94.620  230.899
  572.412    6.680    0.433    0.167   95.671  230.127
  572.662    6.721    0.455    0.175   94.131  228.750
  572.912    6.762    0.440    0.186   92.891  226.643
  573.162    6.854    0.430    0.207   91.174  224.553
  573.412    7.024    0.423    0.201   89.270  223.578
  573.662    7.185    0.433    0.184   87.792  223.619
  573.912    7.296    0.426    0.193   89.926  224.180
  574.162    7.300    0.419    0.173   90.738  224.729
  574.412    7.238    0.441    0.132   89.801  225.490
  574.662    7.190    0.416    0.135   88.741  226.563
  574.912    7.247    0.408    0.136   85.334  226.936
  575.162    7.565    0.431    0.140   77.288  225.421
  575.412    8.403    0.428    0.192   73.093  224.958
  575.662   10.385    0.408    0.221   68.120  225.424
  575.912   13.536    0.395    0.211   64.350  225.673
  576.162   19.126    0.386    0.200   61.484  225.308
  576.412   24.341    0.380    0.188   60.305  224.837
  576.662   28.157    0.386    0.192   59.729  223.763
  576.912   30.883    0.407    0.198   58.010  222.997
  577.162   33.198    0.417    0.209   56.953  222.620
  577.412   33.897    0.412    0.218   63.245  222.267
  577.662   32.158    0.399    0.209   64.298  222.103
  577.912   29.572    0.398    0.191   64.686  222.048
  578.162   27.598    0.409    0.214   64.954  222.613
  578.412   26.521    0.416    0.219   64.376  223.265
  578.662   25.535    0.409    0.212   63.319  224.018
  578.912   25.364    0.411    0.205   62.262  224.884
  579.162   25.708    0.422    0.204   61.868  225.636
  579.412   26.345    0.429    0.198   61.171  226.401
  579.662   26.654    0.437    0.216   61.618  226.858
  579.912   26.768    0.440    0.243   65.623  227.211
  580.162   26.590    0.432    0.262   68.239  227.257
  580.412   26.220    0.430    0.243   69.171  226.999
  580.662   25.524    0.437    0.234   70.103  226.829
  580.912   24.753    0.445    0.248   71.095  226.260
  581.162   23.186    0.451    0.259   71.782  225.801
  581.412   21.598    0.455    0.248   69.641  225.645
  581.662   19.644    0.468    0.237   68.523  225.377
  581.912   18.502    0.482    0.254   70.718  225.628
  582.162   17.714    0.480    0.265   72.190  225.980
  582.412   16.683    0.461    0.278   71.073  226.234
  582.662   15.119    0.447    0.249   69.833  226.381
  582.912   13.980    0.473    0.221   70.465  227.341
  583.162   13.759    0.479    0.205   72.238  227.904
  583.412   14.204    0.407    0.223   72.811  228.350
  583.662   15.782    0.386    0.169   69.700  228.811
  583.912   19.899    0.375    0.150   65.632  228.956
  584.162   24.013    0.371    0.155   63.066  229.102
  584.412   26.337    0.374    0.153   61.767  229.153
  584.662   26.549    0.387    0.166   63.179  229.296
