~VERSION INFORMATION
 VERS.                 2.0:   CWLS LOG ASCII STANDARD -VERSION 2.0
 WRAP.                  NO:   ONE LINE PER DEPTH STEP
~WELL INFORMATION BLOCK
#MNEM.UNIT           DATA                    DESCRIPTION OF MNEMONIC
#---------    -------------------            -------------------------------
# Generated from Intellog Unique Number	CS_71_72/WELL/619
WELL.         MAYNARD ENERGY INC.            : Well_name    - WELL
LOC .         00/02-26-072-13W4/0            : Location     - LOCATION
UWI .         00/02-26-072-13W4/0            : Uwi          - UNIQUE WELL ID
ENTR.         SP                             : Entered      - ENTERED BY
SRVC.         SCHLUMBERGER                   : Scn          - SERVICE COMPANY
STRT.M        300                            : top_depth    - START DEPTH
STOP.M        530                            : bot_depth    - STOP DEPTH
STEP.M        0.25                           : increment    - STEP LENGTH
 NULL. -999.2500:NULL Value
~CURVE INFORMATION BLOCK
#MNEM UNIT       ERCB CURVE CODE    CURVE DESCRIPTION
#-----------   ------------------   ----------------------------------
DEPT.M        00 001 00 00         : DEPTH        - DEPTH
ILD .OHMM     00 120 00 00         : RESD         - DEEP RESISTIVITY (DIL)
DPHI.V/V      00 890 00 00         : PHID         - DENSITY POROSITY (LIMESTONE)
NPHI.V/V      00 330 00 00         : PHIN         - NEUTRON POROSITY (LIMESTONE)
GR  .API      00 310 00 00         : GR           - GAMMA RAY
~PARAMETER INFORMATION
#MNEM.UNIT           DATA             DESCRIPTION OF MNEMONIC
#---------         -----------     ------------------------------
GL  .M        653.8                : gl           - GROUND LEVEL ELEVATION
EREF.M        657.5                : kb           - ELEVATION OF DEPTH REFERENCE
DATM.M        653.8                : datum        - DATUM ELEVATION
TDD .M        542                  : tdd          - TOTAL DEPTH DRILLER
RUN .         ONE                  : Run          - RUN NUMBER
ENG .         BILL                 : Engineer     - RECORDING ENGINEER
WIT .         JIM                  : Witness      - WITNESSED BY
MUD .         GEL                  : Mud_type     - MUD TYPE
MATR.         LIMESTONE            : Logunit      - NEUTRON MATRIX
TMAX.C        22                   : BHT          - MAXIMUM RECORDED TEMPERATURE
BHTD.M        542                  : BHTDEP       - MAXIMUM RECORDED TEMPERATURE
MATR.         1                    : LOGUNIT      - NEUTRON MATRIX
RMT .C        144                  : MDTP         - TEMPERATURE OF MUD
NEUT.         1                    : NEUTRON      - NEUTRON TYPE
RESI.         0                    : RESIST       - RESISTIVITY TYPE
RMC .OHMM     0.25                 : RMC          - RESISTIVITY OF MUD CAKE
RMF .OHMM     0.25                 : RMF          - RESISTIVITY OF MUD FILTRATE
SUFT.C        15                   : SUFT         - SURFACE TEMPERATURE
~A  DEPTH     RESD     PHID     PHIN       GR
# ...
  430.500    8.409    0.233    0.395   76.946
  430.750    8.411    0.256    0.395   81.187
  431.000    8.171    0.266    0.399   82.400
  431.250    8.013    0.272    0.401   84.222
  431.500    7.854    0.275    0.407   83.017
  431.750    7.454    0.277    0.412   81.209
  432.000    6.892    0.275    0.420   84.845
  432.250    6.251    0.278    0.435   88.482
  432.500    5.769    0.285    0.453   89.696
  432.750    5.369    0.284    0.465   90.305
  433.000    5.130    0.274    0.453   87.894
  433.250    5.295    0.263    0.447   83.061
  433.500    5.377    0.252    0.438   78.834
  433.750    5.784    0.279    0.443   77.627
  434.000    5.866    0.301    0.471   76.425
  434.250    6.192    0.319    0.460   75.828
  434.500    6.518    0.331    0.439   75.832
  434.750    6.682    0.337    0.427   74.628
  435.000    6.765    0.343    0.437   72.819
  435.250    6.769    0.344    0.457   76.459
  435.500    6.852    0.319    0.439   77.672
  435.750    6.854    0.300    0.427   77.677
  436.000    6.777    0.287    0.428   72.844
  436.250    6.780    0.292    0.446   71.640
  436.500    6.782    0.304    0.457   75.880
  436.750    6.705    0.311    0.472   80.728
  437.000    6.707    0.320    0.467   82.549
  437.250    6.710    0.316    0.445   82.552
  437.500    6.633    0.306    0.425   81.955
  437.750    6.635    0.295    0.416   81.958
  438.000    6.719    0.287    0.410   84.386
  438.250    6.801    0.274    0.405   86.209
  438.500    6.966    0.262    0.403   86.213
  438.750    7.130    0.239    0.400   86.216
  439.000    7.213    0.234    0.397   85.617
  439.250    7.298    0.249    0.393   85.625
  439.500    7.219    0.253    0.393   85.629
  439.750    7.062    0.258    0.394   84.427
  440.000    6.984    0.253    0.403   85.040
  440.250    6.824    0.260    0.420   86.253
  440.500    6.506    0.263    0.435   88.680
  440.750    6.427    0.267    0.455   89.288
  441.000    6.268    0.272    0.478   89.899
  441.250    6.030    0.273    0.475   88.091
  441.500    5.871    0.270    0.457   85.681
  441.750    5.712    0.267    0.452   85.685
  442.000    5.394    0.264    0.455   85.689
  442.250    5.235    0.264    0.475   87.511
  442.500    5.077    0.263    0.496   89.332
  442.750    4.917    0.265    0.504   89.943
  443.000    4.760    0.272    0.492   89.345
  443.250    4.681    0.279    0.474   88.141
  443.500    4.523    0.277    0.464   88.751
  443.750    4.525    0.273    0.447   92.387
  444.000    4.529    0.271    0.441   96.628
  444.250    4.694    0.276    0.429   97.842
  444.500    4.857    0.285    0.423   89.379
  444.750    5.183    0.297    0.414   79.104
  445.000    5.346    0.308    0.413   79.111
  445.250    5.833    0.303    0.423   85.770
  445.500    6.159    0.273    0.426   91.221
  445.750    6.403    0.261    0.424   93.039
  446.000    6.648    0.250    0.412   91.835
  446.250    6.571    0.190    0.401   90.633
  446.500    6.492    0.195    0.393   92.456
  446.750    6.414    0.220    0.401   92.457
  447.000    6.176    0.250    0.403   90.650
  447.250    6.098    0.254    0.397   95.496
  447.500    6.019    0.248    0.394  101.550
  447.750    5.942    0.243    0.394  103.973
  448.000    6.024    0.255    0.405  109.424
  448.250    6.512    0.261    0.409  111.849
  448.500    7.240    0.275    0.356   97.944
  448.750    8.855    0.277    0.319   84.038
  449.000   10.955    0.237    0.269   55.012
  449.250   12.974    0.164    0.245   48.365
  449.500   15.073    0.006    0.228   58.656
  449.750   16.850   -0.013    0.319   64.103
  450.000   15.321    0.040    0.383   75.601
  450.250   13.469    0.113    0.409   88.308
  450.500   11.214    0.169    0.418  100.413
  450.750    9.523    0.263    0.401  102.232
  451.000    7.913    0.246    0.396  101.634
  451.250    7.110    0.235    0.396   98.615
  451.500    6.629    0.233    0.398   95.597
  451.750    6.309    0.241    0.401   95.604
  452.000    5.989    0.251    0.407   94.400
  452.250    5.670    0.267    0.403   90.173
  452.500    5.592    0.263    0.401   87.760
  452.750    5.515    0.258    0.403   84.742
  453.000    5.518    0.253    0.421   83.536
  453.250    5.520    0.288    0.438   81.727
  453.500    5.603    0.306    0.426   82.944
  453.750    5.849    0.320    0.438   87.186
  454.000    5.931    0.309    0.427   89.610
  454.250    6.177    0.227    0.402   92.035
  454.500    6.260    0.183    0.396   94.461
  454.750    6.262    0.161    0.392   96.281
  455.000    5.943    0.188    0.394   96.891
  455.250    5.784    0.217    0.396   96.294
  455.500    5.223    0.224    0.402   95.693
  455.750    4.420    0.233    0.409   94.491
  456.000    4.099    0.247    0.417   94.497
  456.250    3.538    0.253    0.447   93.293
  456.500    3.137    0.254    0.476   92.694
  456.750    2.738    0.269    0.523   93.911
  457.000    2.579    0.278    0.552   95.732
  457.250    2.339    0.293    0.552   96.341
  457.500    2.180    0.282    0.526   95.742
  457.750    2.102    0.276    0.535   95.144
  458.000    2.105    0.271    0.548   96.966
  458.250    2.269    0.258    0.555   98.181
  458.500    2.676    0.257    0.496   97.582
  458.750    3.163    0.264    0.459   94.563
  459.000    3.407    0.261    0.439   89.729
  459.250    3.975    0.256    0.423   86.108
  459.500    4.219    0.253    0.416   84.904
  459.750    4.625    0.250    0.413   83.702
  460.000    4.790    0.248    0.418   83.100
  460.250    4.873    0.242    0.433   83.107
  460.500    4.957    0.235    0.436   83.718
  460.750    5.120    0.225    0.418   85.541
  461.000    5.527    0.230    0.402   85.546
  461.250    5.933    0.247    0.395   83.736
  461.500    6.177    0.262    0.394   80.717
  461.750    6.341    0.213    0.389   78.304
  462.000    6.506    0.173    0.383   83.149
  462.250    6.508    0.151    0.379   90.412
  462.500    6.349    0.174    0.384   95.258
  462.750    5.950    0.230    0.387   94.054
  463.000    5.791    0.231    0.391   85.593
  463.250    5.632    0.242    0.395   76.527
  463.500    5.554    0.274    0.399   72.904
  463.750    5.639    0.295    0.411   71.095
  464.000    5.641    0.303    0.418   70.497
  464.250    5.643    0.283    0.432   72.318
  464.500    5.647    0.265    0.428   75.346
  464.750    5.328    0.261    0.423   82.007
  465.000    5.168    0.266    0.419   86.246
  465.250    4.768    0.261    0.436   90.488
  465.500    4.367    0.243    0.471   91.701
  465.750    3.968    0.234    0.488   93.522
  466.000    3.728    0.238    0.482   97.157
  466.250    3.569    0.250    0.489  100.189
  466.500    3.250    0.254    0.477  102.008
  466.750    3.011    0.250    0.471  103.225
  467.000    2.933    0.249    0.447  103.834
  467.250    2.775    0.249    0.438  100.819
  467.500    2.777    0.256    0.453   99.008
  467.750    2.780    0.252    0.470   95.992
  468.000    2.864    0.241    0.479   95.997
  468.250    2.947    0.238    0.473   96.607
  468.500    3.193    0.244    0.465   99.035
  468.750    3.356    0.249    0.460  100.251
  469.000    3.521    0.250    0.471  100.861
  469.250    3.523    0.250    0.485  101.470
  469.500    3.688    0.253    0.494  102.685
  469.750    3.690    0.248    0.489  103.295
  470.000    3.774    0.229    0.489  103.301
  470.250    3.776    0.216    0.471  102.706
  470.500    3.779    0.209    0.437  100.895
  470.750    3.781    0.200    0.425   97.271
  471.000    3.623    0.194    0.416   95.463
  471.250    3.545    0.209    0.428  102.124
  471.500    3.387    0.239    0.451  104.547
  471.750    3.229    0.250    0.463  108.185
  472.000    3.150    0.243    0.456  108.796
  472.250    3.153    0.241    0.415  106.986
  472.500    3.802    0.246    0.408  103.362
  472.750    4.450    0.254    0.404   95.507
  473.000    5.016    0.243    0.396   91.882
  473.250    5.906    0.216    0.388   88.864
  473.500    6.474    0.188    0.386   91.290
  473.750    7.122    0.185    0.386   91.903
