~VERSION INFORMATION
 VERS.                 2.0:   CWLS LOG ASCII STANDARD -VERSION 2.0
 WRAP.                  NO:   ONE LINE PER DEPTH STEP
~WELL INFORMATION BLOCK
#MNEM.UNIT           DATA                    DESCRIPTION OF MNEMONIC
#---------    -------------------            -------------------------------
# Generated from Intellog Unique Number	CW_70_72/WELL/502
NULL.         -999.25                        : NULL_VALUE
WELL.         NORCEN ET AL VICTOR 05-07      : Well_name    - WELL              
LOC .         05-07-071-01W5                 : Location     - LOCATION          
UWI .         00/05-07-071-01W5/0            : Uwi          - UNIQUE WELL ID    
ENTR.         JAYE                           : Entered      - ENTERED BY        
SRVC.         COMPUTALOG                     : Scn          - SERVICE COMPANY   
DATE.         16 MAR 82                      : Date         - LOG DATE          
STRT.M        390                            : top_depth    - START DEPTH       
STOP.M        626                            : bot_depth    - STOP DEPTH        
STEP.M        0.25                           : increment    - STEP LENGTH       
~CURVE INFORMATION BLOCK
#MNEM UNIT       ERCB CURVE CODE    CURVE DESCRIPTION
#-----------   ------------------   ----------------------------------
DEPT.M        00 001 00 00         : DEPTH        - DEPTH                       
DPHI.V/V      00 890 00 00         : PHID         - DENSITY POROSITY (SANDSTONE)
NPHI.V/V      00 330 00 00         : PHIN         - NEUTRON POROSITY (SANDSTONE)
GR  .API      00 310 00 00         : GR           - GAMMA RAY                   
CALI.MM       00 280 01 00         : CAL          - CALIPER                     
ILD .OHMM     00 120 00 00         : RESD         - DEEP RESISTIVITY (DIL)      
~PARAMETER INFORMATION       
#MNEM.UNIT           DATA             DESCRIPTION OF MNEMONIC
#---------         -----------     ------------------------------
GL  .M        591.23               : gl           - GROUND LEVEL ELEVATION      
EREF.M        595.33               : kb           - ELEVATION OF DEPTH REFERENCE
DATM.M        591.23               : datum        - DATUM ELEVATION             
TDD .M        642                  : tdd          - TOTAL DEPTH DRILLER         
RUN .         ONE                  : Run          - RUN NUMBER                  
ENG .         DROMLEWICZ/MURRAY    : Engineer     - RECORDING ENGINEER          
WIT .         BOGNER               : Witness      - WITNESSED BY                
BASE.         EDM                  : Branch       - HOME BASE OF LOGGING UNIT   
MUD .         GEL CHEM             : Mud_type     - MUD TYPE                    
MATR.         SANDSTONE            : Logunit      - NEUTRON MATRIX              
TMAX.C        30                   : BHT          - MAXIMUM RECORDED TEMPERATURE
BHTD.M        643                  : BHTDEP       - MAXIMUM RECORDED TEMPERATURE
RMT .C        10                   : MDTP         - TEMPERATURE OF MUD          
MUDD.KG/M     1140                 : MWT          - MUD DENSITY                 
NEUT.         1                    : NEUTRON      - NEUTRON TYPE                
RESI.         0                    : RESIST       - RESISTIVITY TYPE            
RM  .OHMM     3.2                  : RM           - RESISTIVITY OF MUD          
RMC .OHMM     2.2                  : RMC          - RESISTIVITY OF MUD CAKE     
RMF .OHMM     1.8                  : RMF          - RESISTIVITY OF MUD FILTRATE 
SUFT.C        0                    : SUFT         - SURFACE TEMPERATURE         
~A  DEPTH     PHID     PHIN       GR      CAL     RESD
# ...
  426.500    0.211    0.336   62.481  187.038    6.804
  426.750    0.174    0.130   60.657  183.897    7.783
  427.000    0.099    0.102   55.720  183.444    9.492
  427.250   -0.016    0.092   50.599  186.102   12.870
  427.500   -0.023    0.093   44.540  189.072   15.757
  427.750   -0.020    0.093   41.410  191.317   17.452
  428.000   -0.016    0.091   40.580  192.842   18.648
  428.250   -0.015    0.088   43.358  194.463   20.040
  428.500   -0.011    0.082   45.077  193.803   21.413
  428.750   -0.002    0.079   45.804  191.693   21.375
  429.000    0.026    0.078   45.531  190.727   19.784
  429.250    0.069    0.085   45.262  189.751   19.453
  429.500    0.128    0.117   48.288  188.166   18.073
  429.750    0.182    0.185   52.809  185.537   15.895
  430.000    0.213    0.269   57.887  183.736   11.334
  430.250    0.251    0.294   64.025  183.288    9.454
  430.500    0.288    0.307   65.933  182.529    7.121
  430.750    0.318    0.318   65.101  181.039    5.774
  431.000    0.345    0.329   62.467  180.794    4.700
  431.250    0.345    0.347   58.652  181.900    3.973
  431.500    0.337    0.361   57.135  184.246    3.461
  431.750    0.294    0.372   59.416  186.703    3.138
  432.000    0.269    0.370   62.196  187.910    3.022
  432.250    0.255    0.348   63.667  188.907    3.028
  432.500    0.265    0.326   61.405  188.876    3.193
  432.750    0.278    0.308   63.436  187.388    3.392
  433.000    0.284    0.299   64.909  185.897    3.584
  433.250    0.285    0.313   64.576  185.137    3.659
  433.500    0.280    0.335   62.998  185.103    3.702
  433.750    0.276    0.358   64.096  186.099    3.709
  434.000    0.275    0.358   63.764  187.518    3.703
  434.250    0.282    0.344   60.321  188.418    3.668
  434.500    0.291    0.348   59.551  188.381    3.669
  434.750    0.287    0.340   61.522  187.929    3.655
  435.000    0.280    0.335   66.602  187.170    3.642
  435.250    0.269    0.326   63.967  186.508    3.608
  435.500    0.259    0.335   61.956  186.680    3.575
  435.750    0.267    0.354   61.996  187.580    3.562
  436.000    0.273    0.366   62.534  190.650    3.529
  436.250    0.276    0.380   60.896  192.586    3.529
  436.500    0.280    0.393   60.189  193.070    3.510
  436.750    0.284    0.377   61.846  193.554    3.444
  437.000    0.290    0.360   65.932  194.241    3.355
  437.250    0.293    0.342   67.093  195.035    3.219
  437.500    0.273    0.358   63.460  195.619    3.100
  437.750    0.250    0.364   60.143  195.690    2.946
  438.000    0.232    0.348   58.503  195.342    2.784
  438.250    0.222    0.337   59.603  195.101    2.666
  438.500    0.239    0.366   61.075  195.477    2.567
  438.750    0.252    0.375   63.230  195.648    2.491
  439.000    0.253    0.352   65.698  196.023    2.445
  439.250    0.246    0.336   68.351  196.405    2.395
  439.500    0.233    0.331   71.751  196.783    2.346
  439.750    0.229    0.372   74.342  196.855    2.333
  440.000    0.226    0.359   76.622  197.125    2.369
  440.250    0.227    0.342   79.649  197.094    2.437
  440.500    0.230    0.347   83.856  197.467    2.584
  440.750    0.237    0.377   87.257  197.747    2.710
  441.000    0.249    0.398   86.365  198.017    2.804
  441.250    0.260    0.407   82.174  198.298    2.847
  441.500    0.270    0.375   78.794  198.362    2.842
  441.750    0.258    0.352   75.972  198.742    2.816
  442.000    0.233    0.324   73.275  199.012    2.811
  442.250    0.209    0.319   74.622  199.809    2.843
  442.500    0.187    0.333   82.752  200.812    2.914
  442.750    0.173    0.333   95.670  201.502    3.010
  443.000    0.166    0.338   99.629  202.607    3.132
  443.250    0.173    0.339   98.176  203.710    3.303
  443.500    0.190    0.354   95.294  203.158    3.522
  443.750    0.209    0.344   89.922  199.183    3.750
  444.000    0.215    0.343   84.674  194.997    3.932
  444.250    0.207    0.333   80.735  193.406    4.122
  444.500    0.211    0.322   76.543  192.331    4.347
  444.750    0.208    0.296   73.288  191.262    4.627
  445.000    0.208    0.299   69.472  190.293    4.916
  445.250    0.224    0.284   66.278  189.325    5.059
  445.500    0.231    0.259   70.548  188.975    4.955
  445.750    0.230    0.237   76.499  189.143    4.826
  446.000    0.208    0.212   83.382  189.941    4.746
  446.250    0.321    0.238   83.797  192.603    4.800
  446.500    0.447    0.327   74.009  196.300    5.267
  446.750    0.619    0.400   64.158  200.618    6.093
  447.000    0.689    0.527   47.962  199.339    6.903
  447.250    0.727    0.591   38.796  198.055    8.077
  447.500    0.748    0.635   45.928  197.397    9.151
  447.750    0.487    0.475   55.176  196.322   10.232
  448.000    0.370    0.357   63.426  195.459    9.578
  448.250    0.414    0.443   60.356  194.597    8.732
  448.500    0.454    0.528   55.545  193.523    8.097
  448.750    0.424    0.448   55.152  192.344    7.508
  449.000    0.206    0.303   55.814  191.580    7.042
  449.250    0.206    0.310   55.730  191.234    6.655
  449.500    0.217    0.297   55.211  194.102    6.421
  449.750    0.224    0.265   55.314  196.452    6.207
  450.000    0.209    0.264   56.164  198.282    6.091
  450.250    0.222    0.280   58.132  197.722    6.081
  450.500    0.232    0.308   59.231  196.345    6.116
  450.750    0.238    0.333   55.973  195.062    6.245
  451.000    0.243    0.337   53.837  194.093    6.414
  451.250    0.248    0.328   55.620  193.647    6.402
  451.500    0.253    0.333   57.900  192.668    6.201
  451.750    0.257    0.334   59.869  192.122    5.960
  452.000    0.262    0.329   58.294  191.874    5.664
  452.250    0.267    0.321   57.524  191.634    5.333
  452.500    0.273    0.324   59.495  191.285    4.880
  452.750    0.274    0.331   60.654  190.940    4.560
  453.000    0.273    0.330   60.570  190.490    4.173
  453.250    0.273    0.337   60.114  190.038    3.891
  453.500    0.273    0.351   59.841  189.793    3.670
  453.750    0.272    0.342   61.066  189.659    3.403
  454.000    0.270    0.338   63.720  189.412    3.198
  454.250    0.277    0.335   58.596  189.273    3.016
  454.500    0.282    0.352   57.578  189.136    2.861
  454.750    0.286    0.332   59.111  188.994    2.714
  455.000    0.281    0.326   61.144  188.962    2.584
  455.250    0.272    0.300   63.611  189.130    2.465
  455.500    0.270    0.307   64.336  189.604    2.370
  455.750    0.273    0.324   63.569  189.889    2.361
  456.000    0.277    0.345   64.729  190.785    2.353
  456.250    0.280    0.364   66.944  191.373    2.326
  456.500    0.278    0.377   69.351  191.749    2.292
  456.750    0.278    0.391   68.521  191.715    2.292
  457.000    0.281    0.395   66.011  191.783    2.284
  457.250    0.284    0.340   65.306  191.744    2.301
  457.500    0.283    0.340   64.164  191.814    2.306
  457.750    0.280    0.338   63.023  192.292    2.319
  458.000    0.280    0.334   62.006  192.983    2.337
  458.250    0.279    0.324   60.056  193.671    2.360
  458.500    0.279    0.318   58.355  194.160    2.387
  458.750    0.275    0.325   56.963  194.431    2.396
  459.000    0.276    0.327   60.363  194.397    2.415
  459.250    0.280    0.323   64.509  194.361    2.443
  459.500    0.286    0.348   66.045  193.809    2.490
  459.750    0.293    0.380   67.143  193.353    2.537
  460.000    0.287    0.389   68.179  193.003    2.596
  460.250    0.281    0.377   66.353  192.661    2.626
  460.500    0.280    0.356   60.918  192.313    2.602
  460.750    0.285    0.370   57.477  192.074    2.534
  461.000    0.287    0.389   60.254  191.725    2.422
  461.250    0.284    0.398   63.157  191.482    2.280
  461.500    0.274    0.358   65.808  191.444    2.175
  461.750    0.266    0.324   65.851  191.716    2.115
  462.000    0.273    0.314   63.340  192.824    2.095
  462.250    0.282    0.311   63.007  194.241    2.076
  462.500    0.286    0.327   64.230  195.138    2.064
  462.750    0.285    0.359   64.706  192.303    2.060
