~VERSION INFORMATION
 VERS.                 2.0:   CWLS LOG ASCII STANDARD -VERSION 2.0
 WRAP.                  NO:   ONE LINE PER DEPTH STEP
~WELL INFORMATION BLOCK
#MNEM.UNIT           DATA                    DESCRIPTION OF MNEMONIC
#---------    -------------------            -------------------------------
# Generated from Intellog Unique Number	nealta/WELL/2348
WELL.         CDN-SUP MARTEN 07-01           : Well_name    - WELL
LOC .         07-01-077-03W5                 : Location     - LOCATION
UWI .         00/07-01-077-03W5/0            : Uwi          - UNIQUE WELL ID
ENTR.         JAYE                           : Entered      - ENTERED BY
SRVC.         SCHLUMBERGER                   : Scn          - SERVICE COMPANY
DATE.         10 JAN 78                      : Date         - LOG DATE
STRT.M        480.06                         : top_depth    - START DEPTH
STOP.M        707.06                         : bot_depth    - STOP DEPTH
STEP.M        0.25                           : increment    - STEP LENGTH
 NULL. -999.2500:NULL Value
~CURVE INFORMATION BLOCK
#MNEM UNIT       ERCB CURVE CODE    CURVE DESCRIPTION
#-----------   ------------------   ----------------------------------
DEPT.M        00 001 00 00         : DEPTH        - DEPTH
NPHI.V/V      00 330 00 00         : PHIN         - NEUTRON POROSITY (SANDSTONE)
DPHI.V/V      00 890 00 00         : PHID         - DENSITY POROSITY (SANDSTONE)
ILD .OHMM     00 120 00 00         : RESD         - DEEP RESISTIVITY (DIL)
GR  .API      00 310 00 00         : GR           - GAMMA RAY
CALI.MM       00 280 01 00         : CAL          - CALIPER
~PARAMETER INFORMATION
#MNEM.UNIT           DATA             DESCRIPTION OF MNEMONIC
#---------         -----------     ------------------------------
GL  .M        769.925              : gl           - GROUND LEVEL ELEVATION
EREF.M        774.192              : kb           - ELEVATION OF DEPTH REFERENCE
DATM.M        769.925              : datum        - DATUM ELEVATION
TDD .M        736.092              : tdd          - TOTAL DEPTH DRILLER
RUN .         ONE                  : Run          - RUN NUMBER
ENG .         ACKERMAN/VAN STEENBE : Engineer     - RECORDING ENGINEER
WIT .         CRAIMAIN/SMAILES     : Witness      - WITNESSED BY
BASE.         EDMONTON             : Branch       - HOME BASE OF LOGGING UNIT
MUD .         GEL                  : Mud_type     - MUD TYPE
MATR.         SANDSTONE            : Logunit      - NEUTRON MATRIX
TMAX.C        27.7778              : BHT          - MAXIMUM RECORDED TEMPERATURE
BHTD.M        736.092              : BHTDEP       - MAXIMUM RECORDED TEMPERATURE
RMT .C        10                   : MDTP         - TEMPERATURE OF MUD
MUDD.KG/M     1140                 : MWT          - MUD DENSITY
NEUT.         1                    : NEUTRON      - NEUTRON TYPE
RESI.         0                    : RESIST       - RESISTIVITY TYPE
RM  .OHMM     2.95                 : RM           - RESISTIVITY OF MUD
RMC .OHMM     0                    : RMC          - RESISTIVITY OF MUD CAKE
RMF .OHMM     3.82                 : RMF          - RESISTIVITY OF MUD FILTRATE
SUFT.C        4.5                  : SUFT         - SURFACE TEMPERATURE
~A  DEPTH     PHIN     PHID     RESD       GR      CAL
# ...
  516.560    0.509    0.291    7.037   55.337  189.534
  516.810    0.487    0.277    7.455   51.195  191.085
  517.060    0.459    0.271    7.766   49.238  190.722
  517.310    0.431    0.272    8.044   48.092  189.526
  517.560    0.439    0.278    8.286   47.820  188.847
  517.810    0.447    0.295    8.567   48.235  188.490
  518.060    0.459    0.308    8.875   49.518  188.343
  518.310    0.472    0.312    9.159   51.056  188.630
  518.560    0.475    0.311    9.399   50.221  188.907
  518.810    0.463    0.318    9.521   49.639  189.499
  519.060    0.453    0.328    9.537   50.424  190.196
  519.310    0.463    0.336    9.446   51.589  190.476
  519.560    0.474    0.339    9.391   51.819  190.646
  519.810    0.484    0.341    9.320   50.918  190.716
  520.060    0.494    0.347    9.318   49.710  190.775
  520.310    0.487    0.334    9.316   47.939  190.735
  520.560    0.479    0.338    9.245   47.041  190.702
  520.810    0.474    0.341    9.140   46.644  190.454
  521.060    0.463    0.345    9.053   47.995  189.881
  521.310    0.463    0.345    9.051   49.280  189.636
  521.560    0.473    0.344    9.185   49.445  189.169
  521.810    0.479    0.359    9.252   49.422  189.020
  522.060    0.478    0.364    9.320   50.772  189.094
  522.310    0.470    0.360    9.352   52.306  189.052
  522.560    0.473    0.358    9.264   54.408  189.119
  522.810    0.483    0.362    9.210   55.135  188.977
  523.060    0.480    0.365    9.191   55.114  189.145
  523.310    0.479    0.369    9.121   54.274  189.318
  523.560    0.483    0.368    9.017   53.626  189.073
  523.810    0.473    0.364    8.816   53.421  189.137
  524.060    0.479    0.363    8.428   53.705  188.993
  524.310    0.491    0.369    8.133   54.245  188.523
  524.560    0.515    0.379    7.862   55.097  187.857
  524.810    0.507    0.372    7.716   56.197  187.811
  525.060    0.470    0.367    7.614   56.983  187.992
  525.310    0.462    0.365    7.528   57.894  188.052
  525.560    0.478    0.359    7.498   58.625  188.117
  525.810    0.474    0.352    7.483   58.785  187.875
  526.060    0.466    0.352    7.439   58.138  187.827
  526.310    0.458    0.359    7.396   56.869  187.581
  526.560    0.451    0.365    7.340   56.532  187.649
  526.810    0.459    0.367    7.229   56.883  187.718
  527.060    0.468    0.363    7.174   57.734  187.776
  527.310    0.466    0.360    7.159   58.773  188.061
  527.560    0.459    0.363    7.144   59.371  187.906
  527.810    0.453    0.366    7.223   59.848  187.661
  528.060    0.467    0.369    7.290   59.264  187.615
  528.310    0.487    0.367    7.356   57.241  187.370
  528.560    0.507    0.365    7.424   56.221  187.432
  528.810    0.508    0.365    7.422   57.883  187.183
  529.060    0.496    0.372    7.462   59.360  187.352
  529.310    0.487    0.367    7.475   58.274  187.637
  529.560    0.490    0.362    7.515   57.437  188.023
  529.810    0.484    0.364    7.556   56.853  188.079
  530.060    0.477    0.371    7.625   56.704  188.576
  530.310    0.470    0.364    7.724   55.996  188.859
  530.560    0.474    0.369    7.809   54.912  188.811
  530.810    0.490    0.368    7.999   53.765  188.883
  531.060    0.483    0.361    8.286   53.681  189.047
  531.310    0.476    0.358    8.599   53.910  189.116
  531.560    0.483    0.367    8.941   53.822  188.967
  531.810    0.490    0.351    9.193   53.171  188.612
  532.060    0.485    0.341    9.399   52.776  188.163
  532.310    0.484    0.337    9.538   53.250  188.215
  532.560    0.484    0.341    9.536   52.668  187.863
  532.810    0.483    0.342    9.499   52.581  187.503
  533.060    0.482    0.347    9.287   54.118  186.723
  533.310    0.481    0.353    8.911   56.466  186.797
  533.560    0.485    0.349    8.615   59.879  187.072
  533.810    0.493    0.343    8.391   62.787  186.925
  534.060    0.486    0.339    8.312   65.196  186.358
  534.310    0.480    0.344    8.202   64.422  185.688
  534.560    0.479    0.353    8.246   61.529  184.690
  534.810    0.472    0.352    8.353   58.386  184.028
  535.060    0.464    0.346    8.383   56.242  184.090
  535.310    0.455    0.341    8.287   55.532  184.257
  535.560    0.460    0.346    8.133   55.258  184.225
  535.810    0.479    0.343    8.055   55.860  183.652
  536.060    0.490    0.340    7.994   60.892  183.716
  536.310    0.489    0.349    7.889   64.050  183.782
  536.560    0.499    0.353    7.727   64.214  183.108
  536.810    0.487    0.355    7.568   63.256  182.224
  537.060    0.473    0.345    7.399   62.170  182.713
  537.310    0.473    0.341    7.315   62.400  185.007
  537.560    0.487    0.347    7.245   62.874  186.337
  537.810    0.497    0.335    7.231   64.663  186.716
  538.060    0.496    0.308    7.256   62.891  186.480
  538.310    0.509    0.283    7.336   61.247  186.742
  538.560    0.490    0.245    7.404   60.660  186.818
  538.810    0.476    0.272    7.458   61.135  186.886
  539.060    0.505    0.325    7.498   61.985  186.843
  539.310    0.524    0.338    7.496   62.274  187.221
  539.560    0.516    0.352    7.453   61.941  187.924
  539.810    0.517    0.369    7.437   61.856  187.990
  540.060    0.510    0.364    7.367   62.018  188.052
  540.310    0.504    0.358    7.216   61.558  188.121
  540.560    0.498    0.362    7.067   60.785  188.297
  540.810    0.511    0.364    6.897   59.326  188.257
  541.060    0.492    0.360    6.718   58.555  188.112
  541.310    0.499    0.351    6.422   58.158  188.285
  541.560    0.510    0.344    6.094   58.695  188.350
  541.810    0.511    0.332    5.750   60.231  188.626
  542.060    0.511    0.314    5.487   63.704  188.482
  542.310    0.522    0.286    5.415   66.425  188.019
  542.560    0.538    0.304    5.323   70.149  187.976
  542.810    0.527    0.321    5.070   74.555  188.789
  543.060    0.493    0.316    4.811   80.087  190.650
  543.310    0.482    0.292    4.481   81.873  192.196
  543.560    0.495    0.254    4.260   79.604  193.006
  543.810    0.527    0.221    4.188   78.707  193.176
  544.060    0.547    0.239    4.164   78.557  193.027
  544.310    0.555    0.244    4.202   78.918  193.106
  544.560    0.564    0.231    4.336   79.201  193.263
  544.810    0.568    0.228    4.509   79.301  193.548
  545.060    0.532    0.218    4.679   79.278  193.400
  545.310    0.507    0.223    4.929   79.382  192.618
  545.560    0.509    0.232    5.261   79.168  190.785
  545.810    0.503    0.244    5.552   78.780  188.840
  546.060    0.499    0.255    5.572   78.314  188.384
  546.310    0.510    0.258    5.498   76.543  188.658
  546.560    0.506    0.270    5.355   73.333  189.047
  546.810    0.498    0.270    5.168   77.615  189.215
  547.060    0.492    0.253    4.987   84.272  189.602
  547.310    0.511    0.242    4.875   88.303  189.774
  547.560    0.527    0.252    4.811   87.783  189.743
  547.810    0.544    0.260    4.810   87.259  189.912
  548.060    0.540    0.268    4.836   84.865  189.979
  548.310    0.529    0.274    4.862   87.901  190.566
  548.560    0.505    0.262    4.870   91.372  191.263
  548.810    0.494    0.244    4.851   93.222  192.183
  549.060    0.515    0.231    4.769   93.821  192.878
  549.310    0.522    0.255    4.706   94.863  193.154
  549.560    0.517    0.258    4.636   96.895  193.016
  549.810    0.508    0.261    4.507   95.374  192.869
  550.060    0.500    0.265    4.398   94.601  192.826
  550.310    0.507    0.267    4.332   98.201  192.888
  550.560    0.500    0.262    4.267  101.046  192.957
  550.810    0.493    0.244    4.218   98.780  193.554
  551.060    0.498    0.228    4.163   97.129  193.827
  551.310    0.508    0.234    4.100   96.045  193.897
  551.560    0.518    0.236    4.054   98.770  194.176
  551.810    0.531    0.228    4.068   97.996  194.027
  552.060    0.538    0.220    4.159   96.292  193.672
  552.310    0.535    0.230    4.341   94.705  192.894
  552.560    0.525    0.224    4.564   91.626  191.383
  552.810    0.509    0.208    4.781   84.548  190.701
