~VERSION INFORMATION
 VERS.                 2.0:   CWLS LOG ASCII STANDARD -VERSION 2.0
 WRAP.                  NO:   ONE LINE PER DEPTH STEP
~WELL INFORMATION BLOCK
#MNEM.UNIT           DATA                    DESCRIPTION OF MNEMONIC
#---------    -------------------            -------------------------------
# Generated from Intellog Unique Number	CW_82_90/WELL/3031
WELL.         MIAMI AMACO                    : Well_name    - WELL
LOC .         00/07-01-084-26W4/0            : Location     - LOCATION
UWI .         00/07-01-084-26W4/0            : Uwi          - UNIQUE WELL ID
ENTR.         TIM                            : Entered      - ENTERED BY
SRVC.         COMPUTALOG                     : Scn          - SERVICE COMPANY
DATE.         8 MAR 77                       : Date         - LOG DATE
STRT.F        700                            : top_depth    - START DEPTH
STOP.F        1329.92                        : bot_depth    - STOP DEPTH
STEP.F        0.82                           : increment    - STEP LENGTH
 NULL. -999.2500:NULL Value
~CURVE INFORMATION BLOCK
#MNEM UNIT       ERCB CURVE CODE    CURVE DESCRIPTION
#-----------   ------------------   ----------------------------------
DEPT.F        00 001 00 00         : DEPTH        - DEPTH
GR  .API      00 310 00 00         : GR           - GAMMA RAY
NPHI.V/V      00 330 00 00         : PHIN         - NEUTRON POROSITY (SANDSTONE)
~PARAMETER INFORMATION
#MNEM.UNIT           DATA             DESCRIPTION OF MNEMONIC
#---------         -----------     ------------------------------
GL  .F        1800                 : gl           - GROUND LEVEL ELEVATION
EREF.F        1811                 : kb           - ELEVATION OF DEPTH REFERENCE
DATM.F        1811                 : datum        - DATUM ELEVATION
TDD .F        1336                 : tdd          - TOTAL DEPTH DRILLER
RUN .         ONE                  : Run          - RUN NUMBER
ENG .         KING                 : Engineer     - RECORDING ENGINEER
WIT .         CONNELLY             : Witness      - WITNESSED BY
BASE.         MEDICINE HAT         : Branch       - HOME BASE OF LOGGING UNIT
MUD .         CHEM GEL             : Mud_type     - MUD TYPE
MATR.         SANDSTONE            : Logunit      - NEUTRON MATRIX
TMAX.F        62                   : BHT          - MAXIMUM RECORDED TEMPERATURE
BHTD.F        1336                 : BHTDEP       - MAXIMUM RECORDED TEMPERATURE
RMT .F        60                   : MDTP         - TEMPERATURE OF MUD
MUDD.LB/G     9.5                  : MWT          - MUD DENSITY
NEUT.         0                    : NEUTRON      - NEUTRON TYPE
RESI.         1                    : RESIST       - RESISTIVITY TYPE
RM  .OHMM     4.2                  : RM           - RESISTIVITY OF MUD
RMC .OHMM     0                    : RMC          - RESISTIVITY OF MUD CAKE
RMF .OHMM     3.9                  : RMF          - RESISTIVITY OF MUD FILTRATE
SUFT.F        39.2                 : SUFT         - SURFACE TEMPERATURE
~A  DEPTH       GR     PHIN
  700.000   23.600    0.275
  700.820   24.106    0.278
  701.640   20.405    0.267
  702.461   19.956    0.260
  703.281   19.060    0.266
  704.101   19.129    0.279
  704.921   19.164    0.285
  705.741   19.222    0.279
  706.562   18.774    0.277
  707.382   17.418    0.275
  708.202   16.969    0.272
  709.022   17.015    0.268
  709.843   17.062    0.267
  710.663   17.131    0.265
  711.483   17.177    0.266
  712.303   17.695    0.277
  713.123   20.097    0.287
  713.944   22.029    0.299
  714.764   23.018    0.313
  715.584   21.179    0.334
  716.404   19.811    0.357
  717.224   16.547    0.375
  718.045   14.696    0.367
  718.865   16.179    0.325
  719.685   16.225    0.312
  720.505   16.260    0.306
  721.325   16.777    0.298
  722.146   17.766    0.293
  722.966   18.755    0.290
  723.786   20.227    0.285
  724.606   21.204    0.281
  725.427   21.733    0.283
  726.247   21.779    0.290
  727.067   21.343    0.301
  727.887   19.986    0.312
  728.707   20.021    0.342
  729.528   22.424    0.401
  730.348   28.126    0.410
  731.168   34.782    0.410
  731.988   34.357    0.408
  732.808   32.518    0.413
  733.629   30.667    0.427
  734.449   26.000    0.447
  735.269   26.518    0.463
  736.089   30.334    0.455
  736.909   36.059    0.444
  737.730   38.462    0.434
  738.550   39.911    0.431
  739.370   35.715    0.423
  740.190   32.945    0.419
  741.010   38.635    0.418
  741.831   43.406    0.417
  742.651   42.498    0.417
  743.471   37.831    0.417
  744.291   32.693    0.422
  745.112   28.981    0.431
  745.932   31.383    0.444
  746.752   34.717    0.458
  747.572   38.545    0.473
  748.392   38.580    0.489
  749.213   40.040    0.492
  750.033   42.454    0.490
  750.853   44.386    0.485
  751.673   43.489    0.480
  752.493   40.225    0.474
  753.314   36.029    0.466
  754.134   32.776    0.459
  754.954   31.409    0.446
  755.774   44.180    0.435
  756.594   46.594    0.422
  757.415   44.284    0.416
  758.235   41.502    0.411
  759.055   38.238    0.408
  759.875   35.468    0.406
  760.696   33.146    0.402
  761.516   28.962    0.401
  762.336   26.180    0.399
  763.156   24.790    0.396
  763.976   22.020    0.394
  764.797   19.721    0.392
  765.617   19.273    0.394
  766.437   19.790    0.397
  767.257   20.779    0.403
  768.077   21.768    0.406
  768.898   22.285    0.407
  769.718   23.286    0.410
  770.538   23.792    0.408
  771.358   24.344    0.400
  772.178   24.378    0.397
  772.999   24.425    0.392
  773.819   24.459    0.397
  774.639   23.092    0.401
  775.459   21.735    0.409
  776.280   21.287    0.420
  777.100   21.333    0.433
  777.920   24.702    0.442
  778.740   27.576    0.432
  779.560   30.438    0.421
  780.381   33.312    0.410
  781.201   35.255    0.413
  782.021   34.819    0.424
  782.841   35.336    0.436
  783.661   38.682    0.442
  784.482   47.694    0.434
  785.302   52.925    0.428
  786.122   48.258    0.423
  786.942   41.706    0.415
  787.762   37.970    0.407
  788.583   32.361    0.399
  789.403   27.694    0.395
  790.223   26.809    0.406
  791.043   26.843    0.419
  791.864   28.304    0.431
  792.684   29.764    0.441
  793.504   30.753    0.447
  794.324   31.270    0.440
  795.144   32.270    0.424
  795.965   32.788    0.410
  796.785   31.420    0.408
  797.605   29.098    0.414
  798.425   20.661    0.425
  799.245   15.040    0.439
  800.066   13.213    0.453
  800.886   15.604    0.482
  801.706   21.317    0.474
  802.526   26.548    0.456
  803.346   32.250    0.448
  804.167   31.353    0.448
  804.987   26.686    0.449
  805.807   22.974    0.454
  806.627   23.491    0.458
  807.448   25.423    0.452
  808.268   27.837    0.445
  809.088   28.331    0.441
  809.908   29.320    0.436
  810.728   29.366    0.431
  811.549   29.424    0.429
  812.369   29.470    0.426
  813.189   29.976    0.425
  814.009   30.517    0.424
  814.829   30.540    0.424
  815.650   30.586    0.422
  816.470   30.633    0.422
  817.290   30.690    0.421
  818.110   30.725    0.421
  818.930   32.185    0.421
  819.751   34.128    0.421
  820.571   35.600    0.421
  821.391   36.577    0.421
  822.211   37.094    0.417
  823.031   35.727    0.416
  823.852   32.957    0.412
  824.672   32.060    0.412
  825.492   31.612    0.410
  826.312   28.842    0.412
  827.133   26.532    0.413
  827.953   27.038    0.418
  828.773   29.912    0.422
  829.593   29.486    0.424
  830.413   29.061    0.424
  831.234   27.694    0.422
  832.054   27.752    0.422
  832.874   30.143    0.420
  833.694   33.040    0.425
  834.514   32.132    0.428
  835.335   29.822    0.431
  836.155   27.040    0.434
  836.975   23.304    0.429
  837.795   20.994    0.422
  838.615   23.868    0.414
  839.436   28.627    0.406
  840.256   34.812    0.401
  841.076   35.329    0.402
  841.896   36.341    0.406
  842.717   36.364    0.408
  843.537   36.893    0.410
  844.357   36.928    0.411
  845.177   37.446    0.410
  845.997   37.503    0.409
  846.818   37.538    0.409
  847.638   37.124    0.415
  848.458   37.171    0.420
  849.278   37.205    0.428
  850.098   37.252    0.431
  850.919   37.298    0.423
  851.739   35.459    0.405
  852.559   33.148    0.369
  853.379   30.367    0.329
  854.199   29.953    0.281
  855.020   32.356    0.263
  855.840   33.804    0.297
  856.660   38.104    0.350
  857.480   40.967    0.390
  858.301   41.024    0.431
  859.121   40.611    0.456
  859.941   41.576    0.459
  860.761   45.416    0.456
  861.581   45.451    0.459
  862.402   40.301    0.470
  863.222   32.806    0.481
  864.042   23.427    0.496
  864.862   18.748    0.494
  865.682   15.978    0.485
  866.503   17.910    0.478
  867.323   20.772    0.467
  868.143   24.129    0.465
  868.963   28.888    0.464
  869.783   34.119    0.462
  870.604   44.545    0.458
  871.424   45.545    0.453
  872.244   44.189    0.452
  873.064   44.212    0.448
  873.885   44.259    0.444
  874.705   43.834    0.437
  875.525   42.018    0.435
  876.345   41.569    0.429
  877.165   40.213    0.424
  877.986   39.788    0.419
  878.806   39.811    0.412
  879.626   41.283    0.411
  880.446   42.743    0.407
  881.266   43.261    0.407
  882.087   39.536    0.407
  882.907   36.272    0.408
  883.727   34.904    0.408
  884.547   34.962    0.408
  885.367   35.480    0.408
  886.188   36.008    0.408
  887.008   36.503    0.406
  887.828   37.020    0.404
  888.648   35.653    0.403
  889.469   35.699    0.402
  890.289   37.630    0.402
  891.109   42.401    0.401
  891.929   42.930    0.400
  892.749   41.091    0.399
  893.570   40.195    0.398
  894.390   39.770    0.398
  895.210   39.804    0.398
  896.030   39.379    0.398
  896.850   38.483    0.404
  897.671   36.655    0.420
  898.491   35.736    0.482
  899.311   31.540    0.511
  900.131   24.046    0.516
  900.951   22.678    0.506
  901.772   27.920    0.494
  902.592   29.369    0.489
  903.412   28.944    0.487
  904.232   28.530    0.480
  905.052   28.093    0.471
  905.873   29.082    0.456
  906.693   32.428    0.447
  907.513   37.681    0.435
  908.333   39.613    0.434
  909.154   42.004    0.435
  909.974   44.878    0.435
  910.794   47.763    0.430
  911.614   49.224    0.422
  912.434   46.442    0.417
  913.255   44.120    0.414
  914.075   40.879    0.412
  914.895   40.454    0.413
  915.715   41.925    0.413
  916.535   43.362    0.415
  917.356   46.236    0.413
  918.176   50.065    0.408
  918.996   52.008    0.404
  919.816   53.468    0.404
  920.636   53.974    0.407
  921.457   54.031    0.410
  922.277   53.618    0.409
  923.097   52.698    0.397
  923.917   49.928    0.351
  924.738   48.066    0.345
  925.558   45.285    0.364
  926.378   41.560    0.389
  927.198   39.250    0.395
  928.018   44.480    0.316
  928.839   50.665    0.263
  929.659   54.011    0.076
  930.479   57.356    0.058
  931.299   59.287    0.161
  932.119   59.805    0.196
  932.940   60.805    0.029
  933.760   61.782   -0.102
