~VERSION INFORMATION
 VERS.                 2.0:   CWLS LOG ASCII STANDARD -VERSION 2.0
 WRAP.                  NO:   ONE LINE PER DEPTH STEP
~WELL INFORMATION BLOCK
#MNEM.UNIT           DATA                    DESCRIPTION OF MNEMONIC
#---------    -------------------            -------------------------------
# Generated from Intellog Unique Number	CS_73_76/WELL/2106
WELL.         ANDERSON EXPLORATION LTD.      : Well_name    - WELL
LOC .         00/07-10-075-11W4/0            : Location     - LOCATION
UWI .         00/07-10-075-11W4/0            : Uwi          - UNIQUE WELL ID
ENTR.         SP                             : Entered      - ENTERED BY
SRVC.         SCHLUMBERGER                   : Scn          - SERVICE COMPANY
STRT.M        270                            : top_depth    - START DEPTH
STOP.M        500                            : bot_depth    - STOP DEPTH
STEP.M        0.25                           : increment    - STEP LENGTH
 NULL. -999.2500:NULL Value
~CURVE INFORMATION BLOCK
#MNEM UNIT       ERCB CURVE CODE    CURVE DESCRIPTION
#-----------   ------------------   ----------------------------------
DEPT.M        00 001 00 00         : DEPTH        - DEPTH
ILD .OHMM     00 120 00 00         : RESD         - DEEP RESISTIVITY (DIL)
DPHI.V/V      00 890 00 00         : PHID         - DENSITY POROSITY (LIMESTONE)
GR  .API      00 310 00 00         : GR           - GAMMA RAY
NPHI.V/V      00 330 00 00         : PHIN         - NEUTRON POROSITY (LIMESTONE)
~PARAMETER INFORMATION
#MNEM.UNIT           DATA             DESCRIPTION OF MNEMONIC
#---------         -----------     ------------------------------
GL  .M        649                  : gl           - GROUND LEVEL ELEVATION
EREF.M        652.5                : kb           - ELEVATION OF DEPTH REFERENCE
DATM.M        649                  : datum        - DATUM ELEVATION
TDD .M        505                  : tdd          - TOTAL DEPTH DRILLER
RUN .         ONE                  : Run          - RUN NUMBER
ENG .         BILL                 : Engineer     - RECORDING ENGINEER
WIT .         JIM                  : Witness      - WITNESSED BY
MUD .         GEL                  : Mud_type     - MUD TYPE
MATR.         LIMESTONE            : Logunit      - NEUTRON MATRIX
TMAX.C        10                   : BHT          - MAXIMUM RECORDED TEMPERATURE
BHTD.M        505                  : BHTDEP       - MAXIMUM RECORDED TEMPERATURE
MATR.         1                    : LOGUNIT      - NEUTRON MATRIX
RMT .C        25                   : MDTP         - TEMPERATURE OF MUD
NEUT.         1                    : NEUTRON      - NEUTRON TYPE
RESI.         0                    : RESIST       - RESISTIVITY TYPE
RMC .OHMM     0.25                 : RMC          - RESISTIVITY OF MUD CAKE
RMF .OHMM     0.25                 : RMF          - RESISTIVITY OF MUD FILTRATE
SUFT.C        15                   : SUFT         - SURFACE TEMPERATURE
~A  DEPTH     RESD     PHID       GR     PHIN
# ...
  400.500    6.745    0.293   68.538    0.300
  400.750    6.264    0.311   72.800    0.488
  401.000    6.150    0.325   74.635    0.506
  401.250    6.039    0.312   73.432    0.496
  401.500    6.040    0.328   75.875    0.497
  401.750    5.930    0.326   79.537    0.512
  402.000    5.931    0.333   80.759    0.515
  402.250    5.932    0.334   81.379    0.513
  402.500    5.933    0.312   79.569    0.519
  402.750    5.934    0.316   77.760    0.521
  403.000    5.935    0.333   77.773    0.525
  403.250    5.936    0.342   77.179    0.512
  403.500    6.049    0.341   77.798    0.509
  403.750    6.163    0.335   75.383    0.511
  404.000    6.638    0.334   73.575    0.492
  404.250    6.763    0.324   73.585    0.496
  404.500    7.420    0.319   72.383    0.502
  404.750    7.846    0.307   71.180    0.513
  405.000    7.994    0.251   68.162    0.484
  405.250    7.023    0.206   66.954    0.437
  405.500    6.403    0.176   67.576    0.379
  405.750    6.287    0.190   71.233    0.370
  406.000    6.172    0.281   74.893    0.448
  406.250    6.290    0.317   76.726    0.472
  406.500    6.175    0.322   77.341    0.483
  406.750    6.176    0.331   76.140    0.493
  407.000    6.177    0.332   73.726    0.509
  407.250    6.179    0.327   75.559    0.516
  407.500    6.180    0.318   77.999    0.503
  407.750    6.296    0.317   76.797    0.502
  408.000    6.297    0.313   73.170    0.486
  408.250    6.183    0.311   73.785    0.471
  408.500    6.184    0.307   75.014    0.467
  408.750    6.185    0.318   75.634    0.469
  409.000    6.186    0.321   75.041    0.479
  409.250    6.187    0.314   75.056    0.481
  409.500    6.188    0.308   76.281    0.480
  409.750    6.189    0.316   78.116    0.484
  410.000    6.077    0.324   79.951    0.488
  410.250    6.078    0.324   81.181    0.493
  410.500    5.751    0.316   82.409    0.488
  410.750    5.646    0.310   83.024    0.476
  411.000    5.342    0.317   84.861    0.487
  411.250    5.343    0.316   87.303    0.497
  411.500    5.344    0.304   89.744    0.484
  411.750    5.345    0.291   92.183    0.487
  412.000    5.652    0.288   94.018    0.496
  412.250    5.758    0.302   94.639    0.484
  412.500    6.088    0.305   90.400    0.468
  412.750    6.805    0.314   84.339    0.473
  413.000    8.040    0.323   81.922    0.497
  413.250    8.659    0.311   79.504    0.494
  413.500    9.679    0.239   73.445    0.469
  413.750   10.046    0.189   67.383    0.452
  414.000   10.048    0.165   65.573    0.436
  414.250    8.993    0.175   69.841    0.331
  414.500    7.756    0.286   72.887    0.315
  414.750    6.689    0.312   75.936    0.424
  415.000    6.568    0.313   77.771    0.471
  415.250    6.448    0.299   78.997    0.482
  415.500    6.449    0.281   84.478    0.466
  415.750    6.333    0.275   86.919    0.469
  416.000    6.333    0.293   88.756    0.480
  416.250    6.104    0.289   88.159    0.471
  416.500    5.993    0.282   88.176    0.462
  416.750    5.995    0.283   88.795    0.458
  417.000    5.885    0.269   88.803    0.470
  417.250    5.779    0.281   87.602    0.478
  417.500    5.569    0.264   87.614    0.484
  417.750    5.269    0.264   90.668    0.494
  418.000    4.894    0.284   91.284    0.512
  418.250    4.717    0.308   92.517    0.530
  418.500    4.896    0.329   93.134    0.542
  418.750    4.988    0.327   92.537    0.528
  419.000    5.373    0.317   91.337    0.510
  419.250    5.577    0.317   91.346    0.529
  419.500    5.788    0.315   96.220    0.512
  419.750    6.007    0.315   96.230    0.491
  420.000    6.235    0.320   96.852    0.490
  420.250    6.471    0.309   98.078    0.499
  420.500    6.717    0.295   99.308    0.500
  420.750    6.844    0.295   96.888    0.511
  421.000    6.973    0.261   94.472    0.489
  421.250    6.975    0.246   96.916    0.473
  421.500    6.976    0.231   95.108    0.468
  421.750    6.977    0.226   93.295    0.477
  422.000    6.978    0.220   93.309    0.470
  422.250    6.851    0.216   95.752    0.449
  422.500    6.852    0.240  100.024    0.454
  422.750    6.728    0.246  101.249    0.460
  423.000    6.606    0.268  103.081    0.460
  423.250    6.486    0.256  103.696    0.465
  423.500    6.487    0.249  102.497    0.478
  423.750    6.369    0.276  101.901    0.494
  424.000    6.489    0.268  101.913    0.501
  424.250    6.490    0.277  100.710    0.510
  424.500    6.491    0.296   99.507    0.504
  424.750    6.373    0.304   97.090    0.496
  425.000    6.257    0.309   94.674    0.502
  425.250    5.812    0.321   93.474    0.520
  425.500    5.706    0.305   94.698    0.528
  425.750    5.499    0.283   95.323    0.498
  426.000    5.203    0.268   93.510    0.489
  426.250    5.015    0.283   89.879    0.510
  426.500    4.745    0.301   89.283    0.526
  426.750    4.326    0.248   91.725    0.501
  427.000    3.801    0.245   94.167    0.452
  427.250    3.278    0.270   88.715    0.491
  427.500    2.827    0.284   86.904    0.532
  427.750    2.577    0.311   89.958    0.556
  428.000    2.307    0.334   90.579    0.586
  428.250    2.265    0.341   90.586    0.604
  428.500    2.265    0.346   89.992    0.612
  428.750    2.266    0.328   88.793    0.582
  429.000    2.309    0.316   88.198    0.565
  429.250    2.309    0.322   87.600    0.579
  429.500    2.353    0.332   87.615    0.601
  429.750    2.353    0.317   89.447    0.619
  430.000    2.353    0.301   91.889    0.598
  430.250    2.398    0.280   95.546    0.579
  430.500    2.398    0.290   99.209    0.586
  430.750    2.583    0.286   99.823    0.599
  431.000    2.887    0.292   99.835    0.616
  431.250    3.411    0.297  101.062    0.598
  431.500    4.031    0.294  101.683    0.582
  431.750    4.590    0.272   99.267    0.577
  432.000    4.943    0.257   95.638    0.547
  432.250    5.131    0.239   93.218    0.483
  432.500    5.228    0.228   90.195    0.471
  432.750    5.229    0.236   90.206    0.476
  433.000    5.427    0.228   92.040    0.481
  433.250    5.633    0.239   91.449    0.483
  433.500    5.739    0.213   92.677    0.450
  433.750    5.635    0.185   94.507    0.422
  434.000    5.137    0.172   98.775    0.406
  434.250    4.861    0.235  101.213    0.442
  434.500    4.685    0.235  104.264    0.462
  434.750    4.515    0.244  101.240    0.476
  435.000    4.352    0.240   96.396    0.484
  435.250    4.195    0.229   97.622    0.471
  435.500    4.118    0.249  100.670    0.464
  435.750    3.969    0.257  101.898    0.469
  436.000    3.755    0.242  101.306    0.483
  436.250    3.361    0.235  100.102    0.495
  436.500    3.121    0.245  102.544    0.498
  436.750    2.742    0.242  103.771    0.476
  437.000    2.409    0.241  104.389    0.473
  437.250    2.156    0.248  106.228    0.487
  437.500    2.003    0.265  106.238    0.494
  437.750    2.118    0.224  104.429    0.501
  438.000    2.239    0.199  105.047    0.490
  438.250    2.281    0.239  107.489    0.471
  438.500    1.967    0.249  109.931    0.490
  438.750    1.635    0.237  109.944    0.508
  439.000    1.410    0.234  106.315    0.517
  439.250    1.286    0.241  104.504    0.527
  439.500    1.286    0.243  103.303    0.515
  439.750    1.360    0.246  103.314    0.515
  440.000    1.411    0.249  103.328    0.518
  440.250    1.411    0.267  100.911    0.531
  440.500    1.335    0.282  103.353    0.530
  440.750    1.173    0.279  108.225    0.525
  441.000    1.031    0.252  110.664    0.528
  441.250    1.152    0.241  111.285    0.541
  441.500    1.312    0.235  111.298    0.551
  441.750    1.609    0.236  108.276    0.550
  442.000    1.701    0.231  105.249    0.534
  442.250    1.551    0.220  103.439    0.534
  442.500    1.289    0.227  104.062    0.540
  442.750    1.091    0.229  103.465    0.527
  443.000    0.959    0.216  102.264    0.534
  443.250    0.842    0.195  105.317    0.556
  443.500    0.768    0.190  107.148    0.539
  443.750    0.726    0.236  107.160    0.534
