~VERSION INFORMATION
 VERS.                 2.0:   CWLS LOG ASCII STANDARD -VERSION 2.0
 WRAP.                  NO:   ONE LINE PER DEPTH STEP
~WELL INFORMATION BLOCK
#MNEM.UNIT           DATA                    DESCRIPTION OF MNEMONIC
#---------    -------------------            -------------------------------
# Generated from Intellog Unique Number	CS_73_76/WELL/2610
WELL.         BOW VALLEY INDUSTRIES LTD      : Well_name    - WELL
LOC .         00/07-30-075-15W4/0            : Location     - LOCATION
UWI .         00/07-30-075-15W4/0            : Uwi          - UNIQUE WELL ID
ENTR.         SP                             : Entered      - ENTERED BY
SRVC.         SCHLUMBERGER                   : Scn          - SERVICE COMPANY
STRT.M        350                            : top_depth    - START DEPTH
STOP.M        565                            : bot_depth    - STOP DEPTH
STEP.M        0.25                           : increment    - STEP LENGTH
 NULL. -999.2500:NULL Value
~CURVE INFORMATION BLOCK
#MNEM UNIT       ERCB CURVE CODE    CURVE DESCRIPTION
#-----------   ------------------   ----------------------------------
DEPT.M        00 001 00 00         : DEPTH        - DEPTH
ILD .OHMM     00 120 00 00         : RESD         - DEEP RESISTIVITY (DIL)
DPHI.V/V      00 890 00 00         : PHID         - DENSITY POROSITY (LIMESTONE)
NPHI.V/V      00 330 00 00         : PHIN         - NEUTRON POROSITY (LIMESTONE)
GR  .API      00 310 00 00         : GR           - GAMMA RAY
~PARAMETER INFORMATION
#MNEM.UNIT           DATA             DESCRIPTION OF MNEMONIC
#---------         -----------     ------------------------------
GL  .M        733.4                : gl           - GROUND LEVEL ELEVATION
EREF.M        736.4                : kb           - ELEVATION OF DEPTH REFERENCE
DATM.M        733.4                : datum        - DATUM ELEVATION
TDD .M        564                  : tdd          - TOTAL DEPTH DRILLER
RUN .         ONE                  : Run          - RUN NUMBER
ENG .         BILL                 : Engineer     - RECORDING ENGINEER
WIT .         JIM                  : Witness      - WITNESSED BY
MUD .         GEL                  : Mud_type     - MUD TYPE
MATR.         LIMESTONE            : Logunit      - NEUTRON MATRIX
TMAX.C        26.6                 : BHT          - MAXIMUM RECORDED TEMPERATURE
BHTD.M        564                  : BHTDEP       - MAXIMUM RECORDED TEMPERATURE
MATR.         1                    : LOGUNIT      - NEUTRON MATRIX
RMT .C        25                   : MDTP         - TEMPERATURE OF MUD
NEUT.         1                    : NEUTRON      - NEUTRON TYPE
RESI.         0                    : RESIST       - RESISTIVITY TYPE
RMC .OHMM     0.25                 : RMC          - RESISTIVITY OF MUD CAKE
RMF .OHMM     0.25                 : RMF          - RESISTIVITY OF MUD FILTRATE
SUFT.C        15                   : SUFT         - SURFACE TEMPERATURE
~A  DEPTH     RESD     PHID     PHIN       GR
  350.000    2.502    0.239    0.497  123.501
  350.250    2.536    0.232    0.514  122.909
  350.500    2.584    0.232    0.520  121.711
  350.750    2.583    0.238    0.529  122.324
  351.000    2.535    0.235    0.526  121.729
  351.250    2.443    0.232    0.518  119.929
  351.500    2.353    0.229    0.503  119.337
  351.750    2.353    0.228    0.519  118.743
  352.000    2.352    0.232    0.520  116.946
  352.250    2.441    0.239    0.513  115.750
  352.500    2.581    0.238    0.514  112.748
  352.750    2.533    0.235    0.526  110.948
  353.000    2.581    0.232    0.531  109.154
  353.250    2.780    0.222    0.537  108.557
  353.500    2.885    0.215    0.516  112.782
  353.750    2.939    0.241    0.504  111.586
  354.000    2.938    0.238    0.499  107.982
  354.250    2.938    0.230    0.521  108.595
  354.500    2.883    0.234    0.533  109.204
  354.750    2.883    0.233    0.533  106.803
  355.000    2.883    0.231    0.503  102.598
  355.250    2.829    0.233    0.482  100.798
  355.500    2.829    0.235    0.488  105.023
  355.750    2.828    0.231    0.498  111.059
  356.000    2.828    0.224    0.491  112.271
  356.250    2.827    0.223    0.494  113.485
  356.500    2.827    0.231    0.499  116.506
  356.750    2.827    0.241    0.494  116.515
  357.000    2.774    0.248    0.482  109.294
  357.250    2.774    0.242    0.505  106.894
  357.500    2.773    0.231    0.518  108.714
  357.750    2.773    0.247    0.537  109.323
  358.000    2.722    0.253    0.544  108.731
  358.250    2.721    0.246    0.552  109.942
  358.500    2.721    0.253    0.540  109.954
  358.750    2.670    0.254    0.533  108.155
  359.000    2.621    0.249    0.543  106.357
  359.250    2.572    0.252    0.543  104.558
  359.500    2.572    0.261    0.546  105.169
  359.750    2.524    0.268    0.567  105.780
  360.000    2.524    0.211    0.590   99.768
  360.250    2.523    0.093    0.544   93.150
  360.500    2.523    0.174    0.499   87.736
  360.750    2.476    0.213    0.484   93.769
  361.000    2.476    0.244    0.511  102.211
  361.250    2.476    0.258    0.538  110.656
  361.500    2.429    0.238    0.564  110.060
  361.750    2.429    0.216    0.527  105.251
  362.000    2.429    0.203    0.481  102.850
  362.250    2.429    0.226    0.496  105.871
  362.500    2.428    0.245    0.522  110.704
  362.750    2.428    0.238    0.535  112.518
  363.000    2.428    0.230    0.541  114.333
  363.250    2.473    0.239    0.540  115.548
  363.500    2.519    0.245    0.506  107.121
  363.750    2.614    0.237    0.493  108.941
  364.000    2.713    0.225    0.488  108.348
  364.250    2.816    0.223    0.490  108.354
  364.500    2.977    0.225    0.478  110.774
  364.750    3.033    0.217    0.453  113.795
  365.000    3.089    0.217    0.450  116.816
  365.250    3.147    0.227    0.473  114.414
  365.500    3.206    0.220    0.494  106.594
  365.750    3.265    0.196    0.513  104.191
  366.000    3.265    0.176    0.503  103.597
  366.250    3.326    0.214    0.456  107.222
  366.500    3.326    0.222    0.455  110.847
  366.750    3.264    0.211    0.466  112.059
  367.000    3.144    0.214    0.494  108.455
  367.250    3.029    0.226    0.504  106.655
  367.500    2.864    0.232    0.514  108.475
  367.750    2.864    0.237    0.523  109.083
  368.000    2.863    0.241    0.527  105.478
  368.250    2.863    0.243    0.504  105.487
  368.500    2.916    0.244    0.483  107.905
  368.750    2.916    0.238    0.487  103.699
  369.000    2.970    0.234    0.504  100.695
  369.250    2.970    0.233    0.506  107.935
  369.500    2.915    0.234    0.502  110.955
  369.750    2.861    0.235    0.533  106.747
  370.000    2.807    0.238    0.550  103.142
  370.250    2.755    0.230    0.516  104.354
  370.500    2.755    0.227    0.504  102.557
  370.750    2.806    0.224    0.522  100.758
  371.000    2.912    0.223    0.469  101.974
  371.250    3.022    0.224    0.450  104.993
  371.500    3.137    0.230    0.442  108.619
  371.750    3.255    0.236    0.461  105.614
  372.000    3.572    0.213    0.491   88.756
  372.250    4.069    0.208    0.479   74.909
  372.500    4.811    0.229    0.433   68.291
  372.750    6.360    0.211    0.422   66.493
  373.000    8.566    0.079    0.410   61.683
  373.250   10.128    0.094    0.289   54.465
  373.500   10.708    0.305    0.269   52.664
  373.750   10.509    0.351    0.321   52.673
  374.000    9.397    0.345    0.360   58.105
  374.250    9.053    0.323    0.390   62.936
  374.500    8.094    0.305    0.410   64.752
  374.750    7.798    0.290    0.412   64.759
  375.000    7.943    0.298    0.418   67.781
  375.250    8.091    0.317    0.431   70.801
  375.500    8.242    0.333    0.437   70.810
  375.750    8.554    0.336    0.431   68.409
  376.000    8.713    0.339    0.423   59.987
  376.250    8.712    0.341    0.414   61.198
  376.500    8.875    0.347    0.411   65.427
  376.750    9.041    0.351    0.402   66.639
  377.000    9.039    0.346    0.408   65.442
  377.250    9.208    0.336    0.428   63.644
  377.500    9.207    0.326    0.429   64.255
  377.750    9.205    0.330    0.428   67.278
  378.000    9.205    0.335    0.440   71.504
  378.250    9.033    0.323    0.451   76.935
  378.500    9.033    0.315    0.442   82.366
  378.750    8.865    0.302    0.435   85.989
  379.000    8.700    0.294    0.418   87.806
  379.250    8.699    0.294    0.426   93.236
  379.500    8.861    0.311    0.437   99.872
  379.750    8.860    0.317    0.424   98.679
  380.000    8.859    0.312    0.409   94.468
  380.250    9.025    0.307    0.421   86.647
  380.500    9.023    0.295    0.436   86.655
  380.750    9.192    0.291    0.436   90.881
  381.000    9.190    0.286    0.425   95.709
  381.250    9.189    0.281    0.427  101.145
  381.500    9.361    0.269    0.418  102.354
  381.750    9.359    0.257    0.403  101.763
  382.000    9.358    0.273    0.404  105.387
  382.250    9.357    0.293    0.424  106.600
  382.500    9.356    0.303    0.439  104.802
  382.750    9.355    0.299    0.431   99.993
  383.000    9.353    0.286    0.413   96.986
  383.250    9.352    0.278    0.401   98.803
  383.500    9.351    0.256    0.393   92.187
  383.750    9.177    0.240    0.382   80.750
  384.000    9.007    0.223    0.380   78.952
  384.250    8.839    0.264    0.394   77.754
  384.500    8.675    0.294    0.405   71.137
  384.750    8.514    0.297    0.409   63.917
  385.000    8.356    0.270    0.376   68.144
  385.250    8.050    0.267    0.379   76.589
  385.500    7.611    0.259    0.394   81.417
  385.750    7.332    0.251    0.380   85.643
  386.000    7.063    0.244    0.367   90.470
  386.250    6.679    0.236    0.404   95.297
  386.500    6.084    0.189    0.433  100.730
  386.750    5.542    0.107    0.449  104.353
  387.000    5.340    0.148    0.444  107.374
  387.250    4.956    0.176    0.445  115.217
  387.500    4.514    0.177    0.462  117.634
  387.750    4.190    0.158    0.475  121.863
  388.000    3.962    0.152    0.467  123.074
  388.250    3.746    0.158    0.462  125.495
  388.500    3.676    0.171    0.470  127.914
  388.750    3.676    0.179    0.503  129.728
  389.000    3.676    0.170    0.524  130.942
  389.250    3.675    0.181    0.516  130.349
  389.500    3.675    0.149    0.488  124.938
  389.750    3.606    0.159    0.484  122.535
  390.000    3.474    0.184    0.488  126.158
  390.250    3.165    0.197    0.514  130.987
  390.500    2.937    0.190    0.513  133.405
  390.750    3.048    0.200    0.503  136.427
  391.000    3.472    0.217    0.514  139.449
  391.250    4.030    0.228    0.522  137.048
  391.500    5.739    0.243    0.482  131.635
  391.750    6.537    0.254    0.444  126.825
  392.000    7.174    0.255    0.421  124.424
  392.250    7.585    0.244    0.423  121.420
  392.500    7.726    0.243    0.418  117.212
  392.750    7.726    0.240    0.410  120.838
  393.000    7.582    0.237    0.410  125.667
  393.250    7.169    0.242    0.418  123.265
