~VERSION INFORMATION
 VERS.                 2.0:   CWLS LOG ASCII STANDARD -VERSION 2.0
 WRAP.                  NO:   ONE LINE PER DEPTH STEP
~WELL INFORMATION BLOCK
#MNEM.UNIT           DATA                    DESCRIPTION OF MNEMONIC
#---------    -------------------            -------------------------------
# Generated from Intellog Unique Number	CS_73_76/WELL/1031
WELL.         BP FT AL MARGIE                : Well_name    - WELL
LOC .         00/06-03-075-10W4/0            : Location     - LOCATION
UWI .         00/06-03-075-10W4/0            : Uwi          - UNIQUE WELL ID
ENTR.         SP                             : Entered      - ENTERED BY
SRVC.         SCHLUMBERGER                   : Scn          - SERVICE COMPANY
STRT.M        304.8                          : top_depth    - START DEPTH
STOP.M        511.8                          : bot_depth    - STOP DEPTH
STEP.M        0.25                           : increment    - STEP LENGTH
 NULL. -999.2500:NULL Value
~CURVE INFORMATION BLOCK
#MNEM UNIT       ERCB CURVE CODE    CURVE DESCRIPTION
#-----------   ------------------   ----------------------------------
DEPT.M        00 001 00 00         : DEPTH        - DEPTH
GR  .API      00 310 00 00         : GR           - GAMMA RAY
DPHI.V/V      00 890 00 00         : PHID         - DENSITY POROSITY (SANDSTONE)
NPHI.V/V      00 330 00 00         : PHIN         - NEUTRON POROSITY (SANDSTONE)
ILD .OHMM     00 120 00 00         : RESD         - DEEP RESISTIVITY (DIL)
~PARAMETER INFORMATION
#MNEM.UNIT           DATA             DESCRIPTION OF MNEMONIC
#---------         -----------     ------------------------------
GL  .M        683.88               : gl           - GROUND LEVEL ELEVATION
EREF.M        687.172              : kb           - ELEVATION OF DEPTH REFERENCE
DATM.M        683.88               : datum        - DATUM ELEVATION
TDD .M        676.656              : tdd          - TOTAL DEPTH DRILLER
RUN .         ONE                  : Run          - RUN NUMBER
ENG .         BILL                 : Engineer     - RECORDING ENGINEER
WIT .         JIM                  : Witness      - WITNESSED BY
MUD .         GEL                  : Mud_type     - MUD TYPE
MATR.         SANDSTONE            : Logunit      - NEUTRON MATRIX
TMAX.C        25.5556              : BHT          - MAXIMUM RECORDED TEMPERATURE
BHTD.M        676.656              : BHTDEP       - MAXIMUM RECORDED TEMPERATURE
MATR.         1                    : LOGUNIT      - NEUTRON MATRIX
RMT .C        25                   : MDTP         - TEMPERATURE OF MUD
NEUT.         1                    : NEUTRON      - NEUTRON TYPE
RESI.         0                    : RESIST       - RESISTIVITY TYPE
RMC .OHMM     0.25                 : RMC          - RESISTIVITY OF MUD CAKE
RMF .OHMM     0.25                 : RMF          - RESISTIVITY OF MUD FILTRATE
SUFT.C        15                   : SUFT         - SURFACE TEMPERATURE
~A  DEPTH       GR     PHID     PHIN     RESD
  304.800   87.848    0.244    0.574    3.114
  305.050   91.186    0.241    0.573    3.208
  305.300   93.272    0.247    0.576    3.296
  305.550   93.964    0.254    0.573    3.291
  305.800   92.045    0.241    0.585    3.290
  306.050   94.105    0.232    0.596    3.282
  306.300   93.922    0.226    0.605    3.235
  306.550   92.755    0.215    0.591    3.162
  306.800   90.059    0.215    0.554    3.236
  307.050   90.129    0.229    0.547    3.275
  307.300   89.177    0.219    0.540    3.360
  307.550   87.201    0.225    0.536    3.355
  307.800   88.016    0.232    0.534    3.360
  308.050   90.148    0.220    0.530    3.270
  308.300   93.153    0.220    0.544    3.237
  308.550   94.505    0.218    0.561    3.175
  308.800   93.546    0.205    0.550    3.200
  309.050   91.556    0.220    0.541    3.350
  309.300   90.155    0.213    0.532    3.558
  309.550   89.430    0.223    0.519    3.690
  309.800   87.533    0.223    0.510    3.807
  310.050   83.908    0.214    0.505    3.762
  310.300   81.742    0.219    0.512    3.611
  310.550   82.170    0.228    0.515    3.488
  310.800   82.908    0.237    0.509    3.531
  311.050   86.031    0.232    0.519    3.966
  311.300   88.749    0.236    0.535    4.510
  311.550   89.168    0.249    0.544    5.380
  311.800   89.058    0.260    0.531    7.056
  312.050   87.913    0.259    0.487    8.465
  312.300   89.243    0.243    0.457   10.211
  312.550   92.201    0.224    0.434   10.815
  312.800   94.612    0.212    0.446   11.250
  313.050   95.142    0.225    0.459   11.977
  313.300   86.663    0.256    0.477   13.329
  313.550   73.156    0.262    0.473   14.652
  313.800   60.543    0.277    0.445   15.712
  314.050   48.778    0.299    0.417   16.474
  314.300   43.925    0.315    0.414   17.491
  314.550   42.356    0.314    0.414   19.163
  314.800   43.187    0.312    0.427   21.207
  315.050   39.725    0.302    0.441   23.260
  315.300   36.539    0.288    0.432   25.155
  315.550   32.573    0.262    0.400   26.025
  315.800   31.116    0.177    0.365   25.514
  316.050   33.689    0.101    0.331   23.699
  316.300   37.185    0.266    0.343   21.411
  316.550   40.840    0.322    0.376   19.825
  316.800   46.405    0.331    0.408   18.771
  317.050   51.257    0.333    0.439   16.949
  317.300   56.155    0.327    0.439   15.401
  317.550   60.099    0.317    0.444   14.560
  317.800   63.163    0.304    0.440   13.458
  318.050   66.719    0.278    0.438   12.874
  318.300   69.264    0.256    0.435   12.198
  318.550   72.787    0.245    0.449   12.429
  318.800   76.686    0.242    0.462   13.031
  319.050   80.737    0.257    0.467   13.574
  319.300   82.455    0.250    0.466   14.135
  319.550   83.058    0.267    0.452   15.065
  319.800   82.226    0.287    0.480   15.669
  320.050   79.901    0.273    0.442   16.328
  320.300   76.871    0.269    0.440   16.817
  320.550   69.970    0.271    0.446   17.176
  320.800   62.719    0.293    0.453   16.624
  321.050   54.335    0.314    0.455   15.815
  321.300   51.831    0.329    0.450   15.370
  321.550   52.429    0.315    0.453   14.923
  321.800   55.385    0.299    0.454   14.605
  322.050   58.274    0.290    0.448   14.628
  322.300   63.251    0.287    0.442   14.599
  322.550   69.844    0.292    0.441   14.796
  322.800   74.963    0.294    0.449   14.613
  323.050   80.030    0.289    0.454   14.377
  323.300   83.955    0.282    0.452   14.080
  323.550   82.905    0.279    0.452   14.111
  323.800   81.714    0.266    0.445   14.743
  324.050   81.730    0.255    0.439   15.306
  324.300   81.806    0.266    0.450   16.607
  324.550   78.876    0.271    0.466   18.035
  324.800   71.249    0.270    0.481   19.401
  325.050   61.211    0.280    0.480   21.009
  325.300   51.859    0.294    0.471   21.666
  325.550   43.494    0.309    0.461   22.845
  325.800   35.644    0.333    0.459   23.137
  326.050   28.931    0.342    0.451   23.680
  326.300   24.753    0.338    0.437   23.151
  326.550   21.505    0.422    0.451   23.178
  326.800   20.025    0.476    0.507   23.182
  327.050   20.783    0.522    0.613   23.173
  327.300   21.691    0.367    0.572   23.641
  327.550   23.353    0.338    0.528   23.613
  327.800   24.911    0.341    0.482   23.606
  328.050   25.560    0.340    0.431   23.372
  328.300   26.856    0.326    0.433   23.193
  328.550   27.849    0.315    0.435   23.221
  328.800   28.744    0.320    0.434   22.728
  329.050   31.181    0.344    0.438   22.772
  329.300   33.533    0.347    0.437   22.777
  329.550   36.806    0.337    0.432   22.782
  329.800   36.282    0.327    0.434   22.785
  330.050   35.561    0.337    0.428   22.493
  330.300   37.097    0.352    0.427   22.384
  330.550   39.220    0.362    0.439   22.376
  330.800   40.545    0.347    0.450   22.421
  331.050   40.459    0.334    0.445   21.936
  331.300   41.034    0.331    0.437   21.979
  331.550   41.285    0.346    0.453   21.969
  331.800   43.081    0.332    0.465   21.931
  332.050   44.565    0.303    0.466   21.570
  332.300   45.526    0.246    0.473   21.613
  332.550   46.501    0.210    0.489   21.165
  332.800   47.479    0.237    0.498   20.506
  333.050   48.427    0.270    0.486   20.352
  333.300   50.035    0.294    0.472   19.706
  333.550   51.562    0.282    0.458   19.514
  333.800   53.064    0.295    0.454   18.998
  334.050   54.129    0.306    0.450   18.676
  334.300   55.479    0.319    0.445   18.496
  334.550   56.770    0.331    0.451   17.883
  334.800   59.288    0.326    0.461   16.809
  335.050   62.022    0.313    0.477   15.664
  335.300   63.984    0.308    0.484   13.289
  335.550   66.402    0.310    0.478   11.174
  335.800   69.964    0.312    0.472    8.833
  336.050   72.826    0.317    0.471    6.905
  336.300   77.000    0.307    0.481    5.638
  336.550   83.246    0.268    0.500    4.961
  336.800   91.012    0.214    0.528    4.560
  337.050  101.879    0.191    0.539    4.652
  337.300  108.733    0.173    0.531    4.957
  337.550  111.089    0.136    0.517    5.616
  337.800  108.274    0.148    0.512    6.458
  338.050  104.479    0.131    0.499    7.628
  338.300  101.427    0.098    0.484    8.991
  338.550  104.463    0.081    0.492   10.400
  338.800  104.786    0.199    0.500   11.471
  339.050  101.428    0.217    0.499   12.799
  339.300   96.399    0.240    0.484   13.566
  339.550   93.000    0.256    0.472   13.695
  339.800   89.239    0.272    0.461   12.713
  340.050   86.913    0.285    0.452   11.761
  340.300   85.311    0.295    0.443   10.625
  340.550   85.834    0.288    0.440    9.731
  340.800   88.657    0.257    0.448    8.971
  341.050   90.607    0.243    0.435    8.712
  341.300   90.877    0.249    0.458    8.751
  341.550   95.706    0.263    0.467    9.036
  341.800   97.861    0.258    0.465   10.100
  342.050  101.037    0.244    0.461   10.995
  342.300   90.669    0.237    0.473   12.317
  342.550   75.769    0.259    0.477   13.627
  342.800   65.616    0.295    0.470   15.731
  343.050   57.811    0.313    0.455   17.389
  343.300   55.545    0.326    0.456   18.502
  343.550   54.782    0.314    0.463   19.182
  343.800   56.437    0.318    0.465   19.442
  344.050   59.052    0.324    0.467   19.338
  344.300   61.581    0.328    0.467   17.905
  344.550   64.584    0.322    0.457   15.849
  344.800   67.429    0.311    0.438   14.250
  345.050   71.753    0.291    0.424   11.968
  345.300   78.075    0.257    0.422   10.796
  345.550   83.589    0.225    0.435    9.691
  345.800   87.625    0.227    0.450    9.346
  346.050   87.213    0.245    0.462    9.583
  346.300   86.061    0.240    0.474    9.994
  346.550   84.670    0.233    0.490   10.241
  346.800   81.177    0.241    0.495   10.790
  347.050   82.168    0.211    0.501   10.856
  347.300   82.446    0.190    0.496   11.221
  347.550   80.218    0.234    0.476   11.255
  347.800   77.301    0.230    0.465   11.024
  348.050   76.281    0.212    0.489   10.888
