~VERSION INFORMATION
 VERS.                 2.0:   CWLS LOG ASCII STANDARD -VERSION 2.0
 WRAP.                  NO:   ONE LINE PER DEPTH STEP
~WELL INFORMATION BLOCK
#MNEM.UNIT           DATA                    DESCRIPTION OF MNEMONIC
#---------    -------------------            -------------------------------
# Generated from Intellog Unique Number	CS_73_76/WELL/3226
WELL.         PRECABRIAMN SHIELD RESOURC     : Well_name    - WELL
LOC .         00/08-36-076-10W4/0            : Location     - LOCATION
UWI .         00/08-36-076-10W4/0            : Uwi          - UNIQUE WELL ID
ENTR.         SP                             : Entered      - ENTERED BY
SRVC.         SCHLUMBERGER                   : Scn          - SERVICE COMPANY
STRT.M        225                            : top_depth    - START DEPTH
STOP.M        440                            : bot_depth    - STOP DEPTH
STEP.M        0.25                           : increment    - STEP LENGTH
 NULL. -999.2500:NULL Value
~CURVE INFORMATION BLOCK
#MNEM UNIT       ERCB CURVE CODE    CURVE DESCRIPTION
#-----------   ------------------   ----------------------------------
DEPT.M        00 001 00 00         : DEPTH        - DEPTH
GR  .API      00 310 00 00         : GR           - GAMMA RAY
DPHI.V/V      00 890 00 00         : PHID         - DENSITY POROSITY (LIMESTONE)
NPHI.V/V      00 330 00 00         : PHIN         - NEUTRON POROSITY (LIMESTONE)
ILD .OHMM     00 120 00 00         : RESD         - DEEP RESISTIVITY (DIL)
~PARAMETER INFORMATION
#MNEM.UNIT           DATA             DESCRIPTION OF MNEMONIC
#---------         -----------     ------------------------------
GL  .M        639.1                : gl           - GROUND LEVEL ELEVATION
EREF.M        642.6                : kb           - ELEVATION OF DEPTH REFERENCE
DATM.M        639.1                : datum        - DATUM ELEVATION
TDD .M        454                  : tdd          - TOTAL DEPTH DRILLER
RUN .         ONE                  : Run          - RUN NUMBER
ENG .         BILL                 : Engineer     - RECORDING ENGINEER
WIT .         JIM                  : Witness      - WITNESSED BY
MUD .         GEL                  : Mud_type     - MUD TYPE
MATR.         LIMESTONE            : Logunit      - NEUTRON MATRIX
TMAX.C        60                   : BHT          - MAXIMUM RECORDED TEMPERATURE
BHTD.M        2072                 : BHTDEP       - MAXIMUM RECORDED TEMPERATURE
MATR.         1                    : LOGUNIT      - NEUTRON MATRIX
RMT .C        25                   : MDTP         - TEMPERATURE OF MUD
NEUT.         1                    : NEUTRON      - NEUTRON TYPE
RESI.         0                    : RESIST       - RESISTIVITY TYPE
RMC .OHMM     0.25                 : RMC          - RESISTIVITY OF MUD CAKE
RMF .OHMM     0.25                 : RMF          - RESISTIVITY OF MUD FILTRATE
SUFT.C        15                   : SUFT         - SURFACE TEMPERATURE
~A  DEPTH       GR     PHID     PHIN     RESD
# ...
  355.500   51.548    0.360    0.408    7.343
  355.750   52.799    0.355    0.401    8.212
  356.000   52.814    0.352    0.391    8.525
  356.250   52.844    0.345    0.326    9.185
  356.500   52.854    0.216    0.288   10.664
  356.750   48.589    0.055    0.243   11.278
  357.000   46.782    0.061    0.211   11.490
  357.250   48.022    0.223    0.223   10.864
  357.500   52.334    0.276    0.310    9.712
  357.750   54.798    0.336    0.374    8.682
  358.000   58.497    0.348    0.362    8.209
  358.250   58.517    0.347    0.357    7.477
  358.500   57.925    0.347    0.363    7.203
  358.750   57.337    0.346    0.373    6.810
  359.000   57.966    0.346    0.382    6.810
  359.250   60.436    0.352    0.380    6.684
  359.500   59.846    0.363    0.375    6.683
  359.750   57.418    0.365    0.379    6.683
  360.000   60.502    0.364    0.387    6.683
  360.250   61.138    0.361    0.391    6.683
  360.500   56.260    0.357    0.394    6.682
  360.750   56.281    0.357    0.400    6.682
  361.000   56.912    0.359    0.398    6.682
  361.250   56.936    0.360    0.384    6.682
  361.500   58.188    0.352    0.392    6.681
  361.750   58.812    0.350    0.418    6.557
  362.000   58.222    0.355    0.406    6.557
  362.250   55.182    0.365    0.379    6.436
  362.500   52.147    0.364    0.376    6.085
  362.750   50.940    0.357    0.388    5.753
  363.000   55.245    0.354    0.393    5.753
  363.250   55.880    0.350    0.400    5.861
  363.500   57.744    0.348    0.394    6.084
  363.750   58.990    0.349    0.384    6.315
  364.000   55.336    0.350    0.376    6.434
  364.250   54.742    0.361    0.369    6.554
  364.500   54.768    0.364    0.367    6.554
  364.750   54.787    0.352    0.368    6.433
  365.000   54.194    0.349    0.373    6.432
  365.250   54.831    0.352    0.384    6.313
  365.500   56.074    0.355    0.380    6.196
  365.750   57.931    0.351    0.374    6.081
  366.000   59.787    0.347    0.381    6.081
  366.250   62.258    0.345    0.424    6.081
  366.500   63.504    0.340    0.420    6.080
  366.750   62.913    0.343    0.399    6.195
  367.000   58.035    0.362    0.395    6.194
  367.250   54.386    0.368    0.397    6.194
  367.500   55.018    0.368    0.394    6.194
  367.750   59.333    0.365    0.385    6.194
  368.000   61.182    0.365    0.366    6.193
  368.250   58.755    0.368    0.366    6.193
  368.500   59.392    0.368    0.368    6.193
  368.750   60.024    0.366    0.377    6.193
  369.000   58.208    0.361    0.383    6.192
  369.250   58.841    0.356    0.388    6.192
  369.500   59.477    0.353    0.389    6.192
  369.750   58.883    0.359    0.384    6.192
  370.000   60.745    0.365    0.378    6.191
  370.250   62.603    0.359    0.372    6.191
  370.500   62.623    0.350    0.372    6.191
  370.750   61.421    0.354    0.381    6.307
  371.000   58.994    0.359    0.385    6.307
  371.250   58.403    0.365    0.381    6.307
  371.500   59.033    0.361    0.365    6.306
  371.750   63.340    0.352    0.365    6.306
  372.000   67.647    0.345    0.377    6.306
  372.250   64.608    0.338    0.377    6.306
  372.500   60.959    0.334    0.382    6.305
  372.750   59.140    0.332    0.406    6.305
  373.000   58.548    0.328    0.424    6.305
  373.250   59.793    0.332    0.417    6.188
  373.500   57.373    0.345    0.392    6.188
  373.750   58.004    0.370    0.394    6.187
  374.000   59.868    0.368    0.397    6.187
  374.250   61.105    0.359    0.414    6.187
  374.500   64.802    0.346    0.440    6.187
  374.750   70.947    0.336    0.434    6.186
  375.000   77.087    0.345    0.401    6.186
  375.250   87.516    0.339    0.399    6.186
  375.500   93.051    0.332    0.405    6.302
  375.750   90.009    0.324    0.404    6.302
  376.000   83.905    0.320    0.407    6.420
  376.250   76.582    0.319    0.421    6.420
  376.500   71.092    0.309    0.404    6.420
  376.750   72.954    0.297    0.381    6.419
  377.000   75.419    0.292    0.403    6.419
  377.250   72.995    0.296    0.421    6.419
  377.500   70.571    0.305    0.403    6.539
  377.750   75.490    0.300    0.393    6.539
  378.000   78.567    0.287    0.386    6.539
  378.250   77.369    0.278    0.382    6.539
  378.500   76.166    0.266    0.379    6.538
  378.750   73.732    0.261    0.377    6.538
  379.000   71.917    0.275    0.377    6.538
  379.250   71.327    0.305    0.384    6.537
  379.500   70.125    0.315    0.379    6.537
  379.750   67.083    0.278    0.372    6.537
  380.000   67.717    0.238    0.362    6.537
  380.250   70.192    0.203    0.363    6.536
  380.500   71.442    0.225    0.382    6.415
  380.750   73.912    0.268    0.397    6.296
  381.000   75.149    0.252    0.402    6.065
  381.250   78.238    0.234    0.406    5.843
  381.500   80.704    0.229    0.417    5.422
  381.750   83.787    0.241    0.402    5.223
  382.000   87.488    0.250    0.395    4.938
  382.250   90.567    0.256    0.408    4.847
  382.500   92.421    0.260    0.519    4.757
  382.750   95.508    0.264    0.537    4.669
  383.000   96.139    0.267    0.517    4.757
  383.250   94.334    0.259    0.447    4.937
  383.500   93.123    0.245    0.419    5.320
  383.750   90.080    0.235    0.419    5.626
  384.000   88.876    0.235    0.405    5.950
  384.250   90.130    0.237    0.387    6.062
  384.500   89.529    0.232    0.377    6.292
  384.750   87.721    0.228    0.383    6.292
  385.000   88.350    0.226    0.381    6.175
  385.250   91.437    0.225    0.373    5.949
  385.500   92.678    0.227    0.372    5.838
  385.750   89.635    0.248    0.405    5.520
  386.000   84.761    0.271    0.414    5.123
  386.250   78.659    0.263    0.429    4.754
  386.500   80.519    0.256    0.502    4.171
  386.750   88.500    0.252    0.518    3.660
  387.000   92.804    0.272    0.536    3.212
  387.250   84.258    0.290    0.579    2.818
  387.500   79.378    0.296    0.646    2.615
  387.750   78.175    0.294    0.705    2.427
  388.000   80.032    0.307    0.675    2.338
  388.250   77.610    0.316    0.638    2.338
  388.500   77.015    0.327    0.612    2.338
  388.750   78.878    0.329    0.568    2.382
  389.000   78.892    0.327    0.557    2.381
  389.250   75.854    0.325    0.581    2.426
  389.500   77.721    0.321    0.591    2.426
  389.750   79.572    0.312    0.552    2.472
  390.000   83.277    0.301    0.521    2.518
  390.250   84.511    0.280    0.549    2.614
  390.500   83.921    0.258    0.518    2.764
  390.750   82.104    0.245    0.479    3.035
  391.000   82.739    0.225    0.443    3.458
  391.250   85.827    0.218    0.416    3.796
  391.500   87.690    0.214    0.404    4.168
  391.750   88.313    0.213    0.400    4.575
  392.000   87.725    0.207    0.397    5.023
  392.250   84.071    0.195    0.388    5.412
  392.500   77.361    0.140    0.375    5.514
  392.750   74.926    0.106    0.391    5.412
  393.000   79.235    0.181    0.402    5.213
  393.250   84.154    0.201    0.399    5.022
  393.500   87.237    0.214    0.397    4.574
  393.750   90.320    0.221    0.401    4.406
  394.000   90.340    0.225    0.405    4.166
  394.250   90.363    0.230    0.420    4.013
  394.500   90.995    0.236    0.454    4.013
  394.750   94.702    0.243    0.482    3.866
  395.000   96.552    0.249    0.480    3.865
  395.250   97.794    0.254    0.460    3.865
  395.500   94.757    0.260    0.444    3.794
  395.750   92.328    0.251    0.445    3.793
  396.000   94.802    0.245    0.438    3.793
  396.250   97.269    0.244    0.425    3.793
  396.500   91.782    0.248    0.416    3.723
  396.750   88.127    0.233    0.412    3.723
  397.000   86.923    0.222    0.420    3.722
  397.250   88.783    0.220    0.439    3.722
  397.500   93.096    0.226    0.439    3.722
  397.750   95.565    0.241    0.462    3.653
  398.000   96.804    0.256    0.520    3.653
  398.250   94.988    0.260    0.543    3.722
  398.500   93.785    0.260    0.532    3.936
  398.750   93.811    0.258    0.503    4.086
