~VERSION INFORMATION
 VERS.                 2.0:   CWLS LOG ASCII STANDARD -VERSION 2.0
 WRAP.                  NO:   ONE LINE PER DEPTH STEP
~WELL INFORMATION BLOCK
#MNEM.UNIT           DATA                    DESCRIPTION OF MNEMONIC
#---------    -------------------            -------------------------------
# Generated from Intellog Unique Number	CC_80_83/WELL/2307
NULL.         -999.25                        : NULL_VALUE
WELL.         ICGR CDN OXY NEWBY             : Well_name    - WELL
LOC .         07-34-081-05W4                 : Location     - LOCATION          
UWI .         00/07-34-081-05W4/0            : Uwi          - UNIQUE WELL ID    
ENTR.         DW                             : Entered      - ENTERED BY        
SRVC.         SCHLUMBERGER                   : Scn          - SERVICE COMPANY   
DATE.         29 JAN 86                      : Date         - LOG DATE
STRT.M        100                            : top_depth    - START DEPTH       
STOP.M        280.001                        : bot_depth    - STOP DEPTH        
STEP.M        0.3                            : increment    - STEP LENGTH       
~CURVE INFORMATION BLOCK
#MNEM UNIT       ERCB CURVE CODE    CURVE DESCRIPTION
#-----------   ------------------   ----------------------------------
DEPT.M        00 001 00 00         : DEPTH        - DEPTH                       
DPHI.V/V      00 890 00 00         : PHID         - DENSITY POROSITY (LIMESTONE)
NPHI.V/V      00 330 00 00         : PHIN         - NEUTRON POROSITY (LIMESTONE)
GR  .API      00 310 00 00         : GR           - GAMMA RAY                   
ILD .OHMM     00 120 00 00         : RESD         - DEEP RESISTIVITY (DIL)      
~PARAMETER INFORMATION       
#MNEM.UNIT           DATA             DESCRIPTION OF MNEMONIC
#---------         -----------     ------------------------------
GL  .M        469                  : gl           - GROUND LEVEL ELEVATION      
EREF.M        472                  : kb           - ELEVATION OF DEPTH REFERENCE
DATM.M        472                  : datum        - DATUM ELEVATION             
TDD .M        289                  : tdd          - TOTAL DEPTH DRILLER         
RUN .         ONE                  : Run          - RUN NUMBER                  
ENG .         BILL                 : Engineer     - RECORDING ENGINEER          
WIT .         JIM                  : Witness      - WITNESSED BY                
MUD .         GEL                  : Mud_type     - MUD TYPE                    
MATR.         LIMESTONE            : Logunit      - NEUTRON MATRIX              
TMAX.C        21                   : BHT          - MAXIMUM RECORDED TEMPERATURE
BHTD.M        288                  : BHTDEP       - MAXIMUM RECORDED TEMPERATURE
MATR.         1                    : LOGUNIT      - NEUTRON MATRIX              
RMT .C        25                   : MDTP         - TEMPERATURE OF MUD          
NEUT.         1                    : NEUTRON      - NEUTRON TYPE                
RESI.         0                    : RESIST       - RESISTIVITY TYPE            
RMC .OHMM     0.25                 : RMC          - RESISTIVITY OF MUD CAKE     
RMF .OHMM     0.25                 : RMF          - RESISTIVITY OF MUD FILTRATE 
SUFT.C        15                   : SUFT         - SURFACE TEMPERATURE         
~A  DEPTH     PHID     PHIN       GR     RESD
  100.000    0.338    0.448   60.178   24.034
  100.300    0.344    0.436   57.085   23.140
  100.600    0.349    0.430   50.901   22.706
  100.900    0.346    0.428   44.100   22.280
  101.200    0.338    0.416   42.238   21.452
  101.500    0.346    0.409   37.906   20.654
  101.800    0.378    0.422   39.752   19.513
  102.100    0.337    0.422   55.180   19.147
  102.400    0.341    0.437   60.109   18.090
  102.700    0.348    0.432   54.544   18.089
  103.000    0.353    0.421   56.385   18.434
  103.300    0.350    0.429   56.994   18.786
  103.600    0.343    0.451   56.368   18.785
  103.900    0.341    0.466   53.274   19.143
  104.200    0.340    0.452   49.561   19.509
  104.500    0.337    0.435   55.108   19.881
  104.800    0.339    0.431   60.038   18.783
  105.100    0.334    0.458   61.882   18.085
  105.400    0.303    0.478   60.638   17.412
  105.700    0.126    0.271   53.838   19.506
  106.000    0.186    0.244   45.186   22.693
  106.300    0.242    0.361   37.768   26.402
  106.600    0.281    0.439   32.201   27.944
  106.900    0.434    0.440   28.487   26.905
  107.200    0.370    0.434   32.801   23.124
  107.500    0.342    0.434   52.551   21.847
  107.800    0.335    0.437   59.952   20.641
  108.100    0.344    0.442   61.178   19.135
  108.400    0.336    0.440   59.318   18.776
  108.700    0.325    0.438   64.248   19.134
  109.000    0.330    0.435   68.560   19.133
  109.300    0.349    0.435   68.553   19.498
  109.600    0.352    0.443   62.985   16.444
  109.900    0.318    0.465   63.596   14.133
  110.200    0.288    0.514   71.613   11.050
  110.500    0.291    0.527   70.988    8.640
  110.800    0.333    0.454   60.481   10.052
  111.100    0.353    0.462   52.443   11.695
  111.400    0.348    0.471   50.584   14.131
  111.700    0.327    0.469   55.514   16.440
  112.000    0.250    0.467   61.681   16.440
  112.300    0.246    0.459   63.525   16.753
  112.600    0.287    0.453   60.427   16.439
  112.900    0.329    0.480   58.568   16.130
  113.200    0.343    0.464   59.176   15.239
  113.500    0.348    0.456   64.721   15.239
  113.800    0.338    0.453   66.569   15.530
  114.100    0.306    0.445   70.263   14.397
  114.400    0.274    0.447   73.962   11.257
  114.700    0.284    0.498   77.656    9.315
  115.000    0.302    0.487   78.882    8.474
  115.300    0.286    0.447   78.255    7.422
  115.600    0.249    0.455   91.215    6.625
  115.900    0.243    0.496  109.730    6.259
  116.200    0.247    0.521  113.424    5.483
  116.500    0.248    0.497  113.415    4.894
  116.800    0.241    0.487  109.087    4.452
  117.100    0.245    0.504  102.286    4.050
  117.400    0.255    0.516  107.215    3.754
  117.700    0.270    0.563  107.823    3.754
  118.000    0.273    0.548  106.581    3.615
  118.300    0.268    0.542  104.718    3.480
  118.600    0.269    0.583  103.475    3.415
  118.900    0.274    0.589  101.614    3.351
  119.200    0.262    0.504   98.517    3.351
  119.500    0.254    0.536  100.979    3.351
  119.800    0.268    0.554  105.911    3.480
  120.100    0.264    0.551  106.519    3.614
  120.400    0.257    0.520   98.483    3.898
  120.700    0.242    0.484   95.388    4.892
  121.000    0.244    0.512  100.317    5.080
  121.300    0.235    0.525  101.544    4.710
  121.600    0.231    0.530   99.066    4.204
  121.900    0.237    0.562   96.586    3.753
  122.200    0.246    0.585   98.429    3.414
  122.500    0.267    0.532   98.421    3.287
  122.800    0.273    0.520   97.179    3.105
  123.100    0.279    0.574   99.023    2.990
  123.400    0.280    0.566   99.632    2.934
  123.700    0.279    0.595   96.535    2.934
  124.000    0.277    0.605   85.412    2.990
  124.300    0.276    0.583   78.610    3.286
  124.600    0.274    0.510   71.191    3.971
  124.900    0.276    0.493   65.009    5.375
  125.200    0.284    0.481   56.974    7.415
  125.500    0.326    0.457   50.173   10.424
  125.800    0.352    0.430   52.014   12.595
  126.100    0.360    0.378   52.623   14.109
  126.400    0.345    0.383   48.911   14.933
  126.700    0.339    0.403   42.728   15.218
  127.000    0.340    0.405   43.954   15.217
  127.300    0.340    0.404   48.884   14.931
  127.600    0.336    0.428   52.581   14.651
  127.900    0.335    0.414   54.426   14.650
  128.200    0.342    0.417   45.771   14.376
  128.500    0.352    0.412   46.379   14.105
  128.800    0.339    0.399   50.072   14.374
  129.100    0.319    0.396   50.686   14.374
  129.400    0.340    0.430   51.294   14.373
  129.700    0.355    0.450   51.284   14.373
  130.000    0.346    0.431   51.895   14.373
  130.300    0.341    0.414   51.884   14.103
  130.600    0.345    0.412   51.258   14.102
  130.900    0.345    0.419   48.776   14.371
  131.200    0.335    0.422   47.536   14.371
  131.500    0.333    0.417   48.761   14.370
  131.800    0.343    0.422   49.989   14.101
  132.100    0.345    0.427   49.980   14.100
  132.400    0.338    0.433   52.440   14.100
  132.700    0.343    0.425   53.049   13.835
  133.000    0.325    0.425   53.659   13.575
  133.300    0.309    0.423   52.414   13.834
  133.600    0.307    0.422   50.554   13.834
  133.900    0.345    0.447   47.455   13.833
  134.200    0.355    0.435   49.298   13.832
  134.500    0.354    0.423   52.996   13.832
  134.800    0.354    0.412   58.542   13.832
  135.100    0.354    0.449   57.300   13.832
  135.400    0.350    0.433   52.971   13.572
  135.700    0.340    0.417   50.492   13.571
  136.000    0.355    0.424   56.656   13.316
  136.300    0.359    0.441   58.502   13.316
  136.600    0.347    0.450   52.317   13.315
  136.900    0.338    0.443   52.310   13.315
  137.200    0.331    0.417   54.150   13.315
  137.500    0.334    0.410   52.908   13.569
  137.800    0.338    0.418   52.902   13.568
  138.100    0.344    0.432   57.830   13.568
  138.400    0.348    0.422   59.674   13.313
  138.700    0.342    0.413   55.344   13.312
  139.000    0.337    0.425   50.396   13.312
  139.300    0.335    0.443   49.150   13.062
  139.600    0.332    0.438   56.550   13.062
  139.900    0.337    0.435   57.778   13.061
  140.200    0.353    0.441   54.065   13.061
  140.500    0.363    0.444   49.732   13.310
  140.800    0.372    0.446   47.873   13.310
  141.100    0.361    0.420   52.187   13.059
  141.400    0.347    0.421   54.648   13.059
  141.700    0.346    0.449   54.020   13.059
  142.000    0.349    0.438   53.394   12.813
  142.300    0.348    0.408   51.534   12.813
  142.600    0.342    0.429   52.143   12.573
  142.900    0.333    0.432   58.308   12.572
  143.200    0.334    0.404   58.298   12.336
  143.500    0.337    0.415   56.439   12.105
  143.800    0.340    0.452   55.194   11.011
  144.100    0.341    0.421   53.950   10.804
  144.400    0.339    0.409   53.940   11.011
  144.700    0.341    0.409   53.934   11.221
  145.000    0.361    0.458   55.775   11.876
  145.300    0.362    0.446   57.000   12.102
  145.600    0.353    0.418   58.230   12.102
  145.900    0.351    0.408   58.839   11.652
  146.200    0.339    0.410   56.977   11.652
  146.500    0.309    0.435   53.878   11.218
  146.800    0.353    0.440   53.255   10.801
  147.100    0.363    0.421   54.479   10.599
  147.400    0.354    0.451   54.470   10.400
  147.700    0.354    0.470   53.846   10.800
  148.000    0.357    0.407   53.836   10.800
  148.300    0.359    0.423   54.446   11.006
  148.600    0.360    0.449   53.816   11.006
  148.900    0.354    0.426   53.194   10.799
  149.201    0.349    0.417   53.799   10.596
  149.501    0.347    0.443   54.412   10.596
  149.801    0.367    0.462   54.402   10.798
  150.101    0.380    0.502   56.864   11.004
  150.401    0.367    0.441   53.766   11.004
  150.701    0.341    0.440   51.288   11.003
  151.001    0.335    0.436   56.218   11.003
  151.301    0.351    0.435   57.445   10.796
  151.601    0.334    0.440   59.286   10.796
  151.901    0.333    0.441   61.133   10.395
