~VERSION INFORMATION
 VERS.                 2.0:   CWLS LOG ASCII STANDARD -VERSION 2.0
 WRAP.                  NO:   ONE LINE PER DEPTH STEP
~WELL INFORMATION BLOCK
#MNEM.UNIT           DATA                    DESCRIPTION OF MNEMONIC
#---------    -------------------            -------------------------------
# Generated from Intellog Unique Number	CW_79_81/WELL/591
NULL.         -999.25                        : NULL_VALUE
COMP .        INTERCITY GAS CORPORATION      :  COMPANY
WELL.         HOMESTEAD ET AL WEAVER         : Well_name    - WELL              
LOC .         07-21-080-01W5                 : Location     - LOCATION          
UWI .         00/07-21-080-01W5/0            : Uwi          - UNIQUE WELL ID    
ENTR.         MAX                            : Entered      - ENTERED BY        
SRVC.         SCHLUMBERGER                   : Scn          - SERVICE COMPANY   
DATE.         24 NOV 77                      : Date         - LOG DATE
STRT.M        225                            : top_depth    - START DEPTH       
STOP.M        490                            : bot_depth    - STOP DEPTH        
STEP.M        0.25                           : increment    - STEP LENGTH       
~CURVE INFORMATION BLOCK
#MNEM UNIT       ERCB CURVE CODE    CURVE DESCRIPTION
#-----------   ------------------   ----------------------------------
DEPT.M        00 001 00 00         : DEPTH        - DEPTH                       
ILD .OHMM     00 120 00 00         : RESD         - DEEP RESISTIVITY (DIL)      
NPHI.V/V      00 330 00 00         : PHIN         - NEUTRON POROSITY (SANDSTONE)
DPHI.V/V      00 890 00 00         : PHID         - DENSITY POROSITY (SANDSTONE)
CALI.MM       00 280 01 00         : CAL          - CALIPER                     
GR  .API      00 310 00 00         : GR           - GAMMA RAY                   
~PARAMETER INFORMATION       
#MNEM.UNIT           DATA             DESCRIPTION OF MNEMONIC
#---------         -----------     ------------------------------
GL  .M        570.6                : gl           - GROUND LEVEL ELEVATION      
EREF.M        574.3                : kb           - ELEVATION OF DEPTH REFERENCE
DATM.M        570.6                : datum        - DATUM ELEVATION             
TDD .M        512                  : tdd          - TOTAL DEPTH DRILLER         
RUN .         ONE                  : Run          - RUN NUMBER                  
ENG .         BILL                 : Engineer     - RECORDING ENGINEER          
WIT .         JIM                  : Witness      - WITNESSED BY                
MUD .         GEL                  : Mud_type     - MUD TYPE                    
MATR.         SANDSTONE            : Logunit      - NEUTRON MATRIX              
TMAX.C        36.3                 : BHT          - MAXIMUM RECORDED TEMPERATURE
BHTD.M        512                  : BHTDEP       - MAXIMUM RECORDED TEMPERATURE
RMT .C        17.5                 : MDTP         - TEMPERATURE OF MUD          
MUDD.KG/M     1120                 : MWT          - MUD DENSITY                 
NEUT.         1                    : NEUTRON      - NEUTRON TYPE                
RESI.         0                    : RESIST       - RESISTIVITY TYPE            
RM  .OHMM     16.4                 : RM           - RESISTIVITY OF MUD          
RMC .OHMM     0.25                 : RMC          - RESISTIVITY OF MUD CAKE     
RMF .OHMM     12.3                 : RMF          - RESISTIVITY OF MUD FILTRATE 
SUFT.C        4                    : SUFT         - SURFACE TEMPERATURE         
~A  DEPTH     RESD     PHIN     PHID      CAL       GR
# ...
  261.500   46.530    0.278    0.198  186.591   32.424
  261.750   44.883    0.268    0.186  185.619   33.650
  262.000   42.510    0.268    0.194  185.150   34.878
  262.250   40.988    0.280    0.213  182.662   36.411
  262.500   38.451    0.292    0.222  180.174   37.639
  262.750   35.408    0.302    0.226  179.697   37.353
  263.000   32.615    0.299    0.243  179.225   37.977
  263.250   30.878    0.322    0.268  172.706   40.417
  263.500   28.442    0.362    0.277  169.210   42.852
  263.750   26.923    0.374    0.296  167.729   46.201
  264.000   25.257    0.385    0.309  165.749   48.636
  264.250   23.475    0.408    0.323  164.269   51.376
  264.500   21.420    0.424    0.314  163.292   55.327
  264.750   19.725    0.435    0.302  162.820   57.765
  265.000   18.677    0.446    0.288  162.855   57.486
  265.250   18.353    0.464    0.282  162.886   57.500
  265.500   18.201    0.482    0.304  163.429   62.661
  265.750   18.398    0.464    0.302  163.449   64.794
  266.000   18.759    0.442    0.306  163.484   65.719
  266.250   18.954    0.439    0.314  163.516   64.227
  266.500   19.157    0.463    0.313  163.039   61.525
  266.750   19.535    0.467    0.322  163.075   57.918
  267.000   19.738    0.463    0.321  163.106   53.399
  267.250   19.947    0.456    0.321  163.137   48.885
  267.500   20.155    0.454    0.316  163.680   47.997
  267.750   20.365    0.457    0.309  163.708   46.807
  268.000   20.575    0.458    0.295  163.739   45.618
  268.250   20.792    0.457    0.293  163.767   45.940
  268.500   21.009    0.452    0.311  163.802   46.863
  268.750   21.228    0.441    0.316  163.837   46.580
  269.000   21.456    0.435    0.308  163.365   45.694
  269.250   21.677    0.447    0.303  162.892   46.317
  269.500   21.697    0.448    0.311  162.923   46.031
  269.750   22.134    0.451    0.321  162.951   45.752
  270.000   22.365    0.450    0.319  162.982   46.678
  270.250   22.595    0.442    0.319  163.013   50.325
  270.500   22.831    0.441    0.314  163.049   53.367
  270.750   23.287    0.443    0.309  163.088   53.386
  271.000   23.533    0.447    0.306  164.119   52.196
  271.250   23.562    0.448    0.305  164.151   51.007
  271.500   23.582    0.441    0.310  164.182   51.633
  271.750   23.611    0.435    0.308  163.217   53.161
  272.000   23.633    0.440    0.307  162.229   54.089
  272.250   23.662    0.445    0.304  161.257   55.615
  272.500   23.473    0.463    0.297  161.288   57.448
  272.750   23.495    0.455    0.289  162.327   59.583
  273.000   23.521    0.458    0.287  162.862   61.121
  273.250   23.547    0.454    0.284  163.905   60.837
  273.500   23.795    0.453    0.288  164.444   59.644
  273.750   24.494    0.449    0.283  164.468   58.151
  274.000   26.167    0.430    0.273  164.499   56.359
  274.250   27.190    0.405    0.255  163.531   54.563
  274.500   27.220    0.372    0.239  161.547   53.066
  274.750   27.002    0.364    0.307  160.066   51.273
  275.000   26.530    0.416    0.316  159.590   51.897
  275.250   25.834    0.441    0.313  160.633   55.241
  275.500   25.619    0.455    0.297  160.668   56.771
  275.750   25.651    0.457    0.297  159.188   61.325
  276.000   25.679    0.462    0.302  158.215   66.181
  276.250   25.704    0.464    0.306  158.747   71.040
  276.500   25.501    0.455    0.301  159.274   76.501
  276.750   25.529    0.463    0.291  160.313   91.636
  277.000   25.792    0.479    0.292  160.352  100.727
  277.250   26.556    0.479    0.289  160.380  106.490
  277.500   27.583    0.464    0.255  160.415  113.765
  277.750   30.586    0.445    0.174  160.950  121.345
  278.000   36.526    0.427    0.051  160.978  115.617
  278.250   38.665    0.334    0.006  161.513  104.147
  278.500   37.645    0.231    0.031  161.544  102.352
  278.750   33.093    0.238    0.096  162.587  112.048
  279.000   29.637    0.308    0.215  163.126  120.229
  279.250   27.550    0.379    0.238  163.162  128.714
  279.500   26.326    0.444    0.250  163.189  127.830
  279.750   25.634    0.454    0.250  163.217  120.291
  280.000   25.659    0.458    0.255  162.748  113.958
  280.250   25.690    0.466    0.256  162.779  111.556
  280.500   24.097    0.475    0.263  162.807  107.947
  280.750   18.775    0.485    0.294  162.334   99.500
  281.000   13.457    0.483    0.285  162.370   83.800
  281.250   11.615    0.490    0.283  161.909   81.095
  281.500   11.204    0.525    0.257  161.424   74.463
  281.750   11.637    0.532    0.263  160.448   66.621
  282.000   12.903    0.495    0.247  159.983   55.758
  282.250   16.603    0.479    0.297  159.507   57.289
  282.500   18.064    0.463    0.311  159.030   59.424
  282.750   19.660    0.457    0.298  158.558   59.745
  283.000   17.444    0.439    0.281  158.589   56.738
  283.250   13.591    0.412    0.264  158.125   54.036
  283.500   11.513    0.397    0.254  158.156   56.478
  283.750    9.310    0.420    0.261  158.695   59.823
  284.000    6.550    0.449    0.280  160.234   65.583
  284.250    5.497    0.460    0.253  163.289   68.928
  284.500    4.970    0.451    0.240  169.871   71.972
  284.750    5.212    0.472    0.230  177.464   75.921
  285.000    5.619    0.490    0.276  172.957   70.498
  285.250    7.094    0.472    0.304  164.422   59.331
  285.500    8.874    0.447    0.301  161.430   51.184
  285.750   11.522    0.438    0.302  162.469   49.391
  286.000   13.633    0.433    0.299  164.016   49.108
  286.250   14.296    0.424    0.302  163.544   49.734
  286.500   12.222    0.425    0.297  162.563   51.262
  286.750   11.682    0.437    0.300  161.083   52.797
  287.000   11.589    0.444    0.298  160.614   53.116
  287.250   11.281    0.438    0.293  160.646   54.946
  287.500   10.292    0.439    0.293  161.189   57.084
  287.750   10.022    0.438    0.301  161.716   58.010
  288.000   10.127    0.439    0.282  162.259   61.356
  288.250   10.521    0.437    0.301  162.790   61.675
  288.500   11.137    0.431    0.301  162.826   57.161
  288.750   11.900    0.435    0.301  162.857   58.692
  289.000   12.360    0.451    0.298  162.881   62.336
  289.250   12.259    0.443    0.301  163.424   65.990
  289.500   10.877    0.434    0.298  166.474   68.121
  289.750    8.475    0.433    0.283  169.529   71.767
  290.000    6.131    0.435    0.274  174.099   79.647
  290.250    5.542    0.459    0.250  180.177   87.529
  290.500    5.296    0.455    0.233  188.783   90.269
  290.750    5.255    0.450    0.230  186.291   90.290
  291.000    5.260    0.447    0.229  181.787   91.818
  291.250    5.315    0.450    0.226  178.295   90.330
  291.500    5.321    0.452    0.233  177.823   92.765
  291.750    5.327    0.447    0.256  177.342   94.902
  292.000    5.235    0.446    0.251  177.374   94.619
  292.250    5.143    0.447    0.244  177.409   96.454
  292.500    5.054    0.442    0.254  177.944   98.284
  292.750    4.831    0.453    0.251  179.487   98.303
  293.000    4.659    0.463    0.248  180.026   97.715
  293.250    4.579    0.474    0.242  179.554   95.317
  293.500    4.585    0.472    0.240  179.085   93.520
  293.750    4.422    0.472    0.244  180.124   93.243
  294.000    4.035    0.480    0.245  181.663   93.862
  294.250    3.750    0.506    0.249  182.199   95.395
  294.500    3.686    0.528    0.262  180.214   95.412
  294.750    3.655    0.542    0.283  174.699   94.526
  295.000    3.659    0.517    0.280  168.684   87.588
  295.250    3.873    0.454    0.286  161.161   81.863
  295.500    4.457    0.457    0.292  159.688   80.370
  295.750    5.129    0.472    0.282  160.216   78.275
  296.000    5.230    0.472    0.290  160.247   77.387
  296.250    5.854    0.478    0.297  159.274   75.289
  296.500    6.370    0.481    0.296  158.798   73.494
  296.750    6.999    0.470    0.304  158.329   71.697
  297.000    7.687    0.481    0.319  158.361   69.904
  297.250    8.526    0.478    0.312  158.388   67.201
  297.500    8.858    0.482    0.299  161.954   64.804
  297.750    9.464    0.480    0.286  162.990   65.425
