~VERSION INFORMATION
 VERS.                 2.0:   CWLS LOG ASCII STANDARD -VERSION 2.0
 WRAP.                  NO:   ONE LINE PER DEPTH STEP
~WELL INFORMATION BLOCK
#MNEM.UNIT           DATA                    DESCRIPTION OF MNEMONIC
#---------    -------------------            -------------------------------
# Generated from Intellog Unique Number	CW_76_78/WELL/3586
WELL.         06-28-076-19W4                 : Well_name    - WELL
LOC .         00/06-28-076-19W4/0            : Location     - LOCATION
UWI .         00/06-28-076-19W4/0            : Uwi          - UNIQUE WELL ID
ENTR.         JOETTE                         : Entered      - ENTERED BY
SRVC.         SCHLUMBERGER                   : Scn          - SERVICE COMPANY
DATE.         08-26-92                       : Date         - LOG DATE
STRT.M        185                            : top_depth    - START DEPTH
STOP.M        445                            : bot_depth    - STOP DEPTH
STEP.M        0.25                           : increment    - STEP LENGTH
 NULL. -999.2500:NULL Value
~CURVE INFORMATION BLOCK
#MNEM UNIT       ERCB CURVE CODE    CURVE DESCRIPTION
#-----------   ------------------   ----------------------------------
DEPT.M        00 001 00 00         : DEPTH        - DEPTH
ILD .OHMM     00 120 00 00         : RESD         - DEEP RESISTIVITY (DIL)
DPHI.V/V      00 890 00 00         : PHID         - DENSITY POROSITY (SANDSTONE)
NPHI.V/V      00 330 00 00         : PHIN         - NEUTRON POROSITY (SANDSTONE)
GR  .API      00 310 00 00         : GR           - GAMMA RAY
~PARAMETER INFORMATION
#MNEM.UNIT           DATA             DESCRIPTION OF MNEMONIC
#---------         -----------     ------------------------------
GL  .M        573.1                : gl           - GROUND LEVEL ELEVATION
EREF.M        576.4                : kb           - ELEVATION OF DEPTH REFERENCE
DATM.M        576.4                : datum        - DATUM ELEVATION
TDD .M        448                  : tdd          - TOTAL DEPTH DRILLER
RUN .         \                    : Run          - RUN NUMBER
ENG .         BILL                 : Engineer     - RECORDING ENGINEER
WIT .         JIM                  : Witness      - WITNESSED BY
MUD .         GEL                  : Mud_type     - MUD TYPE
MATR.         SANDSTONE            : Logunit      - NEUTRON MATRIX
TMAX.C        23                   : BHT          - MAXIMUM RECORDED TEMPERATURE
BHTD.M        448                  : BHTDEP       - MAXIMUM RECORDED TEMPERATURE
MATR.         1                    : LOGUNIT      - NEUTRON MATRIX
RMT .C        19                   : MDTP         - TEMPERATURE OF MUD
NEUT.         1                    : NEUTRON      - NEUTRON TYPE
RESI.         0                    : RESIST       - RESISTIVITY TYPE
RMC .OHMM     3.53                 : RMC          - RESISTIVITY OF MUD CAKE
RMF .OHMM     7.87                 : RMF          - RESISTIVITY OF MUD FILTRATE
SUFT.C        5                    : SUFT         - SURFACE TEMPERATURE
~A  DEPTH     RESD     PHID     PHIN       GR
  185.000    3.810    0.249    0.478  105.206
  185.250    3.882    0.251    0.456  110.440
  185.500    3.955    0.249    0.451  111.606
  185.750    4.030    0.242    0.445  106.378
  186.000    4.031    0.242    0.451  104.055
  186.250    3.960    0.242    0.461  104.640
  186.500    3.820    0.240    0.471  105.805
  186.750    3.684    0.239    0.470  109.876
  187.000    3.552    0.238    0.462  112.204
  187.250    3.364    0.239    0.457  112.788
  187.500    3.304    0.242    0.459  115.115
  187.750    3.246    0.243    0.461  118.024
  188.000    3.307    0.242    0.494  119.772
  188.250    3.495    0.242    0.535  120.937
  188.500    3.902    0.248    0.539  120.940
  188.750    5.231    0.256    0.530  118.036
  189.000    9.063    0.252    0.465  113.970
  189.250   13.814    0.235    0.446  110.485
  189.500   15.422    0.226    0.416  105.838
  189.750   18.871    0.242    0.362   94.797
  190.000   20.688    0.173    0.330   68.644
  190.250   18.886    0.135    0.305   53.534
  190.500   17.241    0.103    0.290   36.100
  190.750   16.326    0.198    0.287   29.129
  191.000   16.944    0.263    0.384   31.457
  191.250   17.262    0.279    0.383   34.366
  191.500   17.586    0.285    0.374   31.462
  191.750   15.763    0.290    0.340   29.721
  192.000   12.204    0.296    0.312   31.467
  192.250    7.586    0.300    0.376   44.257
  192.500    5.360    0.306    0.397   48.329
  192.750    5.075    0.308    0.393   65.188
  193.000    4.633    0.302    0.410   71.004
  193.250    4.635    0.288    0.424   68.681
  193.500    5.368    0.287    0.413   66.940
  193.750    6.332    0.283    0.412   69.268
  194.000    9.650    0.283    0.414   65.202
  194.250   12.247    0.288    0.416   55.323
  194.500   19.719    0.299    0.405   37.889
  194.750   23.691    0.311    0.373   30.335
  195.000   24.136    0.321    0.366   32.082
  195.250   23.707    0.325    0.357   33.248
  195.500   19.391    0.325    0.352   32.669
  195.750   15.291    0.325    0.349   32.090
  196.000   13.457    0.329    0.336   33.838
  196.250   13.465    0.333    0.353   37.327
  196.500   14.492    0.333    0.355   42.562
  196.750   15.886    0.338    0.400   40.240
  197.000   22.504    0.345    0.392   26.293
  197.250   25.590    0.341    0.363   19.902
  197.500   29.102    0.333    0.334   22.811
  197.750   30.757    0.325    0.324   25.140
  198.000   29.663    0.321    0.321   26.304
  198.250   27.582    0.318    0.336   26.888
  198.500   26.595    0.317    0.346   25.147
  198.750   26.123    0.314    0.364   22.825
  199.000   29.706    0.319    0.327   21.665
  199.250   27.118    0.317    0.316   26.318
  199.500   18.138    0.316    0.320   34.458
  199.750   14.834    0.316    0.377   49.573
  200.000   10.872    0.308    0.411   50.739
  200.250   15.975    0.299    0.396   45.510
  200.500   19.905    0.300    0.367   40.863
  200.750   28.198    0.305    0.345   35.635
  201.000   30.912    0.301    0.338   29.244
  201.250   33.273    0.292    0.327   25.759
  201.500   36.476    0.292    0.309   23.437
  201.750   37.847    0.300    0.309   21.697
  202.000   39.273    0.306    0.305   20.536
  202.250   42.277    0.301    0.305   19.377
  202.500   42.293    0.295    0.317   19.961
  202.750   41.546    0.290    0.306   21.127
  203.000   40.061    0.286    0.298   21.130
  203.250   38.636    0.284    0.300   18.808
  203.500   34.634    0.289    0.301   17.648
  203.750   34.016    0.301    0.302   17.650
  204.000   32.211    0.306    0.312   20.559
  204.250   31.065    0.307    0.351   22.887
  204.500   30.513    0.309    0.370   24.634
  204.750   29.431    0.314    0.367   28.705
  205.000   28.908    0.319    0.354   29.870
  205.250   28.395    0.323    0.348   28.711
  205.500   27.893    0.317    0.358   26.970
  205.750   27.901    0.313    0.357   25.811
  206.000   28.956    0.313    0.345   25.232
  206.250   29.502    0.319    0.320   28.141
  206.500   27.430    0.322    0.319   32.212
  206.750   24.584    0.328    0.334   33.959
  207.000   18.017    0.329    0.370   35.124
  207.250   12.499    0.323    0.387   37.452
  207.500    8.993    0.315    0.414   61.286
  207.750    6.126    0.307    0.424   71.170
  208.000    5.695    0.296    0.435   68.848
  208.250    5.594    0.287    0.413   64.782
  208.500    5.496    0.284    0.406   65.366
  208.750    5.397    0.285    0.406   70.020
  209.000    5.302    0.300    0.425   70.023
  209.250    5.209    0.306    0.419   69.444
  209.500    5.116    0.304    0.410   69.447
  209.750    5.025    0.292    0.409   73.518
  210.000    4.672    0.268    0.441   79.333
  210.250    4.588    0.256    0.462   83.986
  210.500    4.426    0.260    0.459   81.664
  210.750    4.427    0.265    0.425   79.341
  211.000    4.510    0.271    0.418   71.788
  211.250    4.767    0.189    0.343   61.328
  211.500    5.227    0.182    0.427   59.006
  211.750    5.324    0.236    0.429   62.497
  212.000    5.231    0.275    0.403   65.987
  212.250    5.137    0.278    0.397   71.221
  212.500    4.864    0.278    0.412   80.524
  212.750    4.361    0.287    0.442   95.058
  213.000    3.908    0.296    0.516   94.480
  213.250    3.503    0.269    0.533   93.901
  213.500    3.257    0.253    0.530   94.485
  213.750    3.028    0.257    0.520   98.558
  214.000    2.867    0.259    0.512  100.885
  214.250    2.869    0.259    0.510   99.726
  214.500    2.870    0.218    0.524   97.403
  214.750    2.924    0.192    0.460   92.756
  215.000    2.979    0.142    0.457   89.852
  215.250    3.036    0.145    0.464   92.761
  215.500    3.093    0.188    0.476   97.996
  215.750    3.151    0.230    0.460   96.254
  216.000    3.270    0.243    0.438   91.607
  216.250    3.393    0.258    0.437   86.379
  216.500    3.653    0.265    0.454   87.545
  216.750    3.721    0.249    0.480   90.453
  217.000    3.722    0.243    0.502   92.781
  217.250    3.590    0.244    0.499   98.596
  217.500    3.526    0.244    0.500   99.180
  217.750    3.279    0.248    0.505   95.696
  218.000    3.105    0.259    0.509   91.048
  218.250    3.106    0.255    0.479   88.727
  218.500    3.165    0.249    0.470   89.310
  218.750    3.284    0.241    0.497   93.963
  219.000    3.286    0.241    0.503   98.617
  219.250    3.347    0.247    0.500   96.294
  219.500    3.349    0.255    0.488   93.972
  219.750    3.350    0.258    0.481   91.650
  220.000    3.291    0.261    0.481   93.397
  220.250    3.232    0.260    0.483   95.724
  220.500    3.175    0.259    0.491   96.308
  220.750    3.062    0.260    0.480   96.893
  221.000    3.007    0.263    0.469   97.477
  221.250    3.009    0.257    0.464   97.479
  221.500    3.010    0.253    0.474   94.576
  221.750    3.011    0.257    0.486   92.835
  222.000    3.012    0.250    0.478   91.676
  222.250    3.013    0.254    0.502   89.934
  222.500    3.014    0.268    0.515   92.843
  222.750    2.961    0.275    0.527   95.172
  223.000    2.908    0.285    0.543   94.593
  223.250    2.754    0.291    0.556   92.270
  223.500    2.656    0.289    0.556   91.692
  223.750    2.562    0.288    0.547   95.764
  224.000    2.516    0.292    0.536   96.930
  224.250    2.472    0.298    0.526   95.188
  224.500    2.472    0.304    0.526   94.028
  224.750    2.473    0.306    0.532   96.356
  225.000    2.520    0.302    0.534   99.265
  225.250    2.521    0.292    0.523   98.687
  225.500    2.522    0.288    0.517   94.621
  225.750    2.523    0.288    0.526   90.556
  226.000    2.524    0.288    0.537   88.815
  226.250    2.525    0.284    0.545   86.493
  226.500    2.573    0.275    0.538   83.008
  226.750    2.573    0.267    0.532   87.079
  227.000    2.575    0.264    0.542   90.570
  227.250    2.623    0.264    0.560   89.992
  227.500    2.673    0.263    0.527   88.251
  227.750    2.723    0.254    0.508   89.997
  228.000    2.724    0.248    0.512   94.068
  228.250    2.725    0.252    0.517   96.977
