~VERSION INFORMATION
 VERS.                 2.0:   CWLS LOG ASCII STANDARD -VERSION 2.0
 WRAP.                  NO:   ONE LINE PER DEPTH STEP
~WELL INFORMATION BLOCK
#MNEM.UNIT           DATA                    DESCRIPTION OF MNEMONIC
#---------    -------------------            -------------------------------
# Generated from Intellog Unique Number	CW_73_75/WELL/642
LOC .         00/07-02-075-24W4/0            : Location     - LOCATION
UWI .         00/07-02-075-24W4/0            : Uwi          - UNIQUE WELL ID
ENTR.         JAYE                           : Entered      - ENTERED BY
SRVC.         SCHLUMBERGER                   : Scn          - SERVICE COMPANY
DATE.         1 MAR 75                       : Date         - LOG DATE
STRT.M        426.72                         : top_depth    - START DEPTH
STOP.M        621.72                         : bot_depth    - STOP DEPTH
STEP.M        0.25                           : increment    - STEP LENGTH
 NULL. -999.2500:NULL Value
~CURVE INFORMATION BLOCK
#MNEM UNIT       ERCB CURVE CODE    CURVE DESCRIPTION
#-----------   ------------------   ----------------------------------
DEPT.M        00 001 00 00         : DEPTH        - DEPTH
ILD .OHMM     00 120 00 00         : RESD         - DEEP RESISTIVITY (DIL)
CALI.MM       00 280 01 00         : CAL          - CALIPER
GR  .API      00 310 00 00         : GR           - GAMMA RAY
DPHI.V/V      00 890 00 00         : PHID         - DENSITY POROSITY (SANDSTONE)
NPHI.V/V      00 330 00 00         : PHIN         - NEUTRON POROSITY (SANDSTONE)
~PARAMETER INFORMATION
#MNEM.UNIT           DATA             DESCRIPTION OF MNEMONIC
#---------         -----------     ------------------------------
GL  .M        702.107              : gl           - GROUND LEVEL ELEVATION
EREF.M        706.222              : kb           - ELEVATION OF DEPTH REFERENCE
DATM.M        702.107              : datum        - DATUM ELEVATION
TDD .M        623.316              : tdd          - TOTAL DEPTH DRILLER
RUN .         ONE                  : Run          - RUN NUMBER
ENG .         EARLE                : Engineer     - RECORDING ENGINEER
WIT .         BRYANT               : Witness      - WITNESSED BY
BASE.         EDM                  : Branch       - HOME BASE OF LOGGING UNIT
MATR.         SANDSTONE            : Logunit      - NEUTRON MATRIX
TMAX.C        29.4444              : BHT          - MAXIMUM RECORDED TEMPERATURE
BHTD.M        622.706              : BHTDEP       - MAXIMUM RECORDED TEMPERATURE
RMT .C        20                   : MDTP         - TEMPERATURE OF MUD
MUDD.KG/M     0                    : MWT          - MUD DENSITY
NEUT.         1                    : NEUTRON      - NEUTRON TYPE
RESI.         0                    : RESIST       - RESISTIVITY TYPE
RM  .OHMM     3.85                 : RM           - RESISTIVITY OF MUD
RMC .OHMM     0                    : RMC          - RESISTIVITY OF MUD CAKE
RMF .OHMM     4.96                 : RMF          - RESISTIVITY OF MUD FILTRATE
SUFT.C        -17.7778             : SUFT         - SURFACE TEMPERATURE
~A  DEPTH     RESD      CAL       GR     PHID     PHIN
# ...
  463.220    5.467  221.760   82.999    0.268    0.461
  463.470    5.437  220.632   76.826    0.275    0.475
  463.720    5.357  219.917   71.450    0.290    0.490
  463.970    5.241  219.515   69.988    0.326    0.489
  464.220    5.089  219.527   71.034    0.337    0.480
  464.470    4.862  220.056   76.853    0.339    0.464
  464.720    4.636  220.269   80.039    0.340    0.467
  464.970    4.502  220.694   83.961    0.340    0.484
  465.220    4.396  220.915   86.169    0.338    0.497
  465.470    4.324  221.234   87.950    0.337    0.485
  465.720    4.316  221.141   88.383    0.321    0.511
  465.970    4.347  221.361   88.696    0.306    0.548
  466.220    4.475  221.475   87.355    0.298    0.497
  466.470    4.557  221.586   83.569    0.298    0.483
  466.720    4.683  221.495   84.860    0.274    0.464
  466.970    4.822  221.403   88.476    0.281    0.471
  467.220    4.883  221.310   92.947    0.294    0.487
  467.470    4.910  221.320   99.621    0.290    0.476
  467.720    4.874  221.122   99.200    0.274    0.489
  467.970    4.794  220.821   96.819    0.265    0.503
  468.220    4.672  220.625   99.701    0.264    0.505
  468.470    4.596  220.223  105.457    0.276    0.509
  468.720    4.520  220.127  109.012    0.264    0.509
  468.970    4.422  219.726  109.690    0.257    0.497
  469.220    4.357  219.526  107.922    0.249    0.513
  469.470    4.286  219.123  100.650    0.227    0.516
  469.720    4.254  219.238   89.889    0.270    0.504
  469.970    4.200  219.249   75.642    0.304    0.495
  470.220    4.086  219.154   71.795    0.326    0.531
  470.470    3.889  219.580   76.511    0.359    0.537
  470.720    3.588  219.797   86.733    0.347    0.533
  470.970    3.275  220.636   98.057    0.319    0.522
  471.220    2.892  221.995  102.650    0.301    0.511
  471.470    2.472  224.284  108.162    0.276    0.571
  471.720    2.260  226.469  112.940    0.255    0.625
  471.970    2.243  229.587  116.555    0.271    0.618
  472.220    2.544  232.497  115.888    0.294    0.586
  472.470    2.977  227.639  106.963    0.275    0.561
  472.720    3.419  223.610   95.714    0.283    0.521
  472.970    3.885  221.756   82.629    0.279    0.514
  473.220    4.187  220.730   76.947    0.271    0.525
  473.470    4.319  220.433   72.854    0.291    0.530
  473.720    4.382  220.648   74.941    0.303    0.489
  473.970    4.397  218.482   77.517    0.289    0.477
  474.220    4.413  219.115   79.663    0.265    0.474
  474.470    4.413  219.436   81.993    0.270    0.461
  474.720    4.428  219.240   85.488    0.276    0.464
  474.970    4.477  219.251   87.450    0.286    0.479
  475.220    4.534  219.158   88.864    0.296    0.493
  475.470    4.533  218.862   88.992    0.302    0.518
  475.720    4.533  218.766   89.854    0.296    0.495
  475.970    4.516  218.774   91.880    0.273    0.486
  476.220    4.450  218.786   93.415    0.271    0.507
  476.470    4.409  218.900   94.706    0.276    0.534
  476.720    4.425  218.910   95.690    0.285    0.561
  476.970    4.531  219.334   90.131    0.299    0.518
  477.220    4.733  219.862   86.589    0.341    0.493
  477.470    5.054  220.494   82.924    0.277    0.468
  477.720    5.598  221.127   78.954    0.240    0.379
  477.970    6.223  222.380   74.924    0.186    0.340
  478.220    6.501  223.738   78.966    0.114    0.321
  478.470    6.693  224.580   85.824    0.154    0.363
  478.720    6.559  224.587   90.296    0.199    0.454
  478.970    6.255  224.184   92.382    0.261    0.492
  479.220    5.814  223.988   92.755    0.276    0.472
  479.470    5.374  224.207   91.049    0.251    0.468
  479.720    5.106  224.009   90.015    0.233    0.479
  479.970    4.815  224.018   92.591    0.279    0.482
  480.220    4.542  224.548   98.653    0.293    0.486
  480.470    4.370  226.112  104.531    0.265    0.496
  480.720    4.205  228.090  103.803    0.237    0.523
  480.970    4.122  229.137   96.653    0.213    0.549
  481.220    4.017  229.457   88.951    0.277    0.532
  481.470    3.908  227.292   79.781    0.325    0.504
  481.720    3.837  223.367   72.692    0.346    0.493
  481.970    3.767  220.686   68.172    0.356    0.484
  482.220    3.699  219.140   67.443    0.361    0.472
  482.470    3.651  218.633   67.143    0.354    0.470
  482.720    3.598  218.542   67.639    0.338    0.478
  482.970    3.585  218.863   68.748    0.323    0.488
  483.220    3.617  218.976   69.548    0.331    0.488
  483.470    3.697  219.194   71.206    0.337    0.496
  483.720    3.862  219.206   73.355    0.333    0.508
  483.970    3.991  219.628   74.950    0.316    0.496
  484.220    4.109  219.950   77.220    0.325    0.486
  484.470    4.192  220.376   79.917    0.324    0.484
  484.720    4.331  220.801   84.206    0.314    0.484
  484.970    4.315  221.745   87.576    0.303    0.491
  485.220    4.107  223.617   88.683    0.289    0.531
  485.470    4.213  225.701   83.368    0.281    0.552
  485.720    4.624  226.125   74.932    0.280    0.492
  485.970    5.560  224.892   64.906    0.242    0.402
  486.220    7.681  223.765   61.487    0.195    0.342
  486.470    9.252  223.049   60.636    0.159    0.316
  486.720    9.737  222.751   65.476    0.084    0.277
  486.970    8.886  222.759   71.171    0.079    0.284
  487.220    7.484  222.770   78.762    0.090    0.298
  487.470    6.211  223.090   85.680    0.116    0.325
  487.720    5.406  223.725   94.618    0.224    0.445
  487.970    4.722  224.046   98.845    0.252    0.464
  488.220    4.118  224.367  102.460    0.238    0.495
  488.470    3.827  224.689  104.608    0.235    0.509
  488.720    3.778  224.699  105.531    0.238    0.520
  488.970    3.840  224.709  104.620    0.243    0.521
  489.220    3.897  224.616  103.219    0.255    0.518
  489.470    3.975  224.420  102.491    0.244    0.508
  489.720    4.033  224.431  102.743    0.232    0.504
  489.970    4.122  224.334  103.421    0.222    0.498
  490.220    4.190  224.657  104.407    0.214    0.493
  490.470    4.275  224.459  105.086    0.215    0.513
  490.720    4.345  224.058  105.765    0.227    0.513
  490.970    4.369  223.758  107.361    0.215    0.501
  491.220    4.400  223.768  110.793    0.213    0.467
  491.470    4.408  224.088  113.857    0.216    0.471
  491.720    4.415  224.408  111.050    0.220    0.491
  491.970    4.391  224.731  105.122    0.219    0.508
  492.220    4.383  224.845  100.419    0.217    0.488
  492.470    4.382  224.856   98.896    0.220    0.472
  492.720    4.390  224.762   98.535    0.221    0.492
  492.970    4.446  224.774   98.540    0.237    0.488
  493.220    4.560  224.784   98.608    0.258    0.468
  493.470    4.773  224.793   99.287    0.245    0.454
  493.720    4.941  224.906  100.945    0.206    0.451
  493.970    5.004  224.919  104.500    0.199    0.459
  494.220    4.940  224.928  106.707    0.210    0.470
  494.470    4.815  224.940  106.776    0.212    0.481
  494.720    4.583  225.156  107.699    0.197    0.491
  494.970    4.410  225.375  110.948    0.181    0.484
  495.220    4.244  226.009  115.052    0.199    0.477
  495.470    4.174  226.121  116.771    0.202    0.496
  495.720    4.091  226.338  115.064    0.210    0.519
  495.970    4.090  226.347  111.156    0.230    0.514
  496.220    4.112  226.358  106.758    0.239    0.480
  496.470    4.157  226.473  104.377    0.221    0.496
  496.720    4.195  226.587  106.036    0.213    0.514
  496.970    4.210  226.494  107.816    0.221    0.509
  497.220    4.179  225.573  108.312    0.239    0.501
  497.470    4.148  223.303  107.217    0.257    0.502
  497.720    4.125  221.656  104.226    0.255    0.502
  497.970    4.125  220.114  101.724    0.240    0.499
  498.220    4.124  218.674  101.240    0.222    0.485
  498.470    4.162  218.063  101.553    0.226    0.481
  498.720    4.199  218.591  102.110    0.239    0.489
  498.970    4.261  219.742  102.789    0.244    0.503
  499.220    4.292  220.683  103.467    0.240    0.513
  499.470    4.307  222.145  103.719    0.238    0.502
