~VERSION INFORMATION
 VERS.                 2.0:   CWLS LOG ASCII STANDARD -VERSION 2.0
 WRAP.                  NO:   ONE LINE PER DEPTH STEP
~WELL INFORMATION BLOCK
#MNEM.UNIT           DATA                    DESCRIPTION OF MNEMONIC
#---------    -------------------            -------------------------------
# Generated from Intellog Unique Number	CW_70_72/WELL/875
NULL.         -999.25                        : NULL_VALUE
WELL.         PETROREP ET AL SMITH 07-06     : Well_name    - WELL              
LOC .         07-06-072-25W4                 : Location     - LOCATION          
UWI .         00/07-06-072-25W4/0            : Uwi          - UNIQUE WELL ID    
ENTR.         JAYE                           : Entered      - ENTERED BY        
SRVC.         SCHLUMBERGER                   : Scn          - SERVICE COMPANY   
DATE.         24 NOV 77                      : Date         - LOG DATE          
STRT.M        393.192                        : top_depth    - START DEPTH       
STOP.M        618.692                        : bot_depth    - STOP DEPTH        
STEP.M        0.25                           : increment    - STEP LENGTH       
~CURVE INFORMATION BLOCK
#MNEM UNIT       ERCB CURVE CODE    CURVE DESCRIPTION
#-----------   ------------------   ----------------------------------
DEPT.M        00 001 00 00         : DEPTH        - DEPTH                       
DPHI.V/V      00 890 00 00         : PHID         - DENSITY POROSITY (SANDSTONE)
NPHI.V/V      00 330 00 00         : PHIN         - NEUTRON POROSITY (SANDSTONE)
GR  .API      00 310 00 00         : GR           - GAMMA RAY                   
CALI.MM       00 280 01 00         : CAL          - CALIPER                     
ILD .OHMM     00 120 00 00         : RESD         - DEEP RESISTIVITY (DIL)      
~PARAMETER INFORMATION       
#MNEM.UNIT           DATA             DESCRIPTION OF MNEMONIC
#---------         -----------     ------------------------------
GL  .M        582.473              : gl           - GROUND LEVEL ELEVATION      
EREF.M        586.13               : kb           - ELEVATION OF DEPTH REFERENCE
DATM.M        582.473              : datum        - DATUM ELEVATION             
TDD .M        621.792              : tdd          - TOTAL DEPTH DRILLER         
RUN .         ONE                  : Run          - RUN NUMBER                  
ENG .         KUBICA/RIVOLLIER     : Engineer     - RECORDING ENGINEER          
WIT .         HERB                 : Witness      - WITNESSED BY                
BASE.         EDM                  : Branch       - HOME BASE OF LOGGING UNIT   
MUD .         GEL                  : Mud_type     - MUD TYPE                    
MATR.         SANDSTONE            : Logunit      - NEUTRON MATRIX              
TMAX.C        27.7778              : BHT          - MAXIMUM RECORDED TEMPERATURE
BHTD.M        621.487              : BHTDEP       - MAXIMUM RECORDED TEMPERATURE
RMT .C        13.3333              : MDTP         - TEMPERATURE OF MUD          
MUDD.KG/M     1164                 : MWT          - MUD DENSITY                 
NEUT.         1                    : NEUTRON      - NEUTRON TYPE                
RESI.         0                    : RESIST       - RESISTIVITY TYPE            
RM  .OHMM     3.86                 : RM           - RESISTIVITY OF MUD          
RMC .OHMM     0                    : RMC          - RESISTIVITY OF MUD CAKE     
RMF .OHMM     3.1                  : RMF          - RESISTIVITY OF MUD FILTRATE 
SUFT.C        0                    : SUFT         - SURFACE TEMPERATURE         
~A  DEPTH     PHID     PHIN       GR      CAL     RESD
# ...
  575.692    0.237    0.328   31.594  155.331    2.777
  575.942    0.244    0.320   31.024  155.104    2.783
  576.192    0.241    0.298   29.648  154.558    2.826
  576.442    0.235    0.278   27.904  155.067    2.832
  576.692    0.231    0.282   28.021  155.892    2.854
  576.942    0.263    0.311   29.676  156.817    2.898
  577.192    0.272    0.328   32.328  157.944    2.931
  577.442    0.278    0.336   32.874  158.344    2.954
  577.692    0.262    0.335   33.418  158.106    2.966
  577.942    0.259    0.330   33.904  157.252    2.966
  578.192    0.264    0.321   34.635  156.723    2.956
  578.442    0.268    0.327   35.302  156.058    2.924
  578.692    0.278    0.331   34.919  155.118    2.860
  578.942    0.262    0.331   34.290  154.765    2.823
  579.192    0.259    0.329   34.341  154.629    2.787
  579.442    0.269    0.325   34.883  154.614    2.767
  579.692    0.266    0.320   35.743  154.299    2.762
  579.942    0.270    0.320   36.778  154.055    2.773
  580.192    0.268    0.330   37.820  153.723    2.842
  580.442    0.266    0.327   39.233  153.386    2.902
  580.692    0.260    0.324   40.024  153.251    2.986
  580.942    0.257    0.326   40.264  153.456    3.055
  581.192    0.250    0.332   38.763  153.451    3.096
  581.442    0.244    0.323   37.645  153.412    3.137
  581.692    0.249    0.313   39.049  154.011    3.168
  581.942    0.242    0.325   41.517  154.214    3.216
  582.192    0.235    0.331   43.367  154.181    3.260
  582.442    0.234    0.339   43.910  153.124    3.304
  582.692    0.232    0.338   43.646  153.106    3.323
  582.942    0.241    0.336   43.888  152.980    3.343
  583.192    0.235    0.330   44.310  152.761    3.439
  583.442    0.215    0.327   44.731  152.510    3.538
  583.692    0.227    0.328   45.024  152.925    3.626
  583.942    0.232    0.329   45.944  153.523    3.730
  584.192    0.241    0.325   48.286  155.179    3.910
  584.442    0.221    0.315   50.439  152.087    4.045
  584.692    0.202    0.304   52.096  152.724    4.233
  584.942    0.208    0.313   53.638  152.080    4.387
  585.192    0.211    0.314   55.045  150.905    4.530
  585.442    0.210    0.302   55.900  150.145    4.714
  585.692    0.205    0.299   54.031  148.981    4.867
  585.942    0.194    0.302   55.199  148.536    5.026
  586.192    0.182    0.305   59.582  148.418    5.200
  586.442    0.188    0.312   59.446  148.402    5.330
  586.692    0.184    0.306   57.519  148.686    5.524
  586.942    0.178    0.299   60.476  148.776    5.705
  587.192    0.176    0.302   63.069  148.861    5.803
  587.442    0.172    0.310   63.856  148.946    5.893
  587.692    0.168    0.311   63.596  149.127    5.916
  587.942    0.165    0.313   62.600  149.424    5.940
  588.192    0.153    0.314   62.089  149.929    5.952
  588.442    0.140    0.312   63.632  150.334    5.988
  588.692    0.170    0.307   64.864  150.623    6.045
  588.942    0.176    0.298   65.525  151.020    6.127
  589.192    0.185    0.292   66.320  151.738    6.198
  589.442    0.196    0.290   66.922  152.660    6.246
  589.692    0.193    0.289   66.291  153.273    6.294
  589.942    0.172    0.290   66.526  153.470    6.367
  590.192    0.175    0.289   65.775  153.444    6.417
  590.442    0.165    0.286   65.324  153.841    6.503
  590.692    0.167    0.286   64.507  153.928    6.591
  590.942    0.188    0.289   64.561  153.699    6.680
  591.192    0.180    0.292   65.102  153.778    6.769
  591.442    0.165    0.293   67.196  154.175    6.899
  591.692    0.149    0.289   70.407  154.371    6.966
  591.942    0.154    0.294   74.541  154.450    7.020
  592.192    0.159    0.287   82.151  154.753    7.022
  592.442    0.161    0.281   87.460  156.197    6.702
  592.692    0.135    0.306   99.770  159.009    6.196
  592.942    0.122    0.362  113.381  161.505    5.686
  593.192    0.133    0.414  127.241  163.374    5.092
  593.442    0.152    0.436  127.168  163.979    4.450
  593.692    0.166    0.469  125.486  163.441    3.889
  593.942    0.171    0.497  122.747  162.478    3.602
  594.192    0.173    0.515  118.589  160.668    4.032
  594.442    0.127    0.526  108.852  160.345    4.756
  594.692    0.105    0.240   99.120  161.675    5.717
  594.942    0.104    0.238   86.290  163.649    6.757
  595.192    0.112    0.250   85.969  165.312    8.031
  595.442    0.122    0.263   89.672  166.236    9.211
  595.692    0.132    0.276   94.491  165.692    9.493
  595.942    0.138    0.287  101.041  165.670    7.902
  596.192    0.145    0.302  106.170  165.548    7.076
  596.442    0.144    0.322  106.470  165.530    6.792
  596.692    0.135    0.339   98.034  165.290    6.936
  596.942    0.132    0.286   90.099  164.854    7.548
  597.192    0.130    0.256   83.088  164.104    9.141
  597.442    0.115    0.215   78.494  163.454   11.623
  597.692    0.096    0.181   71.920  163.340   13.736
  597.942    0.043    0.161   63.486  163.018   15.347
  598.192    0.014    0.145   51.399  162.875   16.796
  598.442    0.024    0.157   48.166  162.851   17.606
  598.692    0.055    0.187   61.777  162.619   17.316
  598.942    0.071    0.225   73.963  162.287   16.312
  599.192    0.056    0.226   86.151  158.907   15.366
  599.442    0.048    0.234   81.557  157.536   14.943
  599.692    0.073    0.240   73.372  158.553   15.606
  599.942    0.080    0.202   66.239  160.005   17.080
  600.192    0.059    0.173   58.054  160.505   19.626
  600.442    0.032    0.141   47.329  160.913   23.239
  600.692    0.012    0.110   45.955  161.300   25.770
  600.942    0.026    0.135   54.611  161.601   26.911
  601.192    0.042    0.174   70.886  161.470   17.822
  601.442    0.062    0.219   82.144  161.245   16.291
  601.692    0.096    0.301   91.174  160.607   14.291
  601.942    0.102    0.318   93.520  160.581   12.679
  602.192    0.085    0.328   84.958  160.767   11.547
  602.442    0.051    0.313   79.247  160.116   10.517
  602.692    0.063    0.315   82.458  157.889    9.561
  602.942    0.102    0.331   90.620  158.090    8.922
  603.192    0.134    0.351  103.491  159.227    8.141
  603.442    0.153    0.371  117.283  160.775    7.373
  603.692    0.142    0.398  120.862  162.217    6.408
  603.942    0.131    0.404  114.967  163.455    5.770
  604.192    0.105    0.375  103.319  164.068    5.415
  604.442    0.128    0.356   91.664  164.046    5.035
  604.692    0.184    0.341   82.300  160.146    4.734
  604.942    0.245    0.358   70.152  153.414    4.385
  605.192    0.282    0.369   58.746  149.423    3.949
  605.442    0.273    0.364   57.496  148.549    3.692
  605.692    0.234    0.331   60.765  148.108    3.638
  605.942    0.218    0.303   66.761  147.883    3.750
  606.192    0.194    0.289   71.826  147.975    3.916
  606.442    0.175    0.278   76.458  148.575    4.278
  606.692    0.165    0.272   80.347  150.132    4.629
  606.942    0.152    0.271   90.741  153.045    4.536
  607.192    0.137    0.284   89.615  156.906    4.032
  607.442    0.166    0.300   83.908  159.187    3.638
  607.692    0.202    0.329   75.657  155.497    3.301
  607.942    0.231    0.325   68.895  152.752    3.121
  608.192    0.225    0.299   65.726  151.796    3.139
  608.442    0.170    0.279   64.787  151.464    3.587
  608.692    0.153    0.263   66.568  151.132    4.402
  608.942    0.122    0.236   66.001  152.357    5.039
  609.192    0.093    0.203   56.328  155.276    5.834
  609.442    0.064    0.194   58.425  157.560    6.173
  609.692    0.070    0.219   67.388  156.392    5.925
  609.942    0.112    0.251   73.942  155.848    5.687
  610.192    0.141    0.264   77.395  156.034    5.387
  610.442    0.155    0.276   79.245  156.746    5.318
  610.692    0.149    0.285   82.203  158.091    5.482
  610.942    0.132    0.277   84.359  159.647    5.844
  611.192    0.118    0.271   81.073  160.890    6.372
  611.442    0.136    0.265   71.707  162.543    6.818
  611.692    0.120    0.259   71.814  164.724    6.222
  611.942    0.144    0.264   71.247  165.964    4.850
