~VERSION INFORMATION
 VERS.                 2.0:   CWLS LOG ASCII STANDARD -VERSION 2.0
 WRAP.                  NO:   ONE LINE PER DEPTH STEP
~WELL INFORMATION BLOCK
#MNEM.UNIT           DATA                    DESCRIPTION OF MNEMONIC
#---------    -------------------            -------------------------------
# Generated from Intellog Unique Number	CS_73_76/WELL/772
WELL.         BOW VALLEY INDUSTRIES LTD      : Well_name    - WELL
LOC .         00/07-27-073-18W4/0            : Location     - LOCATION
UWI .         00/07-27-073-18W4/0            : Uwi          - UNIQUE WELL ID
ENTR.         SP                             : Entered      - ENTERED BY
SRVC.         SCHLUMBERGER                   : Scn          - SERVICE COMPANY
STRT.M        204.216                        : top_depth    - START DEPTH
STOP.M        444.716                        : bot_depth    - STOP DEPTH
STEP.M        0.25                           : increment    - STEP LENGTH
 NULL. -999.2500:NULL Value
~CURVE INFORMATION BLOCK
#MNEM UNIT       ERCB CURVE CODE    CURVE DESCRIPTION
#-----------   ------------------   ----------------------------------
DEPT.M        00 001 00 00         : DEPTH        - DEPTH
GR  .API      00 310 00 00         : GR           - GAMMA RAY
DPHI.V/V      00 890 00 00         : PHID         - DENSITY POROSITY (SANDSTONE)
NPHI.V/V      00 330 00 00         : PHIN         - NEUTRON POROSITY (SANDSTONE)
ILD .OHMM     00 120 00 00         : RESD         - DEEP RESISTIVITY (DIL)
~PARAMETER INFORMATION
#MNEM.UNIT           DATA             DESCRIPTION OF MNEMONIC
#---------         -----------     ------------------------------
GL  .M        582.168              : gl           - GROUND LEVEL ELEVATION
EREF.M        585.216              : kb           - ELEVATION OF DEPTH REFERENCE
DATM.M        582.168              : datum        - DATUM ELEVATION
TDD .M        443.789              : tdd          - TOTAL DEPTH DRILLER
RUN .         ONE                  : Run          - RUN NUMBER
ENG .         BILL                 : Engineer     - RECORDING ENGINEER
WIT .         JIM                  : Witness      - WITNESSED BY
MUD .         GEL                  : Mud_type     - MUD TYPE
MATR.         SANDSTONE            : Logunit      - NEUTRON MATRIX
TMAX.C        22.2222              : BHT          - MAXIMUM RECORDED TEMPERATURE
BHTD.M        443.179              : BHTDEP       - MAXIMUM RECORDED TEMPERATURE
MATR.         1                    : LOGUNIT      - NEUTRON MATRIX
RMT .C        25                   : MDTP         - TEMPERATURE OF MUD
NEUT.         1                    : NEUTRON      - NEUTRON TYPE
RESI.         0                    : RESIST       - RESISTIVITY TYPE
RMC .OHMM     0.25                 : RMC          - RESISTIVITY OF MUD CAKE
RMF .OHMM     0.25                 : RMF          - RESISTIVITY OF MUD FILTRATE
SUFT.C        15                   : SUFT         - SURFACE TEMPERATURE
~A  DEPTH       GR     PHID     PHIN     RESD
# ...
  334.716   55.462    0.303    0.463    7.099
  334.966   56.020    0.296    0.472    6.984
  335.216   56.092    0.277    0.471    6.979
  335.466   55.309    0.254    0.461    6.976
  335.716   54.831    0.236    0.453    6.980
  335.966   54.789    0.217    0.446    7.043
  336.216   55.496    0.202    0.440    7.119
  336.466   55.529    0.171    0.421    7.252
  336.716   54.956    0.127    0.388    7.243
  336.966   56.747    0.138    0.352    7.243
  337.216   59.812    0.205    0.363    7.029
  337.466   61.793    0.220    0.389    6.626
  337.716   62.801    0.225    0.443    6.479
  337.966   61.823    0.235    0.452    6.383
  338.216   60.935    0.259    0.459    6.909
  338.466   60.987    0.272    0.464    6.985
  338.716   60.989    0.256    0.472    7.052
  338.966   60.992    0.244    0.468    7.112
  339.216   60.994    0.198    0.459    7.112
  339.466   60.998    0.173    0.451    7.059
  339.716   61.001    0.186    0.445    6.985
  339.966   61.020    0.193    0.443    6.994
  340.216   61.191    0.196    0.443    6.806
  340.466   62.231    0.213    0.441    6.604
  340.716   63.878    0.224    0.450    6.405
  340.966   64.723    0.201    0.457    6.211
  341.216   64.701    0.186    0.465    6.024
  341.466   63.752    0.190    0.475    5.842
  341.716   61.880    0.200    0.480    5.666
  341.966   59.422    0.203    0.473    5.491
  342.216   56.703    0.203    0.457    5.533
  342.466   54.724    0.226    0.458    5.590
  342.716   52.229    0.254    0.459    5.750
  342.966   49.750    0.284    0.452    6.201
  343.216   48.194    0.305    0.441    6.370
  343.466   47.604    0.316    0.444    6.673
  343.716   47.480    0.326    0.452    6.766
  343.966   46.456    0.321    0.448    6.863
  344.216   44.751    0.319    0.442    6.863
  344.466   44.718    0.325    0.448    6.861
  344.716   45.750    0.331    0.454    6.870
  344.966   46.423    0.337    0.447    6.720
  345.216   47.103    0.339    0.435    6.719
  345.466   47.049    0.331    0.431    6.608
  345.716   47.057    0.324    0.426    6.623
  345.966   47.061    0.332    0.429    6.484
  346.216   47.113    0.333    0.435    6.493
  346.466   46.220    0.334    0.438    6.492
  346.716   45.234    0.335    0.445    6.492
  346.966   44.538    0.324    0.447    6.410
  347.216   45.320    0.315    0.442    6.375
  347.466   45.227    0.319    0.435    6.372
  347.716   45.921    0.321    0.430    6.373
  347.966   45.873    0.321    0.421    6.373
  348.216   45.877    0.312    0.430    6.374
  348.466   45.939    0.320    0.438    6.374
  348.716   45.236    0.329    0.443    6.374
  348.966   45.226    0.321    0.448    6.374
  349.216   45.964    0.325    0.454    6.362
  349.466   45.908    0.327    0.465    6.495
  349.716   47.003    0.319    0.457    6.366
  349.966   47.305    0.311    0.458    6.375
  350.216   47.724    0.318    0.459    6.377
  350.466   48.351    0.312    0.465    6.390
  350.716   49.166    0.302    0.471    6.248
  350.966   49.546    0.287    0.459    6.260
  351.216   50.249    0.301    0.468    6.260
  351.466   50.209    0.314    0.473    6.260
  351.716   49.699    0.322    0.461    6.261
  351.966   48.448    0.320    0.453    6.261
  352.216   47.167    0.316    0.445    6.262
  352.466   48.227    0.312    0.456    6.262
  352.716   49.254    0.311    0.465    6.262
  352.966   49.594    0.314    0.475    6.262
  353.216   49.787    0.314    0.469    6.344
  353.466   47.459    0.314    0.448    6.379
  353.716   46.582    0.313    0.446    6.382
  353.966   46.575    0.311    0.452    6.383
  354.216   46.556    0.315    0.454    6.382
  354.466   46.621    0.318    0.458    6.391
  354.716   46.224    0.326    0.464    6.254
  354.966   46.630    0.323    0.457    6.265
  355.216   47.204    0.322    0.446    6.266
  355.466   46.949    0.318    0.446    6.267
  355.716   46.592    0.318    0.455    6.267
  355.966   46.587    0.331    0.459    6.268
  356.216   46.593    0.324    0.466    6.270
  356.466   46.597    0.323    0.459    6.268
  356.716   46.586    0.321    0.454    6.488
  356.966   46.490    0.317    0.441    7.640
  357.216   45.439    0.303    0.423    8.572
  357.466   44.409    0.253    0.381    9.700
  357.716   44.253    0.186    0.337   10.708
  357.966   45.331    0.138    0.260   11.411
  358.216   45.330    0.182    0.295   10.955
  358.466   46.048    0.230    0.366    9.748
  358.716   45.994    0.259    0.395    8.730
  358.966   45.813    0.280    0.432    7.512
  359.216   44.772    0.298    0.450    6.516
  359.466   41.736    0.234    0.434    7.425
  359.716   38.826    0.148    0.306    9.050
  359.966   38.109    0.074    0.272   11.971
  360.216   38.951    0.066    0.245   15.371
  360.466   42.602    0.063    0.217   16.884
  360.716   44.613    0.109    0.236   15.569
  360.966   45.700    0.143    0.302   13.063
  361.216   46.691    0.185    0.355   11.462
  361.466   46.699    0.248    0.389    9.795
  361.716   45.726    0.292    0.416    8.357
  361.966   45.433    0.314    0.443    7.412
  362.216   44.353    0.310    0.436    7.291
  362.466   44.264    0.308    0.429    7.337
  362.716   44.240    0.315    0.430    7.430
  362.966   44.900    0.317    0.435    7.432
  363.216   44.828    0.310    0.433    7.432
  363.466   45.436    0.301    0.435    7.430
  363.716   45.475    0.304    0.439    7.350
  363.966   45.563    0.304    0.445    7.275
  364.216   46.556    0.300    0.440    7.165
  364.466   48.224    0.300    0.448    7.009
  364.716   49.882    0.310    0.449    7.016
  364.966   50.376    0.298    0.436    6.893
  365.216   50.197    0.300    0.436    6.909
  365.466   49.148    0.308    0.432    6.769
  365.716   49.167    0.308    0.426    6.685
  365.966   49.131    0.303    0.425    6.651
  366.216   49.752    0.291    0.425    6.646
  366.466   50.837    0.295    0.430    6.571
  366.716   51.216    0.306    0.441    6.526
  366.966   52.776    0.319    0.451    6.532
  367.216   53.599    0.324    0.459    6.392
  367.466   55.853    0.318    0.455    6.403
  367.716   55.066    0.321    0.457    6.416
  367.966   55.931    0.313    0.460    6.285
  368.216   55.895    0.305    0.462    6.165
  368.466   56.367    0.295    0.441    6.184
  368.716   56.500    0.294    0.432    6.045
  368.966   56.523    0.293    0.425    6.057
  369.216   54.641    0.281    0.405    6.061
  369.466   52.824    0.263    0.391    6.090
  369.716   48.155    0.167    0.364    6.745
  369.966   45.248    0.107    0.325    7.581
  370.216   40.706    0.029    0.267    8.253
  370.466   40.856    0.017    0.222    8.940
  370.716   47.683    0.034    0.235    9.197
  370.966   57.640    0.067    0.268    8.349
  371.216   63.957    0.102    0.303    6.773
  371.466   69.010    0.137    0.357    6.002
  371.716   70.593    0.161    0.394    5.093
  371.966   70.553    0.183    0.432    4.286
  372.216   70.254    0.191    0.482    3.812
  372.466   68.235    0.190    0.474    3.591
  372.716   64.639    0.205    0.467    3.698
  372.966   63.272    0.211    0.471    3.913
  373.216   64.433    0.218    0.461    4.383
  373.466   64.847    0.233    0.452    4.766
  373.716   64.534    0.248    0.451    5.163
  373.966   64.490    0.246    0.457    5.679
  374.216   65.706    0.245    0.461    6.005
  374.466   67.055    0.238    0.461    6.179
  374.716   68.642    0.241    0.455    5.982
  374.966   69.260    0.242    0.456    5.819
  375.216   68.809    0.232    0.461    5.419
  375.466   70.298    0.226    0.463    5.206
  375.716   70.741    0.220    0.468    4.908
  375.966   71.325    0.210    0.473    4.682
  376.216   68.972    0.203    0.472    4.478
  376.466   68.133    0.210    0.462    4.594
  376.716   68.752    0.208    0.454    4.906
  376.966   68.573    0.217    0.455    5.077
  377.216   67.581    0.212    0.460    5.246
  377.466   67.623    0.211    0.461    5.594
  377.716   67.635    0.208    0.462    5.782
  377.966   67.649    0.205    0.462    5.966
