~VERSION INFORMATION
 VERS.                 2.0:   CWLS LOG ASCII STANDARD -VERSION 2.0
 WRAP.                  NO:   ONE LINE PER DEPTH STEP
~WELL INFORMATION BLOCK
#MNEM.UNIT           DATA                    DESCRIPTION OF MNEMONIC
#---------    -------------------            -------------------------------
# Generated from Intellog Unique Number	CX_WELLS/WELL/2759
WELL.         05-20-080-13W4                 : Well_name    - WELL
LOC .         00/05-20-080-13W4/0            : Location     - LOCATION
UWI .         00/05-20-080-13W4/0            : Uwi          - UNIQUE WELL ID
ENTR.         T                              : Entered      - ENTERED BY
SRVC.         SCHLUMBERGER                   : Scn          - SERVICE COMPANY
STRT.M        270                            : top_depth    - START DEPTH
STOP.M        500                            : bot_depth    - STOP DEPTH
STEP.M        0.25                           : increment    - STEP LENGTH
 NULL. -999.2500:NULL Value
~CURVE INFORMATION BLOCK
#MNEM UNIT       ERCB CURVE CODE    CURVE DESCRIPTION
#-----------   ------------------   ----------------------------------
DEPT.M        00 001 00 00         : DEPTH        - DEPTH
GR  .API      00 310 00 00         : GR           - GAMMA RAY
NPHI.V/V      00 330 00 00         : PHIN         - NEUTRON POROSITY (SANDSTONE)
DPHI.V/V      00 890 00 00         : PHID         - DENSITY POROSITY (SANDSTONE)
ILD .OHMM     00 120 00 00         : RESD         - DEEP RESISTIVITY (DLL)
~PARAMETER INFORMATION
#MNEM.UNIT           DATA             DESCRIPTION OF MNEMONIC
#---------         -----------     ------------------------------
GL  .M        689.7                : gl           - GROUND LEVEL ELEVATION
EREF.M        692.9                : kb           - ELEVATION OF DEPTH REFERENCE
DATM.M        692.9                : datum        - DATUM ELEVATION
TDD .M        502                  : tdd          - TOTAL DEPTH DRILLER
RUN .         ONE                  : Run          - RUN NUMBER
ENG .         BILL                 : Engineer     - RECORDING ENGINEER
WIT .         JIM                  : Witness      - WITNESSED BY
MUD .         GEL                  : Mud_type     - MUD TYPE
MATR.         SANDSTONE            : Logunit      - NEUTRON MATRIX
TMAX.C        20                   : BHT          - MAXIMUM RECORDED TEMPERATURE
BHTD.M        504                  : BHTDEP       - MAXIMUM RECORDED TEMPERATURE
MATR.         1                    : LOGUNIT      - NEUTRON MATRIX
RMT .C        19                   : MDTP         - TEMPERATURE OF MUD
NEUT.         1                    : NEUTRON      - NEUTRON TYPE
RESI.         5.36                 : RESIST       - RESISTIVITY TYPE
RMC .OHMM     5.2                  : RMC          - RESISTIVITY OF MUD CAKE
RMF .OHMM     5.5                  : RMF          - RESISTIVITY OF MUD FILTRATE
SUFT.C        4                    : SUFT         - SURFACE TEMPERATURE
~A  DEPTH       GR     PHIN     PHID     RESD
# ...
  400.500   93.281    0.467    0.253    7.854
  400.750   93.336    0.450    0.259    8.809
  401.000   93.363    0.426    0.245    9.330
  401.250   92.799    0.423    0.227   10.075
  401.500   92.844    0.414    0.208   10.671
  401.750   92.289    0.401    0.166   11.095
  402.000   91.743    0.386    0.174   11.107
  402.250   91.770    0.378    0.201   11.117
  402.500   91.797    0.376    0.215   10.512
  402.750   91.834    0.390    0.225    9.571
  403.000   91.879    0.403    0.230    8.714
  403.250   92.499    0.412    0.231    7.934
  403.500   92.535    0.422    0.233    7.644
  403.750   92.572    0.433    0.233    7.229
  404.000   93.218    0.430    0.234    6.966
  404.250   93.237    0.427    0.238    6.974
  404.500   91.498    0.428    0.247    7.251
  404.750   84.432    0.429    0.264    7.534
  405.000   81.509    0.425    0.296    8.136
  405.250   79.178    0.411    0.306    8.782
  405.500   75.071    0.403    0.293    9.483
  405.750   73.933    0.352    0.210    9.673
  406.000   75.153    0.348    0.261    9.502
  406.250   75.190    0.397    0.272    9.155
  406.500   75.827    0.414    0.273    8.829
  406.750   75.846    0.427    0.277    8.665
  407.000   75.882    0.420    0.286    8.673
  407.250   76.529    0.416    0.277    8.684
  407.500   77.139    0.415    0.266    8.688
  407.750   78.377    0.411    0.252    8.862
  408.000   78.405    0.408    0.240    8.872
  408.250   79.051    0.407    0.230    8.877
  408.500   79.662    0.407    0.247    8.721
  408.750   80.299    0.407    0.254    8.565
  409.000   81.519    0.408    0.254    8.411
  409.250   83.923    0.410    0.254    8.263
  409.500   86.910    0.411    0.256    8.113
  409.750   88.731    0.413    0.243    8.122
  410.000   85.799    0.416    0.243    8.129
  410.250   82.294    0.418    0.253    8.138
  410.500   79.972    0.423    0.257    8.299
  410.750   78.816    0.428    0.267    8.464
  411.000   77.668    0.432    0.281    8.798
  411.250   77.113    0.435    0.286    9.323
  411.500   76.558    0.437    0.288   10.067
  411.750   75.410    0.441    0.288   10.663
  412.000   73.671    0.442    0.291   11.735
  412.250   70.739    0.436    0.191   12.669
  412.500   67.817    0.420    0.103   13.675
  412.750   65.486    0.227    0.127   13.949
  413.000   69.665    0.315    0.184   12.943
  413.250   75.038    0.368    0.239   11.787
  413.500   76.249    0.382    0.265   10.939
  413.750   76.294    0.402    0.293   10.537
  414.000   76.331    0.428    0.300    9.777
  414.250   76.367    0.430    0.284    9.245
  414.500   76.404    0.430    0.193    8.580
  414.750   76.450    0.427    0.157    8.269
  415.000   75.302    0.419    0.132    8.121
  415.250   70.604    0.360    0.098    7.977
  415.500   68.282    0.300    0.142    8.292
  415.750   68.300    0.326    0.265    8.785
  416.000   69.520    0.337    0.261    8.793
  416.250   71.934    0.363    0.254    8.633
  416.500   74.338    0.415    0.242    8.479
  416.750   75.558    0.438    0.247    8.173
  417.000   76.177    0.396    0.256    7.874
  417.250   77.407    0.403    0.265    7.733
  417.500   78.627    0.414    0.266    7.453
  417.750   78.663    0.420    0.266    7.049
  418.000   78.691    0.419    0.266    6.923
  418.250   78.727    0.418    0.263    6.800
  418.500   78.773    0.418    0.262    6.805
  418.750   79.401    0.420    0.258    6.809
  419.000   80.621    0.423    0.256    6.818
  419.250   83.636    0.431    0.248    6.695
  419.500   86.031    0.440    0.246    6.453
  419.750   87.843    0.448    0.240    6.218
  420.000   91.430    0.456    0.235    5.769
  420.250   94.426    0.462    0.232    5.353
  420.500   98.597    0.469    0.230    4.967
  420.750  102.184    0.472    0.227    4.522
  421.000  105.189    0.467    0.223    4.276
  421.250  100.491    0.462    0.221    4.617
  421.500   96.375    0.452    0.215    5.178
  421.750   91.686    0.447    0.204    5.484
  422.000   87.570    0.444    0.184    6.150
  422.250   82.280    0.443    0.166    6.897
  422.500   81.151    0.445    0.197    7.308
  422.750   81.169    0.444    0.213    7.456
  423.000   81.798    0.442    0.214    7.461
  423.250   84.211    0.444    0.208    7.326
  423.500   86.023    0.451    0.203    7.336
  423.750   86.651    0.453    0.204    7.341
  424.000   85.522    0.445    0.208    7.347
  424.250   84.949    0.438    0.211    7.352
  424.500   84.985    0.428    0.217    7.503
  424.750   85.614    0.426    0.214    7.649
  425.000   86.242    0.423    0.209    7.656
  425.250   87.471    0.422    0.200    7.962
  425.500   88.100    0.422    0.200    7.967
  425.750   88.136    0.420    0.205    8.131
  426.000   88.164    0.418    0.205    8.134
  426.250   87.617    0.418    0.205    8.297
  426.500   87.071    0.419    0.202    8.465
  426.750   86.507    0.421    0.200    8.472
  427.000   86.543    0.418    0.198    8.478
  427.250   89.530    0.410    0.192    8.487
  427.500   93.118    0.398    0.181    8.337
  427.750   99.082    0.391    0.187    8.185
  428.000  102.670    0.391    0.204    7.891
  428.250  104.482    0.389    0.206    7.746
  428.500  104.518    0.387    0.208    7.327
  428.750  103.963    0.387    0.209    6.930
  429.000  102.816    0.396    0.212    6.428
  429.250   99.902    0.416    0.217    5.853
  429.500   95.194    0.416    0.223    5.431
  429.750   90.496    0.418    0.230    4.852
  430.000   86.990    0.427    0.243    4.095
  430.250   86.426    0.493    0.265    3.456
  430.500   87.073    0.507    0.279    2.756
  430.750   87.091    0.530    0.279    2.462
  431.000   83.576    0.547    0.271    2.373
  431.250   81.254    0.548    0.265    2.661
  431.500   81.291    0.542    0.253    2.984
  431.750   81.327    0.523    0.231    3.346
  432.000   81.355    0.462    0.216    4.283
  432.250   80.217    0.429    0.210    5.181
  432.500   77.895    0.414    0.202    6.388
  432.750   76.729    0.405    0.196    7.301
  433.000   73.806    0.397    0.184    7.735
  433.250   72.659    0.388    0.171    7.598
  433.500   76.848    0.374    0.154    7.459
  433.750   78.651    0.361    0.174    6.922
  434.000   82.239    0.361    0.202    6.424
  434.250   87.611    0.394    0.215    5.960
  434.500   89.432    0.419    0.213    5.324
  434.750   87.083    0.437    0.208    4.666
  435.000   85.353    0.441    0.197    4.583
  435.250   87.757    0.433    0.192    4.764
  435.500   93.130    0.405    0.194    5.144
  435.750   98.484    0.395    0.201    4.773
  436.000  102.072    0.440    0.210    4.106
  436.250  103.292    0.474    0.228    3.668
  436.500  100.961    0.497    0.224    3.277
  436.750  100.997    0.494    0.217    3.158
  437.000  102.227    0.481    0.214    3.161
  437.250  103.438    0.465    0.221    3.224
  437.500  101.107    0.468    0.220    3.353
  437.750   97.592    0.470    0.215    3.552
  438.000   98.812    0.466    0.208    3.693
  438.250  103.593    0.456    0.196    3.694
  438.500  110.149    0.446    0.186    3.628
  438.750  112.544    0.445    0.199    3.497
  439.000  113.764    0.449    0.214    3.435
  439.250  113.801    0.450    0.212    3.571
  439.500  111.479    0.452    0.212    3.783
  439.750  109.139    0.456    0.211    4.007
  440.000  103.257    0.458    0.212    4.411
  440.250   91.456    0.452    0.212    4.585
  440.500   83.789    0.438    0.212    4.675
  440.750   79.692    0.341    0.218    5.145
  441.000   80.311    0.350    0.221    5.768
  441.250   77.980    0.365    0.226    7.110
  441.500   74.465    0.380    0.230    8.128
  441.750   72.134    0.394    0.220    8.611
  442.000   74.547    0.362    0.216    8.949
  442.250   75.767    0.374    0.232   10.035
  442.500   73.436    0.380    0.234   13.598
  442.750   72.881    0.359    0.224   14.139
  443.000   72.335    0.325    0.215   13.625
  443.250   73.546    0.310    0.176   12.884
  443.500   78.909    0.343    0.185   12.416
  443.750   78.354    0.362    0.212   11.968
