~VERSION INFORMATION
 VERS.                 2.0:   CWLS LOG ASCII STANDARD -VERSION 2.0
 WRAP.                  NO:   ONE LINE PER DEPTH STEP
~WELL INFORMATION BLOCK
#MNEM.UNIT           DATA                    DESCRIPTION OF MNEMONIC
#---------    -------------------            -------------------------------
# Generated from Intellog Unique Number	CW_70_72/WELL/199
NULL.         -999.25                        : NULL_VALUE
WELL.         GULF NORCEN MITSUE 02-36       : Well_name    - WELL              
LOC .         02-36-072-04W5                 : Location     - LOCATION          
UWI .         00/02-36-072-04W5/0            : Uwi          - UNIQUE WELL ID    
ENTR.         JAYE                           : Entered      - ENTERED BY        
SRVC.         COMPUTALOG                     : Scn          - SERVICE COMPANY   
DATE.         20 JAN 83                      : Date         - LOG DATE          
STRT.M        375                            : top_depth    - START DEPTH       
STOP.M        580                            : bot_depth    - STOP DEPTH        
STEP.M        0.25                           : increment    - STEP LENGTH       
~CURVE INFORMATION BLOCK
#MNEM UNIT       ERCB CURVE CODE    CURVE DESCRIPTION
#-----------   ------------------   ----------------------------------
DEPT.M        00 001 00 00         : DEPTH        - DEPTH                       
DPHI.V/V      00 890 00 00         : PHID         - DENSITY POROSITY (SANDSTONE)
NPHI.V/V      00 330 00 00         : PHIN         - NEUTRON POROSITY (SANDSTONE)
GR  .API      00 310 00 00         : GR           - GAMMA RAY                   
CALI.MM       00 280 01 00         : CAL          - CALIPER                     
ILD .OHMM     00 120 00 00         : RESD         - DEEP RESISTIVITY (DIL)      
~PARAMETER INFORMATION       
#MNEM.UNIT           DATA             DESCRIPTION OF MNEMONIC
#---------         -----------     ------------------------------
GL  .M        588.1                : gl           - GROUND LEVEL ELEVATION      
EREF.M        592.9                : kb           - ELEVATION OF DEPTH REFERENCE
DATM.M        588.1                : datum        - DATUM ELEVATION             
TDD .M        1647                 : tdd          - TOTAL DEPTH DRILLER         
RUN .         ONE                  : Run          - RUN NUMBER                  
ENG .         AASLAND              : Engineer     - RECORDING ENGINEER          
WIT .         FITZGERALD           : Witness      - WITNESSED BY                
BASE.         EDM                  : Branch       - HOME BASE OF LOGGING UNIT   
MUD .         GEL CHEM             : Mud_type     - MUD TYPE                    
MATR.         SANDSTONE            : Logunit      - NEUTRON MATRIX              
TMAX.C        52                   : BHT          - MAXIMUM RECORDED TEMPERATURE
BHTD.M        1645.6               : BHTDEP       - MAXIMUM RECORDED TEMPERATURE
RMT .C        21                   : MDTP         - TEMPERATURE OF MUD          
MUDD.KG/M     1100                 : MWT          - MUD DENSITY                 
NEUT.         1                    : NEUTRON      - NEUTRON TYPE                
RESI.         0                    : RESIST       - RESISTIVITY TYPE            
RM  .OHMM     0.37                 : RM           - RESISTIVITY OF MUD          
RMC .OHMM     0.38                 : RMC          - RESISTIVITY OF MUD CAKE     
RMF .OHMM     0.34                 : RMF          - RESISTIVITY OF MUD FILTRATE 
SUFT.C        0                    : SUFT         - SURFACE TEMPERATURE         
~A  DEPTH     PHID     PHIN       GR      CAL     RESD
# ...
  411.500    0.349    0.513   82.818  248.531    3.545
  411.750    0.304    0.494   74.505  234.155    3.810
  412.000    0.292    0.449   62.438  223.849    3.947
  412.250    0.284    0.413   63.826  221.678    4.005
  412.500    0.264    0.413   65.277  221.278    3.942
  412.750    0.260    0.424   66.039  222.340    3.850
  413.000    0.258    0.420   67.114  223.820    3.683
  413.250    0.258    0.420   69.629  224.360    3.489
  413.500    0.269    0.440   73.708  226.570    3.280
  413.750    0.323    0.479   75.973  228.883    3.143
  414.000    0.375    0.498   77.486  231.509    3.147
  414.250    0.395    0.494   79.311  247.173    3.211
  414.500    0.385    0.467   79.011  255.328    3.334
  414.750    0.321    0.446   74.579  230.001    3.514
  415.000    0.270    0.420   69.897  234.504    3.705
  415.250    0.256    0.408   67.278  224.301    3.773
  415.500    0.250    0.400   66.227  223.383    3.896
  415.750    0.261    0.412   67.176  223.608    3.982
  416.000    0.262    0.421   69.627  225.298    4.049
  416.250    0.262    0.415   70.578  226.462    4.062
  416.500    0.267    0.355   62.203  226.691    4.043
  416.750    0.277    0.352   61.088  226.083    3.941
  417.000    0.272    0.404   64.291  225.476    3.791
  417.250    0.264    0.446   68.745  226.019    3.605
  417.500    0.267    0.451   72.950  225.618    3.509
  417.750    0.279    0.443   63.824  223.656    3.454
  418.000    0.279    0.440   61.019  223.048    3.431
  418.250    0.277    0.443   66.476  222.859    3.422
  418.500    0.274    0.436   68.802  222.878    3.413
  418.750    0.270    0.432   68.000  223.105    3.418
  419.000    0.263    0.450   66.574  223.438    3.395
  419.250    0.271    0.450   66.334  223.664    3.354
  419.500    0.275    0.446   67.095  224.517    3.295
  419.750    0.282    0.439   69.734  226.517    3.249
  420.000    0.310    0.449   75.378  228.621    3.222
  420.250    0.324    0.454   73.449  231.250    3.214
  420.500    0.301    0.448   69.706  232.315    3.218
  420.750    0.294    0.449   70.906  232.016    3.247
  421.000    0.297    0.450   74.735  231.200    3.251
  421.250    0.289    0.442   74.058  225.900    3.230
  421.500    0.273    0.425   66.121  223.832    3.215
  421.750    0.264    0.401   60.437  223.121    3.207
  422.000    0.263    0.400   55.505  223.349    3.168
  422.250    0.264    0.405   52.952  223.368    3.136
  422.500    0.266    0.406   52.773  223.075    3.116
  422.750    0.275    0.397   51.346  222.780    3.102
  423.000    0.286    0.375   49.229  222.799    3.094
  423.250    0.283    0.379   47.364  221.985    3.092
  423.500    0.282    0.404   46.936  221.171    3.073
  423.750    0.284    0.422   47.574  221.500    3.058
  424.000    0.288    0.438   47.961  222.145    3.039
  424.250    0.288    0.435   48.534  222.477    3.048
  424.500    0.290    0.420   48.922  222.288    3.069
  424.750    0.296    0.390   49.371  222.307    3.074
  425.000    0.307    0.416   49.819  222.322    3.089
  425.250    0.312    0.437   50.457  222.656    3.116
  425.500    0.303    0.449   50.844  222.988    3.187
  425.750    0.299    0.456   51.356  223.318    3.239
  426.000    0.299    0.458   51.619  224.173    3.293
  426.250    0.293    0.456   51.816  224.503    3.335
  426.500    0.283    0.456   51.953  224.939    3.346
  426.750    0.280    0.453   52.090  224.749    3.182
  427.000    0.279    0.443   52.163  224.663    3.008
  427.250    0.280    0.408   52.614  224.372    2.844
  427.500    0.280    0.436   53.375  224.599    2.710
  427.750    0.292    0.477   54.452  225.034    2.602
  428.000    0.306    0.523   55.212  226.513    2.527
  428.250    0.334    0.540   56.163  231.642    2.468
  428.500    0.341    0.462   55.610  235.624    2.662
  428.750    0.329    0.435   50.177  226.360    2.926
  429.000    0.324    0.423   47.371  227.110    2.992
  429.250    0.319    0.420   46.257  232.238    3.024
  429.500    0.315    0.420   45.955  239.141    3.093
  429.750    0.310    0.428   46.029  227.165    3.150
  430.000    0.305    0.434   46.481  228.542    3.184
  430.250    0.301    0.421   46.428  224.908    3.218
  430.500    0.296    0.420   46.063  224.618    3.265
  430.750    0.287    0.433   45.637  224.216    3.308
  431.000    0.274    0.426   44.709  229.347    3.274
  431.250    0.257    0.403   40.777  235.310    3.246
  431.500    0.284    0.381   36.972  228.027    3.219
  431.750    0.316    0.388   38.424  229.924    3.133
  432.000    0.330    0.416   41.187  231.194    3.077
  432.250    0.335    0.435   44.015  223.182    2.994
  432.500    0.331    0.442   42.086  222.888    2.987
  432.750    0.317    0.436   39.907  223.220    3.019
  433.000    0.284    0.418   39.292  228.661    3.051
  433.250    0.298    0.433   39.428  233.270    3.020
  433.500    0.315    0.435   40.003  222.961    2.990
  433.750    0.317    0.419   40.827  223.816    2.954
  434.000    0.316    0.411   41.590  229.155    2.940
  434.250    0.310    0.421   41.540  234.492    2.939
  434.500    0.300    0.411   40.925  233.363    2.960
  434.750    0.324    0.408   39.996  234.947    2.985
  435.000    0.329    0.423   38.945  225.577    3.017
  435.250    0.321    0.429   38.456  221.842    3.051
  435.500    0.318    0.428   38.278  224.574    3.089
  435.750    0.322    0.418   38.165  230.328    3.111
  436.000    0.318    0.389   38.116  235.040    3.144
  436.250    0.322    0.378   37.687  229.426    3.202
  436.500    0.354    0.421   37.073  231.115    3.243
  436.750    0.347    0.451   36.269  228.943    3.297
  437.000    0.317    0.438   35.467  224.894    3.346
  437.250    0.302    0.402   35.604  225.017    3.370
  437.500    0.293    0.383   36.428  228.060    3.367
  437.750    0.286    0.393   37.753  232.670    3.333
  438.000    0.281    0.415   42.584  238.426    3.286
  438.250    0.277    0.423   47.038  243.452    3.192
  438.500    0.273    0.410   50.303  248.164    3.088
  438.750    0.267    0.422   57.512  249.331    3.033
  439.000    0.258    0.455   64.658  251.225    3.060
  439.250    0.249    0.495   69.425  255.104    3.294
  439.500    0.275    0.492   72.191  257.521    3.607
  439.750    0.340    0.503   70.575  259.834    4.027
  440.000    0.467    0.566   63.139  260.583    4.435
  440.250    0.569    0.602   57.205  257.160    4.250
  440.500    0.534    0.564   63.724  267.713    3.853
  440.750    0.484    0.484   68.366  273.782    3.609
  441.000    0.296    0.419   67.939  256.489    3.797
  441.250    0.289    0.436   67.576  256.713    4.011
  441.500    0.339    0.469   66.774  262.469    4.260
  441.750    0.330    0.495   59.650  258.524    4.533
  442.000    0.302    0.476   52.778  247.695    4.899
  442.250    0.301    0.444   52.164  241.352    5.067
  442.500    0.310    0.449   52.300  246.794    4.920
  442.750    0.318    0.445   52.875  239.199    4.670
  443.000    0.319    0.432   53.824  238.282    4.649
  443.250    0.315    0.421   54.273  239.967    4.781
  443.500    0.312    0.421   54.472  244.053    5.186
  443.750    0.307    0.426   54.484  237.396    5.540
  444.000    0.305    0.443   54.621  235.643    5.474
  444.250    0.309    0.452   54.945  241.085    5.156
  444.500    0.318    0.442   55.394  233.385    4.657
  444.750    0.321    0.417   56.156  232.467    4.198
  445.000    0.311    0.405   59.046  236.656    3.807
  445.250    0.268    0.411   62.562  243.873    3.545
  445.500    0.241    0.443   65.828  234.608    3.384
  445.750    0.255    0.462   68.656  226.074    3.343
  446.000    0.276    0.454   68.165  223.902    3.353
  446.250    0.304    0.441   63.734  223.400    3.409
  446.500    0.319    0.434   59.364  224.984    3.486
  446.750    0.317    0.427   57.998  226.461    3.640
  447.000    0.311    0.420   57.574  228.775    3.822
  447.250    0.301    0.414   57.709  227.752    4.299
  447.500    0.284    0.427   58.346  227.249    5.014
  447.750    0.272    0.449   59.110  228.519    6.181
