~VERSION INFORMATION
 VERS.                 2.0:   CWLS LOG ASCII STANDARD -VERSION 2.0
 WRAP.                  NO:   ONE LINE PER DEPTH STEP
~WELL INFORMATION BLOCK
#MNEM.UNIT           DATA                    DESCRIPTION OF MNEMONIC
#---------    -------------------            -------------------------------
# Generated from Intellog Unique Number	CC_84_87/WELL/1149
NULL.         -999.25                        : NULL_VALUE
WELL.         PEX PCEJ HANGST OV             : Well_name    - WELL              
LOC .         07-20-084-09W4                 : Location     - LOCATION          
UWI .         00/07-20-084-09W400            : Uwi          - UNIQUE WELL ID    
ENTR.         JHS                            : Entered      - ENTERED BY        
SRVC.         DRESSER ATLAS                  : Scn          - SERVICE COMPANY   
DATE.         06 FEB 80                      : Date         - LOG DATE
STRT.M        220                            : top_depth    - START DEPTH       
STOP.M        459.992                        : bot_depth    - STOP DEPTH        
STEP.M        0.3                            : increment    - STEP LENGTH       
~CURVE INFORMATION BLOCK
#MNEM UNIT       ERCB CURVE CODE    CURVE DESCRIPTION
#-----------   ------------------   ----------------------------------
DEPT.M        00 001 00 00         : DEPTH        - DEPTH                       
DPHI.V/V      00 890 00 00         : PHID         - DENSITY POROSITY (LIMESTONE)
NPHI.V/V      00 330 00 00         : PHIN         - NEUTRON POROSITY (LIMESTONE)
GR  .API      00 310 00 00         : GR           - GAMMA RAY                   
ILD .OHMM     00 120 00 00         : RESD         - DEEP RESISTIVITY (DIL)      
~PARAMETER INFORMATION       
#MNEM.UNIT           DATA             DESCRIPTION OF MNEMONIC
#---------         -----------     ------------------------------
GL  .M        698.35               : gl           - GROUND LEVEL ELEVATION      
EREF.M        701.95               : kb           - ELEVATION OF DEPTH REFERENCE
DATM.M        701.95               : datum        - DATUM ELEVATION             
TDD .M        477                  : tdd          - TOTAL DEPTH DRILLER         
RUN .         ONE                  : Run          - RUN NUMBER                  
ENG .         BILL                 : Engineer     - RECORDING ENGINEER          
WIT .         JIM                  : Witness      - WITNESSED BY                
MUD .         GEL                  : Mud_type     - MUD TYPE                    
MATR.         LIMESTONE            : Logunit      - NEUTRON MATRIX              
TMAX.C        17                   : BHT          - MAXIMUM RECORDED TEMPERATURE
BHTD.M        477                  : BHTDEP       - MAXIMUM RECORDED TEMPERATURE
MATR.         1                    : LOGUNIT      - NEUTRON MATRIX              
RMT .C        25                   : MDTP         - TEMPERATURE OF MUD          
NEUT.         1                    : NEUTRON      - NEUTRON TYPE                
RESI.         0                    : RESIST       - RESISTIVITY TYPE            
RMC .OHMM     0.25                 : RMC          - RESISTIVITY OF MUD CAKE     
RMF .OHMM     0.25                 : RMF          - RESISTIVITY OF MUD FILTRATE 
SUFT.C        15                   : SUFT         - SURFACE TEMPERATURE         
~A  DEPTH     PHID     PHIN       GR     RESD
# ...
  272.200    0.231    0.399  123.524   11.339
  272.500    0.224    0.419  118.088   11.145
  272.800    0.218    0.436  127.833   10.950
  273.100    0.216    0.442  140.615   10.371
  273.400    0.218    0.427  146.718    9.121
  273.700    0.214    0.432  146.752    8.170
  274.000    0.209    0.441  148.601    7.320
  274.300    0.208    0.422  138.303    6.932
  274.600    0.217    0.417  129.226    6.941
  274.900    0.234    0.411  129.258    7.348
  275.200    0.241    0.404  127.461    8.380
  275.500    0.254    0.393  120.809    9.554
  275.800    0.253    0.390  111.728   12.642
  276.100    0.245    0.402  122.081   16.723
  276.400    0.241    0.405  125.147   17.710
  276.700    0.241    0.399  137.932   16.772
  277.000    0.244    0.402  138.568   14.207
  277.299    0.247    0.414  144.669   12.041
  277.599    0.260    0.425  141.054   11.837
  277.899    0.266    0.404  123.475   11.850
  278.199    0.272    0.379  112.570   12.088
  278.499    0.276    0.354  110.172   12.563
  278.799    0.272    0.363  112.023   13.549
  279.099    0.267    0.345  112.660   14.888
  279.399    0.270    0.319  107.223   16.058
  279.699    0.273    0.242  102.393   16.688
  279.999    0.280    0.189   99.993   17.670
  280.299    0.296    0.125   90.306   18.703
  280.599    0.397    0.110   80.011   22.557
  280.899    0.422    0.115   72.144   26.689
  281.199    0.405    0.136   75.820   54.121
  281.499    0.368    0.146   89.207  222.241
  281.799    0.350    0.159   72.840  690.822
  282.099    0.334    0.165   83.804  802.810
  282.399    0.345    0.156   85.044  803.600
  282.699    0.375    0.143   72.323  668.374
  282.999    0.372    0.175   69.920  207.810
  283.299    0.343    0.215   73.598  211.931
  283.599    0.334    0.239   80.306  212.229
  283.899    0.327    0.271   65.152  260.659
  284.199    0.295    0.326   71.251  332.441
  284.499    0.294    0.361   57.313   76.739
  284.799    0.286    0.358   52.490   57.092
  285.099    0.268    0.338   57.979   44.088
  285.399    0.269    0.314   50.721   30.450
  285.699    0.306    0.370   58.038   32.238
  285.999    0.304    0.380   57.468   33.519
  286.299    0.293    0.368   56.882   32.939
  286.599    0.299    0.348   53.877   32.996
  286.899    0.314    0.342   54.512   33.022
  287.199    0.308    0.341   63.044   34.315
  287.499    0.300    0.352   66.109   35.663
  287.799    0.300    0.358   49.134   37.764
  288.099    0.302    0.349   46.735   37.810
  288.399    0.301    0.335   50.410   37.163
  288.699    0.296    0.349   54.690   36.537
  288.999    0.290    0.352   57.146   35.920
  289.299    0.281    0.343   54.745   35.969
  289.599    0.282    0.343   60.240   36.692
  289.899    0.279    0.354   63.913   36.735
  290.199    0.269    0.350   60.913   36.106
  290.499    0.252    0.333   62.757   34.845
  290.799    0.257    0.326   62.182   33.616
  291.099    0.286    0.304   59.174   32.429
  291.399    0.289    0.282   56.169   31.878
  291.699    0.283    0.340   58.017   33.754
  291.999    0.293    0.349   53.189   36.403
  292.299    0.301    0.341   52.610   40.756
  292.599    0.300    0.356   52.642   45.609
  292.899    0.300    0.370   56.921   42.412
  293.199    0.311    0.377   56.342   37.991
  293.499    0.308    0.380   63.052   34.037
  293.799    0.308    0.380   69.761   31.637
  294.099    0.313    0.364   75.867   30.538
  294.399    0.318    0.337   74.678   30.009
  294.699    0.315    0.309   69.848   30.038
  294.999    0.298    0.291   63.805   30.080
  295.299    0.271    0.271   68.693   30.684
  295.599    0.147    0.213   65.685   32.491
  295.899    0.059    0.150   53.572   37.747
  296.199    0.126    0.214   50.563   47.228
  296.499    0.209    0.343   59.092   56.944
  296.799    0.313    0.395   58.516   52.934
  297.099    0.315    0.379   54.902   45.693
  297.399    0.311    0.395   61.615   35.277
  297.699    0.314    0.390   68.931   31.023
  297.999    0.320    0.409   67.742   29.391
  298.299    0.320    0.406   65.950   28.888
  298.599    0.315    0.412   67.800   30.020
  298.899    0.309    0.403   67.222   31.198
  299.199    0.309    0.405   69.076   31.823
  299.499    0.313    0.399   67.887   31.864
  299.799    0.313    0.407   56.382   31.920
  300.099    0.311    0.394   54.586   31.952
  300.399    0.310    0.388   56.437   31.419
  300.699    0.307    0.389   57.682   31.446
  300.999    0.305    0.382   62.568   30.910
  301.299    0.302    0.381   60.169   30.384
  301.599    0.300    0.381   51.093   29.872
  301.898    0.295    0.406   51.123   29.356
  302.198    0.290    0.396   52.974   28.330
  302.498    0.287    0.373   59.071   27.850
  302.798    0.287    0.347   60.925   27.888
  303.098    0.291    0.326   50.023   28.453
  303.398    0.301    0.307   54.300   29.008
  303.698    0.303    0.265   60.404   30.154
  303.998    0.284    0.196   56.181   32.527
  304.298    0.142    0.149   56.821   35.731
  304.598    0.018    0.092   51.381   40.742
  304.898    0.036    0.107   40.481   56.997
  305.198    0.054    0.126   43.546  372.287
  305.498    0.114    0.197   42.363 1074.330
  305.798    0.160    0.334   47.247 1116.580
  306.098    0.283    0.387   63.068  132.145
  306.398    0.294    0.399   59.453   78.681
  306.698    0.295    0.406   63.129   39.635
  306.998    0.293    0.415   68.013   30.605
  307.298    0.290    0.399   68.047   27.927
  307.598    0.289    0.412   68.681   25.495
  307.898    0.289    0.393   67.500   25.057
  308.198    0.291    0.401   80.278   25.092
  308.498    0.295    0.406   77.882   24.664
  308.798    0.301    0.423   70.622   24.239
  309.098    0.300    0.415   72.471   22.962
  309.398    0.285    0.422   77.357   22.148
  309.698    0.273    0.422   81.637   20.596
  309.998    0.279    0.413   95.031   19.867
  310.298    0.286    0.417   88.376   18.826
  310.598    0.286    0.425   76.869   18.841
  310.898    0.285    0.435   77.506   18.876
  311.198    0.276    0.442   81.785   19.246
  311.498    0.274    0.438   75.743   21.151
  311.798    0.287    0.424   84.271   22.390
  312.098    0.297    0.409   83.092   24.156
  312.398    0.294    0.411   83.727   25.096
  312.698    0.288    0.394   76.466   26.085
  312.998    0.286    0.403   77.709   26.622
  313.298    0.290    0.402   75.310   26.651
  313.598    0.292    0.400   81.414   26.683
  313.898    0.285    0.435   81.443   26.720
  314.198    0.278    0.427   82.078   26.265
  314.498    0.271    0.403   87.580   25.340
  314.798    0.267    0.403   81.531   23.554
  315.098    0.268    0.387   78.522   19.957
  315.398    0.272    0.407   89.481   15.992
  315.698    0.274    0.408   80.401   13.302
  315.998    0.277    0.390   76.787   13.319
  316.298    0.267    0.382   87.747   13.594
  316.598    0.256    0.410   99.923   13.608
  316.898    0.245    0.429  110.884   12.190
  317.198    0.245    0.446  109.699   10.717
  317.498    0.246    0.465  113.979    9.600
  317.798    0.256    0.453  105.507    8.287
  318.098    0.263    0.456   94.603    7.703
  318.398    0.257    0.453   96.454    7.574
  318.698    0.274    0.408   91.018    8.017
  318.998    0.266    0.407   89.227    9.144
  319.298    0.254    0.401   96.544    9.859
  319.598    0.248    0.390   94.147   10.834
  319.898    0.234    0.382   88.100   12.130
  320.198    0.260    0.402   84.487   13.081
  320.498    0.259    0.418   93.017   13.342
  320.798    0.248    0.441  105.193   12.641
  321.098    0.240    0.428  110.689   11.752
  321.398    0.246    0.432  111.325   10.922
  321.698    0.249    0.416  107.709   10.157
  321.998    0.249    0.419  107.130    9.622
  322.298    0.245    0.427  122.952    9.279
  322.598    0.238    0.421  110.227    8.630
  322.898    0.238    0.436  116.328    8.324
  323.198    0.237    0.446  111.499    7.884
  323.498    0.234    0.435  111.533    7.608
  323.798    0.235    0.434  110.346    7.477
  324.098    0.238    0.448  114.019    7.214
