~VERSION INFORMATION
 VERS.                 2.0:   CWLS LOG ASCII STANDARD -VERSION 2.0
 WRAP.                  NO:   ONE LINE PER DEPTH STEP
~WELL INFORMATION BLOCK
#MNEM.UNIT           DATA                    DESCRIPTION OF MNEMONIC
#---------    -------------------            -------------------------------
# Generated from Intellog Unique Number	CS_69_70/WELL/134
WELL.         AFC MEDLEY 6-7-69 2 W4M        : Well_name    - WELL
LOC .         00/06-07-069-02W4/0            : Location     - LOCATION
UWI .         00/06-07-069-02W4/0            : Uwi          - UNIQUE WELL ID
ENTR.         ANDERSEN                       : Entered      - ENTERED BY
SRVC.         SCHLUMBERGER                   : Scn          - SERVICE COMPANY
STRT.M        375                            : top_depth    - START DEPTH
STOP.M        625                            : bot_depth    - STOP DEPTH
STEP.M        0.25                           : increment    - STEP LENGTH
 NULL. -999.2500:NULL Value
~CURVE INFORMATION BLOCK
#MNEM UNIT       ERCB CURVE CODE    CURVE DESCRIPTION
#-----------   ------------------   ----------------------------------
DEPT.M        00 001 00 00         : DEPTH        - DEPTH
ILD .OHMM     00 120 00 00         : RESD         - DEEP RESISTIVITY (DIL)
DPHI.V/V      00 890 00 00         : PHID         - DENSITY POROSITY (SANDSTONE)
NPHI.V/V      00 330 00 00         : PHIN         - NEUTRON POROSITY (SANDSTONE)
CALI.MM       00 280 01 00         : CAL          - CALIPER
GR  .API      00 310 00 00         : GR           - GAMMA RAY
~PARAMETER INFORMATION
#MNEM.UNIT           DATA             DESCRIPTION OF MNEMONIC
#---------         -----------     ------------------------------
GL  .M        717.8                : gl           - GROUND LEVEL ELEVATION
EREF.M        721.4                : kb           - ELEVATION OF DEPTH REFERENCE
DATM.M        721.4                : datum        - DATUM ELEVATION
TDD .M        626                  : tdd          - TOTAL DEPTH DRILLER
RUN .         ONE                  : Run          - RUN NUMBER
ENG .         BILL                 : Engineer     - RECORDING ENGINEER
WIT .         JIM                  : Witness      - WITNESSED BY
MUD .         GEL                  : Mud_type     - MUD TYPE
MATR.         SANDSTONE            : Logunit      - NEUTRON MATRIX
TMAX.C        27                   : BHT          - MAXIMUM RECORDED TEMPERATURE
BHTD.M        626                  : BHTDEP       - MAXIMUM RECORDED TEMPERATURE
MATR.         1                    : LOGUNIT      - NEUTRON MATRIX
RMT .C        19                   : MDTP         - TEMPERATURE OF MUD
NEUT.         1                    : NEUTRON      - NEUTRON TYPE
RESI.         0                    : RESIST       - RESISTIVITY TYPE
RMC .OHMM     3.3                  : RMC          - RESISTIVITY OF MUD CAKE
RMF .OHMM     6.9                  : RMF          - RESISTIVITY OF MUD FILTRATE
SUFT.C        15                   : SUFT         - SURFACE TEMPERATURE
~A  DEPTH     RESD     PHID     PHIN      CAL       GR
# ...
  594.000    4.919    0.336    0.333  161.613   23.122
  594.250    4.925    0.339    0.343  161.598   23.107
  594.500    5.021    0.339    0.343  161.578   23.095
  594.750    5.025    0.326    0.329  161.558   23.086
  595.000    5.122    0.309    0.320  159.614   23.071
  595.250    5.220    0.307    0.325  159.599   23.059
  595.500    5.321    0.309    0.328  157.644   23.047
  595.750    5.425    0.309    0.325  157.634   23.035
  596.000    5.529    0.306    0.309  157.609   23.024
  596.250    5.534    0.302    0.296  157.585   23.584
  596.500    5.539    0.290    0.286  157.575   23.573
  596.750    5.543    0.282    0.282  156.585   22.985
  597.000    5.548    0.277    0.277  156.575   22.976
  597.250    5.553    0.282    0.277  155.585   22.385
  597.500    5.556    0.297    0.288  155.566   22.373
  597.750    5.561    0.309    0.305  156.505   22.934
  598.000    5.569    0.315    0.317  157.450   24.074
  598.250    5.571    0.315    0.316  158.385   24.637
  598.500    5.576    0.315    0.314  160.289   25.777
  598.750    5.683    0.310    0.307  161.229   25.768
  599.000    5.688    0.302    0.300  162.164   25.174
  599.250    5.693    0.297    0.297  163.104   25.163
  599.500    5.700    0.295    0.295  163.084   25.726
  599.750    5.702    0.293    0.294  164.024   27.442
  600.000    5.708    0.286    0.293  165.923   28.006
  600.250    5.714    0.282    0.290  167.823   27.994
  600.500    5.719    0.284    0.289  168.762   27.982
  600.750    5.724    0.288    0.289  167.773   27.970
  601.000    5.730    0.289    0.294  165.833   26.230
  601.250    5.629    0.290    0.301  164.854   25.643
  601.500    5.432    0.295    0.306  163.874   25.055
  601.750    5.242    0.305    0.313  162.895   24.464
  602.000    5.058    0.312    0.321  162.880   24.455
  602.250    4.971    0.320    0.321  161.895   23.861
  602.500    4.975    0.319    0.322  161.870   23.274
  602.750    4.979    0.321    0.327  161.855   23.265
  603.000    4.983    0.331    0.332  161.830   23.253
  603.250    4.987    0.345    0.336  161.810   23.238
  603.500    4.992    0.349    0.340  162.750   23.229
  603.750    5.089    0.349    0.340  162.730   23.217
  604.000    5.281    0.340    0.337  162.710   23.781
  604.250    5.586    0.324    0.325  164.610   25.493
  604.500    5.590    0.316    0.307  166.509   27.209
  604.750    5.698    0.305    0.293  168.404   31.800
  605.000    5.702    0.287    0.294  168.389   33.519
  605.250    5.707    0.292    0.310  167.409   35.234
  605.500    5.924    0.302    0.322  166.425   35.222
  605.750    6.038    0.307    0.330  165.450   32.904
  606.000    6.158    0.307    0.330  163.501   30.589
  606.250    6.162    0.304    0.303  160.602   27.122
  606.500    6.280    0.297    0.300  159.622   24.807
  606.750    6.520    0.296    0.300  158.643   24.795
  607.000    6.646    0.305    0.305  158.628   27.659
  607.250    6.773    0.316    0.319  159.567   30.529
  607.500    7.031    0.279    0.329  159.537   35.700
  607.750    7.166    0.243    0.338  159.518   57.569
  608.000    7.308    0.247    0.349  158.538   61.012
  608.250    7.449    0.269    0.362  158.518   51.208
  608.500    7.320    0.277    0.357  157.543   51.193
  608.750    7.326    0.278    0.368  157.519   54.060
  609.000    7.332    0.249    0.370  157.499   53.472
  609.250    7.075    0.235    0.333  157.479   55.767
  609.500    6.827    0.238    0.322  158.418   59.210
  609.750    6.467    0.246    0.319  158.399   62.077
  610.000    6.019    0.261    0.323  159.338   55.728
  610.250    5.703    0.270    0.328  159.318   47.079
  610.500    5.404    0.301    0.330  160.258   36.702
  610.750    5.310    0.319    0.332  160.238   30.932
  611.000    5.217    0.325    0.339  161.168   26.310
  611.250    5.318    0.331    0.345  161.148   23.416
  611.500    5.623    0.336    0.349  161.128   22.253
  611.750    5.836    0.341    0.358  161.113   21.668
  612.000    5.841    0.351    0.368  161.093   21.080
  612.250    5.848    0.360    0.376  161.068   21.068
  612.500    5.853    0.280    0.373  161.049   24.511
  612.750    5.750    0.266    0.320  161.029   39.471
  613.000    5.549    0.282    0.333  161.009   49.248
  613.250    5.354    0.306    0.341  161.944   41.747
  613.500    5.166    0.319    0.343  161.924   35.401
  613.750    5.078    0.331    0.330  161.904   29.052
  614.000    5.081    0.331    0.329  159.005   23.861
  614.250    5.086    0.331    0.332  158.030   19.239
  614.500    5.092    0.334    0.336  158.000   19.227
  614.750    5.095    0.343    0.343  158.935   22.670
  615.000    5.193    0.348    0.344  158.925   24.386
  615.250    5.296    0.330    0.342  159.860   22.643
  615.500    5.396    0.310    0.318  160.795   22.631
  615.750    5.400    0.315    0.310  160.780   22.044
  616.000    5.505    0.316    0.312  160.760   21.456
  616.250    5.612    0.312    0.319  160.735   20.868
  616.500    5.618    0.298    0.328  160.715   19.129
  616.750    5.621    0.278    0.338  160.695   17.965
  617.000    5.627    0.271    0.343  160.675   16.802
  617.250    5.632    0.297    0.335  161.620   17.935
  617.500    5.636    0.317    0.329  161.595   18.505
  617.750    5.641    0.338    0.335  161.570   19.639
  618.000    5.645    0.330    0.337  162.515   19.051
  618.250    5.650    0.311    0.327  163.455   18.463
  618.500    5.555    0.294    0.337  164.394   18.451
  618.750    5.557    0.318    0.356  165.334   19.015
  619.000    5.463    0.318    0.339  165.309   20.731
  619.250    5.467    0.324    0.343  164.330   21.870
  619.500    5.472    0.316    0.354  163.355   21.861
  619.750    5.475    0.320    0.365  162.365   21.846
  620.000    5.480    0.313    0.355  161.381   21.259
  620.250    5.796    0.316    0.343  161.371   21.247
  620.500    6.126    0.326    0.347  161.351   21.232
  620.750    6.969    0.329    0.349  161.331   20.647
  621.000    7.781    0.304    0.345  161.306   20.632
  621.250    9.520    0.134    0.338  162.246   20.620
  621.500   12.534    0.158    0.341  164.140   20.608
  621.750   18.750    0.151    0.348  164.126   20.596
  622.000   33.059    0.133    0.344  165.065   20.584
  622.250   55.191    0.062    0.337  165.045   20.566
  622.500   62.772    0.062    0.340  165.016   20.560
  622.750   65.162    0.061    0.338  165.006   20.548
  623.000   64.036    0.059    0.332  164.976   20.530
  623.250   62.930    0.061    0.334  164.956   20.521
  623.500   60.748    0.075    0.339  164.936   20.507
  623.750   58.618    0.096    0.343  164.916   20.495
  624.000   56.562    0.117    0.344  164.901   20.483
  624.250   54.579    0.111    0.340  163.921   21.047
  624.500   53.636    0.113    0.333  162.942   21.038
  624.750   52.709    0.102    0.333  161.947   21.596
  625.000   52.742    0.083    0.339  161.932   21.584
