~VERSION INFORMATION
 VERS.                 2.0:   CWLS LOG ASCII STANDARD -VERSION 2.0
 WRAP.                  NO:   ONE LINE PER DEPTH STEP
~WELL INFORMATION BLOCK
#MNEM.UNIT           DATA                    DESCRIPTION OF MNEMONIC
#---------    -------------------            -------------------------------
# Generated from Intellog Unique Number	CS_69_70/WELL/785
WELL.         HUSKY OIL OPERATIONS           : Well_name    - WELL
LOC .         00/06-32-069-04W4/0            : Location     - LOCATION
UWI .         00/06-32-069-04W4/0            : Uwi          - UNIQUE WELL ID
ENTR.         SP                             : Entered      - ENTERED BY
SRVC.         SCHLUMBERGER                   : Scn          - SERVICE COMPANY
STRT.M        310                            : top_depth    - START DEPTH
STOP.M        540                            : bot_depth    - STOP DEPTH
STEP.M        0.25                           : increment    - STEP LENGTH
 NULL. -999.2500:NULL Value
~CURVE INFORMATION BLOCK
#MNEM UNIT       ERCB CURVE CODE    CURVE DESCRIPTION
#-----------   ------------------   ----------------------------------
DEPT.M        00 001 00 00         : DEPTH        - DEPTH
ILD .OHMM     00 120 00 00         : RESD         - DEEP RESISTIVITY (DIL)
DPHI.V/V      00 890 00 00         : PHID         - DENSITY POROSITY (LIMESTONE)
NPHI.V/V      00 330 00 00         : PHIN         - NEUTRON POROSITY (LIMESTONE)
GR  .API      00 310 00 00         : GR           - GAMMA RAY
~PARAMETER INFORMATION
#MNEM.UNIT           DATA             DESCRIPTION OF MNEMONIC
#---------         -----------     ------------------------------
GL  .M        685.9                : gl           - GROUND LEVEL ELEVATION
EREF.M        689.6                : kb           - ELEVATION OF DEPTH REFERENCE
DATM.M        685.9                : datum        - DATUM ELEVATION
TDD .M        547                  : tdd          - TOTAL DEPTH DRILLER
RUN .         ONE                  : Run          - RUN NUMBER
ENG .         BILL                 : Engineer     - RECORDING ENGINEER
WIT .         JIM                  : Witness      - WITNESSED BY
MUD .         GEL                  : Mud_type     - MUD TYPE
MATR.         LIMESTONE            : Logunit      - NEUTRON MATRIX
TMAX.C        22                   : BHT          - MAXIMUM RECORDED TEMPERATURE
BHTD.M        547                  : BHTDEP       - MAXIMUM RECORDED TEMPERATURE
MATR.         1                    : LOGUNIT      - NEUTRON MATRIX
RMT .C        25                   : MDTP         - TEMPERATURE OF MUD
NEUT.         1                    : NEUTRON      - NEUTRON TYPE
RESI.         0                    : RESIST       - RESISTIVITY TYPE
RMC .OHMM     0.25                 : RMC          - RESISTIVITY OF MUD CAKE
RMF .OHMM     0.25                 : RMF          - RESISTIVITY OF MUD FILTRATE
SUFT.C        15                   : SUFT         - SURFACE TEMPERATURE
~A  DEPTH     RESD     PHID     PHIN       GR
# ...
  397.000    4.600    0.360    0.442   48.447
  397.250    4.585    0.358    0.431   49.546
  397.500    4.552    0.357    0.418   49.675
  397.750    4.460    0.357    0.414   49.321
  398.000    4.338    0.357    0.412   49.873
  398.250    4.157    0.355    0.415   52.306
  398.500    4.028    0.352    0.426   55.100
  398.750    3.961    0.351    0.440   58.017
  399.000    3.889    0.352    0.447   59.600
  399.250    3.832    0.355    0.438   57.003
  399.500    3.756    0.360    0.430   57.739
  399.750    3.715    0.356    0.466   60.050
  400.000    3.674    0.350    0.498   61.755
  400.250    3.641    0.348    0.499   62.125
  400.500    3.615    0.349    0.474   63.345
  400.750    3.589    0.347    0.471   64.686
  401.000    3.590    0.350    0.497   69.058
  401.250    3.565    0.340    0.494   73.124
  401.500    3.533    0.326    0.477   77.980
  401.750    3.507    0.317    0.463   82.652
  402.000    3.411    0.311    0.495   87.022
  402.250    3.142    0.309    0.531   90.726
  402.500    2.836    0.311    0.549   92.854
  402.750    2.651    0.313    0.557   94.741
  403.000    2.545    0.315    0.554   94.628
  403.250    2.480    0.313    0.557   91.365
  403.500    2.514    0.309    0.565   78.832
  403.750    3.055    0.303    0.513   74.115
  404.000    3.471    0.296    0.479   74.305
  404.250    3.974    0.290    0.488   76.374
  404.500    4.661    0.283    0.487   78.502
  404.750    5.016    0.275    0.473   79.541
  405.000    5.170    0.264    0.462   80.821
  405.250    5.210    0.259    0.465   81.920
  405.500    5.241    0.264    0.474   78.293
  405.750    5.283    0.275    0.482   75.999
  406.000    5.295    0.280    0.467   75.826
  406.250    5.286    0.274    0.449   77.349
  406.500    5.180    0.268    0.440   79.175
  406.750    4.972    0.266    0.439   80.699
  407.000    4.737    0.271    0.458   81.130
  407.250    4.616    0.272    0.486   80.896
  407.500    4.575    0.266    0.475   80.541
  407.750    4.533    0.264    0.469   82.185
  408.000    4.459    0.267    0.475   84.618
  408.250    4.329    0.278    0.470   86.139
  408.500    4.202    0.295    0.474   88.086
  408.750    3.981    0.297    0.484   89.730
  409.000    3.858    0.290    0.489   89.920
  409.250    3.724    0.289    0.490   88.293
  409.500    3.581    0.303    0.486   87.938
  409.750    3.406    0.292    0.497   88.309
  410.000    2.971    0.254    0.511   88.802
  410.250    2.666    0.249    0.484   89.054
  410.500    2.550    0.248    0.456   89.244
  410.750    2.532    0.249    0.480   90.161
  411.000    2.509    0.254    0.513   91.561
  411.250    2.505    0.258    0.524   92.539
  411.500    2.501    0.261    0.528   90.548
  411.750    2.588    0.263    0.532   87.346
  412.000    2.848    0.279    0.535   84.749
  412.250    3.170    0.296    0.499   82.818
  412.500    3.476    0.318    0.448   81.555
  412.750    3.643    0.344    0.468   83.320
  413.000    3.713    0.324    0.519   85.025
  413.250    3.612    0.287    0.537   86.305
  413.500    3.434    0.281    0.535   87.222
  413.750    3.279    0.299    0.545   83.050
  414.000    3.219    0.313    0.553   75.547
  414.250    3.262    0.323    0.524   72.101
  414.500    4.010    0.333    0.495   73.382
  414.750    4.901    0.324    0.460   77.086
  415.000    5.621    0.311    0.441   79.457
  415.250    5.804    0.297    0.453   79.223
  415.500    5.667    0.310    0.464   78.383
  415.750    5.658    0.330    0.422   76.331
  416.000    5.734    0.350    0.359   74.098
  416.250    5.933    0.370    0.359   75.621
  416.500    6.653    0.383    0.357   77.690
  416.750    8.193    0.388    0.340   76.728
  417.000   10.396    0.384    0.326   73.102
  417.250   11.335    0.375    0.339   69.839
  417.500   11.727    0.370    0.358   68.696
  417.750   11.407    0.351    0.369   71.370
  418.000   10.970    0.336    0.397   70.167
  418.250   10.086    0.328    0.396   66.358
  418.500    9.683    0.390    0.343   64.730
  418.750   10.018    0.410    0.304   65.526
  419.000   10.922    0.424    0.276   66.929
  419.250   12.317    0.436    0.286   68.149
  419.500   13.454    0.434    0.305   69.187
  419.750   14.156    0.419    0.320   69.558
  420.000   12.585    0.399    0.328   67.991
  420.250   10.478    0.379    0.354   67.273
  420.500    9.262    0.380    0.395   67.281
  420.750    8.500    0.310    0.420   65.896
  421.000    7.816    0.275    0.439   62.875
  421.250    7.349    0.215    0.396   65.125
  421.500    6.872    0.178    0.407   72.585
  421.750    6.511    0.220    0.440   78.046
  422.000    6.227    0.247    0.458   82.477
  422.250    6.022    0.264    0.450   84.847
  422.500    5.846    0.274    0.465   80.615
  422.750    5.665    0.265    0.473   78.867
  423.000    5.479    0.263    0.460   78.087
  423.250    5.389    0.265    0.449   76.944
  423.500    5.492    0.265    0.443   75.438
  423.750    5.899    0.266    0.437   76.598
  424.000    6.184    0.273    0.423   78.241
  424.250    6.386    0.286    0.407   80.188
  424.500    6.484    0.298    0.425   81.469
  424.750    6.190    0.302    0.449   81.779
  425.000    5.523    0.306    0.471   80.637
  425.250    4.837    0.308    0.496   79.373
  425.500    4.244    0.288    0.505   81.079
  425.750    3.801    0.275    0.476   82.600
  426.000    3.514    0.284    0.489   83.517
  426.250    3.166    0.297    0.518   84.617
  426.500    2.889    0.309    0.530   85.837
  426.750    2.636    0.310    0.536   86.754
  427.000    2.406    0.311    0.545   87.125
  427.250    2.220    0.314    0.548   86.710
  427.500    2.084    0.320    0.552   86.052
  427.750    2.035    0.313    0.572   86.605
  428.000    1.990    0.303    0.573   84.856
  428.250    2.006    0.299    0.558   83.168
  428.500    2.079    0.294    0.541   89.418
  428.750    2.221    0.292    0.517   87.305
  429.000    2.302    0.295    0.527   82.890
  429.250    2.381    0.308    0.527   79.264
  429.500    2.464    0.323    0.495   74.911
  429.750    2.794    0.341    0.358   71.526
  430.000    3.579    0.352    0.340   67.717
  430.250    5.025    0.362    0.334   63.909
  430.500    8.303    0.343    0.315   60.040
  430.750   12.683    0.328    0.290   55.748
  431.000   18.801    0.333    0.291   51.758
  431.250   23.635    0.336    0.293   49.523
  431.500   26.854    0.334    0.293   50.381
  431.750   28.682    0.348    0.311   49.541
  432.000   29.954    0.348    0.350   46.459
  432.250   29.297    0.345    0.363   45.680
  432.500   26.938    0.343    0.357   48.174
  432.750   23.992    0.341    0.341   49.878
  433.000   22.350    0.341    0.325   51.096
  433.250   21.295    0.342    0.319   51.771
  433.500   20.945    0.341    0.325   52.084
  433.750   21.268    0.340    0.321   51.969
  434.000   21.556    0.349    0.315   51.677
  434.250   21.765    0.346    0.310   50.896
  434.500   21.894    0.340    0.316   47.451
  434.750   22.233    0.338    0.329   46.248
  435.000   22.490    0.344    0.338   47.649
  435.250   22.667    0.346    0.333   48.081
  435.500   22.887    0.340    0.329   47.181
  435.750   22.766    0.336    0.329   45.796
  436.000   22.266    0.340    0.338   44.593
  436.250   21.657    0.340    0.333   44.784
  436.500   20.905    0.344    0.327   46.851
  436.750   19.769    0.358    0.348   49.282
  437.000   19.702    0.215    0.238   47.715
  437.250   20.888    0.147    0.211   43.422
  437.500   22.266    0.114    0.180   41.432
  437.750   25.924    0.100    0.168   43.621
  438.000   30.924    0.076    0.157   41.630
  438.250   35.932    0.052    0.149   42.608
  438.500   40.902    0.090    0.141   45.828
  438.750   37.329    0.157    0.218   47.592
  439.000   34.001    0.250    0.262   49.723
  439.250   30.000    0.322    0.296   50.577
  439.500   27.224    0.346    0.318   50.828
  439.750   27.131    0.360    0.340   48.231
  440.000   29.918    0.211    0.214   45.331
  440.250   31.774    0.142    0.144   47.340
