~VERSION INFORMATION
 VERS.                 2.0:   CWLS LOG ASCII STANDARD -VERSION 2.0
 WRAP.                  NO:   ONE LINE PER DEPTH STEP
~WELL INFORMATION BLOCK
#MNEM.UNIT           DATA                    DESCRIPTION OF MNEMONIC
#---------    -------------------            -------------------------------
# Generated from Intellog Unique Number	CS_73_76/WELL/2157
WELL.         DOME ET AL KIRBY               : Well_name    - WELL
LOC .         00/05-21-074-04W4/0            : Location     - LOCATION
UWI .         00/05-21-074-04W4/0            : Uwi          - UNIQUE WELL ID
ENTR.         SP                             : Entered      - ENTERED BY
SRVC.         SCHLUMBERGER                   : Scn          - SERVICE COMPANY
STRT.M        210                            : top_depth    - START DEPTH
STOP.M        420                            : bot_depth    - STOP DEPTH
STEP.M        0.25                           : increment    - STEP LENGTH
 NULL. -999.2500:NULL Value
~CURVE INFORMATION BLOCK
#MNEM UNIT       ERCB CURVE CODE    CURVE DESCRIPTION
#-----------   ------------------   ----------------------------------
DEPT.M        00 001 00 00         : DEPTH        - DEPTH
ILD .OHMM     00 120 00 00         : RESD         - DEEP RESISTIVITY (DIL)
DPHI.V/V      00 890 00 00         : PHID         - DENSITY POROSITY (LIMESTONE)
NPHI.V/V      00 330 00 00         : PHIN         - NEUTRON POROSITY (LIMESTONE)
GR  .API      00 310 00 00         : GR           - GAMMA RAY
~PARAMETER INFORMATION
#MNEM.UNIT           DATA             DESCRIPTION OF MNEMONIC
#---------         -----------     ------------------------------
GL  .M        598                  : gl           - GROUND LEVEL ELEVATION
EREF.M        601.9                : kb           - ELEVATION OF DEPTH REFERENCE
DATM.M        598                  : datum        - DATUM ELEVATION
TDD .M        432                  : tdd          - TOTAL DEPTH DRILLER
RUN .         ONE                  : Run          - RUN NUMBER
ENG .         BILL                 : Engineer     - RECORDING ENGINEER
WIT .         JIM                  : Witness      - WITNESSED BY
MUD .         GEL                  : Mud_type     - MUD TYPE
MATR.         LIMESTONE            : Logunit      - NEUTRON MATRIX
TMAX.C        20                   : BHT          - MAXIMUM RECORDED TEMPERATURE
BHTD.M        432                  : BHTDEP       - MAXIMUM RECORDED TEMPERATURE
MATR.         1                    : LOGUNIT      - NEUTRON MATRIX
RMT .C        25                   : MDTP         - TEMPERATURE OF MUD
NEUT.         1                    : NEUTRON      - NEUTRON TYPE
RESI.         0                    : RESIST       - RESISTIVITY TYPE
RMC .OHMM     0.25                 : RMC          - RESISTIVITY OF MUD CAKE
RMF .OHMM     0.25                 : RMF          - RESISTIVITY OF MUD FILTRATE
SUFT.C        15                   : SUFT         - SURFACE TEMPERATURE
~A  DEPTH     RESD     PHID     PHIN       GR
# ...
  340.500    1.934    0.324    0.378   69.421
  340.750    2.011    0.325    0.372   72.521
  341.000    2.050    0.313    0.369   73.760
  341.250    2.091    0.305    0.375   71.901
  341.500    2.133    0.310    0.389   71.281
  341.750    2.134    0.290    0.390   67.562
  342.000    2.096    0.269    0.390   67.562
  342.250    2.019    0.281    0.369   74.380
  342.500    2.060    0.296    0.372   75.620
  342.750    2.062    0.277    0.394   78.099
  343.000    2.103    0.259    0.413   79.959
  343.250    2.144    0.248    0.405   85.537
  343.500    2.272    0.245    0.417   88.016
  343.750    2.362    0.241    0.421   83.678
  344.000    2.455    0.237    0.431   80.579
  344.250    2.552    0.230    0.422   84.917
  344.500    2.653    0.224    0.410   87.397
  344.750    2.654    0.224    0.428   92.975
  345.000    2.657    0.237    0.448   92.975
  345.250    2.608    0.241    0.439   96.694
  345.500    2.561    0.244    0.444   92.355
  345.750    2.516    0.249    0.448   90.496
  346.000    2.471    0.251    0.439   86.777
  346.250    2.472    0.249    0.429   83.058
  346.500    2.427    0.247    0.417   83.678
  346.750    2.339    0.248    0.434   90.496
  347.000    2.296    0.257    0.446   83.058
  347.250    2.172    0.257    0.439   86.157
  347.500    2.092    0.250    0.435   91.116
  347.750    2.015    0.252    0.434   88.016
  348.000    1.942    0.254    0.425   82.438
  348.250    1.907    0.249    0.428   76.859
  348.500    1.872    0.247    0.418   81.818
  348.750    1.838    0.250    0.425   90.496
  349.000    1.840    0.260    0.441   96.694
  349.250    1.876    0.265    0.439   86.157
  349.500    2.026    0.270    0.393   76.240
  349.750    2.406    0.270    0.378   71.901
  350.000    2.549    0.274    0.414   76.240
  350.250    2.752    0.271    0.445   80.579
  350.500    2.754    0.261    0.476   76.859
  350.750    2.603    0.257    0.500   79.959
  351.000    2.281    0.259    0.480   83.678
  351.250    2.037    0.262    0.472   87.397
  351.500    1.925    0.287    0.493   79.339
  351.750    1.821    0.299    0.528   74.380
  352.000    1.787    0.341    0.554   79.959
  352.250    1.859    0.288    0.534   78.719
  352.500    1.896    0.274    0.520   83.058
  352.750    1.933    0.266    0.526   84.297
  353.000    1.971    0.276    0.525   83.058
  353.250    1.974    0.290    0.518   73.141
  353.500    1.975    0.299    0.521   76.859
  353.750    1.977    0.297    0.534   80.579
  354.000    2.016    0.284    0.534   84.297
  354.250    2.056    0.277    0.515   96.694
  354.500    2.178    0.282    0.490   97.934
  354.750    2.352    0.287    0.497   94.215
  355.000    2.491    0.295    0.500   83.961
  355.250    2.690    0.282    0.494   91.405
  355.500    2.850    0.257    0.489   84.647
  355.750    3.020    0.245    0.493   81.579
  356.000    3.138    0.238    0.437   84.698
  356.250    3.082    0.243    0.413   83.493
  356.500    2.914    0.249    0.428   88.462
  356.750    2.861    0.249    0.447   86.640
  357.000    2.706    0.252    0.456   92.840
  357.250    2.656    0.259    0.486   87.937
  357.500    2.609    0.263    0.476   92.301
  357.750    2.561    0.267    0.493   93.553
  358.000    2.613    0.271    0.481   92.345
  358.250    2.716    0.284    0.508   86.820
  358.500    2.770    0.276    0.518   85.002
  358.750    2.825    0.289    0.508   85.024
  359.000    2.881    0.306    0.521   80.732
  359.250    2.938    0.314    0.505   77.061
  359.500    2.997    0.326    0.528   85.112
  359.750    2.943    0.321    0.495   83.913
  360.000    2.782    0.300    0.477   79.618
  360.250    2.732    0.303    0.470   80.267
  360.500    2.632    0.330    0.504   80.293
  360.750    2.584    0.346    0.527   78.475
  361.000    2.443    0.351    0.513   80.969
  361.250    2.310    0.356    0.527   85.320
  361.500    2.268    0.345    0.527   89.674
  361.750    2.227    0.359    0.532   89.706
  362.000    2.229    0.365    0.545   82.943
  362.250    2.230    0.361    0.515   76.797
  362.500    2.363    0.362    0.499   81.165
  362.750    2.365    0.353    0.489   83.031
  363.000    2.236    0.393    0.503   78.121
  363.250    2.114    0.437    0.505   75.684
  363.500    2.156    0.368    0.482   80.650
  363.750    2.328    0.277    0.436   70.803
  364.000    2.466    0.256    0.390   66.514
  364.250    2.563    0.247    0.362   66.540
  364.500    2.378    0.242    0.352   66.570
  364.750    2.164    0.239    0.373   65.364
  365.000    1.970    0.271    0.368   69.718
  365.250    1.862    0.285    0.362   65.703
  365.500    1.695    0.277    0.374   68.182
  365.750    1.572    0.268    0.391   78.099
  366.000    1.486    0.262    0.393   75.620
  366.250    1.515    0.267    0.383   61.983
  366.500    1.576    0.269    0.372   57.645
  366.750    1.701    0.269    0.354   55.785
  367.000    1.837    0.269    0.358   61.364
  367.250    1.946    0.270    0.364   76.240
  367.500    2.062    0.273    0.368   79.959
  367.750    2.143    0.275    0.369   73.141
  368.000    2.314    0.275    0.378   60.124
  368.250    2.596    0.280    0.363   52.686
  368.500    2.802    0.286    0.364   54.545
  368.750    3.264    0.281    0.364   58.884
  369.000    3.876    0.278    0.371   64.463
  369.250    4.514    0.274    0.386   65.703
  369.500    6.240    0.274    0.384   64.463
  369.750    7.993    0.278    0.372   65.703
  370.000    8.002    0.285    0.393   66.322
  370.250    7.854    0.286    0.384   68.182
  370.500    7.149    0.286    0.376   75.620
  370.750    6.506    0.284    0.380   84.917
  371.000    7.025    0.279    0.387   84.917
  371.250    8.664    0.284    0.411   56.405
  371.500   10.684    0.290    0.392   46.488
  371.750   13.177    0.284    0.373   54.545
  372.000   13.698    0.277    0.356   61.983
  372.250   12.002    0.267    0.345   61.983
  372.500   10.318    0.266    0.332   63.223
  372.750    9.213    0.266    0.355   55.165
  373.000    8.073    0.264    0.357   59.504
  373.250    7.632    0.277    0.384   59.504
  373.500    8.560    0.271    0.379   55.785
  373.750    9.419    0.266    0.366   78.719
  374.000   10.365    0.256    0.384   50.826
  374.250   10.776    0.261    0.400   37.190
  374.500   10.784    0.273    0.361   45.248
  374.750   10.389    0.280    0.336   52.066
  375.000    9.639    0.270    0.323   57.645
  375.250    9.110    0.252    0.316   59.504
  375.500    8.137    0.149    0.295   53.306
  375.750    6.996    0.121    0.261   46.488
  376.000    6.129    0.207    0.329   53.306
  376.250    5.578    0.260    0.342   65.703
  376.500    4.981    0.257    0.353   79.339
  376.750    4.533    0.225    0.338   85.537
  377.000    4.205    0.205    0.334   92.975
  377.250    3.827    0.210    0.338   94.835
  377.500    3.687    0.224    0.378   94.215
  377.750    3.421    0.231    0.389   85.537
  378.000    3.296    0.232    0.365   71.901
  378.250    3.298    0.262    0.351   66.322
  378.500    3.561    0.263    0.330   76.240
  378.750    3.918    0.234    0.360   91.116
  379.000    4.653    0.251    0.386   98.554
  379.250    5.218    0.266    0.379   91.736
  379.500    5.965    0.277    0.362   64.463
  379.750    6.083    0.264    0.365   58.264
  380.000    6.204    0.241    0.381   70.661
  380.250    6.093    0.233    0.389   81.818
  380.500    5.983    0.231    0.364   88.636
  380.750    5.987    0.235    0.358   94.835
  381.000    5.991    0.242    0.332   87.397
  381.250    6.981    0.249    0.342   72.521
  381.500    7.680    0.257    0.356   62.603
  381.750    9.655    0.269    0.363   50.826
  382.000   12.367    0.287    0.371   39.669
  382.250   17.092    0.307    0.391   36.570
  382.500   24.534    0.316    0.371   34.091
  382.750   35.226    0.316    0.364   34.091
  383.000   40.258    0.314    0.359   35.950
  383.250   43.472    0.313    0.343   42.149
  383.500   42.687    0.320    0.340   40.909
  383.750   40.351    0.322    0.349   32.231
