~VERSION INFORMATION
 VERS.                 2.0:   CWLS LOG ASCII STANDARD -VERSION 2.0
 WRAP.                  NO:   ONE LINE PER DEPTH STEP
~WELL INFORMATION BLOCK
#MNEM.UNIT           DATA                    DESCRIPTION OF MNEMONIC
#---------    -------------------            -------------------------------
# Generated from Intellog Unique Number	CW_79_81/WELL/642
WELL.         07-36-079-21W4                 : Well_name    - WELL
LOC .         00/07-36-079-21W4/0            : Location     - LOCATION
UWI .         00/07-36-079-21W4/0            : Uwi          - UNIQUE WELL ID
ENTR.         MAX                            : Entered      - ENTERED BY
SRVC.         SCHLUMBERGER                   : Scn          - SERVICE COMPANY
STRT.M        215                            : top_depth    - START DEPTH
STOP.M        417                            : bot_depth    - STOP DEPTH
STEP.M        0.25                           : increment    - STEP LENGTH
 NULL. -999.2500:NULL Value
~CURVE INFORMATION BLOCK
#MNEM UNIT       ERCB CURVE CODE    CURVE DESCRIPTION
#-----------   ------------------   ----------------------------------
DEPT.M        00 001 00 00         : DEPTH        - DEPTH
ILD .OHMM     00 120 00 00         : RESD         - DEEP RESISTIVITY (DIL)
NPHI.V/V      00 330 00 00         : PHIN         - NEUTRON POROSITY (SANDSTONE)
DPHI.V/V      00 890 00 00         : PHID         - DENSITY POROSITY (SANDSTONE)
CALI.MM       00 280 01 00         : CAL          - CALIPER
GR  .API      00 310 00 00         : GR           - GAMMA RAY
~PARAMETER INFORMATION
#MNEM.UNIT           DATA             DESCRIPTION OF MNEMONIC
#---------         -----------     ------------------------------
GL  .M        572.05               : gl           - GROUND LEVEL ELEVATION
EREF.M        575.35               : kb           - ELEVATION OF DEPTH REFERENCE
DATM.M        572.05               : datum        - DATUM ELEVATION
TDD .M        420                  : tdd          - TOTAL DEPTH DRILLER
RUN .         ONE                  : Run          - RUN NUMBER
ENG .         BILL                 : Engineer     - RECORDING ENGINEER
WIT .         JIM                  : Witness      - WITNESSED BY
MUD .         GEL                  : Mud_type     - MUD TYPE
MATR.         SANDSTONE            : Logunit      - NEUTRON MATRIX
TMAX.C        29.4                 : BHT          - MAXIMUM RECORDED TEMPERATURE
BHTD.M        420                  : BHTDEP       - MAXIMUM RECORDED TEMPERATURE
RMT .C        23                   : MDTP         - TEMPERATURE OF MUD
MUDD.KG/M     1130                 : MWT          - MUD DENSITY
NEUT.         1                    : NEUTRON      - NEUTRON TYPE
RESI.         0                    : RESIST       - RESISTIVITY TYPE
RM  .OHMM     6.08                 : RM           - RESISTIVITY OF MUD
RMC .OHMM     0.25                 : RMC          - RESISTIVITY OF MUD CAKE
RMF .OHMM     5.02                 : RMF          - RESISTIVITY OF MUD FILTRATE
SUFT.C        -10                  : SUFT         - SURFACE TEMPERATURE
~A  DEPTH     RESD     PHIN     PHID      CAL       GR
  215.000    4.199    0.545    0.222  166.424  101.515
  215.250    5.722    0.518    0.225  166.457   98.838
  215.500    7.057    0.534    0.239  166.503   93.466
  215.750    8.468    0.510    0.193  172.520   86.904
  216.000    8.098    0.473    0.104  174.546   86.025
  216.250    8.635    0.449    0.143  165.596   85.144
  216.500    8.961    0.475    0.208  163.633   87.560
  216.750    8.887    0.474    0.221  169.160   92.373
  217.000    8.575    0.470    0.231  165.201   94.788
  217.250    7.908    0.464    0.238  160.244   99.300
  217.500    6.905    0.465    0.221  160.278  105.009
  217.750    5.814    0.461    0.226  160.311  107.726
  218.000    5.171    0.454    0.189  161.347  109.844
  218.250    5.222    0.479    0.179  170.362  111.960
  218.500    4.903    0.510    0.168  179.378  108.986
  218.750    4.321    0.528    0.148  174.920  105.410
  219.000    4.020    0.535    0.144  173.461   98.843
  219.250    3.674    0.516    0.110  169.003   94.374
  219.500    3.578    0.494    0.012  171.032   98.886
  219.750    3.391    0.518    0.105  170.067  106.097
  220.000    3.098    0.533    0.179  172.596  105.216
  220.250    2.806    0.549    0.245  174.630  104.041
  220.500    2.659    0.573    0.240  171.170  102.561
  220.750    2.637    0.586    0.247  170.209   97.192
  221.000    2.686    0.605    0.261  169.743   88.828
  221.250    2.839    0.599    0.232  171.773   85.856
  221.500    3.904    0.608    0.258  174.301   85.577
  221.750    5.878    0.584    0.263  174.838   80.205
  222.000   10.053    0.556    0.288  170.380   67.350
  222.250   16.728    0.489    0.294  161.926   55.094
  222.500   22.187    0.464    0.303  156.977   50.325
  222.750   21.800    0.463    0.299  156.503   48.547
  223.000   21.424    0.455    0.307  156.540   47.970
  223.250   21.241    0.441    0.301  156.574   48.886
  223.500   21.255    0.420    0.289  156.611   50.410
  223.750   21.465    0.425    0.280  157.143   51.027
  224.000   21.875    0.452    0.296  157.177   54.939
  224.250   22.491    0.453    0.340  156.715   55.556
  224.500   23.551    0.454    0.341  157.239   54.081
  224.750   24.222    0.454    0.342  157.285   53.505
  225.000   24.683    0.458    0.336  156.811   52.626
  225.250   25.152    0.458    0.334  156.349   51.746
  225.500   25.396    0.479    0.327  156.886   50.271
  225.750   25.413    0.464    0.340  156.416   50.890
  226.000   25.430    0.440    0.323  156.454   51.214
  226.250   25.447    0.450    0.325  155.984   51.531
  226.500   25.236    0.466    0.331  155.019   51.848
  226.750   24.799    0.469    0.341  155.052   52.167
  227.000   24.369    0.479    0.328  154.587   51.294
  227.250   23.950    0.476    0.332  154.129   52.212
  227.500   23.748    0.468    0.328  154.657   52.235
  227.750   22.916    0.455    0.331  154.691   50.456
  228.000   22.724    0.449    0.336  155.223   51.973
  228.250   22.949    0.468    0.305  155.256   53.493
  228.500   22.964    0.493    0.272  155.306   53.815
  228.750   22.979    0.498    0.296  155.327   53.830
  229.000   22.787    0.482    0.321  155.361   53.855
  229.250   22.390    0.496    0.336  156.392   54.468
  229.500   21.608    0.506    0.339  156.924   54.488
  229.750   20.476    0.506    0.326  156.467   53.914
  230.000   18.709    0.486    0.327  153.506   55.132
  230.250   16.789    0.485    0.320  155.036   55.748
  230.500   13.147    0.469    0.316  157.565   53.074
  230.750   12.234    0.460    0.307  157.598   52.195
  231.000   11.384    0.474    0.294  152.641   54.314
  231.250   10.986    0.503    0.282  151.676   57.029
  231.500   11.299    0.494    0.305  151.714   56.153
  231.750   12.047    0.480    0.274  152.242   57.370
  232.000   13.814    0.495    0.269  153.278   57.692
  232.250   15.415    0.508    0.282  152.808   58.613
  232.500   14.875    0.511    0.306  152.849   59.227
  232.750   12.190    0.497    0.322  152.887   59.846
  233.000    9.460    0.481    0.330  152.421   56.275
  233.250    7.681    0.472    0.326  152.446   56.295
  233.500    6.126    0.479    0.308  152.488   60.208
  233.750    4.929    0.460    0.271  153.020   68.013
  234.000    4.265    0.448    0.243  156.547   73.722
  234.250    3.793    0.450    0.242  157.079   80.933
  234.500    3.627    0.522    0.211  160.102   86.340
  234.750    3.627    0.536    0.182  172.117   95.344
  235.000    3.599    0.520    0.166  170.657  101.353
  235.250    3.909    0.519    0.190  171.185  103.172
  235.500    4.244    0.521    0.226  174.712  103.788
  235.750    4.485    0.529    0.214  173.751  104.412
  236.000    4.697    0.546    0.187  173.285  104.729
  236.250    4.787    0.534    0.201  173.818  104.751
  236.500    4.787    0.518    0.217  175.851  105.370
  236.750    4.793    0.535    0.180  177.877  105.088
  237.000    4.542    0.513    0.188  181.906  102.419
  237.250    4.422    0.517    0.203  185.932  103.933
  237.500    4.506    0.516    0.189  182.476  106.650
  237.750    4.805    0.541    0.198  177.016  105.470
  238.000    5.314    0.558    0.206  173.560  104.891
  238.250    5.515    0.564    0.207  174.093  104.617
  238.500    5.469    0.549    0.204  171.635  103.442
  238.750    5.325    0.522    0.179  174.163  101.960
  239.000    5.186    0.511    0.189  180.684   99.285
  239.250    5.236    0.489    0.185  181.716  101.403
  239.500    5.635    0.499    0.201  186.240  103.519
  239.750    6.009    0.524    0.212  189.767  102.344
  240.000    6.236    0.518    0.215  185.313  101.763
  240.250    6.184    0.512    0.211  174.363   96.693
  240.500    5.807    0.509    0.209  172.904   96.114
  240.750    5.553    0.484    0.204  173.939  106.017
  241.000    5.658    0.507    0.198  173.973  111.728
  241.250    6.034    0.519    0.189  170.010  110.548
  241.500    6.672    0.515    0.212  167.548  106.978
  241.750    8.456    0.510    0.198  168.088  100.111
  242.000    9.181    0.515    0.202  169.619   93.242
  242.250    9.528    0.500    0.218  172.147   82.483
  242.500    9.363    0.465    0.235  178.668   74.721
  242.750    8.953    0.435    0.250  172.709   77.133
  243.000    8.640    0.453    0.216  163.261   79.554
  243.250    8.645    0.456    0.231  163.294   78.074
  243.500    8.809    0.432    0.254  158.836   79.292
  243.750    8.816    0.449    0.245  158.873   84.701
  244.000    8.354    0.448    0.240  158.412   85.921
  244.250    7.916    0.443    0.234  158.441   88.936
  244.500    7.779    0.441    0.210  158.474   91.653
  244.750    7.856    0.471    0.211  158.508   94.665
  245.000    8.005    0.471    0.218  159.044   98.283
  245.250    7.183    0.469    0.207  160.080  101.294
  245.500    5.278    0.472    0.202  159.115  106.107
  245.750    4.867    0.471    0.192  162.138  110.322
  246.000    4.488    0.576    0.190  165.170  115.130
  246.250    4.254    0.565    0.200  167.204  117.550
  246.500    4.254    0.552    0.209  168.730  117.565
  246.750    4.109    0.563    0.223  169.266  119.983
  247.000    4.073    0.567    0.220  168.302  119.704
  247.250    4.113    0.574    0.200  168.834  118.526
  247.500    4.116    0.573    0.205  168.871  117.952
  247.750    4.045    0.571    0.192  167.408  118.566
  248.000    4.011    0.573    0.195  165.940  122.483
  248.250    3.870    0.558    0.195  165.973  122.204
  248.500    3.701    0.534    0.179  164.518  121.628
  248.750    3.572    0.521    0.165  163.054  124.340
  249.000    3.740    0.525    0.201  162.584  124.060
  249.250    4.135    0.498    0.228  163.615  118.990
  249.500    5.053    0.486    0.217  163.649  113.623
  249.750    6.463    0.514    0.224  168.672  110.647
  250.000    7.211    0.500    0.231  175.197  108.274
  250.250    8.047    0.475    0.233  174.237  107.695
  250.500    7.979    0.460    0.227  172.769  108.616
  250.750    7.631    0.459    0.226  171.808  108.933
  251.000    7.232    0.479    0.222  178.832  109.853
  251.250    6.978    0.497    0.219  185.847  111.068
