~VERSION INFORMATION
 VERS.                 2.0:   CWLS LOG ASCII STANDARD -VERSION 2.0
 WRAP.                  NO:   ONE LINE PER DEPTH STEP
~WELL INFORMATION BLOCK
#MNEM.UNIT           DATA                    DESCRIPTION OF MNEMONIC
#---------    -------------------            -------------------------------
# Generated from Intellog Unique Number	CC_80_83/WELL/2306
NULL.         -999.25                        : NULL_VALUE
WELL.         GULF RESDELN                   : Well_name    - WELL              
LOC .         07-33-083-07W4                 : Location     - LOCATION          
UWI .         00/07-33-083-07W4/0            : Uwi          - UNIQUE WELL ID    
ENTR.         DW                             : Entered      - ENTERED BY        
SRVC.         SCHLUMBERGER                   : Scn          - SERVICE COMPANY   
DATE.         25 JAN 79                      : Date         - LOG DATE
STRT.M        130                            : top_depth    - START DEPTH       
STOP.M        405.095                        : bot_depth    - STOP DEPTH        
STEP.M        0.3                            : increment    - STEP LENGTH       
~CURVE INFORMATION BLOCK
#MNEM UNIT       ERCB CURVE CODE    CURVE DESCRIPTION
#-----------   ------------------   ----------------------------------
DEPT.M        00 001 00 00         : DEPTH        - DEPTH                       
DPHI.V/V      00 890 00 00         : PHID         - DENSITY POROSITY (LIMESTONE)
NPHI.V/V      00 330 00 00         : PHIN         - NEUTRON POROSITY (LIMESTONE)
GR  .API      00 310 00 00         : GR           - GAMMA RAY                   
ILD .OHMM     00 120 00 00         : RESD         - DEEP RESISTIVITY (DIL)      
~PARAMETER INFORMATION       
#MNEM.UNIT           DATA             DESCRIPTION OF MNEMONIC
#---------         -----------     ------------------------------
GL  .M        613.79               : gl           - GROUND LEVEL ELEVATION      
EREF.M        617.06               : kb           - ELEVATION OF DEPTH REFERENCE
DATM.M        617.06               : datum        - DATUM ELEVATION             
TDD .M        407                  : tdd          - TOTAL DEPTH DRILLER         
RUN .         ONE                  : Run          - RUN NUMBER                  
ENG .         BILL                 : Engineer     - RECORDING ENGINEER          
WIT .         JIM                  : Witness      - WITNESSED BY                
MUD .         GEL                  : Mud_type     - MUD TYPE                    
MATR.         LIMESTONE            : Logunit      - NEUTRON MATRIX              
TMAX.C        0                    : BHT          - MAXIMUM RECORDED TEMPERATURE
BHTD.M        407                  : BHTDEP       - MAXIMUM RECORDED TEMPERATURE
MATR.         1                    : LOGUNIT      - NEUTRON MATRIX              
RMT .C        25                   : MDTP         - TEMPERATURE OF MUD          
NEUT.         1                    : NEUTRON      - NEUTRON TYPE                
RESI.         0                    : RESIST       - RESISTIVITY TYPE            
RMC .OHMM     0.25                 : RMC          - RESISTIVITY OF MUD CAKE     
RMF .OHMM     0.25                 : RMF          - RESISTIVITY OF MUD FILTRATE 
SUFT.C        4                    : SUFT         - SURFACE TEMPERATURE         
~A  DEPTH     PHID     PHIN       GR     RESD
# ...
  286.600    0.287    0.461   89.729    9.521
  286.900    0.282    0.471   96.465    7.026
  287.200    0.260    0.472  101.361    5.490
  287.500    0.264    0.487  106.253    5.183
  287.800    0.246    0.472  101.927    4.986
  288.100    0.260    0.470  103.135    4.707
  288.400    0.254    0.474  106.796    4.199
  288.700    0.255    0.491  101.858    3.745
  289.000    0.260    0.503   99.991    3.216
  289.300    0.285    0.528   98.737    3.275
  289.600    0.296    0.553   95.640    3.666
  289.900    0.268    0.559   91.929    4.598
  290.200    0.243    0.532   87.604    5.989
  290.500    0.140    0.479   93.112    6.579
  290.800    0.166    0.455  100.463    6.572
  291.100    0.242    0.473  107.816    6.203
  291.400    0.246    0.474  107.792    5.859
  291.700    0.269    0.484  106.541    5.031
  292.000    0.260    0.496  104.053    4.240
  292.300    0.251    0.509  105.877    3.440
  292.600    0.249    0.544  108.926    3.011
  292.900    0.277    0.568  112.589    2.685
  293.200    0.293    0.584  116.869    2.488
  293.500    0.277    0.591  118.692    2.393
  293.800    0.275    0.602  118.667    2.347
  294.100    0.278    0.586  111.883    2.389
  294.400    0.266    0.595  105.100    2.480
  294.700    0.269    0.584  100.158    2.939
  295.000    0.270    0.529   97.677    4.539
  295.300    0.294    0.493   93.964    5.692
  295.600    0.301    0.470   93.939    6.371
  295.900    0.231    0.468   95.759    6.739
  296.200    0.270    0.517   92.663    6.863
  296.500    0.265    0.535   95.713    6.988
  296.800    0.252    0.514   95.076    6.984
  297.100    0.246    0.513   96.276    7.244
  297.400    0.276    0.502   98.713    7.519
  297.700    0.274    0.491  101.766    7.660
  298.000    0.289    0.455  107.889    8.100
  298.300    0.256    0.467  110.937    8.567
  298.600    0.293    0.473  110.297    9.235
  298.900    0.243    0.453  109.046   10.339
  299.200    0.218    0.428  106.566   11.573
  299.500    0.220    0.444  105.928   12.711
  299.799    0.230    0.434  101.602   12.701
  300.099    0.234    0.434  100.347   12.221
  300.399    0.229    0.430  100.940   10.493
  300.699    0.217    0.414   98.457    9.186
  300.999    0.223    0.415  100.274    7.596
  301.299    0.214    0.428  103.322    6.648
  301.599    0.250    0.445  102.686    6.158
  301.899    0.248    0.455  103.276    6.038
  302.199    0.226    0.450  105.100    6.266
  302.499    0.228    0.460  100.774    6.755
  302.799    0.282    0.457   95.833    8.632
  303.099    0.280    0.398   89.663   10.229
  303.399    0.280    0.385   93.329   11.024
  303.699    0.268    0.403   96.994   11.017
  303.999    0.254    0.432  100.653   10.013
  304.299    0.231    0.448  100.634    9.276
  304.599    0.248    0.452  101.835    8.926
  304.899    0.256    0.436  103.044    7.961
  305.199    0.229    0.439  104.863    6.707
  305.499    0.251    0.463  104.841    5.871
  305.799    0.262    0.490  102.359    5.139
  306.099    0.250    0.511   99.877    4.851
  306.399    0.236    0.509   98.624    5.033
  306.699    0.245    0.488  101.059    5.224
  306.999    0.260    0.486   99.191    5.320
  307.299    0.282    0.481   92.406    5.521
  307.599    0.279    0.470   88.079    6.181
  307.899    0.273    0.459   86.210    7.464
  308.199    0.266    0.448   88.034    9.012
  308.499    0.265    0.435   92.311    9.006
  308.799    0.264    0.444   96.591    6.281
  309.099    0.264    0.471  101.485    3.909
  309.399    0.285    0.517  100.842    3.487
  309.699    0.283    0.572   98.976    3.483
  309.999    0.280    0.561  100.790    3.827
  310.299    0.282    0.513   97.704    5.080
  310.599    0.291    0.485   95.215    7.003
  310.899    0.280    0.442   93.964    7.840
  311.199    0.276    0.433   89.643    8.293
  311.499    0.235    0.438   83.473    8.606
  311.799    0.209    0.441   78.533    9.452
  312.099    0.121    0.365   79.736   10.188
  312.399    0.197    0.346   83.402   10.376
  312.699    0.256    0.390   83.988    9.982
  312.999    0.268    0.435   81.507    9.423
  313.299    0.278    0.449   77.799    9.067
  313.599    0.279    0.450   79.614    9.410
  313.899    0.266    0.443   78.365   10.734
  314.199    0.219    0.409   73.427   11.571
  314.499    0.079    0.324   65.411   12.006
  314.799    0.148    0.322   77.683   11.775
  315.099    0.200    0.402   86.259   10.908
  315.399    0.281    0.448   94.230    9.367
  315.699    0.218    0.443   97.894    8.197
  315.999    0.196    0.407  100.326    6.404
  316.299    0.235    0.412  101.533    5.820
  316.599    0.213    0.464  102.121    5.708
  316.899    0.207    0.482  100.874    5.704
  317.199    0.204    0.474  100.233    6.385
  317.499    0.187    0.433   97.137    7.566
  317.799    0.189    0.430   97.724    8.154
  318.099    0.227    0.433   97.706    7.845
  318.399    0.237    0.457   95.839    6.866
  318.699    0.260    0.484   89.048    5.678
  318.999    0.290    0.500   84.728    3.601
  319.299    0.317    0.520   82.243    2.512
  319.599    0.305    0.556   82.831    2.371
  319.899    0.290    0.559   84.043    2.460
  320.199    0.272    0.542   86.476    2.754
  320.499    0.248    0.515   88.299    3.656
  320.799    0.258    0.504   87.042    4.333
  321.099    0.236    0.490   88.861    5.231
  321.399    0.228    0.455   90.684    5.746
  321.699    0.239    0.460   91.892    6.194
  321.999    0.244    0.465   91.254    6.308
  322.299    0.230    0.438   91.226    5.954
  322.599    0.225    0.423   93.049    5.212
  322.899    0.227    0.428   95.484    4.476
  323.199    0.235    0.479   96.690    3.631
  323.499    0.238    0.523   93.591    3.178
  323.799    0.228    0.528   89.881    3.116
  324.099    0.245    0.486   91.087    3.113
  324.398    0.263    0.463   95.368    3.231
  324.698    0.247    0.492   95.954    3.229
  324.998    0.235    0.485   96.096    3.691
  325.298    0.257    0.545  100.385    3.487
  325.598    0.216    0.533  105.290    3.233
  325.898    0.218    0.483  104.654    3.295
  326.198    0.234    0.492   99.086    3.422
  326.498    0.221    0.475   99.678    3.622
  326.798    0.211    0.455  100.891    4.214
  327.098    0.223    0.459   97.791    4.811
  327.398    0.242    0.474   94.069    4.996
  327.698    0.234    0.480   94.048    4.996
  327.998    0.205    0.476   92.182    4.996
  328.298    0.162    0.460   99.551    5.288
  328.598    0.128    0.437   94.600    5.813
  328.898    0.164    0.415   90.267    7.024
  329.198    0.232    0.405   87.166    7.721
  329.498    0.254    0.388   88.370    7.868
  329.798    0.257    0.389   88.969    6.892
  330.098    0.232    0.428   90.181    5.492
  330.398    0.273    0.494   90.775    4.632
  330.698    0.284    0.455   90.137    4.376
  330.998    0.301    0.417   82.722    4.545
  331.298    0.313    0.388   70.380    5.092
  331.598    0.347    0.311   62.967    7.158
  331.898    0.396    0.193   48.777   19.517
  332.198    0.398    0.205   43.212   38.575
  332.498    0.402    0.237   45.035   40.063
  332.798    0.402    0.273   47.478   30.738
  333.098    0.385    0.316   53.001   17.095
  333.398    0.347    0.354   62.836   15.552
  333.698    0.322    0.349   73.285   14.148
  333.998    0.347    0.272   72.650   11.489
  334.298    0.313    0.288   52.299   11.708
  334.598    0.288    0.339   48.578   11.932
  334.898    0.288    0.362   55.335   12.870
  335.198    0.270    0.383   68.865   13.882
  335.498    0.237    0.399   80.548   14.418
  335.798    0.191    0.401   89.762   13.622
  336.098    0.213    0.409   96.516   12.160
  336.398    0.201    0.458  103.890    9.690
  336.698    0.193    0.447  118.650    8.328
  336.998    0.230    0.433  121.094    7.576
  337.298    0.217    0.430  122.301    7.158
  337.598    0.204    0.419  122.282    7.434
  337.898    0.203    0.409  120.409    7.868
  338.198    0.214    0.388  116.075    8.983
  338.498    0.231    0.353  107.433   10.651
