~VERSION INFORMATION
 VERS.                 2.0:   CWLS LOG ASCII STANDARD -VERSION 2.0
 WRAP.                  NO:   ONE LINE PER DEPTH STEP
~WELL INFORMATION BLOCK
#MNEM.UNIT           DATA                    DESCRIPTION OF MNEMONIC
#---------    -------------------            -------------------------------
# Generated from Intellog Unique Number	CW_82_90/WELL/2587
WELL.         IOE MUSKWA 06-13               : Well_name    - WELL
LOC .         00/06-13-082-03W5/0            : Location     - LOCATION
UWI .         00/06-13-082-03W5/0            : Uwi          - UNIQUE WELL ID
ENTR.         JJ                             : Entered      - ENTERED BY
SRVC.         SCHLUMBERGER                   : Scn          - SERVICE COMPANY
DATE.         22 MAR 66                      : Date         - LOG DATE
STRT.M        347.472                        : top_depth    - START DEPTH
STOP.M        475.472                        : bot_depth    - STOP DEPTH
STEP.M        0.25                           : increment    - STEP LENGTH
 NULL. -999.2500:NULL Value
~CURVE INFORMATION BLOCK
#MNEM UNIT       ERCB CURVE CODE    CURVE DESCRIPTION
#-----------   ------------------   ----------------------------------
DEPT.M        00 001 00 00         : DEPTH        - DEPTH
ILD .OHMM     00 120 00 00         : RESD         - DEEP RESISTIVITY (DIL)
GR  .API      00 310 00 00         : GR           - GAMMA RAY
DELT.US/F     00 520 00 00         : DELT         - SONIC TRAVEL TIME
CALI.MM       00 280 01 00         : CAL          - CALIPER
~PARAMETER INFORMATION
#MNEM.UNIT           DATA             DESCRIPTION OF MNEMONIC
#---------         -----------     ------------------------------
GL  .M        580.034              : gl           - GROUND LEVEL ELEVATION
EREF.M        583.387              : kb           - ELEVATION OF DEPTH REFERENCE
DATM.M        580.034              : datum        - DATUM ELEVATION
TDD .M        495.3                : tdd          - TOTAL DEPTH DRILLER
RUN .         ONE                  : Run          - RUN NUMBER
ENG .         MOORE                : Engineer     - RECORDING ENGINEER
WIT .         BYNRE                : Witness      - WITNESSED BY
BASE.         V.V.                 : Branch       - HOME BASE OF LOGGING UNIT
MUD .         GEL                  : Mud_type     - MUD TYPE
MATR.         SANDSTONE            : Logunit      - NEUTRON MATRIX
TMAX.C        38.8889              : BHT          - MAXIMUM RECORDED TEMPERATURE
BHTD.M        493.776              : BHTDEP       - MAXIMUM RECORDED TEMPERATURE
RMT .C        8.88889              : MDTP         - TEMPERATURE OF MUD
MUDD.KG/M     1128                 : MWT          - MUD DENSITY
NEUT.         1                    : NEUTRON      - NEUTRON TYPE
RESI.         0                    : RESIST       - RESISTIVITY TYPE
RM  .OHMM     4.04                 : RM           - RESISTIVITY OF MUD
RMC .OHMM     3.46                 : RMC          - RESISTIVITY OF MUD CAKE
RMF .OHMM     0                    : RMF          - RESISTIVITY OF MUD FILTRATE
SUFT.C        5                    : SUFT         - SURFACE TEMPERATURE
~A  DEPTH     RESD       GR     DELT      CAL
# ...
  434.472    9.268   83.650  337.197  160.427
  434.722    9.932   75.218  349.033  160.322
  434.972   10.416   69.794  356.323  160.290
  435.222   10.624   67.392  300.898  160.189
  435.472   10.449   75.072  282.781  160.202
  435.722    9.919   73.334  307.119  160.166
  435.972    8.942   76.607  341.554  160.189
  436.222    8.315   82.815  342.692  160.029
  436.472    8.110   85.559  347.709  160.076
  436.722    7.954   80.899  361.684  160.503
  436.972    7.851   80.040  362.221  160.942
  437.222    7.835   85.203  367.237  161.147
  437.472    7.984   83.339  374.928  161.764
  437.722    8.316   80.270  350.860  162.214
  437.972    8.634   76.898  339.295  162.700
  438.222    8.873   72.510  358.018  164.136
  438.472    8.879   79.650  364.973  167.196
  438.722    8.745   84.530  367.048  169.600
  438.972    8.486   87.065  361.233  170.804
  439.222    8.346   87.891  357.958  170.972
  439.472    8.342   82.034  360.300  170.729
  439.722    8.527   79.279  363.378  171.106
  439.972    8.655   84.109  359.702  171.464
  440.222    8.710   87.385  353.620  171.908
  440.472    8.664   86.531  347.069  172.050
  440.722    8.571   82.074  351.083  171.753
  440.972    8.394   76.906  354.962  170.287
  441.222    8.466   77.370  349.749  168.700
  441.472    8.582   77.497  352.893  167.646
  441.722    7.970   71.922  343.602  166.803
  441.972    7.197   69.375  316.258  166.449
  442.222    6.510   75.381  303.490  166.967
  442.472    5.855   81.297  313.854  167.963
  442.722    5.324   84.490  331.307  169.042
  442.972    5.484   88.970  359.991  169.528
  443.222    5.795   94.307  369.554  169.251
  443.472    5.768   99.947  370.425  168.273
  443.722    5.779   97.887  362.270  167.948
  443.972    5.737   98.700  353.714  168.112
  444.222    5.529  101.216  370.297  168.289
  444.472    5.245   74.878  382.200  168.375
  444.722    5.457  106.322  392.297  166.942
  444.972    6.876   89.763  394.372  164.839
  445.222    8.355   72.589  355.662  162.434
  445.472    9.433   49.494  347.106  160.994
  445.722   10.691   35.555  337.547  160.758
  445.972   12.434   20.528  332.667  160.830
  446.222   13.614   14.734  329.928  160.947
  446.472   13.555   26.604  331.200  161.035
  446.722   12.995   40.012  336.818  160.931
  446.972   13.028   54.132  345.646  160.900
  447.222   13.542   60.797  351.531  160.920
  447.472   13.102   60.042  352.737  161.051
  447.722   12.476   57.023  349.529  160.999
  447.972   11.874   54.722  349.731  163.626
  448.222   11.298   57.057  352.475  163.514
  448.472   10.743   64.520  351.473  162.147
  448.722   10.251   70.762  346.661  159.679
  448.972    9.721   63.016  342.986  160.133
  449.222    9.164   52.414  347.401  160.293
  449.472    8.667   41.869  353.085  161.874
  449.722    8.169   33.511  356.229  162.962
  449.972    8.018   32.431  354.159  162.495
  450.222    8.000   37.054  351.687  162.564
  450.472    8.213   38.728  348.680  162.514
  450.722    8.459   49.286  346.810  162.603
  450.972    8.332   70.967  349.018  162.742
  451.222    7.757   82.365  355.639  163.369
  451.472    6.739   85.981  363.263  164.695
  451.722    5.722   91.494  371.020  169.325
  451.972    4.786   96.913  385.464  181.294
  452.222    4.085   94.615  401.779  183.406
  452.472    3.652   92.863  411.610  176.183
  452.722    3.363   99.384  415.288  169.586
  452.972    3.358  100.189  415.224  167.099
  453.222    3.392   97.879  413.086  166.861
  453.472    3.815   97.089  404.730  167.417
  453.722    4.525   91.519  401.322  167.243
  453.972    5.323   95.704  350.711  166.819
  454.222    6.477  106.059  319.757  167.345
  454.472    7.634  109.795  333.799  168.778
  454.722    8.394  121.015  348.845  170.139
  454.972    8.269  137.637  357.739  171.018
  455.222    8.028  139.748  364.828  170.960
  455.472    8.165  132.167  375.326  170.812
  455.722    8.734  114.498  382.215  170.513
  455.972    9.737   86.428  378.405  169.577
  456.222   11.644   79.162  368.379  168.552
  456.472   13.721   76.483  363.366  167.542
  456.722   16.554   74.904  366.243  166.369
  456.972   19.974   74.658  360.494  165.008
  457.222   22.318   71.259  360.831  164.584
  457.472   23.974   68.597  363.440  165.346
  457.722   24.908   65.581  354.884  167.273
  457.972   21.766   62.435  348.333  166.498
  458.222   13.878   60.033  338.641  166.043
  458.472   10.178   79.611  329.549  166.396
  458.722    8.728   98.302  323.333  167.669
  458.972    7.589  107.152  333.631  169.308
  459.222    6.411  102.467  378.897  170.568
  459.472    5.459   98.033  394.678  171.596
  459.722    5.217   91.482  381.642  174.334
  459.972    5.429   86.484  385.522  180.536
  460.222    5.865   76.862  393.681  178.121
  460.472    6.422   77.301  390.139  174.553
  460.722    7.067   75.452  380.446  170.244
  460.972    7.557   79.340  363.934  167.504
  461.222    7.912  102.604  336.656  171.180
  461.472    7.987  100.584  366.812  173.979
  461.722    8.249   80.845  383.529  175.168
  461.972    8.776   74.059  390.150  174.627
  462.222   10.032   69.996  359.129  173.743
  462.472   11.494   63.816  348.500  173.933
  462.722   11.951   56.369  344.356  173.572
  462.972   11.189   53.419  347.768  172.902
  463.222   10.318   54.843  358.334  172.653
  463.472    9.702   59.603  369.635  173.159
  463.722    8.917   63.794  362.951  172.586
  463.972    8.256   72.597  355.865  171.341
  464.222    7.859   78.965  348.981  169.851
  464.472    7.461   84.490  351.256  168.475
  464.722    7.235   92.491  369.443  166.930
  464.972    7.449   90.095  379.608  164.871
  465.222    8.017   72.390  382.953  162.346
  465.472    9.036   45.991  363.030  160.549
  465.722   10.613   36.366  263.210  159.916
  465.972   11.503   50.309  233.527  160.320
  466.222   11.427   61.906  260.139  161.427
  466.472   10.778   73.193  279.998  163.136
  466.722   10.125   73.618  317.107  166.124
  466.972    9.684   64.678  332.820  168.720
  467.222    9.568   58.636  333.290  168.615
  467.472    9.776   54.583  335.565  168.064
  467.722   10.098   50.279  335.300  168.835
  467.972   10.319   44.452  341.787  170.895
  468.222   10.111   45.919  341.990  172.805
  468.472    9.685   54.531  339.785  174.232
  468.722    9.289   64.135  334.171  175.404
  468.972    9.117   67.983  329.559  175.882
  469.222    9.209   60.547  324.747  175.701
  469.472    9.422   54.127  339.057  175.401
  469.722    9.759   56.943  344.073  175.368
  469.972    9.953   62.059  347.351  175.088
  470.222    9.871   58.658  345.815  175.358
  470.472    9.589   56.683  339.866  176.145
  470.722    9.140   59.804  332.514  177.000
  470.972    8.665   61.522  333.251  177.038
  471.222    8.163   62.595  334.122  175.828
  471.472    7.757   55.251  331.182  174.696
  471.722    7.312   59.035  327.507  173.942
  471.972    7.168   74.397  326.238  172.776
  472.222    7.283   88.454  340.615  172.074
  472.472    7.455   95.904  346.099  173.501
  472.722    7.511   90.375  340.685  172.885
  472.972    7.540   83.805  328.518  171.584
  473.222    7.488   94.598  322.302  170.650
  473.472    7.243  105.065  332.801  169.361
  473.722    7.214  104.450  345.105  167.503
  473.972    7.472   94.546  351.325  165.071
  474.222    7.587   83.236  353.533  163.022
  474.472    7.289   73.587  339.227  161.537
  474.722    6.629   78.942  329.735  160.478
  474.972    6.120   84.371  316.298  160.323
  475.222    6.053   80.412  328.735  160.686
  475.472    6.053   80.412  346.990  160.686
