~VERSION INFORMATION
 VERS.                 2.0:   CWLS LOG ASCII STANDARD -VERSION 2.0
 WRAP.                  NO:   ONE LINE PER DEPTH STEP
~WELL INFORMATION BLOCK
#MNEM.UNIT           DATA                    DESCRIPTION OF MNEMONIC
#---------    -------------------            -------------------------------
# Generated from Intellog Unique Number	CS_71_72/WELL/620
WELL.         SULPETRO BRENDA IPIATIK        : Well_name    - WELL
LOC .         00/03-04-072-09W4/0            : Location     - LOCATION
UWI .         00/03-04-072-09W4/0            : Uwi          - UNIQUE WELL ID
ENTR.         SP                             : Entered      - ENTERED BY
SRVC.         SCHLUMBERGER                   : Scn          - SERVICE COMPANY
STRT.M        305                            : top_depth    - START DEPTH
STOP.M        498.5                          : bot_depth    - STOP DEPTH
STEP.M        0.25                           : increment    - STEP LENGTH
 NULL. -999.2500:NULL Value
~CURVE INFORMATION BLOCK
#MNEM UNIT       ERCB CURVE CODE    CURVE DESCRIPTION
#-----------   ------------------   ----------------------------------
DEPT.M        00 001 00 00         : DEPTH        - DEPTH
ILD .OHMM     00 120 00 00         : RESD         - DEEP RESISTIVITY (DIL)
DPHI.V/V      00 890 00 00         : PHID         - DENSITY POROSITY (LIMESTONE)
NPHI.V/V      00 330 00 00         : PHIN         - NEUTRON POROSITY (LIMESTONE)
GR  .API      00 310 00 00         : GR           - GAMMA RAY
~PARAMETER INFORMATION
#MNEM.UNIT           DATA             DESCRIPTION OF MNEMONIC
#---------         -----------     ------------------------------
GL  .M        666.64               : gl           - GROUND LEVEL ELEVATION
EREF.M        670                  : kb           - ELEVATION OF DEPTH REFERENCE
DATM.M        666.64               : datum        - DATUM ELEVATION
TDD .M        508                  : tdd          - TOTAL DEPTH DRILLER
RUN .         ONE                  : Run          - RUN NUMBER
ENG .         BILL                 : Engineer     - RECORDING ENGINEER
WIT .         JIM                  : Witness      - WITNESSED BY
MUD .         GEL                  : Mud_type     - MUD TYPE
MATR.         LIMESTONE            : Logunit      - NEUTRON MATRIX
TMAX.C        20                   : BHT          - MAXIMUM RECORDED TEMPERATURE
BHTD.M        508                  : BHTDEP       - MAXIMUM RECORDED TEMPERATURE
MATR.         1                    : LOGUNIT      - NEUTRON MATRIX
RMT .C        25                   : MDTP         - TEMPERATURE OF MUD
NEUT.         1                    : NEUTRON      - NEUTRON TYPE
RESI.         0                    : RESIST       - RESISTIVITY TYPE
RMC .OHMM     0.25                 : RMC          - RESISTIVITY OF MUD CAKE
RMF .OHMM     0.25                 : RMF          - RESISTIVITY OF MUD FILTRATE
SUFT.C        15                   : SUFT         - SURFACE TEMPERATURE
~A  DEPTH     RESD     PHID     PHIN       GR
# ...
  435.500    4.939    0.246    0.452   87.673
  435.750    5.034    0.244    0.445   89.480
  436.000    5.131    0.238    0.441   89.473
  436.250    5.329    0.231    0.435   88.256
  436.500    5.535    0.227    0.433   88.852
  436.750    5.537    0.230    0.434   90.661
  437.000    5.645    0.230    0.438   91.865
  437.250    5.754    0.240    0.444   90.648
  437.500    5.650    0.234    0.456   90.036
  437.750    5.653    0.224    0.462   93.051
  438.000    5.449    0.220    0.468   94.257
  438.250    4.968    0.223    0.475   96.064
  438.500    4.613    0.229    0.469   96.055
  438.750    4.205    0.234    0.468  100.281
  439.000    3.493    0.240    0.493  102.092
  439.250    3.244    0.242    0.506  104.504
  439.500    3.069    0.238    0.520  104.496
  439.750    2.850    0.236    0.514  102.673
  440.000    2.598    0.226    0.513  102.060
  440.250    2.505    0.222    0.523  102.660
  440.500    2.553    0.217    0.515  103.255
  440.750    2.651    0.214    0.507  103.251
  441.000    2.753    0.218    0.493  101.430
  441.250    3.139    0.228    0.484   96.584
  441.500    3.320    0.230    0.461   92.947
  441.750    3.785    0.224    0.449   91.127
  442.000    4.079    0.216    0.437   94.749
  442.250    4.565    0.200    0.451   97.765
  442.500    4.739    0.195    0.456   96.548
  442.750    5.109    0.189    0.463   94.120
  443.000    5.405    0.188    0.468   92.907
  443.250    5.613    0.187    0.464   91.083
  443.500    5.830    0.190    0.463   90.473
  443.750    5.942    0.195    0.466   91.673
  444.000    5.946    0.188    0.468   92.274
  444.250    5.839    0.181    0.468   92.871
  444.500    5.735    0.181    0.463   92.865
  444.750    5.737    0.186    0.466   96.482
  445.000    5.634    0.195    0.457   98.290
  445.250    5.637    0.199    0.443   98.890
  445.500    5.535    0.205    0.438   99.487
  445.750    5.539    0.210    0.431   99.481
  446.000    5.440    0.207    0.439   99.476
  446.250    5.442    0.192    0.442   99.467
  446.500    5.345    0.181    0.437   99.458
  446.750    5.449    0.177    0.436  100.058
  447.000    5.350    0.172    0.444  100.051
  447.250    5.354    0.180    0.455   99.441
  447.500    5.357    0.179    0.450   97.618
  447.750    5.359    0.181    0.444   97.610
  448.000    5.361    0.192    0.455   98.209
  448.250    5.467    0.200    0.456   99.412
  448.500    5.469    0.202    0.447   99.406
  448.750    5.472    0.195    0.442   98.792
  449.000    5.577    0.199    0.439   99.388
  449.250    5.685    0.192    0.436   99.383
  449.500    5.794    0.186    0.437   99.980
  449.750    6.019    0.183    0.426   99.973
  450.000    6.135    0.181    0.422   99.965
  450.250    6.252    0.181    0.419   99.962
  450.500    6.374    0.187    0.426   98.744
  450.750    6.376    0.192    0.425   96.317
  451.000    6.262    0.199    0.452   95.706
  451.250    5.105    0.219    0.477   95.697
  451.500    3.936    0.232    0.477   95.692
  451.750    3.393    0.240    0.497   95.683
  452.000    2.925    0.244    0.514   95.677
  452.250    2.767    0.240    0.532   95.671
  452.500    2.570    0.234    0.532   96.270
  452.750    2.524    0.227    0.530   97.469
  453.000    2.479    0.215    0.518   98.071
  453.250    2.723    0.202    0.504   95.642
  453.500    2.880    0.191    0.490   93.217
  453.750    3.047    0.181    0.485   91.394
  454.000    3.284    0.169    0.472   90.180
  454.250    3.744    0.185    0.454   91.380
  454.500    3.960    0.193    0.442   92.585
  454.750    4.350    0.199    0.435   96.205
  455.000    4.433    0.209    0.432   98.616
  455.250    4.519    0.211    0.440   98.612
  455.500    4.438    0.214    0.444   96.790
  455.750    4.278    0.207    0.446   95.573
  456.000    4.124    0.197    0.447   93.749
  456.250    4.126    0.187    0.443   92.533
  456.500    4.129    0.193    0.437   91.921
  456.750    4.208    0.201    0.434   90.707
  457.000    4.453    0.203    0.426   88.885
  457.250    4.623    0.208    0.425   87.064
  457.500    4.984    0.206    0.430   82.823
  457.750    5.372    0.167    0.414   77.978
  458.000    6.011    0.150    0.390   71.318
  458.250    6.478    0.126    0.330   65.867
  458.500    7.115    0.122    0.301   63.441
  458.750    7.526    0.149    0.268   67.063
  459.000    7.531    0.177    0.266   71.290
  459.250    6.993    0.200    0.296   76.725
  459.500    6.376    0.225    0.329   79.744
  459.750    5.921    0.242    0.378   83.365
  460.000    5.500    0.229    0.421   84.568
  460.250    5.400    0.212    0.409   83.956
  460.500    5.303    0.208    0.398   83.343
  460.750    5.209    0.206    0.393   84.546
  461.000    5.211    0.201    0.389   85.749
  461.250    5.215    0.205    0.398   85.137
  461.500    5.120    0.209    0.411   88.154
  461.750    4.497    0.200    0.419   92.381
  462.000    4.024    0.194    0.434   99.631
  462.250    3.737    0.186    0.461  102.650
  462.500    3.344    0.182    0.480  106.271
  462.750    3.284    0.176    0.490  106.265
  463.000    3.165    0.170    0.502  103.838
  463.250    3.167    0.164    0.505  105.041
  463.500    3.168    0.160    0.488  102.613
  463.750    3.290    0.159    0.467   98.977
  464.000    3.354    0.164    0.451   98.971
  464.250    3.419    0.170    0.447  103.800
  464.500    3.296    0.179    0.461  105.609
  464.750    3.177    0.187    0.465  108.020
  465.000    3.006    0.194    0.476  108.621
  465.250    2.844    0.190    0.487  109.217
  465.500    2.794    0.184    0.496  107.394
  465.750    2.847    0.182    0.499  105.575
  466.000    3.127    0.178    0.480  100.123
  466.250    3.433    0.176    0.456   95.279
  466.500    3.987    0.175    0.437   85.595
  466.750    4.630    0.193    0.422   78.936
  467.000    5.181    0.201    0.405   78.322
  467.250    5.688    0.194    0.392   80.737
  467.500    6.730    0.201    0.371   81.334
  467.750    7.391    0.208    0.371   77.698
  468.000    7.819    0.223    0.364   73.457
  468.250    8.588    0.225    0.357   70.427
  468.500    8.917    0.224    0.351   69.208
  468.750    9.089    0.222    0.347   69.805
  469.000    9.618    0.205    0.363   71.010
  469.250    9.802    0.181    0.373   74.023
  469.500    9.992    0.160    0.386   74.018
  469.750   10.187    0.142    0.375   73.406
  470.000   10.191    0.119    0.364   73.401
  470.250   10.009    0.133    0.355   77.022
  470.500    9.646    0.172    0.343   80.040
  470.750    8.960    0.199    0.339   84.266
  471.000    8.169    0.206    0.352   87.284
  471.250    7.872    0.220    0.370   85.461
  471.500    7.045    0.233    0.376   84.246
  471.750    6.791    0.242    0.387   85.447
  472.000    6.795    0.253    0.390   86.046
  472.250    6.797    0.256    0.392   85.435
  472.500    7.059    0.253    0.395   83.009
  472.750    7.470    0.246    0.380   83.002
  473.000    8.051    0.234    0.361   86.623
  473.250    8.678    0.222    0.346   90.849
  473.500    9.011    0.216    0.355   89.634
  473.750    9.016    0.215    0.371   87.206
  474.000    8.219    0.212    0.371   85.991
  474.250    7.354    0.211    0.369   83.563
  474.500    6.580    0.212    0.367   82.953
  474.750    5.999    0.225    0.379   87.782
  475.000    5.675    0.209    0.386   89.590
  475.250    5.371    0.206    0.389   90.793
  475.500    5.274    0.209    0.389   91.390
  475.750    5.276    0.221    0.389   92.594
  476.000    5.380    0.216    0.392   95.007
  476.250    5.483    0.210    0.396  102.257
  476.500    5.693    0.209    0.397  107.695
  476.750    6.252    0.217    0.398  113.131
  477.000    7.126    0.216    0.398   98.607
  477.250    8.123    0.215    0.392   85.293
  477.500    9.259    0.215    0.388   78.634
  477.750   10.167    0.232    0.377   70.765
  478.000   10.757    0.248    0.368   64.105
  478.250   10.763    0.255    0.378   72.565
  478.500    9.630    0.254    0.391   80.419
  478.750    8.943    0.238    0.401   87.063
