~VERSION INFORMATION
 VERS.                 2.0:   CWLS LOG ASCII STANDARD -VERSION 2.0
 WRAP.                  NO:   ONE LINE PER DEPTH STEP
~WELL INFORMATION BLOCK
#MNEM.UNIT           DATA                    DESCRIPTION OF MNEMONIC
#---------    -------------------            -------------------------------
# Generated from Intellog Unique Number	CS_73_76/WELL/591
WELL.         BOW VALLLEY INDUSTRIES         : Well_name    - WELL
LOC .         00/02-29-073-15W4/0            : Location     - LOCATION
UWI .         00/02-29-073-15W4/0            : Uwi          - UNIQUE WELL ID
ENTR.         SP                             : Entered      - ENTERED BY
SRVC.         SCHLUMBERGER                   : Scn          - SERVICE COMPANY
STRT.M        270                            : top_depth    - START DEPTH
STOP.M        480                            : bot_depth    - STOP DEPTH
STEP.M        0.25                           : increment    - STEP LENGTH
 NULL. -999.2500:NULL Value
~CURVE INFORMATION BLOCK
#MNEM UNIT       ERCB CURVE CODE    CURVE DESCRIPTION
#-----------   ------------------   ----------------------------------
DEPT.M        00 001 00 00         : DEPTH        - DEPTH
ILD .OHMM     00 120 00 00         : RESD         - DEEP RESISTIVITY (DIL)
DPHI.V/V      00 890 00 00         : PHID         - DENSITY POROSITY (LIMESTONE)
NPHI.V/V      00 330 00 00         : PHIN         - NEUTRON POROSITY (LIMESTONE)
GR  .API      00 310 00 00         : GR           - GAMMA RAY
~PARAMETER INFORMATION
#MNEM.UNIT           DATA             DESCRIPTION OF MNEMONIC
#---------         -----------     ------------------------------
GL  .M        613                  : gl           - GROUND LEVEL ELEVATION
EREF.M        616.57               : kb           - ELEVATION OF DEPTH REFERENCE
DATM.M        613                  : datum        - DATUM ELEVATION
TDD .M        490.2                : tdd          - TOTAL DEPTH DRILLER
RUN .         ONE                  : Run          - RUN NUMBER
ENG .         BILL                 : Engineer     - RECORDING ENGINEER
WIT .         JIM                  : Witness      - WITNESSED BY
MUD .         GEL                  : Mud_type     - MUD TYPE
MATR.         LIMESTONE            : Logunit      - NEUTRON MATRIX
TMAX.C        24                   : BHT          - MAXIMUM RECORDED TEMPERATURE
BHTD.M        490.2                : BHTDEP       - MAXIMUM RECORDED TEMPERATURE
MATR.         1                    : LOGUNIT      - NEUTRON MATRIX
RMT .C        25                   : MDTP         - TEMPERATURE OF MUD
NEUT.         1                    : NEUTRON      - NEUTRON TYPE
RESI.         0                    : RESIST       - RESISTIVITY TYPE
RMC .OHMM     0.25                 : RMC          - RESISTIVITY OF MUD CAKE
RMF .OHMM     0.25                 : RMF          - RESISTIVITY OF MUD FILTRATE
SUFT.C        15                   : SUFT         - SURFACE TEMPERATURE
~A  DEPTH     RESD     PHID     PHIN       GR
# ...
  444.000    3.780    0.332    0.473   88.412
  444.250    4.153    0.339    0.468   87.815
  444.500    4.738    0.353    0.461   88.435
  444.750    4.920    0.364    0.446   87.228
  445.000    5.016    0.382    0.457   79.344
  445.250    4.925    0.342    0.483   82.394
  445.500    4.837    0.315    0.526   86.047
  445.750    4.839    0.294    0.472   89.699
  446.000    5.121    0.331    0.469   89.102
  446.250    5.419    0.399    0.470   89.717
  446.500    5.422    0.416    0.484   89.728
  446.750    5.130    0.350    0.509   87.917
  447.000    4.944    0.376    0.503   79.425
  447.250    4.854    0.393    0.470   77.612
  447.500    4.766    0.415    0.459   82.482
  447.750    5.539    0.367    0.460   86.741
  448.000    9.187    0.343    0.473   92.217
  448.250   14.405    0.356    0.442   50.931
  448.500   22.587    0.282    0.393   47.903
  448.750   28.827    0.233    0.309   50.951
  449.000   31.083    0.269    0.279   49.746
  449.250   32.284    0.294    0.273   50.971
  449.500   32.910    0.291    0.293   55.235
  449.750   32.942    0.272    0.302   57.064
  450.000   32.342    0.261    0.311   58.895
  450.250   32.353    0.242    0.324   56.480
  450.500   31.767    0.219    0.333   57.702
  450.750   30.054    0.191    0.329   60.142
  451.000   28.958    0.177    0.349   62.580
  451.250   28.434    0.194    0.362   62.589
  451.500   27.922    0.199    0.359   62.600
  451.750   29.552    0.203    0.368   63.825
  452.000   33.707    0.204    0.374   58.977
  452.250   39.171    0.210    0.362   55.949
  452.500   47.259    0.224    0.352   52.927
  452.750   59.192    0.246    0.356   49.897
  453.000   70.094    0.252    0.345   43.226
  453.250   79.954    0.265    0.338   43.849
  453.500   81.506    0.287    0.336   45.679
  453.750   78.549    0.307    0.344   48.116
  454.000   65.172    0.302    0.347   49.949
  454.250   52.085    0.289    0.337   46.315
  454.500   42.413    0.265    0.325   49.362
  454.750   36.530    0.206    0.333   58.484
  455.000   29.196    0.184    0.329   65.782
  455.250   22.477    0.219    0.317   71.865
  455.500   16.981    0.243    0.308   76.730
  455.750   12.593    0.223    0.318   85.244
  456.000   10.254    0.211    0.326   89.504
  456.250    8.350    0.203    0.343   96.804
  456.500    9.175    0.230    0.374  102.887
  456.750   10.080    0.248    0.389  102.289
  457.000   11.283    0.267    0.399   99.870
  457.250   13.361    0.278    0.379  101.099
  457.500   16.738    0.259    0.361  101.110
  457.750   19.090    0.261    0.343  100.511
  458.000   20.583    0.258    0.364   95.657
  458.250   20.983    0.237    0.384   68.946
  458.500   18.765    0.221    0.398   72.605
  458.750   17.097    0.224    0.393   78.687
  459.000   15.870    0.235    0.375   82.944
  459.250   14.460    0.228    0.385   87.815
  459.500   14.466    0.221    0.359   89.648
  459.750   14.474    0.216    0.328   89.656
  460.000   14.481    0.211    0.333   87.237
  460.250   14.489    0.211    0.292   84.210
  460.500   13.963    0.213    0.300   89.083
  460.750   13.458    0.204    0.312   93.950
  461.000   12.972    0.192    0.321   98.208
  461.250   12.499    0.185    0.327  107.329
  461.500   11.823    0.180    0.331   98.838
  461.750   10.978    0.178    0.337   93.991
  462.000   10.578    0.176    0.344   90.356
  462.250   11.194    0.199    0.367   90.971
  462.500   13.011    0.243    0.391   89.767
  462.750   14.564    0.304    0.376   89.778
  463.000   17.247    0.310    0.380   84.322
  463.250   19.671    0.282    0.349   67.327
  463.500   21.209    0.249    0.340   61.871
  463.750   20.062    0.227    0.340   66.739
  464.000   17.942    0.186    0.333   67.968
  464.250   16.969    0.184    0.343   69.797
  464.500   15.177    0.203    0.345   72.843
  464.750   14.354    0.222    0.339   69.816
  465.000   13.578    0.234    0.338   75.900
  465.250   12.843    0.239    0.337   81.982
  465.500   12.376    0.219    0.356   89.282
  465.750   12.380    0.203    0.343   91.719
  466.000   13.351    0.193    0.324   82.013
  466.250   17.037    0.210    0.317   66.842
  466.500   27.736    0.264    0.313   60.172
  466.750   38.147    0.340    0.306   57.750
  467.000   41.913    0.306    0.297   59.583
  467.250   40.392    0.311    0.328   49.270
  467.500   34.152    0.317    0.339   51.712
  467.750   30.540    0.319    0.359   55.971
  468.000   27.824    0.306    0.373   59.015
  468.250   24.881    0.290    0.363   62.063
  468.500   22.248    0.273    0.362   64.502
  468.750   20.652    0.103    0.360   63.904
  469.000   19.534    0.069    0.325   70.597
  469.250   19.543    0.094    0.265   74.856
  469.500   18.491    0.143    0.296   65.149
  469.750   17.488    0.253    0.314   66.988
  470.000   16.540    0.260    0.313   71.854
  470.250   15.355    0.235    0.308   81.579
  470.500   14.253    0.214    0.318   88.268
  470.750   12.748    0.204    0.323   94.351
  471.000   12.286    0.202    0.323   83.434
  471.250   11.841    0.214    0.339   78.581
  471.500   11.625    0.230    0.351   81.022
  471.750   11.414    0.220    0.346   87.107
  472.000   11.209    0.210    0.352   90.757
  472.250   11.007    0.239    0.366   88.342
  472.500   10.808    0.275    0.347   90.782
  472.750   10.814    0.233    0.348   92.611
  473.000   10.818    0.194    0.347   92.624
  473.250   11.030    0.193    0.337   96.276
  473.500   11.457    0.190    0.343  101.753
  473.750   11.678    0.194    0.329  105.405
  474.000   11.904    0.205    0.341  102.984
  474.250   12.598    0.212    0.347   98.743
  474.500   13.587    0.210    0.345   97.543
  474.750   14.111    0.204    0.342   98.162
  475.000   14.938    0.218    0.332   97.561
  475.250   15.226    0.229    0.319   93.319
  475.500   15.817    0.212    0.333   75.720
  475.750   16.122    0.200    0.327   68.440
  476.000   16.742    0.217    0.311   62.985
  476.250   17.718    0.140    0.313   61.172
  476.500   19.466    0.164    0.322   60.573
  476.750   19.848    0.288    0.333   53.904
  477.000   19.855    0.301    0.352   48.447
  477.250   20.244    0.284    0.371   44.815
  477.500   20.634    0.221    0.383   47.861
  477.750   22.250    0.251    0.365   49.695
  478.000   24.447    0.273    0.360   49.098
  478.250   24.919    0.267    0.363   48.498
  478.500   23.577    0.235    0.359   46.690
  478.750   21.883    0.214    0.353   45.486
  479.000   18.848    0.227    0.334   43.670
  479.250   15.934    0.250    0.339   29.712
  479.500   14.249    0.247    0.358   20.613
  479.750   13.226    0.240    0.375   16.978
  480.000   12.280    0.253    0.356    4.846
