~VERSION INFORMATION
 VERS.                 2.0:   CWLS LOG ASCII STANDARD -VERSION 2.0
 WRAP.                  NO:   ONE LINE PER DEPTH STEP
~WELL INFORMATION BLOCK
#MNEM.UNIT           DATA                    DESCRIPTION OF MNEMONIC
#---------    -------------------            -------------------------------
# Generated from Intellog Unique Number	CS_73_76/WELL/1084
WELL.         BOW VALLEY INDUSTRIES LTD.     : Well_name    - WELL
LOC .         00/06-30-075-13W4/0            : Location     - LOCATION
UWI .         00/06-30-075-13W4/0            : Uwi          - UNIQUE WELL ID
ENTR.         SP                             : Entered      - ENTERED BY
SRVC.         SCHLUMBERGER                   : Scn          - SERVICE COMPANY
STRT.M        360                            : top_depth    - START DEPTH
STOP.M        597                            : bot_depth    - STOP DEPTH
STEP.M        0.25                           : increment    - STEP LENGTH
 NULL. -999.2500:NULL Value
~CURVE INFORMATION BLOCK
#MNEM UNIT       ERCB CURVE CODE    CURVE DESCRIPTION
#-----------   ------------------   ----------------------------------
DEPT.M        00 001 00 00         : DEPTH        - DEPTH
ILD .OHMM     00 120 00 00         : RESD         - DEEP RESISTIVITY (DIL)
DPHI.V/V      00 890 00 00         : PHID         - DENSITY POROSITY (LIMESTONE)
NPHI.V/V      00 330 00 00         : PHIN         - NEUTRON POROSITY (LIMESTONE)
GR  .API      00 310 00 00         : GR           - GAMMA RAY
~PARAMETER INFORMATION
#MNEM.UNIT           DATA             DESCRIPTION OF MNEMONIC
#---------         -----------     ------------------------------
GL  .M        736                  : gl           - GROUND LEVEL ELEVATION
EREF.M        739.2                : kb           - ELEVATION OF DEPTH REFERENCE
DATM.M        736                  : datum        - DATUM ELEVATION
TDD .M        603                  : tdd          - TOTAL DEPTH DRILLER
RUN .         ONE                  : Run          - RUN NUMBER
ENG .         BILL                 : Engineer     - RECORDING ENGINEER
WIT .         JIM                  : Witness      - WITNESSED BY
MUD .         GEL                  : Mud_type     - MUD TYPE
MATR.         LIMESTONE            : Logunit      - NEUTRON MATRIX
TMAX.C        23                   : BHT          - MAXIMUM RECORDED TEMPERATURE
BHTD.M        603                  : BHTDEP       - MAXIMUM RECORDED TEMPERATURE
MATR.         1                    : LOGUNIT      - NEUTRON MATRIX
RMT .C        25                   : MDTP         - TEMPERATURE OF MUD
NEUT.         1                    : NEUTRON      - NEUTRON TYPE
RESI.         0                    : RESIST       - RESISTIVITY TYPE
RMC .OHMM     0.25                 : RMC          - RESISTIVITY OF MUD CAKE
RMF .OHMM     0.25                 : RMF          - RESISTIVITY OF MUD FILTRATE
SUFT.C        15                   : SUFT         - SURFACE TEMPERATURE
~A  DEPTH     RESD     PHID     PHIN       GR
# ...
  403.500    4.720    0.271    0.508  107.595
  403.750    4.719    0.262    0.525  102.714
  404.000    4.895    0.276    0.515  100.882
  404.250    5.367    0.289    0.490  100.257
  404.500    5.884    0.280    0.480   99.634
  404.750    6.217    0.270    0.486   97.189
  405.000    6.570    0.271    0.487   94.134
  405.250    7.071    0.286    0.479   90.474
  405.500    7.335    0.300    0.472   87.422
  405.750    7.750    0.288    0.466   86.194
  406.000    7.747    0.281    0.454   89.816
  406.250    7.889    0.284    0.443   89.190
  406.500    8.034    0.284    0.451   86.745
  406.750    8.182    0.288    0.471   84.905
  407.000    8.486    0.298    0.485   83.069
  407.250    8.484    0.299    0.497   82.445
  407.500    8.174    0.298    0.480   83.638
  407.750    7.589    0.278    0.472   84.833
  408.000    7.178    0.256    0.478   86.642
  408.250    6.664    0.252    0.479   88.455
  408.500    6.421    0.257    0.475   93.898
  408.750    6.302    0.256    0.465   97.529
  409.000    6.300    0.259    0.458   99.333
  409.250    6.656    0.257    0.483   96.281
  409.500    7.298    0.268    0.498   90.192
  409.750    8.150    0.283    0.502   84.101
  410.000    8.613    0.292    0.478   81.053
  410.250    8.934    0.307    0.464   76.785
  410.500    8.449    0.320    0.448   73.122
  410.750    7.702    0.340    0.450   71.284
  411.000    6.520    0.345    0.450   74.912
  411.250    5.419    0.330    0.448   80.966
  411.500    4.760    0.307    0.451   87.019
  411.750    4.260    0.289    0.471   91.257
  412.000    4.501    0.299    0.493   83.948
  412.250    5.720    0.317    0.514   76.641
  412.500    7.405    0.364    0.546   73.598
  412.750    8.743    0.385    0.580   66.903
  413.000   10.708    0.406    0.602   60.811
  413.250   11.741    0.400    0.561   56.548
  413.500   12.405    0.388    0.517   56.531
  413.750   12.634    0.373    0.455   58.332
  414.000   12.865    0.361    0.451   55.889
  414.250   12.860    0.353    0.452   55.875
  414.500   12.856    0.358    0.448   56.461
  414.750   12.851    0.358    0.445   55.838
  415.000   12.848    0.356    0.449   54.608
  415.250   12.609    0.357    0.437   52.765
  415.500   12.606    0.362    0.433   52.753
  415.750   12.601    0.357    0.426   53.339
  416.000   12.598    0.356    0.437   55.143
  416.250   12.361    0.363    0.451   56.348
  416.500   12.359    0.367    0.466   56.936
  416.750   12.355    0.373    0.472   56.921
  417.000   12.350    0.377    0.466   56.297
  417.250   12.346    0.375    0.458   57.488
  417.500   12.342    0.365    0.450   57.477
  417.750   12.568    0.368    0.443   58.667
  418.000   12.564    0.372    0.437   58.658
  418.250   12.559    0.359    0.440   58.034
  418.500   12.555    0.344    0.444   57.412
  418.750   12.551    0.339    0.436   56.788
  419.000   12.548    0.349    0.432   57.374
  419.250   12.544    0.355    0.434   56.143
  419.500   12.540    0.359    0.439   55.518
  419.750   12.308    0.365    0.431   55.507
  420.000   12.304    0.363    0.427   56.095
  420.250   12.076    0.367    0.425   57.292
  420.500   11.851    0.366    0.434   58.489
  420.750   11.209    0.369    0.442   59.682
  421.000   10.600    0.374    0.452   59.672
  421.250   10.598    0.377    0.453   59.047
  421.500   10.595    0.384    0.461   57.819
  421.750   10.988    0.385    0.462   58.409
  422.000   11.189    0.368    0.446   58.998
  422.250   11.395    0.370    0.435   58.980
  422.500   11.604    0.377    0.447   58.966
  422.750   12.037    0.369    0.449   60.763
  423.000   12.259    0.362    0.446   61.963
  423.250   12.714    0.353    0.431   61.951
  423.500   12.711    0.350    0.417   63.756
  423.750   12.944    0.344    0.427   69.203
  424.000   12.940    0.332    0.442   74.044
  424.250   13.175    0.323    0.454   75.240
  424.500   13.172    0.335    0.458   70.366
  424.750   13.168    0.339    0.451   64.275
  425.000   13.165    0.334    0.449   61.835
  425.250   13.159    0.331    0.459   63.636
  425.500   13.155    0.323    0.466   65.440
  425.750   13.152    0.314    0.462   64.818
  426.000   12.908    0.321    0.454   59.943
  426.250   12.904    0.332    0.458   57.496
  426.500   12.898    0.338    0.470   58.695
  426.750   12.894    0.339    0.474   59.289
  427.000   12.655    0.339    0.487   61.094
  427.250   12.652    0.344    0.485   61.684
  427.500   12.648    0.349    0.491   58.629
  427.750   12.642    0.353    0.485   58.008
  428.000   12.407    0.354    0.476   57.989
  428.250   12.404    0.353    0.471   57.366
  428.500   12.400    0.352    0.476   54.922
  428.750   12.169    0.354    0.466   54.296
  429.000   12.165    0.354    0.465   56.706
  429.250   12.161    0.356    0.474   57.297
  429.500   12.156    0.361    0.480   56.066
  429.750   11.930    0.365    0.492   55.440
  430.000   11.927    0.365    0.500   56.033
  430.250   11.923    0.363    0.494   56.623
  430.500   11.701    0.361    0.477   56.001
  430.750   11.698    0.363    0.471   54.768
  431.000   11.694    0.366    0.479   54.146
  431.250   11.476    0.366    0.483   54.732
  431.500   11.473    0.364    0.477   55.324
  431.750   11.469    0.363    0.485   55.304
  432.000   11.465    0.365    0.492   54.687
  432.250   11.461    0.371    0.501   54.669
  432.500   11.458    0.369    0.485   56.472
  432.750   11.456    0.367    0.470   58.278
  433.000   11.453    0.365    0.472   60.080
  433.250   11.661    0.363    0.473   59.461
  433.500   11.875    0.362    0.473   58.227
  433.750   11.872    0.362    0.473   58.820
  434.000   12.312    0.362    0.477   60.019
  434.250   12.309    0.360    0.489   61.213
  434.500   12.306    0.355    0.486   62.414
  434.750   12.303    0.351    0.479   63.606
  435.000   12.300    0.350    0.468   64.805
  435.250   12.295    0.351    0.462   63.572
  435.500   12.292    0.348    0.460   61.731
  435.750   12.287    0.349    0.467   61.116
  436.000   12.285    0.356    0.483   63.528
  436.250   12.979    0.348    0.490   64.118
  436.500   14.231    0.345    0.483   61.668
  436.750   16.189    0.343    0.475   59.218
  437.000   17.106    0.331    0.472   58.601
  437.250   17.744    0.296    0.467   56.763
  437.500   18.070    0.237    0.432   54.927
  437.750   18.063    0.172    0.342   53.088
  438.000   17.404    0.192    0.356   52.465
  438.250   15.863    0.234    0.411   59.123
  438.500   15.284    0.285    0.447   62.145
  438.750   14.453    0.335    0.488   63.950
  439.000   14.184    0.337    0.487   66.362
  439.250   14.181    0.336    0.472   68.770
  439.500   14.176    0.329    0.471   69.969
  439.750   14.172    0.318    0.485   68.129
  440.000   14.169    0.311    0.499   64.469
  440.250   13.902    0.308    0.485   62.635
  440.500   13.899    0.306    0.475   63.833
  440.750   13.896    0.301    0.482   68.058
  441.000   13.892    0.312    0.471   68.656
  441.250   13.630    0.324    0.464   69.856
  441.500   13.626    0.318    0.470   71.050
  441.750   13.623    0.324    0.481   72.853
  442.000   13.620    0.338    0.480   74.052
  442.250   13.616    0.341    0.481   74.642
  442.500   13.611    0.345    0.490   71.592
  442.750   13.606    0.336    0.498   67.929
  443.000   13.354    0.330    0.497   68.520
  443.250   12.864    0.317    0.489   72.149
  443.500   12.861    0.312    0.483   75.772
  443.750   12.623    0.308    0.479   77.582
  444.000   12.387    0.326    0.474   75.742
  444.250   12.382    0.332    0.479   73.294
  444.500   12.153    0.332    0.484   70.843
  444.750   12.150    0.329    0.471   70.224
  445.000   11.922    0.326    0.465   70.213
  445.250   11.702    0.337    0.466   70.188
  445.500   11.483    0.338    0.472   70.784
  445.750   11.480    0.340    0.468   72.585
  446.000   11.058    0.351    0.483   73.174
  446.250   10.852    0.354    0.484   73.163
  446.500   10.850    0.354    0.479   72.540
  446.750   10.847    0.353    0.483   70.093
