~VERSION INFORMATION
 VERS.                 2.0:   CWLS LOG ASCII STANDARD -VERSION 2.0
 WRAP.                  NO:   ONE LINE PER DEPTH STEP
~WELL INFORMATION BLOCK
#MNEM.UNIT           DATA                    DESCRIPTION OF MNEMONIC
#---------    -------------------            -------------------------------
# Generated from Intellog Unique Number	CW_70_72/WELL/927
NULL.         -999.25                        : NULL_VALUE
WELL.         LANDBANK ET AL MITSUE 07-29    : Well_name    - WELL              
LOC .         07-29-071-02W5                 : Location     - LOCATION          
UWI .         00/07-29-071-02W5/0            : Uwi          - UNIQUE WELL ID    
ENTR.         JAYE                           : Entered      - ENTERED BY        
SRVC.         SCHLUMBERGER                   : Scn          - SERVICE COMPANY   
DATE.         25 FEB 83                      : Date         - LOG DATE          
STRT.M        400                            : top_depth    - START DEPTH       
STOP.M        630                            : bot_depth    - STOP DEPTH        
STEP.M        0.25                           : increment    - STEP LENGTH       
~CURVE INFORMATION BLOCK
#MNEM UNIT       ERCB CURVE CODE    CURVE DESCRIPTION
#-----------   ------------------   ----------------------------------
DEPT.M        00 001 00 00         : DEPTH        - DEPTH                       
DPHI.V/V      00 890 00 00         : PHID         - DENSITY POROSITY (SANDSTONE)
NPHI.V/V      00 330 00 00         : PHIN         - NEUTRON POROSITY (SANDSTONE)
GR  .API      00 310 00 00         : GR           - GAMMA RAY                   
CALI.MM       00 280 01 00         : CAL          - CALIPER                     
ILD .OHMM     00 120 00 00         : RESD         - DEEP RESISTIVITY (DIL)      
~PARAMETER INFORMATION       
#MNEM.UNIT           DATA             DESCRIPTION OF MNEMONIC
#---------         -----------     ------------------------------
GL  .M        592.56               : gl           - GROUND LEVEL ELEVATION      
EREF.M        596.21               : kb           - ELEVATION OF DEPTH REFERENCE
DATM.M        592.56               : datum        - DATUM ELEVATION             
TDD .M        649                  : tdd          - TOTAL DEPTH DRILLER         
RUN .         ONE                  : Run          - RUN NUMBER                  
ENG .         WRIGHT               : Engineer     - RECORDING ENGINEER          
WIT .         SMITH                : Witness      - WITNESSED BY                
BASE.         EDM                  : Branch       - HOME BASE OF LOGGING UNIT   
MUD .         GEL CHEM             : Mud_type     - MUD TYPE                    
MATR.         SANDSTONE            : Logunit      - NEUTRON MATRIX              
TMAX.C        35.6                 : BHT          - MAXIMUM RECORDED TEMPERATURE
BHTD.M        650                  : BHTDEP       - MAXIMUM RECORDED TEMPERATURE
RMT .C        15.6                 : MDTP         - TEMPERATURE OF MUD          
MUDD.KG/M     1200                 : MWT          - MUD DENSITY                 
NEUT.         1                    : NEUTRON      - NEUTRON TYPE                
RESI.         0                    : RESIST       - RESISTIVITY TYPE            
RM  .OHMM     6.49                 : RM           - RESISTIVITY OF MUD          
RMC .OHMM     0                    : RMC          - RESISTIVITY OF MUD CAKE     
RMF .OHMM     5.45                 : RMF          - RESISTIVITY OF MUD FILTRATE 
SUFT.C        0                    : SUFT         - SURFACE TEMPERATURE         
~A  DEPTH     PHID     PHIN       GR      CAL     RESD
  400.000    0.182    0.489   99.034  189.297    2.191
  400.250    0.203    0.488   99.092  189.703    2.245
  400.500    0.211    0.488  100.137  190.518    2.318
  400.750    0.198    0.498  101.921  190.720    2.375
  401.000    0.183    0.506  102.411  191.535    2.430
  401.250    0.169    0.498  101.114  192.044    2.499
  401.500    0.180    0.511  105.179  192.861    2.537
  401.750    0.190    0.516  106.100  193.472    2.589
  402.000    0.191    0.488  106.159  194.289    2.633
  402.250    0.173    0.484  107.203  194.695    2.638
  402.500    0.153    0.517  107.447  194.999    2.606
  402.750    0.157    0.508  106.026  195.301    2.578
  403.000    0.174    0.492  108.673  195.400    2.566
  403.250    0.172    0.517  108.239  195.394    2.542
  403.500    0.196    0.529  107.373  195.390    2.547
  403.750    0.208    0.503  106.877  195.385    2.566
  404.000    0.200    0.483  106.258  195.380    2.591
  404.250    0.192    0.507  103.605  195.682    2.576
  404.500    0.207    0.502  100.521  195.781    2.562
  404.750    0.207    0.482   98.669  195.365    2.549
  405.000    0.196    0.471  103.473  194.333    2.543
  405.250    0.178    0.472  110.865  192.377    2.524
  405.500    0.179    0.477  107.165  189.392    2.601
  405.750    0.179    0.484  103.464  187.025    2.670
  406.000    0.174    0.466  101.119  185.172    2.885
  406.250    0.162    0.468   97.912  181.366    3.179
  406.500    0.168    0.469   92.177  175.301    3.589
  406.750    0.217    0.430   78.802  168.313    4.528
  407.000    0.250    0.375   72.759  164.404    5.532
  407.250    0.265    0.360   70.414  163.680    6.534
  407.500    0.219    0.346   69.364  163.675    8.304
  407.750    0.124    0.319   66.526  164.389    9.719
  408.000    0.089    0.273   62.640  164.898   10.710
  408.250    0.058    0.241   57.954  164.894   10.534
  408.500    0.068    0.216   56.965  164.682    9.450
  408.750    0.152    0.294   59.057  164.575    7.354
  409.000    0.215    0.318   62.135  163.954    6.308
  409.250    0.278    0.340   64.105  162.100    5.640
  409.500    0.276    0.368   66.936  160.862    5.108
  409.750    0.269    0.391   63.421  160.447    4.669
  410.000    0.254    0.385   61.076  160.235    4.300
  410.250    0.271    0.370   58.423  160.231    3.960
  410.500    0.298    0.355   54.784  160.534    3.682
  410.750    0.311    0.361   52.377  160.941    3.494
  411.000    0.307    0.376   55.086  161.550    3.378
  411.250    0.263    0.390   61.061  161.855    3.341
  411.500    0.236    0.410   65.618  161.849    3.386
  411.750    0.226    0.425   69.868  162.154    3.443
  412.000    0.246    0.440   74.733  163.072    3.501
  412.250    0.233    0.441   71.526  164.197    3.457
  412.500    0.215    0.441   75.713  165.424    3.392
  412.750    0.230    0.436   88.837  166.755    3.286
  413.000    0.230    0.442   98.016  170.550    3.220
  413.250    0.213    0.472  100.848  173.627    3.244
  413.500    0.196    0.468   99.304  175.265    3.374
  413.750    0.205    0.450   99.301  175.877    3.557
  414.000    0.179    0.426  102.564  176.077    3.861
  414.250    0.168    0.396  106.937  174.635    4.469
  414.500    0.201    0.357   92.822  170.828    4.907
  414.750    0.229    0.320   76.180  168.257    5.085
  415.000    0.282    0.272   59.907  164.451    4.537
  415.250    0.349    0.249   51.831  160.953    3.693
  415.500    0.370    0.266   47.699  159.408    3.186
  415.750    0.356    0.310   46.772  158.786    2.896
  416.000    0.320    0.353   48.063  158.576    2.739
  416.250    0.310    0.375   53.113  158.777    2.748
  416.500    0.297    0.384   62.786  160.004    2.848
  416.750    0.242    0.368   82.133  164.416    3.030
  417.000    0.206    0.394   94.456  170.163    3.346
  417.250    0.173    0.428   93.343  174.677    3.667
  417.500    0.188    0.458   88.041  173.748    3.998
  417.750    0.221    0.453   82.245  169.839    4.261
  418.000    0.204    0.420   80.886  167.986    4.508
  418.250    0.197    0.410   81.253  166.441    4.627
  418.500    0.208    0.422   81.620  165.511    4.715
  418.750    0.188    0.432   82.295  165.711    4.751
  419.000    0.173    0.438   82.969  166.631    4.751
  419.250    0.197    0.438   83.583  167.756    4.700
  419.500    0.200    0.429   88.941  168.470    4.603
  419.750    0.195    0.418   91.650  169.492    4.353
  420.000    0.198    0.398   88.196  169.898    4.192
  420.250    0.195    0.383   84.064  170.099    3.957
  420.500    0.189    0.396   80.240  169.785    3.761
  420.750    0.211    0.409   76.416  167.624    3.516
  421.000    0.209    0.380   91.882  166.797    3.257
  421.250    0.177    0.355  100.938  171.311    2.933
  421.500    0.149    0.393  108.700  175.928    2.712
  421.750    0.134    0.454  104.260  178.696    2.783
  422.000    0.140    0.492   92.055  177.665    2.928
  422.250    0.239    0.500   75.166  169.648    3.121
  422.500    0.244    0.398   77.628  164.919    3.402
  422.750    0.227    0.374   86.376  164.399    3.743
  423.000    0.221    0.362   91.919  164.702    4.025
  423.250    0.217    0.360   95.059  164.800    4.018
  423.500    0.206    0.365   87.723  164.590    3.518
  423.750    0.196    0.374   67.938  164.277    2.849
  424.000    0.218    0.393   54.747  163.759    2.429
  424.250    0.277    0.399   42.603  163.035    2.124
  424.500    0.312    0.361   35.020  162.722    1.981
  424.750    0.325    0.361   33.045  162.819    2.004
  425.000    0.308    0.365   39.451  162.712    2.035
  425.250    0.296    0.342   45.858  162.707    2.117
  425.500    0.285    0.355   51.647  162.805    2.210
  425.750    0.277    0.372   49.611  162.696    2.325
  426.000    0.267    0.354   57.003  162.692    2.459
  426.250    0.250    0.374   67.908  162.275    2.586
  426.500    0.259    0.370   79.368  162.270    2.793
  426.750    0.236    0.338   91.875  162.060    2.992
  427.000    0.211    0.353   89.715  162.261    3.250
  427.250    0.205    0.371   83.980  162.770    3.471
  427.500    0.229    0.360   80.218  163.279    3.595
  427.750    0.221    0.363   84.159  162.760    3.862
  428.000    0.203    0.356   92.106  163.679    4.039
  428.250    0.194    0.341   99.683  166.448    4.250
  428.500    0.162    0.360  105.350  169.113    4.304
  428.750    0.170    0.377  107.258  172.189    4.062
  429.000    0.182    0.389  107.069  174.033    3.631
  429.250    0.165    0.351  109.039  175.775    2.978
  429.500    0.149    0.393  115.199  177.105    2.521
  429.750    0.152    0.488  112.422  178.333    2.362
  430.000    0.150    0.498  106.626  177.917    2.339
  430.250    0.070    0.484  107.918  180.685    2.406
  430.500    0.131    0.519  117.590  189.102    2.594
  430.750    0.170    0.533  113.951  188.481    2.838
  431.000    0.232    0.460  106.368  182.416    2.973
  431.250    0.227    0.447   96.689  173.886    3.036
  431.500    0.242    0.454   83.807  169.874    3.055
  431.750    0.266    0.418   69.938  168.124    3.043
  432.000    0.299    0.403   58.349  166.887    3.042
  432.250    0.277    0.400   56.620  166.573    3.053
  432.500    0.275    0.413   56.617  166.568    3.094
  432.750    0.297    0.425   62.592  166.871    3.159
  433.000    0.307    0.408   70.909  167.586    3.214
  433.250    0.282    0.402   87.484  169.943    3.243
  433.500    0.192    0.422   98.573  174.150    3.286
  433.750    0.156    0.446  107.876  180.205    3.335
  434.000    0.141    0.479  111.571  186.671    3.413
  434.250    0.190    0.514  101.707  186.871    3.477
  434.500    0.255    0.489   86.914  176.697    3.536
  434.750    0.268    0.412   77.790  167.859    3.624
  435.000    0.257    0.388   79.759  162.924    3.706
  435.250    0.246    0.397   82.529  161.583    3.782
  435.500    0.235    0.393   79.938  161.887    3.898
  435.750    0.251    0.391   78.333  162.499    3.986
  436.000    0.240    0.402   79.932  163.110    4.069
  436.250    0.223    0.415   85.599  163.413    4.154
