~VERSION INFORMATION
 VERS.                 2.0:   CWLS LOG ASCII STANDARD -VERSION 2.0
 WRAP.                  NO:   ONE LINE PER DEPTH STEP
~WELL INFORMATION BLOCK
#MNEM.UNIT           DATA                    DESCRIPTION OF MNEMONIC
#---------    -------------------            -------------------------------
# Generated from Intellog Unique Number	CW_82_90/WELL/532
WELL.         06-26-082-20W4                 : Well_name    - WELL
LOC .         00/06-26-082-20W4/0            : Location     - LOCATION
UWI .         00/06-26-082-20W4/0            : Uwi          - UNIQUE WELL ID
ENTR.         JAYE                           : Entered      - ENTERED BY
SRVC.         SCHLUMBERGER                   : Scn          - SERVICE COMPANY
DATE.         22 JAN 75                      : Date         - LOG DATE
STRT.M        179.832                        : top_depth    - START DEPTH
STOP.M        365.832                        : bot_depth    - STOP DEPTH
STEP.M        0.25                           : increment    - STEP LENGTH
 NULL. -999.2500:NULL Value
~CURVE INFORMATION BLOCK
#MNEM UNIT       ERCB CURVE CODE    CURVE DESCRIPTION
#-----------   ------------------   ----------------------------------
DEPT.M        00 001 00 00         : DEPTH        - DEPTH
CALI.MM       00 280 01 00         : CAL          - CALIPER
GR  .API      00 310 00 00         : GR           - GAMMA RAY
NPHI.V/V      00 330 00 00         : PHIN         - NEUTRON POROSITY (SANDSTONE)
DPHI.V/V      00 890 00 00         : PHID         - DENSITY POROSITY (SANDSTONE)
ILD .OHMM     00 120 00 00         : RESD         - DEEP RESISTIVITY (DIL)
~PARAMETER INFORMATION
#MNEM.UNIT           DATA             DESCRIPTION OF MNEMONIC
#---------         -----------     ------------------------------
GL  .M        594.36               : gl           - GROUND LEVEL ELEVATION
EREF.M        596.798              : kb           - ELEVATION OF DEPTH REFERENCE
DATM.M        594.36               : datum        - DATUM ELEVATION
TDD .M        369.418              : tdd          - TOTAL DEPTH DRILLER
RUN .         ONE                  : Run          - RUN NUMBER
ENG .         CURRIE               : Engineer     - RECORDING ENGINEER
WIT .         CUMMINS              : Witness      - WITNESSED BY
BASE.         EDMONTON             : Branch       - HOME BASE OF LOGGING UNIT
MUD .         GEL CHEM             : Mud_type     - MUD TYPE
MATR.         SANDSTONE            : Logunit      - NEUTRON MATRIX
TMAX.C        20                   : BHT          - MAXIMUM RECORDED TEMPERATURE
BHTD.M        369.418              : BHTDEP       - MAXIMUM RECORDED TEMPERATURE
RMT .C        21.1111              : MDTP         - TEMPERATURE OF MUD
MUDD.KG/M     9100                 : MWT          - MUD DENSITY
NEUT.         1                    : NEUTRON      - NEUTRON TYPE
RESI.         0                    : RESIST       - RESISTIVITY TYPE
RM  .OHMM     4.62                 : RM           - RESISTIVITY OF MUD
RMC .OHMM     0.25                 : RMC          - RESISTIVITY OF MUD CAKE
RMF .OHMM     5.52                 : RMF          - RESISTIVITY OF MUD FILTRATE
SUFT.C        4                    : SUFT         - SURFACE TEMPERATURE
~A  DEPTH      CAL       GR     PHIN     PHID     RESD
# ...
  289.332  168.954   74.570    0.508    0.276   10.874
  289.582  169.499   75.554    0.520    0.266   10.627
  289.832  169.844   73.205    0.526    0.264   10.383
  290.082  170.494   73.829    0.517    0.258   10.044
  290.332  172.188   78.394    0.517    0.263    9.697
  290.582  174.090   81.442    0.532    0.284    9.306
  290.832  176.200   82.006    0.535    0.269    9.148
  291.082  177.888   83.780    0.518    0.261    9.173
  291.332  179.684   86.532    0.519    0.245    9.328
  291.582  181.688   85.999    0.502    0.262    9.564
  291.832  183.278   84.746    0.484    0.260    9.686
  292.082  184.038   86.577    0.475    0.247    9.770
  292.332  184.064   86.778    0.477    0.247    9.663
  292.582  183.679   86.068    0.508    0.244    9.535
  292.832  184.436   86.144    0.500    0.244    9.244
  293.082  185.713   88.469    0.494    0.237    9.013
  293.332  188.243   88.300    0.498    0.250    8.702
  293.582  190.037   90.076    0.493    0.261    8.554
  293.832  192.041   92.521    0.495    0.247    8.579
  294.082  193.108   95.145    0.509    0.242    8.793
  294.332  190.961   93.949    0.516    0.265    9.085
  294.582  187.976   89.964    0.505    0.253    9.294
  294.832  182.605   91.680    0.493    0.258    9.856
  295.082  179.516   92.302    0.488    0.253   10.432
  295.332  177.990   91.293    0.498    0.246   11.084
  295.582  176.151   90.458    0.514    0.249   11.826
  295.832  172.858   88.839    0.509    0.248   12.442
  296.082  170.599   86.613    0.498    0.236   13.038
  296.332  168.250   87.844    0.491    0.223   13.442
  296.582  168.062   92.952    0.488    0.243   14.030
  296.832  169.859   98.367    0.496    0.269   14.352
  297.082  169.688   93.291    0.505    0.255   14.655
  297.332  169.508   84.940    0.498    0.260   14.755
  297.582  169.332   81.807    0.505    0.276   14.914
  297.832  168.119   80.427    0.499    0.285   14.956
  298.082  167.731   76.626    0.487    0.294   14.937
  298.332  167.034   75.735    0.490    0.291   15.714
  298.582  165.192   75.083    0.492    0.275   17.872
  298.832  164.703   71.706    0.479    0.258   20.284
  299.082  164.422   68.933    0.352    0.220   23.253
  299.332  164.353   66.222    0.312    0.173   27.854
  299.582  164.168   65.696    0.284    0.111   31.992
  299.832  164.206   67.168    0.271    0.114   29.678
  300.082  164.647   70.642    0.279    0.118   23.328
  300.332  165.089   72.051    0.329    0.121   20.462
  300.582  166.160   75.707    0.471    0.197   18.793
  300.832  167.335   79.545    0.498    0.262   18.436
  301.082  168.089   81.988    0.454    0.258   18.456
  301.332  169.578   84.126    0.428    0.223   18.139
  301.582  170.435   85.537    0.386    0.166   17.547
  301.832  170.886   85.070    0.482    0.198   16.441
  302.082  170.500   84.177    0.512    0.251   15.683
  302.332  169.698   83.348    0.499    0.274   14.756
  302.582  168.587   83.241    0.480    0.264   14.302
  302.832  167.476   83.138    0.493    0.257   13.917
  303.082  166.261   84.976    0.491    0.253   13.492
  303.332  165.765   86.326    0.483    0.244   13.317
  303.582  165.483   85.311    0.486    0.245   13.221
  303.832  166.765   83.876    0.507    0.245   13.179
  304.082  168.765   84.316    0.517    0.239   13.188
  304.332  174.304   82.211    0.507    0.245   13.225
  304.582  176.616   82.411    0.494    0.249   13.342
  304.832  177.789   83.518    0.482    0.246   13.487
  305.082  177.507   85.294    0.471    0.255   13.580
  305.332  177.746   85.737    0.492    0.245   13.617
  305.582  178.504   84.724    0.501    0.234   13.573
  305.832  179.369   84.254    0.490    0.244   13.556
  306.082  179.917   81.306    0.491    0.240   13.541
  306.332  180.367   82.227    0.507    0.235   13.496
  306.582  180.806   85.095    0.498    0.235   13.348
  306.832  181.671   87.416    0.495    0.240   13.093
  307.082  182.321   89.622    0.510    0.241   12.820
  307.332  182.560   85.752    0.501    0.238   12.701
  307.582  181.974   84.254    0.490    0.232   12.485
  307.832  181.380   84.454    0.504    0.229   12.347
  308.082  181.097   83.320    0.513    0.234   12.306
  308.332  180.708   84.309    0.500    0.239   12.367
  308.582  179.698   87.172    0.485    0.242   12.376
  308.832  179.729   88.948    0.474    0.242   12.485
  309.082  181.005   88.117    0.479    0.241   12.495
  309.332  182.078   89.590    0.476    0.243   12.404
  309.582  183.143   85.122    0.468    0.239   12.075
  309.832  183.075   83.685    0.476    0.235   11.704
  310.082  181.647   85.337    0.470    0.233   11.097
  310.332  186.150   84.989    0.475    0.235   10.336
  310.582  188.149   88.221    0.497    0.234    9.880
  310.832  189.325   91.513    0.511    0.233    9.711
  311.082  187.065   88.800    0.493    0.227    9.565
  311.332  179.617   84.636    0.479    0.224    9.903
  311.582  171.546   80.954    0.465    0.235   10.756
  311.832  167.524   81.820    0.453    0.224   12.356
  312.082  166.203   79.957    0.430    0.207   14.948
  312.332  165.721   71.607    0.347    0.156   19.628
  312.582  165.337   65.440    0.218    0.086   31.220
  312.832  165.053   65.461    0.184   -0.001   45.755
  313.082  164.355   65.719    0.183    0.006   71.052
  313.332  163.864   63.129    0.201    0.010   64.867
  313.582  163.579   61.751    0.243    0.033   50.578
  313.832  163.299   67.043    0.303    0.065   30.299
  314.082  164.376   72.881    0.400    0.114   20.957
  314.332  164.814   77.324    0.465    0.185   15.116
  314.582  173.779   79.099    0.462    0.209   13.473
  314.832  167.577   75.479    0.436    0.219   12.802
  315.082  171.351   71.980    0.411    0.217   12.736
  315.332  171.481   73.938    0.388    0.183   12.644
  315.582  169.434   77.775    0.425    0.185   12.431
  315.832  168.738   77.976    0.445    0.227   12.414
  316.082  168.974   78.058    0.471    0.241   12.425
  316.332  171.192   75.037    0.471    0.251   12.409
  316.582  171.112   74.630    0.461    0.261   12.296
  316.832  167.505   75.617    0.468    0.256   12.281
  317.082  166.400   75.697    0.466    0.259   12.539
  317.332  166.216   73.714    0.443    0.263   12.931
  317.582  166.142   71.425    0.438    0.266   13.739
  317.832  165.970   65.318    0.456    0.266   15.563
  318.082  165.792   62.062    0.449    0.243   19.132
  318.332  165.405   56.926    0.409    0.229   23.661
  318.582  165.746   50.699    0.288    0.198   31.824
  318.832  167.542   51.809    0.252    0.080   38.350
  319.082  170.071   55.039    0.214    0.038   28.447
  319.332  169.160   61.725    0.223    0.058   20.273
  319.582  166.806   67.805    0.251    0.089   16.353
  319.832  169.541   73.945    0.429    0.121   13.838
  320.082  170.706   80.813    0.471    0.154   12.889
  320.332  172.502   86.591    0.474    0.250   12.077
  320.582  184.168   88.911    0.502    0.234   11.729
  320.832  185.547   87.898    0.496    0.228   11.810
  321.082  185.898   84.280    0.486    0.220   11.915
  321.332  185.923   87.570    0.484    0.211   11.973
  321.582  186.264   87.952    0.486    0.211   12.199
  321.832  186.919   88.574    0.500    0.215   12.606
  322.082  186.948   88.959    0.501    0.225   12.843
  322.332  186.251   88.548    0.488    0.237   13.223
  322.582  185.760   87.414    0.479    0.234   13.363
  322.832  185.484   86.763    0.476    0.226   13.505
  323.082  185.927   86.962    0.480    0.218   13.625
  323.332  186.167   87.891    0.476    0.223   13.747
  323.582  186.612   88.513    0.483    0.229   13.701
  323.832  187.060   88.716    0.478    0.221   13.741
  324.082  187.191   88.611    0.483    0.221   13.779
  324.332  187.537   88.809    0.475    0.210   13.789
  324.582  187.563   89.371    0.479    0.215   13.662
  324.832  187.594   90.237    0.493    0.212   13.619
  325.082  187.416   92.316    0.483    0.213   13.795
  325.332  186.925   94.878    0.469    0.205   13.971
  325.582  186.747   92.350    0.458    0.197   14.236
