~VERSION INFORMATION
 VERS.                 2.0:   CWLS LOG ASCII STANDARD -VERSION 2.0
 WRAP.                  NO:   ONE LINE PER DEPTH STEP
~WELL INFORMATION BLOCK
#MNEM.UNIT           DATA                    DESCRIPTION OF MNEMONIC
#---------    -------------------            -------------------------------
# Generated from Intellog Unique Number	CW_79_81/WELL/3692
WELL.         GULF CANADA RESOURCES LTD.     : Well_name    - WELL
LOC .         00/06-14-079-03W5/0            : Location     - LOCATION
UWI .         00/06-14-079-03W5/0            : Uwi          - UNIQUE WELL ID
ENTR.         JOETTE                         : Entered      - ENTERED BY
SRVC.         SCHLUMBERGER                   : Scn          - SERVICE COMPANY
DATE.         08-26-92                       : Date         - LOG DATE
STRT.M        345                            : top_depth    - START DEPTH
STOP.M        535                            : bot_depth    - STOP DEPTH
STEP.M        0.25                           : increment    - STEP LENGTH
 NULL. -999.2500:NULL Value
~CURVE INFORMATION BLOCK
#MNEM UNIT       ERCB CURVE CODE    CURVE DESCRIPTION
#-----------   ------------------   ----------------------------------
DEPT.M        00 001 00 00         : DEPTH        - DEPTH
ILD .OHMM     00 120 00 00         : RESD         - DEEP RESISTIVITY (DIL)
DPHI.V/V      00 890 00 00         : PHID         - DENSITY POROSITY (SANDSTONE)
NPHI.V/V      00 330 00 00         : PHIN         - NEUTRON POROSITY (SANDSTONE)
GR  .API      00 310 00 00         : GR           - GAMMA RAY
~PARAMETER INFORMATION
#MNEM.UNIT           DATA             DESCRIPTION OF MNEMONIC
#---------         -----------     ------------------------------
GL  .M        645.2                : gl           - GROUND LEVEL ELEVATION
EREF.M        648.9                : kb           - ELEVATION OF DEPTH REFERENCE
DATM.M        648.9                : datum        - DATUM ELEVATION
TDD .M        620                  : tdd          - TOTAL DEPTH DRILLER
RUN .         ONE                  : Run          - RUN NUMBER
ENG .         BILL                 : Engineer     - RECORDING ENGINEER
WIT .         JIM                  : Witness      - WITNESSED BY
MUD .         GEL                  : Mud_type     - MUD TYPE
MATR.         SANDSTONE            : Logunit      - NEUTRON MATRIX
TMAX.C        23                   : BHT          - MAXIMUM RECORDED TEMPERATURE
BHTD.M        620                  : BHTDEP       - MAXIMUM RECORDED TEMPERATURE
MATR.         1                    : LOGUNIT      - NEUTRON MATRIX
RMT .C        17                   : MDTP         - TEMPERATURE OF MUD
NEUT.         1                    : NEUTRON      - NEUTRON TYPE
RESI.         0                    : RESIST       - RESISTIVITY TYPE
RMC .OHMM     2.02                 : RMC          - RESISTIVITY OF MUD CAKE
RMF .OHMM     2.02                 : RMF          - RESISTIVITY OF MUD FILTRATE
SUFT.C        5                    : SUFT         - SURFACE TEMPERATURE
~A  DEPTH     RESD     PHID     PHIN       GR
# ...
  388.500   11.895    0.484    0.544   42.284
  388.750   11.901    0.485    0.540   42.305
  389.000   11.909    0.486    0.539   42.941
  389.250   11.915    0.481    0.539   41.777
  389.500   11.922    0.468    0.545   41.195
  389.750   11.927    0.463    0.542   39.435
  390.000   11.934    0.468    0.530   38.271
  390.250   12.162    0.480    0.529   40.085
  390.500   12.168    0.480    0.530   40.721
  390.750   12.403    0.481    0.524   39.557
  391.000   12.407    0.482    0.524   40.180
  391.250   12.644    0.487    0.539   41.399
  391.500   13.374    0.490    0.545   41.426
  391.750   13.884    0.483    0.538   39.666
  392.000   15.238    0.474    0.516   37.303
  392.250   18.009    0.454    0.443   33.154
  392.500   22.089    0.407    0.414   33.783
  392.750   22.936    0.366    0.425   34.995
  393.000   22.524    0.366    0.424   31.455
  393.250   22.119    0.373    0.418   32.673
  393.500   21.329    0.384    0.415   35.077
  393.750   21.337    0.380    0.420   36.309
  394.000   22.161    0.375    0.427   35.741
  394.250   22.580    0.372    0.431   34.569
  394.500   23.444    0.369    0.425   32.809
  394.750   23.893    0.363    0.419   31.645
  395.000   24.355    0.357    0.412   31.077
  395.250   24.364    0.358    0.412   30.508
  395.500   24.376    0.361    0.417   30.535
  395.750   24.394    0.359    0.419   31.151
  396.000   23.956    0.358    0.423   32.370
  396.250   22.257    0.364    0.428   31.802
  396.500   20.677    0.374    0.429   29.453
  396.750   17.842    0.376    0.422   28.288
  397.000   15.392    0.366    0.411   32.486
  397.250   13.037    0.372    0.419   38.470
  397.500   11.248    0.419    0.478   41.476
  397.750    9.887    0.483    0.557   43.893
  398.000    9.356    0.493    0.555   45.112
  398.250    9.021    0.499    0.570   45.735
  398.500    9.025    0.502    0.573   45.762
  398.750    9.373    0.493    0.562   46.385
  399.000    9.730    0.492    0.568   47.001
  399.250   10.103    0.501    0.577   45.241
  399.500   10.296    0.512    0.590   48.843
  399.750    9.926    0.443    0.587   50.664
  400.000    9.223    0.368    0.521   48.897
  400.250    8.257    0.336    0.468   56.073
  400.500    7.530    0.308    0.426   66.228
  400.750    6.378    0.347    0.434   76.978
  401.000    5.017    0.392    0.458   78.204
  401.250    5.020    0.411    0.481   77.642
  401.500    5.115    0.418    0.508   77.663
  401.750    5.311    0.419    0.516   75.903
  402.000    5.413    0.411    0.562   72.944
  402.250    5.415    0.351    0.532   73.567
  402.500    5.418    0.403    0.568   80.750
  402.750    5.129    0.423    0.600   83.160
  403.000    4.945    0.432    0.595   79.613
  403.250    4.946    0.422    0.585   74.285
  403.500    5.042    0.410    0.587   73.108
  403.750    5.138    0.405    0.596   71.347
  404.000    5.335    0.407    0.590   71.375
  404.250    5.337    0.408    0.576   71.402
  404.500    5.052    0.444    0.571   74.415
  404.750    4.961    0.465    0.590   79.208
  405.000    4.785    0.460    0.587   82.816
  405.250    4.786    0.423    0.576   85.822
  405.500    4.789    0.404    0.572   88.239
  405.750    4.790    0.392    0.582   88.848
  406.000    4.883    0.395    0.574   90.074
  406.250    5.070    0.400    0.575   88.909
  406.500    5.072    0.393    0.595   84.760
  406.750    5.169    0.384    0.611   83.007
  407.000    5.269    0.371    0.615   83.629
  407.250    5.371    0.370    0.610   84.252
  407.500    5.373    0.370    0.605   84.875
  407.750    5.375    0.372    0.598   85.498
  408.000    5.279    0.372    0.593   85.532
  408.250    4.997    0.373    0.594   84.950
  408.500    4.474    0.378    0.607   81.999
  408.750    4.005    0.390    0.616   85.004
  409.000    3.269    0.401    0.611   87.421
  409.250    2.873    0.413    0.599   85.655
  409.500    2.822    0.403    0.594   86.278
  409.750    2.876    0.402    0.615   91.666
  410.000    3.276    0.415    0.613   93.488
  410.250    3.662    0.415    0.605   89.338
  410.500    4.094    0.412    0.596   81.620
  410.750    4.493    0.417    0.588   70.342
  411.000    4.752    0.433    0.586   72.739
  411.250    5.026    0.443    0.597   75.149
  411.500    5.832    0.434    0.609   76.368
  411.750    6.283    0.429    0.619   74.608
  412.000    7.426    0.434    0.616   72.252
  412.250    8.776    0.439    0.610   66.924
  412.500   10.373    0.448    0.594   62.179
  412.750   11.383    0.460    0.570   57.433
  413.000   12.495    0.487    0.557   53.297
  413.250   12.973    0.490    0.544   53.324
  413.500   13.222    0.486    0.556   53.954
  413.750   13.228    0.482    0.564   53.967
  414.000   13.237    0.477    0.570   52.803
  414.250   13.242    0.477    0.568   51.639
  414.500   13.007    0.482    0.561   51.666
  414.750   13.012    0.483    0.555   52.289
  415.000   13.017    0.482    0.559   52.912
  415.250   13.023    0.480    0.571   52.350
  415.500   12.792    0.475    0.585   51.782
  415.750   12.332    0.471    0.578   51.802
  416.000   11.890    0.473    0.556   52.425
  416.250   11.463    0.484    0.547   53.644
  416.500   11.053    0.489    0.548   54.273
  416.750   10.081    0.484    0.571   54.301
  417.000    9.365    0.470    0.592   54.923
  417.250    9.545    0.475    0.563   56.738
  417.500   10.476    0.481    0.552   61.531
  417.750   11.287    0.480    0.576   60.962
  418.000   12.160    0.474    0.592   56.224
  418.250   12.861    0.462    0.565   55.059
  418.500   13.602    0.450    0.560   55.689
  418.750   13.863    0.445    0.565   57.504
  419.000   13.875    0.453    0.565   59.318
  419.250   13.879    0.455    0.559   60.537
  419.500   13.634    0.449    0.548   60.564
  419.750   13.389    0.441    0.551   60.584
  420.000   13.394    0.441    0.555   60.023
  420.250   12.914    0.444    0.562   60.050
  420.500   11.778    0.446    0.580   60.070
  420.750   10.352    0.445    0.576   62.480
  421.000    8.449    0.430    0.568   67.869
  421.250    7.425    0.387    0.565   74.450
  421.500    7.027    0.371    0.554   86.392
  421.750    7.034    0.358    0.575   89.397
  422.000    7.036    0.363    0.596   83.467
  422.250    6.910    0.372    0.585   78.140
  422.500    6.662    0.383    0.580   76.969
  422.750    6.543    0.379    0.587   82.357
  423.000    8.025    0.374    0.582   86.561
  423.250   10.025    0.372    0.581   84.802
  423.500   10.410    0.374    0.599   85.424
  423.750    8.654    0.379    0.608   87.828
  424.000    5.062    0.390    0.592   80.110
  424.250    3.072    0.413    0.604   69.414
  424.500    3.310    0.426    0.602   65.874
  424.750    4.537    0.410    0.585   64.114
  425.000   19.589    0.403    0.567   64.730
  425.250   40.346    0.415    0.552   65.955
  425.500   45.962    0.437    0.552   66.572
  425.750   41.146    0.442    0.554   67.790
  426.000   37.518    0.442    0.548   66.626
  426.250   20.381    0.442    0.544   63.092
  426.500   17.911    0.443    0.548   62.510
  426.750   12.842    0.442    0.554   60.770
  427.000   12.156    0.437    0.564   60.188
  427.250   11.720    0.444    0.573   59.031
  427.500   11.725    0.450    0.568   59.044
  427.750   11.949    0.455    0.563   58.476
  428.000   12.180    0.460    0.570   57.907
  428.250   12.412    0.466    0.586   57.935
  428.500   12.192    0.469    0.606   59.153
  428.750   11.973    0.480    0.612   59.181
  429.000   11.124    0.486    0.602   59.803
  429.250    9.962    0.474    0.572   62.809
  429.500    9.967    0.465    0.558   60.460
  429.750    9.970    0.458    0.560   58.694
  430.000   10.352    0.447    0.562   57.536
  430.250   10.748    0.429    0.553   59.350
  430.500   11.160    0.409    0.542   59.967
  430.750   11.165    0.393    0.536   60.596
  431.000   11.170    0.404    0.544   58.234
  431.250   11.177    0.417    0.550   55.878
  431.500   10.978    0.423    0.551   57.699
  431.750   10.199    0.431    0.582   60.109
