~VERSION INFORMATION
 VERS.                 2.0:   CWLS LOG ASCII STANDARD -VERSION 2.0
 WRAP.                  NO:   ONE LINE PER DEPTH STEP
~WELL INFORMATION BLOCK
#MNEM.UNIT           DATA                    DESCRIPTION OF MNEMONIC
#---------    -------------------            -------------------------------
# Generated from Intellog Unique Number	CW_73_75/WELL/2724
WELL.         GASCAN MITSUE 04-24            : Well_name    - WELL
LOC .         00/04-24-073-04W5/0            : Location     - LOCATION
UWI .         00/04-24-073-04W5/0            : Uwi          - UNIQUE WELL ID
ENTR.         JAYE                           : Entered      - ENTERED BY
SRVC.         SCHLUMBERGER                   : Scn          - SERVICE COMPANY
DATE.         1 FEB 82                       : Date         - LOG DATE
STRT.M        360                            : top_depth    - START DEPTH
STOP.M        570                            : bot_depth    - STOP DEPTH
STEP.M        0.25                           : increment    - STEP LENGTH
 NULL. -999.2500:NULL Value
~CURVE INFORMATION BLOCK
#MNEM UNIT       ERCB CURVE CODE    CURVE DESCRIPTION
#-----------   ------------------   ----------------------------------
DEPT.M        00 001 00 00         : DEPTH        - DEPTH
DPHI.V/V      00 890 00 00         : PHID         - DENSITY POROSITY (SANDSTONE)
NPHI.V/V      00 330 00 00         : PHIN         - NEUTRON POROSITY (SANDSTONE)
GR  .API      00 310 00 00         : GR           - GAMMA RAY
CALI.MM       00 280 01 00         : CAL          - CALIPER
ILD .OHMM     00 120 00 00         : RESD         - DEEP RESISTIVITY (DLL)
~PARAMETER INFORMATION
#MNEM.UNIT           DATA             DESCRIPTION OF MNEMONIC
#---------         -----------     ------------------------------
GL  .M        587                  : gl           - GROUND LEVEL ELEVATION
EREF.M        591.3                : kb           - ELEVATION OF DEPTH REFERENCE
DATM.M        587                  : datum        - DATUM ELEVATION
TDD .M        1624                 : tdd          - TOTAL DEPTH DRILLER
RUN .         ONE                  : Run          - RUN NUMBER
ENG .         WALTERHOUSE          : Engineer     - RECORDING ENGINEER
WIT .         IRELAND              : Witness      - WITNESSED BY
BASE.         EDM                  : Branch       - HOME BASE OF LOGGING UNIT
MUD .         GEL CHEM             : Mud_type     - MUD TYPE
MATR.         SANDSTONE            : Logunit      - NEUTRON MATRIX
TMAX.C        51.6                 : BHT          - MAXIMUM RECORDED TEMPERATURE
BHTD.M        1624                 : BHTDEP       - MAXIMUM RECORDED TEMPERATURE
RMT .C        51.6                 : MDTP         - TEMPERATURE OF MUD
MUDD.KG/M     1110                 : MWT          - MUD DENSITY
NEUT.         0                    : NEUTRON      - NEUTRON TYPE
RESI.         1                    : RESIST       - RESISTIVITY TYPE
RM  .OHMM     0                    : RM           - RESISTIVITY OF MUD
RMC .OHMM     0                    : RMC          - RESISTIVITY OF MUD CAKE
RMF .OHMM     0                    : RMF          - RESISTIVITY OF MUD FILTRATE
SUFT.C        0                    : SUFT         - SURFACE TEMPERATURE
~A  DEPTH     PHID     PHIN       GR      CAL     RESD
# ...
  506.000    0.273    0.396   83.823  280.846    5.967
  506.250    0.262    0.388   88.830  282.840    6.028
  506.500    0.249    0.387   93.212  285.040    5.755
  506.750    0.245    0.385   90.847  287.867    5.312
  507.000    0.244    0.385   87.045  291.213    4.968
  507.250    0.241    0.397   87.367  293.624    4.629
  507.500    0.243    0.386   88.874  295.304    4.461
  507.750    0.249    0.377   91.132  297.299    4.398
  508.000    0.246    0.372   92.454  298.457    4.368
  508.250    0.230    0.384   92.400  299.616    4.403
  508.500    0.224    0.389   91.346  300.986    4.507
  508.750    0.231    0.384   90.918  301.833    4.665
  509.000    0.234    0.379   89.115  302.160    4.838
  509.250    0.236    0.379   86.125  300.716    5.008
  509.500    0.242    0.382   85.260  294.068    5.173
  509.750    0.256    0.398   86.018  290.126    5.375
  510.000    0.268    0.405   88.213  289.099    5.584
  510.250    0.269    0.384   85.598  290.781    5.769
  510.500    0.259    0.370   84.357  292.460    5.894
  510.750    0.246    0.359   85.491  294.140    5.701
  511.000    0.238    0.381   89.685  294.156    5.292
  511.250    0.233    0.399   91.256  293.338    4.670
  511.500    0.227    0.396   92.265  292.416    4.434
  511.750    0.228    0.424   95.522  290.765    4.217
  512.000    0.225    0.428   98.030  287.863    4.080
  512.250    0.246    0.410   96.602  287.877    4.343
  512.500    0.285    0.401   98.360  278.625    5.060
  512.750    0.306    0.414  104.242  269.789    5.636
  513.000    0.305    0.401   91.630  267.201    6.554
  513.250    0.294    0.403   74.958  266.801    7.382
  513.500    0.280    0.386   64.160  267.439    8.552
  513.750    0.258    0.351   65.730  270.266    9.543
  514.000    0.175    0.289   70.424  274.444    9.841
  514.250    0.149    0.262   78.368  281.956    8.832
  514.500    0.185    0.287   80.688  289.156    7.851
  514.750    0.247    0.339   79.697  294.379    6.824
  515.000    0.280    0.372   82.331  296.995    5.410
  515.250    0.281    0.388   87.837  299.822    4.403
  515.500    0.275    0.404   91.844  301.501    3.988
  515.750    0.281    0.421   86.793  301.101    3.939
  516.000    0.289    0.462   81.491  300.907    4.077
  516.250    0.298    0.451   77.814  302.171    4.220
  516.500    0.306    0.420   80.071  304.164    4.311
  516.750    0.297    0.407   82.080  306.886    4.412
  517.000    0.280    0.399   81.589  309.503    4.490
  517.250    0.263    0.389   80.535  311.186    4.493
  517.500    0.261    0.388   79.295  312.137    4.505
  517.750    0.275    0.401   76.681  313.193    4.533
  518.000    0.296    0.416   72.503  315.290    4.545
  518.250    0.301    0.416   68.701  320.823    4.556
  518.500    0.301    0.426   70.709  323.753    4.542
  518.750    0.304    0.410   74.778  324.497    4.461
  519.000    0.299    0.399   78.598  324.407    4.389
  519.250    0.286    0.428   85.854  325.359    4.270
  519.500    0.276    0.455   90.111  328.810    4.131
  519.750    0.261    0.451   87.121  333.719    4.026
  520.000    0.249    0.445   84.631  337.690    3.910
  520.250    0.270    0.454   85.516  339.684    3.825
  520.500    0.271    0.445   87.710  337.823    3.756
  520.750    0.261    0.435   89.593  334.506    3.703
  521.000    0.268    0.459   89.352  334.938    3.691
  521.250    0.261    0.475   89.174  335.681    3.736
  521.500    0.273    0.469   85.246  341.319    3.852
  521.750    0.294    0.443   89.254  344.770    4.025
  522.000    0.275    0.420   89.638  337.183    4.198
  522.250    0.244    0.421   85.585  339.073    4.328
  522.500    0.214    0.429   82.721  342.002    4.489
  522.750    0.218    0.432   84.728  345.245    4.663
  523.000    0.225    0.442   88.299  349.115    4.827
  523.250    0.228    0.420   88.807  349.752    4.931
  523.500    0.259    0.418   84.318  344.873    4.991
  523.750    0.276    0.440   79.766  337.807    5.051
  524.000    0.284    0.432   75.651  338.135    5.121
  524.250    0.280    0.417   73.474  339.296    5.201
  524.500    0.281    0.424   72.796  339.518    5.235
  524.750    0.271    0.410   75.178  339.324    5.238
  525.000    0.253    0.403   81.809  338.819    5.105
  525.250    0.248    0.408   86.129  337.792    4.820
  525.500    0.247    0.415   89.012  336.765    4.542
  525.750    0.249    0.430   89.833  336.260    4.320
  526.000    0.260    0.414   83.719  337.003    4.282
  526.250    0.281    0.436   84.416  338.476    4.326
  526.500    0.308    0.446   85.736  339.011    4.461
  526.750    0.353    0.421   82.871  330.799    4.767
  527.000    0.340    0.390   74.633  325.400    5.104
  527.250    0.297    0.386   70.456  326.351    5.353
  527.500    0.283    0.405   71.715  328.866    5.356
  527.750    0.279    0.417   71.973  334.295    5.104
  528.000    0.276    0.421   72.419  340.244    4.738
  528.250    0.277    0.422   75.302  342.030    4.390
  528.500    0.303    0.448   80.121  341.316    4.160
  528.750    0.298    0.442   83.254  341.436    4.009
  529.000    0.279    0.416   82.451  343.325    3.878
  529.250    0.293    0.425   80.024  347.711    3.766
  529.500    0.313    0.449   80.969  346.894    3.769
  529.750    0.353    0.445   82.290  340.868    3.835
  530.000    0.438    0.434   83.299  339.529    3.933
  530.250    0.513    0.471   81.746  341.939    4.079
  530.500    0.535    0.515   78.818  352.678    4.342
  530.750    0.555    0.476   76.328  378.933    4.597
  531.000    0.380    0.434   75.087  359.060    4.821
  531.250    0.272    0.380   74.533  344.290    4.963
  531.500    0.264    0.387   75.479  345.032    5.050
  531.750    0.268    0.409   79.549  346.921    5.101
  532.000    0.290    0.414   83.619  348.185    5.095
  532.250    0.291    0.424   83.254  349.346    5.070
  532.500    0.285    0.447   81.512  348.218    5.055
  532.750    0.294    0.444   80.522  348.438    5.029
  533.000    0.312    0.445   80.218  353.139    4.939
  533.250    0.311    0.466   80.790  360.963    4.742
  533.500    0.342    0.469   80.986  371.285    4.648
  533.750    0.483    0.457   81.120  406.703    4.775
  534.000    0.540    0.485   80.816  385.893    5.113
  534.250    0.512    0.478   80.700  364.874    5.641
  534.500    0.346    0.451   82.020  347.188    6.201
  534.750    0.291    0.438   80.655  341.475    6.828
  535.000    0.283    0.418   75.353  335.139    7.464
  535.250    0.297    0.423   72.676  329.949    8.112
  535.500    0.304    0.429   75.059  325.172    9.103
  535.750    0.298    0.429   75.818  321.230    9.987
  536.000    0.290    0.422   75.202  315.310   10.593
  536.250    0.288    0.409   74.024  313.034   10.944
  536.500    0.270    0.378   66.035  310.550   11.013
  536.750    0.275    0.411   62.858  307.441   10.856
  537.000    0.292    0.419   65.615  304.333   10.502
  537.250    0.308    0.399   70.685  302.577   10.046
  537.500    0.307    0.377   75.442  301.237    9.520
  537.750    0.282    0.374   76.325  300.943    9.021
  538.000    0.270    0.385   73.648  300.955    8.694
  538.250    0.268    0.399   74.906  300.243    8.474
  538.500    0.277    0.386   77.039  299.839    8.369
  538.750    0.277    0.385   79.172  299.022    8.518
  539.000    0.267    0.384   76.994  296.537    8.750
  539.250    0.253    0.378   75.754  293.218    9.386
  539.500    0.241    0.373   74.826  289.381    9.862
  539.750    0.221    0.354   69.961  285.440   10.228
  540.000    0.206    0.342   71.345  285.872   10.044
  540.250    0.186    0.338   78.101  288.384    9.219
  540.500    0.177    0.337   81.984  291.732    8.304
  540.750    0.184    0.347   84.241  295.182    6.509
  541.000    0.216    0.382   86.811  299.049    5.328
  541.250    0.348    0.420   86.382  314.161    4.881
  541.500    0.438    0.455   88.453  310.533    4.921
  541.750    0.463    0.462   89.837  332.829    5.190
  542.000    0.480    0.432   85.847  324.619    5.759
  542.250    0.283    0.364   79.796  289.959    6.697
