~VERSION INFORMATION
 VERS.                 2.0:   CWLS LOG ASCII STANDARD -VERSION 2.0
 WRAP.                  NO:   ONE LINE PER DEPTH STEP
~WELL INFORMATION BLOCK
#MNEM.UNIT           DATA                    DESCRIPTION OF MNEMONIC
#---------    -------------------            -------------------------------
# Generated from Intellog Unique Number	CS_71_72/WELL/737
WELL.         KISSINGER ET AL CORRIGAL       : Well_name    - WELL
LOC .         00/06-07-072-11W4/0            : Location     - LOCATION
UWI .         00/06-07-072-11W4/0            : Uwi          - UNIQUE WELL ID
ENTR.         SP                             : Entered      - ENTERED BY
SRVC.         SCHLUMBERGER                   : Scn          - SERVICE COMPANY
STRT.M        300                            : top_depth    - START DEPTH
STOP.M        529                            : bot_depth    - STOP DEPTH
STEP.M        0.25                           : increment    - STEP LENGTH
 NULL. -999.2500:NULL Value
~CURVE INFORMATION BLOCK
#MNEM UNIT       ERCB CURVE CODE    CURVE DESCRIPTION
#-----------   ------------------   ----------------------------------
DEPT.M        00 001 00 00         : DEPTH        - DEPTH
ILD .OHMM     00 120 00 00         : RESD         - DEEP RESISTIVITY (DIL)
DPHI.V/V      00 890 00 00         : PHID         - DENSITY POROSITY (LIMESTONE)
NPHI.V/V      00 330 00 00         : PHIN         - NEUTRON POROSITY (LIMESTONE)
GR  .API      00 310 00 00         : GR           - GAMMA RAY
~PARAMETER INFORMATION
#MNEM.UNIT           DATA             DESCRIPTION OF MNEMONIC
#---------         -----------     ------------------------------
GL  .M        641.09               : gl           - GROUND LEVEL ELEVATION
EREF.M        644.99               : kb           - ELEVATION OF DEPTH REFERENCE
DATM.M        641.09               : datum        - DATUM ELEVATION
TDD .M        513                  : tdd          - TOTAL DEPTH DRILLER
RUN .         ONE                  : Run          - RUN NUMBER
ENG .         BILL                 : Engineer     - RECORDING ENGINEER
WIT .         JIM                  : Witness      - WITNESSED BY
MUD .         GEL                  : Mud_type     - MUD TYPE
MATR.         LIMESTONE            : Logunit      - NEUTRON MATRIX
TMAX.C        30                   : BHT          - MAXIMUM RECORDED TEMPERATURE
BHTD.M        513                  : BHTDEP       - MAXIMUM RECORDED TEMPERATURE
MATR.         1                    : LOGUNIT      - NEUTRON MATRIX
RMT .C        25                   : MDTP         - TEMPERATURE OF MUD
NEUT.         1                    : NEUTRON      - NEUTRON TYPE
RESI.         0                    : RESIST       - RESISTIVITY TYPE
RMC .OHMM     0.25                 : RMC          - RESISTIVITY OF MUD CAKE
RMF .OHMM     0.25                 : RMF          - RESISTIVITY OF MUD FILTRATE
SUFT.C        15                   : SUFT         - SURFACE TEMPERATURE
~A  DEPTH     RESD     PHID     PHIN       GR
# ...
  387.000   15.329    0.300    0.342   57.237
  387.250   15.328    0.295    0.344   56.032
  387.500   15.328    0.292    0.355   56.647
  387.750   15.328    0.294    0.386   57.261
  388.000   15.247    0.297    0.424   56.051
  388.250   15.167    0.303    0.449   53.631
  388.500   14.925    0.306    0.412   51.816
  388.750   14.604    0.300    0.375   53.038
  389.000   14.282    0.296    0.364   56.085
  389.250   13.800    0.291    0.418   56.697
  389.500   13.398    0.297    0.440   57.313
  389.750   13.157    0.301    0.479   56.105
  390.000   12.996    0.300    0.456   55.506
  390.250   12.996    0.296    0.436   56.122
  390.500   12.995    0.295    0.421   56.734
  390.750   12.915    0.295    0.410   57.959
  391.000   12.834    0.295    0.395   58.571
  391.250   12.834    0.297    0.383   57.362
  391.500   12.673    0.297    0.368   56.158
  391.750   12.432    0.298    0.429   56.770
  392.000   12.191    0.299    0.462   57.995
  392.250   12.030    0.299    0.422   59.215
  392.500   11.869    0.297    0.396   60.438
  392.750   11.788    0.290    0.389   61.051
  393.000   11.708    0.284    0.400   62.275
  393.250   11.707    0.285    0.426   62.280
  393.500   11.787    0.281    0.445   62.287
  393.750   11.867    0.280    0.437   62.298
  394.000   12.188    0.276    0.424   61.697
  394.250   12.429    0.276    0.423   62.310
  394.500   12.991    0.284    0.434   62.318
  394.750   13.312    0.286    0.440   62.326
  395.000   13.553    0.291    0.472   59.298
  395.250   13.794    0.269    0.497   55.663
  395.500   14.195    0.247    0.363   53.239
  395.750   14.837    0.225    0.228   51.424
  396.000   16.042    0.182    0.132   49.002
  396.250   30.692    0.142    0.103   47.796
  396.500   36.479    0.068    0.099   47.195
  396.750   39.794    0.005    0.098   47.203
  397.000   43.965   -0.019    0.098   45.995
  397.250   44.090   -0.028    0.098   44.788
  397.500   42.649   -0.032    0.099   46.617
  397.750   41.109   -0.026    0.111   52.093
  398.000   35.608    0.041    0.144   53.919
  398.250   29.267    0.202    0.413   55.748
  398.500   22.953    0.291    0.406   53.938
  398.750   21.442    0.272    0.321   51.514
  399.000   19.986    0.119    0.141   45.448
  399.250   18.850    0.068    0.118   46.669
  399.500   19.813    0.028    0.110   51.538
  399.750   20.375    0.186    0.290   53.975
  400.000   20.375    0.300    0.367   55.804
  400.250   20.294    0.310    0.378   56.416
  400.500   19.812    0.298    0.396   55.818
  400.750   14.912    0.292    0.385   55.215
  401.000   13.707    0.287    0.395   54.615
  401.250   13.305    0.290    0.399   54.622
  401.500   13.064    0.295    0.419   55.847
  401.750   12.823    0.290    0.407   56.463
  402.000   12.662    0.289    0.393   57.075
  402.250   12.581    0.290    0.387   57.083
  402.500   12.581    0.298    0.391   56.482
  402.750   12.420    0.292    0.386   54.066
  403.000   12.339    0.288    0.394   52.858
  403.250   12.259    0.293    0.400   52.258
  403.500   12.259    0.300    0.390   51.656
  403.750   12.017    0.304    0.379   52.268
  404.000   11.937    0.297    0.399   52.883
  404.250   11.776    0.294    0.428   54.714
  404.500   11.615    0.296    0.457   57.153
  404.750   11.454    0.299    0.408   59.587
  405.000   11.293    0.306    0.386   63.847
  405.250   10.972    0.299    0.379   66.282
  405.500   10.730    0.284    0.387   71.149
  405.750    9.847    0.266    0.379   72.976
  406.000    9.043    0.243    0.365   74.805
  406.250    8.400    0.224    0.363   72.384
  406.500    7.998    0.217    0.362   71.175
  406.750    7.918    0.213    0.371   71.794
  407.000    7.998    0.209    0.369   72.408
  407.250    8.078    0.202    0.383   72.415
  407.500    8.158    0.203    0.410   73.029
  407.750    8.238    0.209    0.405   72.429
  408.000    8.318    0.207    0.395   72.436
  408.250    8.318    0.208    0.387   71.835
  408.500    8.157    0.223    0.394   72.450
  408.750    7.996    0.240    0.405   73.673
  409.000    7.996    0.254    0.411   73.680
  409.250    7.915    0.261    0.411   74.905
  409.500    7.915    0.261    0.412   75.519
  409.750    7.995    0.257    0.418   76.740
  410.000    7.995    0.246    0.395   77.962
  410.250    7.994    0.239    0.382   79.182
  410.500    7.994    0.231    0.381   79.799
  410.750    7.833    0.227    0.407   79.806
  411.000    7.672    0.217    0.405   78.598
  411.250    7.511    0.212    0.386   77.391
  411.500    7.350    0.209    0.370   77.396
  411.750    7.350    0.218    0.364   79.837
  412.000    7.350    0.218    0.377   80.450
  412.250    7.350    0.211    0.384   81.062
  412.500    7.430    0.206    0.396   81.677
  412.750    7.510    0.211    0.412   80.472
  413.000    7.590    0.216    0.406   78.655
  413.250    7.590    0.220    0.394   77.450
  413.500    7.670    0.215    0.396   78.066
  413.750    7.669    0.209    0.399   78.680
  414.000    7.669    0.215    0.385   79.293
  414.250    7.669    0.212    0.377   81.126
  414.500    7.669    0.207    0.400   81.738
  414.750    7.588    0.210    0.399   82.961
  415.000    7.588    0.215    0.382   84.180
  415.250    7.507    0.216    0.371   84.796
  415.500    7.427    0.213    0.384   84.803
  415.750    7.346    0.206    0.402   82.989
  416.000    7.105    0.205    0.431   81.174
  416.250    6.863    0.207    0.419   80.575
  416.500    6.783    0.214    0.402   80.584
  416.750    6.542    0.217    0.416   79.982
  417.000    6.381    0.210    0.441   77.559
  417.250    6.381    0.198    0.397   75.746
  417.500    6.380    0.173    0.374   75.752
  417.750    6.380    0.167    0.372   80.010
  418.000    6.380    0.176    0.395   84.876
  418.250    6.058    0.199    0.385   85.495
  418.500    6.138    0.212    0.371   84.287
  418.750    5.656    0.222    0.355   84.899
  419.000    5.335    0.232    0.343   87.336
  419.250    4.290    0.239    0.385   89.169
  419.500    3.647    0.246    0.420   89.782
  419.750    3.165    0.246    0.446   89.180
  420.000    2.602    0.245    0.498   87.365
  420.250    2.281    0.245    0.517   86.158
  420.500    2.120    0.244    0.492   83.132
  420.750    2.521    0.236    0.460   81.925
  421.000    2.762    0.230    0.419   80.717
  421.250    3.003    0.218    0.362   80.114
  421.500    3.163    0.214    0.352   80.125
  421.750    3.805    0.215    0.384   81.344
  422.000    4.448    0.215    0.402   82.567
  422.250    5.090    0.215    0.436   83.180
  422.500    5.411    0.225    0.433   81.367
  422.750    5.411    0.231    0.420   79.555
  423.000    5.411    0.235    0.412   78.952
  423.250    5.491    0.238    0.384   78.356
  423.500    5.571    0.242    0.378   78.968
  423.750    5.651    0.243    0.384   78.977
  424.000    5.731    0.235    0.421   78.981
  424.250    5.730    0.229    0.450   75.345
  424.500    5.811    0.237    0.488   71.103
  424.750    5.891    0.252    0.479   68.076
  425.000    5.971    0.278    0.490   66.866
  425.250    5.970    0.291    0.488   66.268
  425.500    6.050    0.266    0.353   67.489
  425.750    6.291    0.238    0.307   71.139
  426.000    6.371    0.207    0.335   78.436
  426.250    6.532    0.227    0.402   81.478
  426.500    6.692    0.228    0.428   73.593
  426.750    6.772    0.233    0.417   69.348
  427.000    6.932    0.249    0.392   65.711
  427.250    6.932    0.262    0.411   63.897
  427.500    7.012    0.269    0.379   65.119
  427.750    7.092    0.261    0.362   66.948
  428.000    6.931    0.244    0.423   65.740
  428.250    6.690    0.249    0.456   64.535
  428.500    6.690    0.225    0.523   64.541
  428.750    6.609    0.175    0.439   65.765
  429.000    6.689    0.148    0.336   66.985
  429.250    6.850    0.124    0.282   68.813
  429.500    6.930    0.134    0.244   72.467
  429.750    7.010    0.159    0.422   74.295
  430.000    7.009    0.183    0.434   76.124
  430.250    6.367    0.217    0.446   77.345
