~VERSION INFORMATION
 VERS.                 2.0:   CWLS LOG ASCII STANDARD -VERSION 2.0
 WRAP.                  NO:   ONE LINE PER DEPTH STEP
~WELL INFORMATION BLOCK
#MNEM.UNIT           DATA                    DESCRIPTION OF MNEMONIC
#---------    -------------------            -------------------------------
# Generated from Intellog Unique Number	CS_73_76/WELL/2241
WELL.         MAYNARD ENERGY INCORPORATE     : Well_name    - WELL
LOC .         00/07-21-076-09W4/0            : Location     - LOCATION
UWI .         00/07-21-076-09W4/0            : Uwi          - UNIQUE WELL ID
ENTR.         SP                             : Entered      - ENTERED BY
SRVC.         SCHLUMBERGER                   : Scn          - SERVICE COMPANY
STRT.M        290                            : top_depth    - START DEPTH
STOP.M        500                            : bot_depth    - STOP DEPTH
STEP.M        0.25                           : increment    - STEP LENGTH
 NULL. -999.2500:NULL Value
~CURVE INFORMATION BLOCK
#MNEM UNIT       ERCB CURVE CODE    CURVE DESCRIPTION
#-----------   ------------------   ----------------------------------
DEPT.M        00 001 00 00         : DEPTH        - DEPTH
ILD .OHMM     00 120 00 00         : RESD         - DEEP RESISTIVITY (DIL)
DPHI.V/V      00 890 00 00         : PHID         - DENSITY POROSITY (LIMESTONE)
NPHI.V/V      00 330 00 00         : PHIN         - NEUTRON POROSITY (LIMESTONE)
GR  .API      00 310 00 00         : GR           - GAMMA RAY
~PARAMETER INFORMATION
#MNEM.UNIT           DATA             DESCRIPTION OF MNEMONIC
#---------         -----------     ------------------------------
GL  .M        683.33               : gl           - GROUND LEVEL ELEVATION
EREF.M        686.74               : kb           - ELEVATION OF DEPTH REFERENCE
DATM.M        683.33               : datum        - DATUM ELEVATION
TDD .M        508                  : tdd          - TOTAL DEPTH DRILLER
RUN .         ONE                  : Run          - RUN NUMBER
ENG .         BILL                 : Engineer     - RECORDING ENGINEER
WIT .         JIM                  : Witness      - WITNESSED BY
MUD .         GEL                  : Mud_type     - MUD TYPE
MATR.         LIMESTONE            : Logunit      - NEUTRON MATRIX
TMAX.C        20                   : BHT          - MAXIMUM RECORDED TEMPERATURE
BHTD.M        508                  : BHTDEP       - MAXIMUM RECORDED TEMPERATURE
MATR.         1                    : LOGUNIT      - NEUTRON MATRIX
RMT .C        25                   : MDTP         - TEMPERATURE OF MUD
NEUT.         1                    : NEUTRON      - NEUTRON TYPE
RESI.         0                    : RESIST       - RESISTIVITY TYPE
RMC .OHMM     0.25                 : RMC          - RESISTIVITY OF MUD CAKE
RMF .OHMM     0.25                 : RMF          - RESISTIVITY OF MUD FILTRATE
SUFT.C        15                   : SUFT         - SURFACE TEMPERATURE
~A  DEPTH     RESD     PHID     PHIN       GR
# ...
  377.000    8.451    0.206    0.429   84.740
  377.250    8.450    0.207    0.434   85.964
  377.500    8.450    0.248    0.440   87.802
  377.750    8.449    0.238    0.440   89.641
  378.000    8.694    0.224    0.418   89.039
  378.250    8.939    0.209    0.401   85.390
  378.500    9.512    0.187    0.381   82.350
  378.750    9.840    0.149    0.370   79.918
  379.000   10.495    0.152    0.373   81.147
  379.250   10.740    0.185    0.385   86.651
  379.500   10.575    0.214    0.399   86.654
  379.750   10.247    0.231    0.412   90.324
  380.000    9.672    0.238    0.416   92.158
  380.250    9.098    0.230    0.419   94.608
  380.500    8.523    0.220    0.416   94.614
  380.750    8.523    0.215    0.415   92.184
  381.000    8.440    0.233    0.418   92.803
  381.250    8.439    0.241    0.427   93.421
  381.500    8.193    0.237    0.443   95.260
  381.750    7.782    0.236    0.446   95.879
  382.000    7.536    0.221    0.444   94.666
  382.250    7.289    0.213    0.443   92.241
  382.500    7.124    0.203    0.443   92.859
  382.750    7.124    0.202    0.442   94.085
  383.000    7.123    0.203    0.447   95.920
  383.250    7.122    0.232    0.455   97.758
  383.500    6.958    0.239    0.461   99.603
  383.750    6.711    0.227    0.462   99.605
  384.000    6.547    0.219    0.459  100.224
  384.250    6.382    0.211    0.456   99.624
  384.500    6.381    0.201    0.455   98.415
  384.750    6.135    0.205    0.457   99.029
  385.000    5.396    0.211    0.462  102.089
  385.250    4.412    0.218    0.475  103.925
  385.500    3.592    0.229    0.488  105.155
  385.750    3.099    0.248    0.507  105.162
  386.000    2.689    0.266    0.534  103.341
  386.250    2.360    0.284    0.549  100.912
  386.500    2.113    0.301    0.554   96.651
  386.750    2.195    0.301    0.538   89.956
  387.000    2.358    0.285    0.521   89.352
  387.250    2.603    0.273    0.504   89.970
  387.500    3.094    0.249    0.485   89.978
  387.750    3.422    0.232    0.466   87.548
  388.000    3.995    0.230    0.460   84.509
  388.250    4.896    0.255    0.446   86.349
  388.500    5.469    0.274    0.432   90.627
  388.750    6.452    0.285    0.422   91.243
  389.000    7.517    0.291    0.414   89.423
  389.250    8.008    0.289    0.410   86.991
  389.500    7.597    0.288    0.406   85.786
  389.750    7.187    0.283    0.403   87.012
  390.000    7.022    0.281    0.403   83.968
  390.250    7.103    0.292    0.405   69.953
  390.500    7.184    0.303    0.405   65.696
  390.750    7.266    0.316    0.407   63.873
  391.000    7.347    0.328    0.408   60.223
  391.250    7.346    0.322    0.407   59.019
  391.500    7.264    0.323    0.403   60.248
  391.750    7.345    0.323    0.401   60.862
  392.000    7.426    0.320    0.401   60.260
  392.250    7.508    0.303    0.400   58.440
  392.500    7.753    0.296    0.395   57.230
  392.750    7.834    0.296    0.390   56.016
  393.000    7.915    0.292    0.387   56.028
  393.250    7.997    0.292    0.384   57.864
  393.500    8.078    0.302    0.382   58.480
  393.750    8.077    0.299    0.381   58.490
  394.000    8.076    0.295    0.373   57.279
  394.250    8.076    0.301    0.369   56.068
  394.500    8.157    0.290    0.368   54.863
  394.750    8.157    0.282    0.371   54.258
  395.000    8.402    0.271    0.374   53.656
  395.250    8.483    0.266    0.380   54.275
  395.500    8.564    0.286    0.382   55.502
  395.750    8.646    0.304    0.388   58.562
  396.000    8.645    0.321    0.382   59.177
  396.250    8.644    0.322    0.381   60.407
  396.500    8.480    0.318    0.381   61.024
  396.750    8.397    0.315    0.383   60.423
  397.000    8.068    0.319    0.385   59.216
  397.250    7.986    0.307    0.387   58.612
  397.500    7.903    0.299    0.391   58.015
  397.750    7.984    0.303    0.392   58.631
  398.000    7.984    0.303    0.393   59.253
  398.250    8.065    0.304    0.395   59.258
  398.500    8.064    0.313    0.397   59.269
  398.750    8.064    0.316    0.397   59.277
  399.000    8.063    0.316    0.397   59.283
  399.250    7.980    0.314    0.397   59.907
  399.500    7.898    0.316    0.397   59.914
  399.750    7.651    0.311    0.395   60.528
  400.000    7.569    0.312    0.394   61.146
  400.250    7.568    0.308    0.395   62.376
  400.500    7.567    0.305    0.397   63.603
  400.750    7.485    0.308    0.398   65.442
  401.000    7.402    0.303    0.401   66.672
  401.250    7.401    0.316    0.406   66.678
  401.500    7.318    0.318    0.409   68.519
  401.750    7.318    0.321    0.411   69.744
  402.000    7.399    0.322    0.415   70.362
  402.250    7.481    0.321    0.417   69.763
  402.500    7.480    0.324    0.418   68.551
  402.750    7.479    0.329    0.416   64.291
  403.000    7.479    0.337    0.411   64.913
  403.250    7.478    0.337    0.407   66.139
  403.500    7.395    0.346    0.406   67.978
  403.750    7.394    0.352    0.404   68.596
  404.000    7.476    0.351    0.401   67.994
  404.250    7.475    0.338    0.396   66.175
  404.500    7.392    0.328    0.394   65.573
  404.750    7.392    0.319    0.394   65.583
  405.000    7.391    0.313    0.404   64.982
  405.250    7.472    0.319    0.423   63.769
  405.500    7.471    0.339    0.433   61.947
  405.750    7.553    0.362    0.444   60.129
  406.000    7.634    0.377    0.429   59.527
  406.250    7.634    0.381    0.410   61.978
  406.500    7.715    0.363    0.399   64.422
  406.750    7.878    0.351    0.400   67.481
  407.000    7.959    0.336    0.411   70.537
  407.250    8.123    0.325    0.423   72.376
  407.500    8.286    0.331    0.428   69.944
  407.750    8.449    0.342    0.418   67.517
  408.000    8.530    0.346    0.405   66.915
  408.250    8.530    0.340    0.395   66.311
  408.500    8.365    0.340    0.392   64.493
  408.750    8.119    0.330    0.402   65.110
  409.000    7.708    0.334    0.409   65.728
  409.250    7.543    0.348    0.412   63.300
  409.500    7.379    0.351    0.413   62.699
  409.750    7.378    0.343    0.412   63.319
  410.000    7.377    0.341    0.404   63.933
  410.250    7.377    0.338    0.402   66.382
  410.500    7.540    0.334    0.397   67.609
  410.750    7.539    0.329    0.396   67.619
  411.000    7.620    0.316    0.396   67.627
  411.250    7.620    0.313    0.393   68.856
  411.500    7.701    0.318    0.394   70.085
  411.750    7.618    0.309    0.396   68.875
  412.000    7.618    0.308    0.399   67.663
  412.250    7.535    0.319    0.401   65.231
  412.500    7.452    0.332    0.402   64.021
  412.750    7.452    0.343    0.403   64.029
  413.000    7.451    0.346    0.408   64.648
  413.250    7.532    0.341    0.407   65.268
  413.500    7.532    0.335    0.402   64.668
  413.750    7.449    0.330    0.396   64.674
  414.000    7.366    0.316    0.394   65.296
  414.250    7.284    0.309    0.394   65.915
  414.500    7.201    0.311    0.398   66.529
  414.750    7.200    0.331    0.400   67.150
  415.000    7.282    0.343    0.402   67.768
  415.250    7.445    0.343    0.399   67.774
  415.500    7.526    0.323    0.392   64.736
  415.750    7.690    0.306    0.387   61.696
  416.000    7.853    0.298    0.386   58.655
  416.250    8.016    0.297    0.388   58.059
  416.500    8.015    0.293    0.388   58.069
  416.750    7.932    0.286    0.390   61.737
  417.000    7.604    0.295    0.389   62.959
  417.250    7.357    0.328    0.389   64.797
  417.500    7.111    0.345    0.390   66.633
  417.750    6.946    0.356    0.390   67.861
  418.000    6.946    0.344    0.389   67.873
  418.250    7.027    0.326    0.390   66.052
  418.500    7.108    0.315    0.390   66.672
  418.750    7.190    0.309    0.390   66.678
  419.000    7.271    0.301    0.393   69.126
  419.250    7.270    0.316    0.394   69.742
  419.500    7.187    0.313    0.394   69.144
  419.750    7.187    0.309    0.393   68.543
  420.000    7.186    0.307    0.391   69.164
  420.250    7.186    0.308    0.387   69.169
