~VERSION INFORMATION
 VERS.                 2.0:   CWLS LOG ASCII STANDARD -VERSION 2.0
 WRAP.                  NO:   ONE LINE PER DEPTH STEP
~WELL INFORMATION BLOCK
#MNEM.UNIT           DATA                    DESCRIPTION OF MNEMONIC
#---------    -------------------            -------------------------------
# Generated from Intellog Unique Number	CS_67_68/WELL/2187
WELL.         08-29-067-07W4                 : Well_name    - WELL
LOC .         00/08-29-067-07W4/0            : Location     - LOCATION
UWI .         00/08-29-067-07W4/0            : Uwi          - UNIQUE WELL ID
ENTR.         SP                             : Entered      - ENTERED BY
SRVC.         SCHLUMBERGER                   : Scn          - SERVICE COMPANY
STRT.M        365                            : top_depth    - START DEPTH
STOP.M        595                            : bot_depth    - STOP DEPTH
STEP.M        0.25                           : increment    - STEP LENGTH
 NULL. -999.2500:NULL Value
~CURVE INFORMATION BLOCK
#MNEM UNIT       ERCB CURVE CODE    CURVE DESCRIPTION
#-----------   ------------------   ----------------------------------
DEPT.M        00 001 00 00         : DEPTH        - DEPTH
ILD .OHMM     00 120 00 00         : RESD         - DEEP RESISTIVITY (DIL)
DPHI.V/V      00 890 00 00         : PHID         - DENSITY POROSITY (LIMESTONE)
NPHI.V/V      00 330 00 00         : PHIN         - NEUTRON POROSITY (LIMESTONE)
GR  .API      00 310 00 00         : GR           - GAMMA RAY
CALI.MM       00 280 01 00         : CAL          - CALIPER
~PARAMETER INFORMATION
#MNEM.UNIT           DATA             DESCRIPTION OF MNEMONIC
#---------         -----------     ------------------------------
GL  .M        686.24               : gl           - GROUND LEVEL ELEVATION
EREF.M        690.14               : kb           - ELEVATION OF DEPTH REFERENCE
DATM.M        690.14               : datum        - DATUM ELEVATION
TDD .M        612                  : tdd          - TOTAL DEPTH DRILLER
RUN .         ONE                  : Run          - RUN NUMBER
ENG .         BILL                 : Engineer     - RECORDING ENGINEER
WIT .         JIM                  : Witness      - WITNESSED BY
MUD .         GEL                  : Mud_type     - MUD TYPE
MATR.         LIMESTONE            : Logunit      - NEUTRON MATRIX
TMAX.C        25                   : BHT          - MAXIMUM RECORDED TEMPERATURE
BHTD.M        612                  : BHTDEP       - MAXIMUM RECORDED TEMPERATURE
MATR.         1                    : LOGUNIT      - NEUTRON MATRIX
RMT .C        25                   : MDTP         - TEMPERATURE OF MUD
NEUT.         1                    : NEUTRON      - NEUTRON TYPE
RESI.         0                    : RESIST       - RESISTIVITY TYPE
RMC .OHMM     0.25                 : RMC          - RESISTIVITY OF MUD CAKE
RMF .OHMM     0.25                 : RMF          - RESISTIVITY OF MUD FILTRATE
SUFT.C        15                   : SUFT         - SURFACE TEMPERATURE
~A  DEPTH     RESD     PHID     PHIN       GR      CAL
# ...
  511.000    2.075    0.272    0.518  100.247  201.327
  511.250    1.968    0.277    0.547  102.546  201.760
  511.500    1.923    0.286    0.535  104.164  202.605
  511.750    1.905    0.285    0.519  104.238  203.243
  512.000    1.923    0.278    0.510   97.638  203.675
  512.250    2.066    0.273    0.503   93.942  204.005
  512.500    2.292    0.267    0.488   91.419  204.236
  512.750    2.533    0.266    0.465   90.011  204.459
  513.000    2.790    0.270    0.450   92.063  204.685
  513.250    2.936    0.272    0.443   93.620  205.013
  513.500    2.957    0.275    0.462   94.806  205.550
  513.750    2.874    0.276    0.490   94.942  205.983
  514.000    2.788    0.268    0.506   93.409  206.934
  514.250    2.695    0.241    0.506   91.134  207.673
  514.500    2.560    0.225    0.491   94.423  208.514
  514.750    2.414    0.233    0.501   99.381  209.359
  515.000    2.247    0.242    0.509  102.915  210.410
  515.250    2.047    0.244    0.497  106.882  211.668
  515.500    1.845    0.242    0.489  110.911  212.719
  515.750    1.666    0.234    0.481  112.160  213.459
  516.000    1.538    0.228    0.497  113.656  214.100
  516.250    1.498    0.224    0.500  111.195  214.736
  516.500    1.579    0.228    0.499  108.366  215.271
  516.750    1.677    0.238    0.512  107.513  215.806
  517.000    1.826    0.243    0.519  107.218  216.343
  517.250    1.981    0.242    0.501  106.795  216.672
  517.500    2.080    0.242    0.490  104.829  216.692
  517.750    2.227    0.231    0.497  103.481  216.201
  518.000    2.379    0.210    0.486  102.011  215.807
  518.250    2.522    0.189    0.473  102.394  215.213
  518.500    2.689    0.221    0.464  107.289  214.715
  518.750    2.819    0.223    0.486  110.825  214.220
  519.000    2.967    0.190    0.503  111.949  214.139
  519.250    3.017    0.157    0.448  107.820  214.156
  519.500    3.051    0.158    0.445  104.495  213.972
  519.750    3.034    0.197    0.470  107.722  213.890
  520.000    3.033    0.218    0.487  107.611  213.807
  520.250    2.987    0.215    0.493  106.572  213.625
  520.500    2.948    0.215    0.468  106.027  213.642
  520.750    2.920    0.225    0.450  107.647  213.455
  521.000    2.947    0.232    0.462  109.637  213.066
  521.250    2.997    0.238    0.474  110.145  212.882
  521.500    3.049    0.241    0.469  111.021  212.795
  521.750    3.112    0.240    0.458  111.405  212.816
  522.000    3.201    0.236    0.466  112.219  212.532
  522.250    3.250    0.229    0.475  108.648  212.138
  522.500    3.318    0.222    0.480  109.277  211.438
  522.750    3.355    0.226    0.465  110.155  210.531
  523.000    3.400    0.239    0.510  112.269  209.417
  523.250    3.458    0.247    0.504  114.939  207.995
  523.500    3.577    0.232    0.426  115.136  206.676
  523.750    3.939    0.205    0.415  117.126  204.950
  524.000    4.556    0.189    0.423  118.931  203.834
  524.250    5.319    0.023    0.393   99.537  202.416
  524.500    6.537    0.000    0.284   90.340  201.815
  524.750    8.279    0.000    0.263   81.143  201.423
  525.000   10.021    0.141    0.370   82.948  200.930
  525.250   10.848    0.245    0.414   89.573  201.155
  525.500   11.117    0.275    0.426   95.272  202.719
  525.750   11.116    0.281    0.415   96.210  204.598
  526.000   10.783    0.272    0.402   95.296  205.850
  526.250   10.323    0.275    0.393   94.691  207.725
  526.500    9.957    0.285    0.389   94.888  209.808
  526.750    9.641    0.278    0.385   98.426  211.372
  527.000    9.370    0.269    0.378  102.640  212.833
  527.250    9.141    0.258    0.391  106.730  213.989
  527.500    8.969    0.264    0.410  112.306  214.936
  527.750    8.800    0.261    0.417  111.513  215.677
  528.000    8.569    0.249    0.418  108.621  216.315
  528.250    8.050    0.229    0.423  107.335  216.851
  528.500    7.619    0.206    0.401  114.578  217.598
  528.750    7.433    0.188    0.374  120.833  218.024
  529.000    7.460    0.200    0.390  119.362  218.662
  529.250    7.970    0.213    0.395  106.704  218.992
  529.500    9.556    0.219    0.397   92.625  219.013
  529.750   11.350    0.227    0.413   80.709  218.831
  530.000   13.973    0.241    0.350   68.794  218.540
  530.250   15.979    0.268    0.330   62.130  218.456
  530.500   17.496    0.285    0.329   60.041  219.403
  530.750   17.963    0.295    0.333   69.880  220.251
  531.000   17.197    0.284    0.341   80.028  220.268
  531.250   15.732    0.271    0.351   89.498  220.085
  531.500   13.044    0.257    0.373   94.515  219.796
  531.750   11.754    0.250    0.383   98.297  219.509
  532.000   10.855    0.245    0.348  101.092  218.908
  532.250   10.120    0.232    0.319  101.413  218.415
  532.500    9.579    0.212    0.307   94.936  217.920
  532.750    9.066    0.193    0.318   90.313  217.532
  533.000    9.908    0.169    0.337  100.028  217.034
  533.250   10.951    0.141    0.362  100.350  216.441
  533.500   12.036    0.247    0.366   83.180  216.045
  533.750   13.481    0.278    0.363   73.798  215.348
  534.000   15.014    0.290    0.359   65.775  214.849
  534.250   16.817    0.278    0.355   69.806  214.251
  534.500   18.068    0.266    0.352   74.269  213.657
  534.750   18.762    0.281    0.355   78.423  213.160
  535.000   19.046    0.298    0.398   81.772  212.255
  535.250   19.044    0.303    0.404   84.502  211.451
  535.500   18.755    0.294    0.390   86.739  210.443
  535.750   18.229    0.288    0.377   88.544  209.533
  536.000   17.092    0.281    0.409   88.310  208.522
  536.250   15.577    0.274    0.407   88.321  206.689
  536.500   13.721    0.268    0.388   89.879  203.211
  536.750   12.529    0.256    0.386   92.734  200.757
  537.000   11.483    0.233    0.390   97.444  198.201
  537.250   10.565    0.161    0.373  103.389  195.030
  537.500    9.307    0.132    0.356  110.014  192.270
  537.750    8.014    0.140    0.356  116.206  189.512
  538.000    7.789    0.186    0.386  120.607  188.086
  538.250    7.936    0.206    0.375  120.681  187.590
  538.500    7.981    0.194    0.376  119.271  187.406
  538.750    8.010    0.182    0.366  122.250  187.014
  539.000    8.240    0.168    0.356  125.291  186.728
  539.250    8.869    0.208    0.365  119.803  185.720
  539.500    9.822    0.239    0.389   96.700  184.090
  539.750   10.613    0.273    0.410   81.632  180.812
  540.000   11.360    0.298    0.411   70.211  175.580
  540.250   11.998    0.289    0.389   65.094  171.686
  540.500   11.443    0.284    0.373   62.325  168.000
  540.750   10.099    0.303    0.359   58.321  165.443
  541.000    8.216    0.314    0.346   55.118  162.377
  541.250    7.238    0.307    0.336   53.710  160.334
  541.500    6.460    0.301    0.327   51.682  158.499
  541.750    5.899    0.294    0.320   49.530  157.078
  542.000    5.427    0.303    0.325   54.984  156.380
  542.250    5.176    0.309    0.337   57.714  156.398
  542.500    4.946    0.313    0.358   60.260  156.420
  542.750    4.770    0.308    0.370   63.179  156.541
  543.000    4.698    0.303    0.364   52.189  157.181
  543.250    4.742    0.304    0.355   48.368  159.261
  543.500    4.962    0.301    0.357   59.753  162.068
  543.750    5.153    0.291    0.359   69.530  164.555
  544.000    5.402    0.275    0.349   78.442  168.388
  544.250    5.804    0.256    0.336   84.635  176.241
  544.500    6.107    0.236    0.324   90.147  181.201
  544.750    6.426    0.218    0.318   96.340  188.536
  545.000    6.661    0.208    0.347  102.533  195.046
  545.250    6.749    0.213    0.361  107.737  201.760
  545.500    6.709    0.225    0.356  111.704  210.332
  545.750    6.671    0.218    0.362  114.375  217.767
  546.000    6.657    0.207    0.370  118.837  225.515
  546.250    6.835    0.200    0.379  114.525  230.686
  546.500    7.044    0.193    0.372  109.962  234.927
  546.750    7.315    0.189    0.364  105.153  239.480
  547.000    7.482    0.185    0.358  103.682  243.209
  547.250    7.314    0.183    0.368  107.835  247.043
