~VERSION INFORMATION
 VERS.                 2.0:   CWLS LOG ASCII STANDARD -VERSION 2.0
 WRAP.                  NO:   ONE LINE PER DEPTH STEP
~WELL INFORMATION BLOCK
#MNEM.UNIT           DATA                    DESCRIPTION OF MNEMONIC
#---------    -------------------            -------------------------------
# Generated from Intellog Unique Number	CX_WELLS/WELL/3141
WELL.         PARA ET AL RESDELEN            : Well_name    - WELL
LOC .         00/08-02-083-06W4/0            : Location     - LOCATION
UWI .         00/08-02-083-06W4/0            : Uwi          - UNIQUE WELL ID
ENTR.         TIM                            : Entered      - ENTERED BY
SRVC.         SCHLUMBERGER                   : Scn          - SERVICE COMPANY
STRT.M        80                             : top_depth    - START DEPTH
STOP.M        295                            : bot_depth    - STOP DEPTH
STEP.M        0.25                           : increment    - STEP LENGTH
 NULL. -999.2500:NULL Value
~CURVE INFORMATION BLOCK
#MNEM UNIT       ERCB CURVE CODE    CURVE DESCRIPTION
#-----------   ------------------   ----------------------------------
DEPT.M        00 001 00 00         : DEPTH        - DEPTH
GR  .API      00 310 00 00         : GR           - GAMMA RAY
NPHI.V/V      00 330 00 00         : PHIN         - NEUTRON POROSITY (SANDSTONE)
DPHI.V/V      00 890 00 00         : PHID         - DENSITY POROSITY (SANDSTONE)
ILD .OHMM     00 120 00 00         : RESD         - DEEP RESISTIVITY (OTHER)
~PARAMETER INFORMATION
#MNEM.UNIT           DATA             DESCRIPTION OF MNEMONIC
#---------         -----------     ------------------------------
GL  .M        494                  : gl           - GROUND LEVEL ELEVATION
EREF.M        497.7                : kb           - ELEVATION OF DEPTH REFERENCE
DATM.M        497.7                : datum        - DATUM ELEVATION
TDD .M        294                  : tdd          - TOTAL DEPTH DRILLER
RUN .         ONE                  : Run          - RUN NUMBER
ENG .         BILL                 : Engineer     - RECORDING ENGINEER
WIT .         JIM                  : Witness      - WITNESSED BY
MUD .         GEL                  : Mud_type     - MUD TYPE
MATR.         SANDSTONE            : Logunit      - NEUTRON MATRIX
TMAX.C        25                   : BHT          - MAXIMUM RECORDED TEMPERATURE
BHTD.M        294                  : BHTDEP       - MAXIMUM RECORDED TEMPERATURE
MATR.         1                    : LOGUNIT      - NEUTRON MATRIX
RMT .C        18                   : MDTP         - TEMPERATURE OF MUD
NEUT.         1                    : NEUTRON      - NEUTRON TYPE
RESI.         4.2                  : RESIST       - RESISTIVITY TYPE
RMC .OHMM     3.1                  : RMC          - RESISTIVITY OF MUD CAKE
RMF .OHMM     4.2                  : RMF          - RESISTIVITY OF MUD FILTRATE
SUFT.C        4                    : SUFT         - SURFACE TEMPERATURE
~A  DEPTH       GR     PHIN     PHID     RESD
# ...
  167.000   72.652    0.460    0.311   12.287
  167.250   72.729    0.466    0.325   12.308
  167.500   73.388    0.462    0.334   11.679
  167.750   73.465    0.460    0.338   11.272
  168.000   74.123    0.462    0.338   10.878
  168.250   75.362    0.466    0.335   10.505
  168.500   76.620    0.465    0.332    9.604
  168.750   77.859    0.465    0.329    8.930
  169.000   79.717    0.467    0.320    8.150
  169.250   80.337    0.475    0.312    7.170
  169.500   83.337    0.486    0.298    6.308
  169.750   87.460    0.507    0.278    5.651
  170.000   95.687    0.518    0.268    4.790
  170.250   99.829    0.521    0.265    4.293
  170.500  102.830    0.530    0.264    4.305
  170.750  103.488    0.540    0.260    4.477
  171.000  102.965    0.541    0.257    4.928
  171.250  102.481    0.534    0.256    5.223
  171.500  101.978    0.529    0.255    5.235
  171.750  102.055    0.532    0.255    5.058
  172.000  103.294    0.540    0.257    4.881
  172.250  105.714    0.562    0.259    4.458
  172.500  107.533    0.568    0.260    3.995
  172.750  109.953    0.576    0.265    3.785
  173.000  111.173    0.583    0.270    3.396
  173.250  111.811    0.590    0.275    3.276
  173.500  114.250    0.595    0.277    3.165
  173.750  115.489    0.590    0.281    3.058
  174.000  116.728    0.583    0.283    3.062
  174.250  116.805    0.585    0.285    3.069
  174.500  115.741    0.587    0.284    3.137
  174.750  114.618    0.574    0.277    3.325
  175.000  112.372    0.524    0.270    3.589
  175.250  108.985    0.514    0.266    4.256
  175.500  106.739    0.519    0.262    4.767
  175.750  105.636    0.525    0.259    5.978
  176.000  105.152    0.529    0.258    6.459
  176.250  104.629    0.525    0.258    7.235
  176.500  104.106    0.511    0.265    7.668
  176.750  102.480    0.495    0.270    8.132
  177.000  100.796    0.482    0.265    8.465
  177.250   98.570    0.483    0.253    8.802
  177.500   97.447    0.478    0.251    8.993
  177.750   95.202    0.467    0.256    9.019
  178.000   92.975    0.457    0.264    9.029
  178.250   94.214    0.445    0.287    9.050
  178.500   94.292    0.434    0.291    9.421
  178.750   94.369    0.435    0.297    9.437
  179.000   94.446    0.440    0.306    9.818
  179.250   92.782    0.448    0.312    9.846
  179.500   92.259    0.453    0.308    9.868
  179.750   91.755    0.460    0.278    9.891
  180.000   94.214    0.465    0.266   10.100
  180.250   95.414    0.471    0.250   10.314
  180.500   98.395    0.474    0.242   10.736
  180.750  101.976    0.463    0.236   10.761
  181.000  104.376    0.461    0.232   10.988
  181.250  107.958    0.463    0.231   10.817
  181.500  106.273    0.470    0.246   10.829
  181.750  101.686    0.479    0.257   10.270
  182.000   98.298    0.478    0.258    9.912
  182.250   99.537    0.474    0.256    9.400
  182.500  101.376    0.476    0.255    9.242
  182.750  103.776    0.478    0.255    8.930
  183.000  106.196    0.477    0.252    8.791
  183.250  107.977    0.472    0.251    8.971
  183.500  109.815    0.465    0.248    9.156
  183.750  110.474    0.461    0.245    9.349
  184.000  108.809    0.455    0.248    9.547
  184.250  105.382    0.445    0.251    9.398
  184.500  101.975    0.442    0.252    9.070
  184.750   99.730    0.451    0.253    8.282
  185.000   97.484    0.461    0.254    7.850
  185.250   97.000    0.470    0.256    7.040
  185.500   97.078    0.474    0.258    6.314
  185.750   98.317    0.476    0.259    6.090
  186.000   99.536    0.481    0.257    5.666
  186.250  101.936    0.490    0.255    5.370
  186.500  104.375    0.512    0.252    5.093
  186.750  106.214    0.520    0.251    5.008
  187.000  106.834    0.516    0.253    5.019
  187.250  107.492    0.510    0.257    5.031
  187.500  106.989    0.509    0.258    5.237
  187.750  105.943    0.512    0.259    5.758
  188.000  105.401    0.515    0.266    6.579
  188.250  103.156    0.516    0.277    6.981
  188.500   97.406    0.508    0.272    6.989
  188.750   91.096    0.502    0.266    6.749
  189.000   87.689    0.490    0.264    6.053
  189.250   92.431    0.478    0.268    5.524
  189.500   97.154    0.486    0.269    5.233
  189.750  101.297    0.506    0.269    4.963
  190.000  104.878    0.513    0.265    5.163
  190.250  106.098    0.511    0.257    5.683
  190.500  107.917    0.479    0.259    6.248
  190.750   98.122    0.470    0.267    7.269
  191.000   94.773    0.457    0.285    8.620
  191.250   94.812    0.442    0.294    9.843
  191.500   94.308    0.439    0.301   10.051
  191.750   93.805    0.441    0.308   10.469
  192.000   93.282    0.448    0.313   10.684
  192.250   90.475    0.450    0.309   10.702
  192.500   87.649    0.452    0.295   11.344
  192.750   84.262    0.452    0.275   12.263
  193.000   82.558    0.448    0.245   12.750
  193.250   79.151    0.429    0.138   13.768
  193.500   74.563    0.357    0.100   13.800
  193.750   69.414    0.346    0.131   13.576
  194.000   69.511    0.386    0.210   13.118
  194.250   72.472    0.410    0.241   12.898
  194.500   80.138    0.427    0.274   12.232
  194.750   81.358    0.443    0.258   12.027
  195.000   80.293    0.442    0.247   11.832
  195.250   79.770    0.433    0.229   11.228
  195.500   79.847    0.430    0.216   11.040
  195.750   82.829    0.444    0.222   10.271
  196.000   91.055    0.468    0.229    9.374
  196.250   95.798    0.479    0.233    8.402
  196.500   97.018    0.480    0.236    7.826
  196.750   97.695    0.475    0.237    7.690
  197.000   98.915    0.473    0.238    7.866
  197.250   99.573    0.472    0.240    8.028
  197.500  100.831    0.466    0.240    8.188
  197.750  100.889    0.460    0.237    8.361
  198.000  101.586    0.447    0.235    7.925
  198.250  101.644    0.439    0.232    7.112
  198.500  102.321    0.431    0.229    6.863
  198.750  102.979    0.438    0.225    6.148
  199.000  104.218    0.479    0.225    5.511
  199.250  105.457    0.503    0.231    5.030
  199.500  106.115    0.528    0.241    4.343
  199.750  102.127    0.534    0.265    3.821
  200.000   99.862    0.543    0.272    3.243
  200.250   94.713    0.559    0.282    3.186
  200.500   90.706    0.568    0.295    3.020
  200.750   86.138    0.573    0.291    2.971
  201.000   89.138    0.558    0.277    3.093
  201.250   91.538    0.536    0.265    3.403
  201.500   93.939    0.477    0.257    3.812
  201.750   92.855    0.451    0.255    4.355
  202.000   87.725    0.449    0.253    4.976
  202.250   85.479    0.445    0.252    5.471
  202.500   85.557    0.444    0.250    6.250
  202.750   88.538    0.441    0.246    6.502
  203.000   89.796    0.440    0.244    6.401
  203.250   90.415    0.441    0.242    5.845
  203.500   92.835    0.447    0.238    5.239
  203.750   94.674    0.451    0.239    4.871
  204.000   95.874    0.460    0.244    4.532
  204.250   98.874    0.469    0.250    4.143
  204.500  100.113    0.474    0.255    4.072
  204.750  100.791    0.474    0.252    3.929
  205.000  100.849    0.475    0.246    3.799
  205.250  101.507    0.477    0.245    3.733
  205.500  101.584    0.481    0.246    3.673
  205.750  101.662    0.490    0.251    3.683
  206.000  101.778    0.495    0.253    3.692
  206.250  101.816    0.488    0.253    3.700
  206.500  103.055    0.476    0.251    3.709
  206.750  103.713    0.470    0.250    3.789
  207.000  102.068    0.481    0.247    3.796
  207.250   99.242    0.494    0.246    3.878
  207.500   98.719    0.505    0.243    3.962
  207.750   99.996    0.500    0.240    4.042
  208.000  101.235    0.496    0.239    4.207
  208.250  101.293    0.490    0.236    4.296
  208.500  100.790    0.484    0.234    4.553
  208.750  100.887    0.476    0.230    4.917
  209.000  100.964    0.467    0.231    5.514
  209.250  101.603    0.461    0.235    6.300
  209.500  102.842    0.465    0.236    6.546
  209.750  102.938    0.470    0.236    6.943
  210.000  101.854    0.474    0.233    7.227
  210.250   99.590    0.463    0.230    7.510
