~VERSION INFORMATION
 VERS.                 2.0:   CWLS LOG ASCII STANDARD -VERSION 2.0
 WRAP.                  NO:   ONE LINE PER DEPTH STEP
~WELL INFORMATION BLOCK
#MNEM.UNIT           DATA                    DESCRIPTION OF MNEMONIC
#---------    -------------------            -------------------------------
# Generated from Intellog Unique Number	CC_80_83/WELL/1180
NULL.         -999.25                        : NULL_VALUE
WELL.         CAN SUP PONY                   : Well_name    - WELL              
LOC .         07-08-082-07W4                 : Location     - LOCATION          
UWI .         00/07-08-082-07W4/0            : Uwi          - UNIQUE WELL ID    
ENTR.         DW                             : Entered      - ENTERED BY        
SRVC.         SCHLUMBERGER                   : Scn          - SERVICE COMPANY   
DATE.         12 MAR 76                      : Date         - LOG DATE
STRT.M        289.56                         : top_depth    - START DEPTH       
STOP.M        530.36                         : bot_depth    - STOP DEPTH        
STEP.M        0.305                          : increment    - STEP LENGTH       
~CURVE INFORMATION BLOCK
#MNEM UNIT       ERCB CURVE CODE    CURVE DESCRIPTION
#-----------   ------------------   ----------------------------------
DEPT.M        00 001 00 00         : DEPTH        - DEPTH                       
DPHI.V/V      00 890 00 00         : PHID         - DENSITY POROSITY (LIMESTONE)
NPHI.V/V      00 330 00 00         : PHIN         - NEUTRON POROSITY (LIMESTONE)
GR  .API      00 310 00 00         : GR           - GAMMA RAY                   
ILD .OHMM     00 120 00 00         : RESD         - DEEP RESISTIVITY (DIL)      
~PARAMETER INFORMATION       
#MNEM.UNIT           DATA             DESCRIPTION OF MNEMONIC
#---------         -----------     ------------------------------
GL  .M        743.102              : gl           - GROUND LEVEL ELEVATION      
EREF.M        745.846              : kb           - ELEVATION OF DEPTH REFERENCE
DATM.M        745.846              : datum        - DATUM ELEVATION             
TDD .M        533.4                : tdd          - TOTAL DEPTH DRILLER         
RUN .         ONE                  : Run          - RUN NUMBER                  
ENG .         BILL                 : Engineer     - RECORDING ENGINEER          
WIT .         JIM                  : Witness      - WITNESSED BY                
MUD .         GEL                  : Mud_type     - MUD TYPE                    
MATR.         LIMESTONE            : Logunit      - NEUTRON MATRIX              
TMAX.C        23.8889              : BHT          - MAXIMUM RECORDED TEMPERATURE
BHTD.M        533.4                : BHTDEP       - MAXIMUM RECORDED TEMPERATURE
MATR.         1                    : LOGUNIT      - NEUTRON MATRIX              
RMT .C        25                   : MDTP         - TEMPERATURE OF MUD          
NEUT.         1                    : NEUTRON      - NEUTRON TYPE                
RESI.         0                    : RESIST       - RESISTIVITY TYPE            
RMC .OHMM     0.25                 : RMC          - RESISTIVITY OF MUD CAKE     
RMF .OHMM     0.25                 : RMF          - RESISTIVITY OF MUD FILTRATE 
SUFT.C        4                    : SUFT         - SURFACE TEMPERATURE         
~A  DEPTH     PHID     PHIN       GR     RESD
# ...
  448.671    0.286    0.464   88.099    9.895
  448.975    0.243    0.460   87.526    8.077
  449.280    0.206    0.432   86.946    7.648
  449.585    0.241    0.376   72.567    8.554
  449.890    0.123    0.280   75.594   10.894
  450.195    0.016    0.459   84.017   15.506
  450.499    0.212    0.480   81.041   16.711
  450.804    0.259    0.477   78.664   16.418
  451.109    0.248    0.426   79.291   10.152
  451.414    0.182    0.264   75.111    7.694
  451.719    0.132    0.220   70.334    5.941
  452.023    0.050    0.213   69.158    5.323
  452.328    0.020    0.241   76.984    5.229
  452.633    0.037    0.458   95.615    5.233
  452.938    0.121    0.486  105.841    5.335
  453.243    0.163    0.495  111.268    5.440
  453.548    0.217    0.491  110.088    5.864
  453.852    0.244    0.479  106.513    6.204
  454.157    0.260    0.503  105.337    6.939
  454.462    0.251    0.502  105.362    7.342
  454.767    0.233    0.471  105.981    7.348
  455.072    0.238    0.447  106.608    6.830
  455.376    0.218    0.430  112.631    5.372
  455.681    0.241    0.441  118.061    3.511
  455.986    0.248    0.447  117.487    2.662
  456.291    0.236    0.473  116.310    2.254
  456.596    0.234    0.503  114.529    2.095
  456.900    0.222    0.517  110.952    2.097
  457.205    0.228    0.526  105.575    2.390
  457.510    0.245    0.602  100.798    2.624
  457.815    0.270    0.611   97.821    3.103
  458.120    0.298    0.598   97.843    3.879
  458.424    0.311    0.566  100.868    4.761
  458.729    0.286    0.525  100.895    5.526
  459.034    0.259    0.503   97.914    5.956
  459.339    0.263    0.481   96.146    5.852
  459.644    0.262    0.462   97.967    5.438
  459.949    0.256    0.464  100.987    4.783
  460.253    0.247    0.472  105.218    4.362
  460.558    0.214    0.469  108.237    3.696
  460.863    0.232    0.450  110.061    3.372
  461.168    0.234    0.452  103.485    3.251
  461.473    0.234    0.498  104.710    3.136
  461.777    0.230    0.493  111.336    3.026
  462.082    0.237    0.516  113.160    2.973
  462.387    0.234    0.500  110.782    3.031
  462.692    0.241    0.487  107.808    3.033
  462.997    0.245    0.514  107.830    3.150
  463.301    0.258    0.505  111.456    3.212
  463.606    0.268    0.504  113.878    3.275
  463.911    0.254    0.531  115.705    3.402
  464.216    0.250    0.523  113.925    3.598
  464.521    0.267    0.512  119.353    4.100
  464.826    0.269    0.499  119.977    4.503
  465.130    0.263    0.492  116.999    4.506
  465.435    0.247    0.482  110.421    4.682
  465.740    0.241    0.470  106.848    4.954
  466.045    0.265    0.461  105.673    5.339
  466.350    0.257    0.468  103.296    6.926
  466.654    0.256    0.514  100.915    7.604
  466.959    0.244    0.426   97.337    7.335
  467.264    0.242    0.373   82.358    6.099
  467.569    0.183    0.359   83.582    4.978
  467.874    0.105    0.408   90.210    5.172
  468.178    0.121    0.440   93.837    5.679
  468.483    0.277    0.492   93.856    6.840
  468.788    0.243    0.435   84.282   11.717
  469.093    0.289    0.374   65.697   11.947
  469.398    0.278    0.329   45.916    9.752
  469.702    0.320    0.240   41.739    6.257
  470.007    0.385    0.207   50.167    5.708
  470.312    0.326    0.358   62.792    6.040
  470.617    0.285    0.415   89.223    6.631
  470.922    0.290    0.381   91.048   12.008
  471.227    0.321    0.376   84.469   16.167
  471.531    0.295    0.371   74.891   15.887
  471.836    0.297    0.379   71.918   14.767
  472.141    0.322    0.375   74.342   14.237
  472.446    0.313    0.369   79.166   12.990
  472.751    0.255    0.386   82.190   11.634
  473.055    0.251    0.369   83.418   10.812
  473.360    0.274    0.373   85.242   10.623
  473.665    0.271    0.377   86.461   11.453
  473.970    0.236    0.375   86.486   12.342
  474.275    0.265    0.378   84.118   13.057
  474.579    0.253    0.368   83.538   12.831
  474.884    0.273    0.360   83.564   12.147
  475.189    0.277    0.350   82.980   11.292
  475.494    0.256    0.350   83.607   10.495
  475.799    0.243    0.352   85.430    9.752
  476.103    0.253    0.368   89.654    9.581
  476.408    0.231    0.406   94.481    9.767
  476.713    0.201    0.385   93.305   10.726
  477.018    0.207    0.372   88.530   11.348
  477.323    0.229    0.374   85.557   11.358
  477.628    0.226    0.382   86.175   10.558
  477.932    0.187    0.345   88.600    9.996
  478.237    0.173    0.376   94.623   10.003
  478.542    0.183    0.404   99.451   11.192
  478.847    0.213    0.443   95.872   12.291
  479.152    0.181    0.405   89.298   12.760
  479.456    0.188    0.393   85.116   14.015
  479.761    0.234    0.391   80.944   14.287
  480.066    0.259    0.405   79.769   14.839
  480.371    0.238    0.416   77.991   15.129
  480.676    0.254    0.420   76.210   16.009
  480.980    0.254    0.410   74.433   15.728
  481.285    0.258    0.399   76.858   15.169
  481.590    0.266    0.406   84.684   15.466
  481.895    0.237    0.415   78.108   16.065
  482.200    0.239    0.399   72.733   17.639
  482.504    0.266    0.391   72.155   21.252
  482.809    0.255    0.382   75.779   22.904
  483.114    0.256    0.366   81.204   21.291
  483.419    0.264    0.360   84.828   16.439
  483.724    0.231    0.371   93.256   13.669
  484.029    0.232    0.377   96.278   11.372
  484.333    0.222    0.378   98.104   10.964
  484.638    0.207    0.374   97.528   10.384
  484.943    0.217    0.369   96.350   10.391
  485.248    0.218    0.370   96.382   10.208
  485.553    0.204    0.387   93.397   10.406
  485.857    0.235    0.381   88.020   11.011
  486.162    0.244    0.371   88.646   11.439
  486.467    0.233    0.375   92.267   11.451
  486.772    0.207    0.371   97.094   11.458
  487.077    0.201    0.371  100.122   11.256
  487.381    0.198    0.381  101.342   11.059
  487.686    0.207    0.382   93.599   11.315
  487.991    0.229    0.384   91.728   11.738
  488.296    0.234    0.367   95.870   11.519
  488.601    0.185    0.369  106.606   11.097
  488.905    0.183    0.380  106.530   10.891
  489.210    0.199    0.369  103.466   10.887
  489.515    0.221    0.356  101.008   11.088
  489.820    0.221    0.357   92.552   11.086
  490.125    0.246    0.352   91.288   11.290
  490.430    0.249    0.356   94.803   11.287
  490.734    0.225    0.372   97.751   10.674
  491.039    0.229    0.366  101.898   10.475
  491.344    0.222    0.365  107.230   10.280
  491.649    0.218    0.368  110.762   10.470
  491.954    0.189    0.363  112.504   10.863
  492.258    0.193    0.363  113.044   11.270
  492.563    0.211    0.390  110.580   11.691
  492.868    0.235    0.376   95.515   11.906
  493.173    0.243    0.351   88.849   11.685
  493.478    0.224    0.344   91.786   11.258
  493.782    0.224    0.358   95.918   10.845
  494.087    0.220    0.354   94.655   10.842
  494.392    0.201    0.351   89.194   10.840
  494.697    0.202    0.371   87.898   11.039
  495.002    0.201    0.375   88.463   11.037
  495.306    0.212    0.379   89.591   11.034
  495.611    0.233    0.380   91.333   11.031
  495.916    0.215    0.376   91.269   10.627
  496.221    0.207    0.395   94.204    9.865
  496.526    0.208    0.398   96.548    9.682
  496.831    0.202    0.375  100.684    9.860
  497.135    0.175    0.380  101.820   10.042
  497.440    0.167    0.401   99.951   11.014
  497.745    0.185    0.417   87.889   12.305
  498.050    0.214    0.393   80.027   14.804
  498.355    0.241    0.362   82.951   18.145
  498.659    0.245    0.390   82.893   22.654
  498.964    0.241    0.419   79.835   28.813
  499.269    0.252    0.462   64.766   29.892
  499.574    0.303    0.419   58.104   26.742
  499.879    0.289    0.409   59.841   23.485
  500.183    0.267    0.445   71.770   23.916
  500.488    0.254    0.454   66.912   27.728
  500.793    0.328    0.417   51.247   37.980
  501.098    0.314    0.410   48.782   62.602
  501.403    0.295    0.408   53.517   84.172
