~VERSION INFORMATION
 VERS.                 2.0:   CWLS LOG ASCII STANDARD -VERSION 2.0
 WRAP.                  NO:   ONE LINE PER DEPTH STEP
~WELL INFORMATION BLOCK
#MNEM.UNIT           DATA                    DESCRIPTION OF MNEMONIC
#---------    -------------------            -------------------------------
# Generated from Intellog Unique Number	CS_69_70/WELL/806
NULL.         -999.25                        : NULL_VALUE
WELL.         HUSKY OIL OPERATION LTD.       : Well_name    - WELL              
LOC .         00/06-33-070-05W4/0            : Location     - LOCATION          
UWI .         00/06-33-070-05W4/0            : Uwi          - UNIQUE WELL ID    
ENTR.         SP                             : Entered      - ENTERED BY        
SRVC.         SCHLUMBERGER                   : Scn          - SERVICE COMPANY   
STRT.M        290                            : top_depth    - START DEPTH       
STOP.M        510                            : bot_depth    - STOP DEPTH        
STEP.M        0.25                           : increment    - STEP LENGTH       
~CURVE INFORMATION BLOCK
#MNEM UNIT       ERCB CURVE CODE    CURVE DESCRIPTION
#-----------   ------------------   ----------------------------------
DEPT.M        00 001 00 00         : DEPTH        - DEPTH                       
ILD .OHMM     00 120 00 00         : RESD         - DEEP RESISTIVITY (DIL)      
DPHI.V/V      00 890 00 00         : PHID         - DENSITY POROSITY (LIMESTONE)
NPHI.V/V      00 330 00 00         : PHIN         - NEUTRON POROSITY (LIMESTONE)
GR  .API      00 310 00 00         : GR           - GAMMA RAY                   
~PARAMETER INFORMATION       
#MNEM.UNIT           DATA             DESCRIPTION OF MNEMONIC
#---------         -----------     ------------------------------
GL  .M        653.8                : gl           - GROUND LEVEL ELEVATION      
EREF.M        657.5                : kb           - ELEVATION OF DEPTH REFERENCE
DATM.M        653.8                : datum        - DATUM ELEVATION             
TDD .M        517                  : tdd          - TOTAL DEPTH DRILLER         
RUN .         ONE                  : Run          - RUN NUMBER                  
ENG .         BILL                 : Engineer     - RECORDING ENGINEER          
WIT .         JIM                  : Witness      - WITNESSED BY                
MUD .         GEL                  : Mud_type     - MUD TYPE                    
MATR.         LIMESTONE            : Logunit      - NEUTRON MATRIX              
TMAX.C        26                   : BHT          - MAXIMUM RECORDED TEMPERATURE
BHTD.M        517                  : BHTDEP       - MAXIMUM RECORDED TEMPERATURE
MATR.         1                    : LOGUNIT      - NEUTRON MATRIX              
RMT .C        25                   : MDTP         - TEMPERATURE OF MUD          
NEUT.         1                    : NEUTRON      - NEUTRON TYPE                
RESI.         0                    : RESIST       - RESISTIVITY TYPE            
RMC .OHMM     0.25                 : RMC          - RESISTIVITY OF MUD CAKE     
RMF .OHMM     0.25                 : RMF          - RESISTIVITY OF MUD FILTRATE 
SUFT.C        15                   : SUFT         - SURFACE TEMPERATURE         
~A  DEPTH     RESD     PHID     PHIN       GR
# ...
  377.000    5.736    0.294    0.445   75.371
  377.250    5.630    0.291    0.466   80.855
  377.500    5.738    0.283    0.480   82.076
  377.750    5.739    0.293    0.473   71.768
  378.000    5.848    0.306    0.452   66.313
  378.250    5.960    0.323    0.443   69.972
  378.500    5.960    0.295    0.463   75.451
  378.750    5.533    0.271    0.480   77.888
  379.000    5.041    0.256    0.484   81.545
  379.250    4.857    0.255    0.469   83.987
  379.500    4.425    0.294    0.458   88.251
  379.750    4.344    0.323    0.473   91.906
  380.000    4.510    0.347    0.508   85.846
  380.250    4.771    0.348    0.541   76.142
  380.500    4.953    0.330    0.499   69.475
  380.750    4.954    0.325    0.475   70.093
  381.000    4.348    0.320    0.453   78.001
  381.250    3.676    0.315    0.474   82.263
  381.500    3.349    0.295    0.480   88.350
  381.750    2.995    0.268    0.545   92.005
  382.000    2.780    0.246    0.585   95.662
  382.250    2.780    0.258    0.588   98.102
  382.500    2.729    0.267    0.574   95.689
  382.750    2.730    0.281    0.572   99.341
  383.000    2.730    0.291    0.578  104.819
  383.250    2.783    0.278    0.569  105.443
  383.500    2.783    0.264    0.562  103.629
  383.750    2.889    0.256    0.571   99.394
  384.000    2.944    0.256    0.580   98.796
  384.250    3.233    0.259    0.583   98.813
  384.500    3.755    0.262    0.583   98.821
  384.750    4.201    0.259    0.575   98.226
  385.000    4.788    0.251    0.547   92.779
  385.250    5.356    0.264    0.512   90.966
  385.500    5.773    0.275    0.501   89.154
  385.750    6.107    0.268    0.488   87.350
  386.000    6.340    0.258    0.482   87.358
  386.250    6.461    0.258    0.472   86.761
  386.500    6.708    0.266    0.471   86.773
  386.750    6.964    0.272    0.482   86.178
  387.000    7.231    0.277    0.485   84.374
  387.250    7.368    0.287    0.479   82.563
  387.500    7.370    0.295    0.467   81.359
  387.750    6.970    0.300    0.476   79.555
  388.000    5.784    0.282    0.481   80.169
  388.250    4.454    0.267    0.491   83.218
  388.500    3.561    0.253    0.491   88.094
  388.750    3.125    0.237    0.485   89.924
  389.000    3.068    0.232    0.493   91.759
  389.250    3.126    0.231    0.495   91.769
  389.500    3.699    0.239    0.489   90.571
  389.750    4.717    0.245    0.482   89.973
  390.000    5.179    0.245    0.490   91.198
  390.250    5.686    0.246    0.505   92.425
  390.500    6.015    0.243    0.519   91.834
  390.750    5.584    0.239    0.537   93.667
  391.000    5.183    0.239    0.543   96.714
  391.250    4.634    0.243    0.518   94.297
  391.500    4.144    0.244    0.513   91.880
  391.750    3.637    0.246    0.504   90.680
  392.000    3.253    0.250    0.480   91.906
  392.250    3.076    0.257    0.489   94.959
  392.500    2.963    0.251    0.497   96.790
  392.750    2.803    0.246    0.510   98.015
  393.000    2.856    0.240    0.535   96.814
  393.250    2.910    0.238    0.526   95.612
  393.500    3.022    0.245    0.516   98.662
  393.750    3.197    0.238    0.533   99.887
  394.000    3.445    0.229    0.550   96.867
  394.250    3.713    0.224    0.504   97.485
  394.500    3.855    0.233    0.475   98.717
  394.750    3.928    0.236    0.477   98.723
  395.000    3.929    0.242    0.480   98.129
  395.250    3.716    0.246    0.515   97.532
  395.500    3.580    0.235    0.533   96.938
  395.750    3.323    0.234    0.534   98.165
  396.000    3.262    0.247    0.540  101.216
  396.250    3.387    0.258    0.549  100.011
  396.500    3.650    0.274    0.552   96.380
  396.750    4.008    0.292    0.551   94.573
  397.000    4.401    0.297    0.528   92.764
  397.250    4.743    0.280    0.505   86.093
  397.500    5.018    0.274    0.493   79.428
  397.750    5.018    0.274    0.470   79.438
  398.000    5.020    0.267    0.457   84.308
  398.250    5.021    0.263    0.465   86.750
  398.500    4.837    0.255    0.472   90.410
  398.750    4.575    0.253    0.476   92.242
  399.000    4.491    0.260    0.471   93.467
  399.250    4.327    0.271    0.483   92.269
  399.500    4.169    0.275    0.498   90.458
  399.750    4.170    0.281    0.513   87.432
  400.000    4.330    0.289    0.517   82.589
  400.250    4.754    0.294    0.507   79.565
  400.500    5.731    0.301    0.493   77.147
  400.750    6.532    0.285    0.517   77.767
  401.000    7.308    0.176    0.535   75.350
  401.250    8.176    0.111    0.290   66.253
  401.500    8.649    0.056    0.250   59.584
  401.750    8.490    0.077    0.339   71.133
  402.000    7.179    0.149    0.420   80.865
  402.250    5.958    0.291    0.477   79.060
  402.500    5.530    0.329    0.488   77.249
  402.750    5.229    0.336    0.494   76.046
  403.000    4.854    0.337    0.491   74.843
  403.250    4.765    0.335    0.483   74.245
  403.500    4.766    0.336    0.475   75.472
  403.750    4.767    0.337    0.471   76.091
  404.000    4.768    0.335    0.468   74.282
  404.250    4.859    0.329    0.466   70.652
  404.500    5.045    0.323    0.467   67.026
  404.750    5.336    0.320    0.485   65.212
  405.000    5.540    0.326    0.464   62.190
  405.250    5.861    0.296    0.440   60.985
  405.500    5.861    0.212    0.413   64.032
  405.750    5.973    0.198    0.407   70.121
  406.000    5.864    0.224    0.428   74.383
  406.250    5.756    0.252    0.447   78.042
  406.500    5.444    0.288    0.458   80.482
  406.750    5.445    0.285    0.469   82.317
  407.000    5.346    0.299    0.459   85.367
  407.250    5.346    0.286    0.446   87.197
  407.500    5.347    0.277    0.463   89.032
  407.750    5.348    0.257    0.453   87.828
  408.000    5.251    0.262    0.437   86.629
  408.250    5.251    0.274    0.443   83.606
  408.500    5.060    0.282    0.468   80.579
  408.750    4.875    0.289    0.489   79.377
  409.000    4.279    0.300    0.479   79.388
  409.250    3.686    0.308    0.480   81.224
  409.500    3.421    0.292    0.505   83.668
  409.750    3.117    0.286    0.500   86.720
  410.000    2.787    0.277    0.510   88.551
  410.250    2.539    0.273    0.550   90.989
  410.500    2.493    0.271    0.579   96.476
  410.750    2.402    0.277    0.577   98.917
  411.000    2.358    0.279    0.569  100.749
  411.250    2.315    0.278    0.587  101.971
  411.500    2.272    0.281    0.568   99.553
  411.750    2.273    0.288    0.568   94.101
  412.000    2.273    0.295    0.575   91.081
  412.250    2.317    0.300    0.564   90.481
  412.500    2.451    0.302    0.557   88.673
  412.750    2.497    0.290    0.521   91.117
  413.000    2.592    0.274    0.507   94.776
  413.250    2.742    0.262    0.531   95.996
  413.500    3.011    0.267    0.547   99.047
  413.750    3.307    0.269    0.564   95.416
  414.000    4.061    0.271    0.499   88.141
  414.250    4.716    0.272    0.471   83.901
  414.500    6.126    0.277    0.465   79.662
  414.750    7.958    0.205    0.423   75.424
  415.000    9.593    0.155    0.388   76.650
  415.250   11.351    0.244    0.370   75.450
  415.500   12.464    0.323    0.381   68.782
  415.750   14.474    0.354    0.391   64.541
  416.000   15.894    0.329    0.391   60.304
  416.250   17.129    0.290    0.383   57.886
  416.500   18.461    0.274    0.399   57.295
  416.750   18.812    0.278    0.432   58.517
  417.000   18.126    0.302    0.451   59.749
  417.250   15.908    0.324    0.458   60.978
  417.500   14.493    0.341    0.460   61.596
  417.750   12.960    0.336    0.470   61.607
  418.000   12.256    0.334    0.475   61.620
  418.250   11.810    0.336    0.485   61.022
  418.500   11.169    0.311    0.415   57.391
  418.750   10.761    0.199    0.395   60.447
  419.000    9.990    0.231    0.379   61.668
  419.250    9.625    0.313    0.435   63.500
  419.500    9.102    0.327    0.457   62.300
  419.750    8.449    0.336    0.457   63.525
  420.000    7.990    0.323    0.445   65.359
  420.250    7.279    0.304    0.441   65.979
