~VERSION INFORMATION
 VERS.                 2.0:   CWLS LOG ASCII STANDARD -VERSION 2.0
 WRAP.                  NO:   ONE LINE PER DEPTH STEP
~WELL INFORMATION BLOCK
#MNEM.UNIT           DATA                    DESCRIPTION OF MNEMONIC
#---------    -------------------            -------------------------------
# Generated from Intellog Unique Number	CW_70_72/WELL/3009
NULL.         -999.25                        : NULL_VALUE
WELL.         BRASCAN AMOCO MEYER 06-22      : Well_name    - WELL              
LOC .         06-22-070-25W4                 : Location     - LOCATION          
UWI .         00/06-22-070-25W4/0            : Uwi          - UNIQUE WELL ID    
ENTR.         J                              : Entered      - ENTERED BY        
SRVC.         SCHLUMBERGER                   : Scn          - SERVICE COMPANY   
DATE.         10 MAR 73                      : Date         - LOG DATE          
STRT.M        478.536                        : top_depth    - START DEPTH       
STOP.M        701.036                        : bot_depth    - STOP DEPTH        
STEP.M        0.25                           : increment    - STEP LENGTH       
~CURVE INFORMATION BLOCK
#MNEM UNIT       ERCB CURVE CODE    CURVE DESCRIPTION
#-----------   ------------------   ----------------------------------
DEPT.M        00 001 00 00         : DEPTH        - DEPTH                       
ILD .OHMM     00 120 00 00         : RESD         - DEEP RESISTIVITY (DIL)      
CALI.MM       00 280 01 00         : CAL          - CALIPER                     
GR  .API      00 310 00 00         : GR           - GAMMA RAY                   
NPHI.V/V      00 330 00 00         : PHIN         - NEUTRON POROSITY (SANDSTONE)
DPHI.V/V      00 890 00 00         : PHID         - DENSITY POROSITY (SANDSTONE)
~PARAMETER INFORMATION       
#MNEM.UNIT           DATA             DESCRIPTION OF MNEMONIC
#---------         -----------     ------------------------------
GL  .M        643.433              : gl           - GROUND LEVEL ELEVATION      
EREF.M        647.243              : kb           - ELEVATION OF DEPTH REFERENCE
DATM.M        643.433              : datum        - DATUM ELEVATION             
TDD .M        729.996              : tdd          - TOTAL DEPTH DRILLER         
RUN .         ONE                  : Run          - RUN NUMBER                  
ENG .         MACIJUK              : Engineer     - RECORDING ENGINEER          
WIT .         JAMES                : Witness      - WITNESSED BY                
BASE.         EDMONTON             : Branch       - HOME BASE OF LOGGING UNIT   
MUD .         GEL                  : Mud_type     - MUD TYPE                    
MATR.         SANDSTONE            : Logunit      - NEUTRON MATRIX              
TMAX.C        27.7778              : BHT          - MAXIMUM RECORDED TEMPERATURE
BHTD.M        729.996              : BHTDEP       - MAXIMUM RECORDED TEMPERATURE
RMT .C        16.6667              : MDTP         - TEMPERATURE OF MUD          
MUDD.KG/M     1104                 : MWT          - MUD DENSITY                 
NEUT.         1                    : NEUTRON      - NEUTRON TYPE                
RESI.         0                    : RESIST       - RESISTIVITY TYPE            
RM  .OHMM     3.38                 : RM           - RESISTIVITY OF MUD          
RMC .OHMM     0                    : RMC          - RESISTIVITY OF MUD CAKE     
RMF .OHMM     0                    : RMF          - RESISTIVITY OF MUD FILTRATE 
SUFT.C        -17.7778             : SUFT         - SURFACE TEMPERATURE         
~A  DEPTH     RESD      CAL       GR     PHIN     PHID
# ...
  515.036    2.830  157.930   74.677    0.451    0.218
  515.286    2.832  158.401   75.318    0.458    0.223
  515.536    2.880  158.401   74.867    0.424    0.253
  515.786    2.941  160.346   74.843    0.373    0.257
  516.036    3.002  160.516   74.694    0.436    0.230
  516.286    3.104  160.900   75.884    0.424    0.234
  516.536    3.252  161.260   79.509    0.442    0.216
  516.786    3.393  161.447   85.564    0.464    0.216
  517.036    3.620  162.212   91.433    0.474    0.202
  517.286    3.777  163.313   93.413    0.461    0.173
  517.536    3.772  164.812   89.622    0.446    0.181
  517.786    3.706  166.822   89.229    0.471    0.181
  518.036    3.628  167.307   89.451    0.493    0.182
  518.286    3.551  166.930   86.994    0.498    0.184
  518.536    3.540  170.502   89.212    0.495    0.187
  518.786    3.607  171.395   92.956    0.496    0.149
  519.036    3.690  172.280   95.608    0.494    0.131
  519.286    3.678  172.648   98.564    0.491    0.145
  519.536    3.516  172.806   99.992    0.482    0.155
  519.786    3.385  172.664   97.784    0.467    0.151
  520.036    3.230  171.899   91.372    0.448    0.173
  520.286    3.173  171.032   87.460    0.439    0.174
  520.536    3.192  170.889   83.485    0.429    0.183
  520.786    3.259  170.648   78.287    0.387    0.178
  521.036    3.352  169.566   80.028    0.412    0.244
  521.286    3.415  168.294   82.012    0.411    0.228
  521.536    3.552  165.773   86.180    0.433    0.204
  521.786    3.659  164.095   86.636    0.446    0.181
  522.036    3.847  163.124   88.012    0.477    0.191
  522.286    3.941  163.288   90.297    0.464    0.192
  522.536    3.872  165.305   91.247    0.475    0.172
  522.786    3.708  169.790   92.186    0.496    0.173
  523.036    3.398  172.108   93.014    0.510    0.162
  523.286    3.149  173.101   93.418    0.518    0.144
  523.536    2.881  173.254   92.785    0.543    0.142
  523.786    2.748  172.710   86.744    0.560    0.200
  524.036    2.575  168.546   75.352    0.541    0.241
  524.286    2.479  164.080   73.745    0.443    0.259
  524.536    2.448  161.352   75.119    0.451    0.231
  524.786    2.486  159.877   70.170    0.475    0.248
  525.036    2.590  158.903   72.451    0.422    0.256
  525.286    2.712  158.760   75.044    0.387    0.250
  525.536    2.980  158.512   76.964    0.445    0.242
  525.786    3.109  157.957   77.171    0.476    0.230
  526.036    3.180  157.505   76.787    0.470    0.227
  526.286    3.164  157.871   76.097    0.469    0.208
  526.536    2.981  158.542   76.192    0.469    0.202
  526.786    2.737  158.715   75.804    0.450    0.207
  527.036    2.630  158.868   72.071    0.445    0.201
  527.286    2.478  158.730   62.745    0.440    0.205
  527.536    2.516  158.791   63.084    0.422    0.243
  527.786    2.540  158.438   66.278    0.423    0.252
  528.036    2.589  158.699   64.919    0.469    0.247
  528.286    2.681  158.972   59.118    0.507    0.252
  528.536    2.956  159.241   54.599    0.533    0.293
  528.786    3.194  161.452   52.992    0.504    0.331
  529.036    3.464  163.061   65.488    0.449    0.292
  529.286    3.641  164.666   73.305    0.498    0.262
  529.536    3.724  166.474   76.498    0.442    0.246
  529.786    3.566  169.411   81.273    0.372    0.224
  530.036    3.233  171.847   84.961    0.432    0.210
  530.286    2.810  171.396   86.268    0.485    0.197
  530.536    2.627  169.082   84.910    0.454    0.197
  530.786    2.430  166.779   82.879    0.427    0.221
  531.036    2.280  164.780   79.872    0.425    0.245
  531.286    2.200  162.888   77.540    0.446    0.264
  531.536    2.201  161.705   73.319    0.464    0.285
  531.786    2.255  161.664   66.302    0.450    0.299
  532.036    2.328  161.621   62.874    0.429    0.286
  532.286    2.385  161.475   61.269    0.418    0.271
  532.536    2.444  161.440   61.727    0.430    0.262
  532.786    2.509  161.695   62.069    0.448    0.250
  533.036    2.638  161.866   59.677    0.441    0.247
  533.286    2.778  162.234   56.246    0.435    0.257
  533.536    2.963  162.607   56.037    0.434    0.266
  533.786    3.345  163.184   55.888    0.425    0.271
  534.036    3.911  163.448   53.982    0.429    0.261
  534.286    4.512  163.814   50.613    0.424    0.255
  534.536    5.822  164.185   48.400    0.376    0.246
  534.786    6.831  164.652   45.761    0.335    0.226
  535.036    7.421  166.152   44.035    0.362    0.195
  535.286    6.813  169.204   43.525    0.291    0.139
  535.536    5.544  169.777   45.992    0.295    0.121
  535.786    4.637  168.086   48.335    0.332    0.129
  536.036    3.766  166.089   51.652    0.359    0.141
  536.286    3.358  164.401   54.361    0.388    0.189
  536.536    3.391  163.429   57.623    0.418    0.236
  536.786    4.188  162.874   58.813    0.436    0.269
  537.036    4.913  163.351   56.599    0.421    0.244
  537.286    5.639  164.020   54.325    0.389    0.226
  537.536    5.631  164.498   52.475    0.318    0.204
  537.786    4.641  164.765   51.356    0.276    0.133
  538.036    3.674  164.415   51.938    0.275    0.091
  538.286    2.979  163.844   53.248    0.318    0.114
  538.536    2.496  163.608   55.840    0.367    0.155
  538.786    2.238  163.770   56.966    0.407    0.257
  539.036    2.758  163.620   57.306    0.398    0.283
  539.286    4.368  163.169   56.248    0.415    0.285
  539.536    8.491  162.923   52.393    0.439    0.228
  539.786   14.051  162.875   48.361    0.302    0.168
  540.036   17.445  162.531   44.137    0.224    0.076
  540.286   16.554  162.585   44.054    0.178    0.022
  540.536    9.223  162.754   46.338    0.163   -0.006
  540.786    6.603  165.697   54.217    0.208   -0.003
  541.036    4.958  167.093   64.279    0.268    0.004
  541.286    3.847  166.123   72.280    0.384    0.107
  541.536    3.343  164.122   77.055    0.425    0.199
  541.786    3.103  161.710   79.340    0.447    0.225
  542.036    2.972  159.919   79.921    0.460    0.217
  542.286    2.925  159.058   79.410    0.452    0.214
  542.536    2.981  158.699   78.532    0.448    0.205
  542.786    3.082  159.796   78.147    0.434    0.196
  543.036    3.234  160.677   75.320    0.435    0.203
  543.286    3.482  161.256   73.963    0.447    0.220
  543.536    3.824  162.239   74.972    0.376    0.242
  543.786    4.373  164.663   79.018    0.344    0.210
  544.036    4.795  167.612   79.356    0.378    0.163
  544.286    4.346  168.702   68.332    0.376    0.145
  544.536    3.847  166.597   58.641    0.332    0.139
  544.786    3.356  163.978   51.988    0.343    0.135
  545.036    2.949  161.562   53.241    0.368    0.170
  545.286    2.644  160.388   55.401    0.409    0.256
  545.536    2.410  160.253   56.898    0.433    0.282
  545.786    2.229  159.690   59.240    0.447    0.294
  546.036    2.138  160.066   59.157    0.447    0.282
  546.286    2.055  162.392   57.127    0.441    0.278
  546.536    1.971  160.079   57.825    0.439    0.278
  546.786    1.916  159.828   59.809    0.450    0.289
  547.036    1.861  159.472   62.094    0.460    0.285
  547.286    1.842  159.647   60.427    0.459    0.280
  547.536    1.840  159.709   58.094    0.456    0.285
  547.786    1.837  160.077   56.669    0.455    0.287
  548.036    1.829  160.232   55.978    0.462    0.270
  548.286    1.833  159.370   55.464    0.471    0.261
  548.536    1.817  155.210   55.259    0.456    0.260
  548.786    1.822  153.310   54.686    0.367    0.272
  549.036    1.823  154.409   55.209    0.415    0.292
  549.286    1.831  157.656   56.340    0.461    0.286
  549.536    1.848  159.981   61.359    0.444    0.274
  549.786    1.873  161.073   61.571    0.454    0.266
  550.036    1.881  160.821   61.058    0.446    0.278
  550.286    1.882  160.465   60.793    0.427    0.286
  550.536    1.890  160.322   60.892    0.450    0.279
  550.786    1.930  160.283   63.118    0.474    0.275
  551.036    1.981  160.233   62.180    0.491    0.288
  551.286    2.324  160.607   61.365    0.476    0.286
