~VERSION INFORMATION
 VERS.                 2.0:   CWLS LOG ASCII STANDARD -VERSION 2.0
 WRAP.                  NO:   ONE LINE PER DEPTH STEP
~WELL INFORMATION BLOCK
#MNEM.UNIT           DATA                    DESCRIPTION OF MNEMONIC
#---------    -------------------            -------------------------------
# Generated from Intellog Unique Number	CS_69_70/WELL/786
WELL.         SCEPTRE RESOURCES              : Well_name    - WELL
LOC .         00/06-34-069-14W4/0            : Location     - LOCATION
UWI .         00/06-34-069-14W4/0            : Uwi          - UNIQUE WELL ID
ENTR.         SP                             : Entered      - ENTERED BY
SRVC.         SCHLUMBERGER                   : Scn          - SERVICE COMPANY
STRT.M        280                            : top_depth    - START DEPTH
STOP.M        497                            : bot_depth    - STOP DEPTH
STEP.M        0.25                           : increment    - STEP LENGTH
 NULL. -999.2500:NULL Value
~CURVE INFORMATION BLOCK
#MNEM UNIT       ERCB CURVE CODE    CURVE DESCRIPTION
#-----------   ------------------   ----------------------------------
DEPT.M        00 001 00 00         : DEPTH        - DEPTH
ILD .OHMM     00 120 00 00         : RESD         - DEEP RESISTIVITY (DIL)
DPHI.V/V      00 890 00 00         : PHID         - DENSITY POROSITY (LIMESTONE)
NPHI.V/V      00 330 00 00         : PHIN         - NEUTRON POROSITY (LIMESTONE)
GR  .API      00 310 00 00         : GR           - GAMMA RAY
~PARAMETER INFORMATION
#MNEM.UNIT           DATA             DESCRIPTION OF MNEMONIC
#---------         -----------     ------------------------------
GL  .M        579.8                : gl           - GROUND LEVEL ELEVATION
EREF.M        583.24               : kb           - ELEVATION OF DEPTH REFERENCE
DATM.M        579.8                : datum        - DATUM ELEVATION
TDD .M        505                  : tdd          - TOTAL DEPTH DRILLER
RUN .         ONE                  : Run          - RUN NUMBER
ENG .         BILL                 : Engineer     - RECORDING ENGINEER
WIT .         JIM                  : Witness      - WITNESSED BY
MUD .         GEL                  : Mud_type     - MUD TYPE
MATR.         LIMESTONE            : Logunit      - NEUTRON MATRIX
TMAX.C        23                   : BHT          - MAXIMUM RECORDED TEMPERATURE
BHTD.M        505                  : BHTDEP       - MAXIMUM RECORDED TEMPERATURE
MATR.         1                    : LOGUNIT      - NEUTRON MATRIX
RMT .C        25                   : MDTP         - TEMPERATURE OF MUD
NEUT.         1                    : NEUTRON      - NEUTRON TYPE
RESI.         0                    : RESIST       - RESISTIVITY TYPE
RMC .OHMM     0.25                 : RMC          - RESISTIVITY OF MUD CAKE
RMF .OHMM     0.25                 : RMF          - RESISTIVITY OF MUD FILTRATE
SUFT.C        15                   : SUFT         - SURFACE TEMPERATURE
~A  DEPTH     RESD     PHID     PHIN       GR
# ...
  367.000    2.873    0.342    0.403   78.275
  367.250    2.854    0.345    0.393   81.337
  367.500    2.867    0.342    0.384   76.267
  367.750    2.912    0.343    0.379   83.366
  368.000    2.986    0.356    0.387   86.856
  368.250    3.103    0.342    0.436   88.206
  368.500    3.236    0.321    0.419   95.061
  368.750    3.382    0.302    0.413   99.469
  369.000    3.442    0.284    0.419   93.603
  369.250    3.457    0.299    0.408   80.706
  369.500    3.441    0.303    0.392   84.870
  369.750    3.385    0.297    0.371   81.146
  370.000    3.244    0.319    0.346   79.254
  370.250    3.092    0.329    0.393   76.998
  370.500    2.958    0.337    0.415   73.761
  370.750    2.862    0.344    0.394   68.997
  371.000    2.800    0.356    0.367   68.207
  371.250    2.756    0.363    0.369   69.252
  371.500    2.732    0.357    0.400   68.829
  371.750    2.729    0.353    0.409   70.670
  372.000    2.751    0.350    0.400   73.671
  372.250    2.816    0.351    0.395   68.478
  372.500    2.888    0.350    0.386   62.614
  372.750    2.967    0.341    0.379   59.623
  373.000    3.071    0.333    0.375   59.505
  373.250    3.197    0.320    0.378   62.813
  373.500    3.384    0.307    0.366   57.865
  373.750    3.805    0.174    0.331   52.551
  374.000    4.262    0.083    0.278   50.048
  374.250    4.730    0.216    0.252   52.499
  374.500    4.970    0.260    0.279   59.660
  374.750    4.403    0.330    0.334   64.128
  375.000    3.995    0.357    0.376   65.357
  375.250    3.434    0.366    0.390   65.117
  375.500    3.182    0.371    0.381   64.205
  375.750    2.998    0.366    0.374   62.499
  376.000    2.923    0.355    0.379   68.865
  376.250    2.947    0.340    0.401   72.171
  376.500    3.011    0.327    0.389   75.845
  376.750    3.081    0.316    0.407   79.336
  377.000    3.172    0.308    0.397   81.787
  377.250    3.222    0.323    0.385   79.347
  377.500    3.273    0.331    0.389   75.377
  377.750    3.301    0.340    0.374   71.469
  378.000    3.290    0.345    0.373   69.334
  378.250    3.207    0.334    0.398   67.322
  378.500    3.120    0.326    0.418   66.715
  378.750    3.071    0.313    0.409   69.838
  379.000    3.137    0.301    0.397   73.636
  379.250    3.390    0.314    0.383   75.658
  379.500    3.630    0.332    0.365   80.127
  379.750    3.903    0.303    0.367   88.633
  380.000    4.093    0.262    0.360   88.883
  380.250    4.228    0.240    0.346   86.626
  380.500    4.361    0.236    0.344   85.897
  380.750    4.455    0.250    0.343   82.662
  381.000    4.400    0.254    0.355   78.875
  381.250    4.321    0.249    0.374   75.518
  381.500    4.244    0.253    0.391   80.720
  381.750    4.168    0.240    0.383   85.434
  382.000    4.072    0.230    0.381   78.591
  382.250    4.015    0.222    0.397   76.150
  382.500    4.132    0.236    0.386   81.782
  382.750    4.134    0.251    0.373   86.494
  383.000    4.136    0.261    0.366   91.453
  383.250    4.171    0.277    0.362   82.898
  383.500    4.150    0.271    0.356   77.950
  383.750    4.023    0.254    0.392   86.699
  384.000    3.893    0.236    0.427   91.719
  384.250    3.887    0.223    0.365   90.807
  384.500    3.905    0.212    0.385   89.100
  384.750    3.908    0.214    0.419   84.519
  385.000    3.845    0.240    0.416   80.488
  385.250    3.776    0.258    0.394   86.181
  385.500    3.772    0.270    0.374   88.509
  385.750    3.868    0.250    0.406   88.637
  386.000    3.974    0.238    0.410   94.819
  386.250    4.114    0.232    0.400   96.047
  386.500    4.307    0.231    0.398   92.567
  386.750    4.475    0.227    0.397   97.647
  387.000    4.580    0.209    0.381   99.181
  387.250    4.822    0.181    0.362   90.259
  387.500    4.945    0.174    0.339   90.447
  387.750    4.884    0.227    0.314   96.506
  388.000    4.716    0.233    0.384   96.206
  388.250    4.546    0.240    0.399   97.434
  388.500    4.364    0.250    0.370   97.317
  388.750    4.246    0.233    0.377   96.467
  389.000    4.194    0.219    0.347   99.223
  389.250    4.205    0.205    0.360  101.063
  389.500    4.256    0.198    0.364   98.378
  389.750    4.307    0.201    0.357   98.751
  390.000    4.408    0.205    0.366   98.939
  390.250    4.521    0.205    0.382   98.149
  390.500    4.499    0.206    0.401   97.726
  390.750    4.460    0.209    0.406   96.876
  391.000    4.405    0.212    0.382   95.352
  391.250    4.351    0.218    0.396   92.911
  391.500    4.290    0.232    0.381   92.121
  391.750    4.260    0.235    0.361   95.490
  392.000    4.231    0.234    0.416   99.164
  392.250    4.187    0.228    0.432  103.450
  392.500    4.174    0.221    0.424  107.185
  392.750    4.177    0.233    0.422   98.691
  393.000    4.180    0.223    0.411   97.963
  393.250    4.191    0.210    0.398  101.454
  393.500    4.210    0.215    0.415  102.559
  393.750    4.221    0.224    0.420   96.939
  394.000    4.161    0.224    0.388   95.599
  394.250    3.966    0.226    0.385   99.579
  394.500    3.383    0.241    0.375   97.445
  394.750    2.848    0.258    0.411   94.147
  395.000    2.425    0.285    0.441   89.933
  395.250    2.076    0.318    0.478   90.244
  395.500    1.843    0.538    0.511   91.106
  395.750    1.691    0.484    0.496   90.438
  396.000    1.576    0.436    0.510   87.814
  396.250    1.490    0.396    0.519   89.776
  396.500    1.635    0.380    0.470   93.083
  396.750    1.815    0.373    0.428   95.779
  397.000    2.159    0.373    0.399   96.213
  397.250    2.432    0.349    0.412   93.283
  397.500    2.704    0.312    0.426   88.335
  397.750    3.086    0.295    0.436   90.787
  398.000    3.267    0.283    0.422   93.850
  398.250    3.505    0.271    0.399   96.362
  398.500    3.628    0.262    0.384   98.323
  398.750    3.665    0.253    0.394   95.393
  399.000    3.640    0.245    0.395   87.755
  399.250    3.575    0.238    0.398   82.195
  399.500    3.531    0.239    0.378   85.809
  399.750    3.474    0.254    0.350   86.242
  400.000    3.425    0.276    0.373   87.409
  400.250    3.326    0.295    0.364   86.008
  400.500    3.076    0.298    0.351   78.431
  400.750    2.724    0.264    0.341   79.231
  401.000    2.500    0.263    0.358   80.215
  401.250    2.339    0.311    0.379   74.166
  401.500    2.280    0.332    0.383   75.455
  401.750    2.282    0.343    0.356   73.382
  402.000    2.344    0.338    0.395   65.193
  402.250    2.524    0.324    0.375   57.188
  402.500    2.892    0.283    0.310   51.262
  402.750    3.708    0.241    0.210   45.030
  403.000    4.345    0.054    0.185   36.840
  403.250    4.653    0.243    0.209   45.224
  403.500    4.376    0.300    0.294   52.077
  403.750    3.502    0.332    0.326   58.504
  404.000    2.808    0.354    0.342   63.951
  404.250    2.506    0.367    0.356   63.346
  404.500    2.392    0.382    0.382   60.660
  404.750    2.481    0.383    0.388   60.787
  405.000    2.642    0.375    0.374   58.102
  405.250    3.312    0.362    0.342   50.035
  405.500    4.184    0.303    0.149   42.580
  405.750    5.286    0.121    0.116   36.715
  406.000    6.358   -0.004    0.101   34.397
  406.250    8.498   -0.013    0.095   39.539
  406.500   14.609   -0.012    0.108   44.925
  406.750   14.674    0.030    0.178   50.312
  407.000    9.732    0.211    0.271   57.044
  407.250    7.198    0.290    0.320   62.002
  407.500    5.516    0.332    0.357   62.863
  407.750    4.118    0.353    0.378   58.649
  408.000    3.422    0.354    0.390   61.590
  408.250    2.865    0.361    0.378   64.469
  408.500    2.644    0.361    0.367   68.205
  408.750    2.459    0.357    0.371   71.084
  409.000    2.283    0.356    0.387   72.862
  409.250    2.234    0.357    0.378   70.544
  409.500    2.256    0.362    0.378   66.391
  409.750    2.296    0.364    0.372   68.537
  410.000    2.338    0.365    0.387   68.909
  410.250    2.357    0.364    0.402   67.997
