~VERSION INFORMATION
 VERS.                 2.0:   CWLS LOG ASCII STANDARD -VERSION 2.0
 WRAP.                  NO:   ONE LINE PER DEPTH STEP
~WELL INFORMATION BLOCK
#MNEM.UNIT           DATA                    DESCRIPTION OF MNEMONIC
#---------    -------------------            -------------------------------
# Generated from Intellog Unique Number	CS_67_68/WELL/2174
WELL.         CHIEFCO et al TWEEDIE          : Well_name    - WELL
LOC .         00/07-02-067-12W4/0            : Location     - LOCATION
UWI .         00/07-02-067-12W4/0            : Uwi          - UNIQUE WELL ID
ENTR.         SP                             : Entered      - ENTERED BY
SRVC.         SCHLUMBERGER                   : Scn          - SERVICE COMPANY
STRT.M        330                            : top_depth    - START DEPTH
STOP.M        540                            : bot_depth    - STOP DEPTH
STEP.M        0.25                           : increment    - STEP LENGTH
 NULL. -999.2500:NULL Value
~CURVE INFORMATION BLOCK
#MNEM UNIT       ERCB CURVE CODE    CURVE DESCRIPTION
#-----------   ------------------   ----------------------------------
DEPT.M        00 001 00 00         : DEPTH        - DEPTH
ILD .OHMM     00 120 00 00         : RESD         - DEEP RESISTIVITY (DIL)
DPHI.V/V      00 890 00 00         : PHID         - DENSITY POROSITY (LIMESTONE)
NPHI.V/V      00 330 00 00         : PHIN         - NEUTRON POROSITY (LIMESTONE)
GR  .API      00 310 00 00         : GR           - GAMMA RAY
CALI.MM       00 280 01 00         : CAL          - CALIPER
~PARAMETER INFORMATION
#MNEM.UNIT           DATA             DESCRIPTION OF MNEMONIC
#---------         -----------     ------------------------------
GL  .M        607.4                : gl           - GROUND LEVEL ELEVATION
EREF.M        610.8                : kb           - ELEVATION OF DEPTH REFERENCE
DATM.M        610.8                : datum        - DATUM ELEVATION
TDD .M        545                  : tdd          - TOTAL DEPTH DRILLER
RUN .         ONE                  : Run          - RUN NUMBER
ENG .         BILL                 : Engineer     - RECORDING ENGINEER
WIT .         JIM                  : Witness      - WITNESSED BY
MUD .         GEL                  : Mud_type     - MUD TYPE
MATR.         LIMESTONE            : Logunit      - NEUTRON MATRIX
TMAX.C        28                   : BHT          - MAXIMUM RECORDED TEMPERATURE
BHTD.M        544.7                : BHTDEP       - MAXIMUM RECORDED TEMPERATURE
MATR.         1                    : LOGUNIT      - NEUTRON MATRIX
RMT .C        25                   : MDTP         - TEMPERATURE OF MUD
NEUT.         1                    : NEUTRON      - NEUTRON TYPE
RESI.         0                    : RESIST       - RESISTIVITY TYPE
RMC .OHMM     0.25                 : RMC          - RESISTIVITY OF MUD CAKE
RMF .OHMM     0.25                 : RMF          - RESISTIVITY OF MUD FILTRATE
SUFT.C        15                   : SUFT         - SURFACE TEMPERATURE
~A  DEPTH     RESD     PHID     PHIN       GR      CAL
# ...
  476.000    2.200    0.208    0.463  110.378  157.332
  476.250    2.263    0.200    0.455  111.362  155.506
  476.500    2.360    0.197    0.461  106.163  155.002
  476.750    2.438    0.168    0.468  101.025  155.520
  477.000    2.547    0.126    0.475   96.071  157.875
  477.250    2.666    0.147    0.472   94.300  158.596
  477.500    2.822    0.217    0.464   96.631  158.400
  477.750    2.937    0.218    0.450   97.432  157.490
  478.000    3.016    0.209    0.434   97.131  156.682
  478.250    3.098    0.206    0.412   96.523  156.078
  478.500    3.230    0.202    0.446   93.834  155.780
  478.750    3.293    0.195    0.454   94.451  156.196
  479.000    3.337    0.166    0.319   86.680  158.756
  479.250    3.614    0.081    0.279   67.461  160.498
  479.500    4.119    0.092    0.273   72.242  160.199
  479.750    4.623    0.145    0.367   82.226  158.268
  480.000    4.913    0.213    0.406   92.577  156.440
  480.250    4.859    0.242    0.409   95.031  155.530
  480.500    4.505    0.240    0.415   96.444  155.232
  480.750    3.816    0.230    0.409   97.612  155.546
  481.000    3.485    0.210    0.400   98.965  156.370
  481.250    3.513    0.180    0.391   99.887  158.418
  481.500    3.581    0.191    0.383  100.811  160.161
  481.750    3.609    0.188    0.407  101.978  160.884
  482.000    3.616    0.169    0.449  103.881  160.892
  482.250    3.583    0.103    0.446   97.396  160.901
  482.500    3.399    0.077    0.398   96.176  161.622
  482.750    3.018    0.104    0.411  100.405  163.570
  483.000    2.825    0.129    0.434  104.512  164.699
  483.250    2.721    0.156    0.450  107.395  165.320
  483.500    2.651    0.189    0.466  108.195  162.980
  483.750    2.597    0.188    0.475  109.669  160.644
  484.000    2.568    0.175    0.478  114.450  160.650
  484.250    2.593    0.198    0.458  116.903  160.658
  484.500    2.643    0.213    0.442  107.419  160.464
  484.750    2.766    0.200    0.420  100.383  160.470
  485.000    2.912    0.167    0.403   95.796  160.684
  485.250    3.036    0.144    0.460  100.821  160.384
  485.500    3.101    0.160    0.481  107.744  159.984
  485.750    2.970    0.193    0.476  114.361  158.971
  486.000    2.702    0.207    0.463  118.774  158.979
  486.250    2.492    0.204    0.495  114.555  159.395
  486.500    2.497    0.197    0.525  109.600  160.424
  486.750    2.565    0.162    0.501  102.992  161.249
  487.000    2.619    0.136    0.459  104.651  162.787
  487.250    2.670    0.138    0.461  108.267  164.734
  487.500    2.696    0.166    0.467  112.375  167.190
  487.750    2.712    0.184    0.451  113.236  168.933
  488.000    2.707    0.183    0.443  111.955  167.716
  488.250    2.688    0.167    0.430  110.001  165.378
  488.500    2.698    0.153    0.421  106.945  163.753
  488.750    2.745    0.141    0.443  110.256  162.232
  489.000    2.809    0.167    0.473  115.954  161.422
  489.250    2.929    0.189    0.477  121.775  160.512
  489.500    3.154    0.209    0.360  114.739  159.806
  489.750    3.448    0.201    0.328   98.765  158.693
  490.000    3.762    0.181    0.312   84.688  157.985
  490.250    4.112    0.147    0.302   79.122  157.177
  490.500    4.370    0.116    0.326   87.147  156.572
  490.750    4.472    0.088    0.358   99.579  156.376
  491.000    4.490    0.160    0.380   96.524  156.590
  491.250    4.449    0.167    0.403   91.814  157.719
  491.500    4.366    0.175    0.378   86.125  159.055
  491.750    4.197    0.189    0.357  106.578  160.388
  492.000    3.899    0.193    0.401  112.461  161.416
  492.250    3.900    0.183    0.425  114.058  162.344
  492.500    4.029    0.167    0.411  114.001  162.350
  492.750    4.330    0.152    0.384  100.598  162.359
  493.000    4.805    0.126    0.316   81.746  162.163
  493.250    5.435    0.077    0.285   76.485  161.354
  493.500    5.819    0.111    0.288   86.286  159.934
  493.750    6.011    0.151    0.330   93.944  158.309
  494.000    5.933    0.183    0.371   99.643  156.583
  494.250    5.502    0.209    0.398   97.199  155.264
  494.500    5.035    0.228    0.380   85.448  154.149
  494.750    4.868    0.245    0.343   71.433  153.341
  495.000    5.352    0.269    0.323   57.662  152.737
  495.250    5.862    0.275    0.314   32.871  152.949
  495.500    6.396    0.276    0.323   37.407  153.469
  495.750    6.861    0.283    0.328   41.024  153.782
  496.000    7.222    0.287    0.326   32.396  154.198
  496.250    7.279    0.294    0.309   26.217  154.207
  496.500    6.611    0.285    0.294   22.304  154.112
  496.750    4.669    0.274    0.285   31.247  153.712
  497.000    3.779    0.252    0.293   67.007  153.108
  497.250    3.545    0.223    0.317   82.684  152.709
  497.500    3.620    0.151    0.312   90.954  152.308
  497.750    3.760    0.120    0.310  101.490  152.315
  498.000    3.988    0.103    0.332  106.943  152.631
  498.250    4.214    0.169    0.341   83.317  152.740
  498.500    4.529    0.163    0.334   70.035  152.850
  498.750    4.713    0.168    0.326   60.550  153.163
  499.000    4.626    0.213    0.320   51.495  153.478
  499.250    4.226    0.280    0.318   48.805  152.670
  499.500    3.745    0.271    0.316   54.259  151.863
  499.750    3.376    0.251    0.309   60.386  151.562
  500.000    3.078    0.233    0.298   67.309  150.659
  500.250    3.061    0.215    0.291   73.926  153.824
  500.500    3.372    0.198    0.293   79.257  153.526
  500.750    3.679    0.181    0.303   84.467  153.229
  501.000    4.099    0.191    0.310   87.348  153.235
  501.250    4.532    0.195    0.314   89.863  153.550
  501.500    4.889    0.185    0.318   87.113  153.252
  501.750    5.012    0.167    0.307   79.465  153.566
  502.000    5.013    0.148    0.298   75.123  154.288
  502.250    4.948    0.140    0.307   82.352  155.521
  502.500    4.921    0.150    0.317   88.663  156.956
  502.750    5.026    0.155    0.316   94.362  159.108
  503.000    5.241    0.150    0.318  101.040  160.648
  503.250    5.495    0.142    0.321  107.289  161.266
  503.500    5.709    0.153    0.323  102.029  162.091
  503.750    5.667    0.181    0.324   87.646  161.079
  504.000    5.489    0.199    0.314   78.039  157.007
  504.250    5.317    0.187    0.301   73.819  155.483
  504.500    5.218    0.168    0.309   77.375  153.451
  504.750    5.093    0.146    0.302   79.522  151.825
  505.000    5.027    0.129    0.303   77.385  150.404
  505.250    5.056    0.111    0.318   79.593  149.494
  505.500    5.174    0.198    0.325   84.129  150.012
  505.750    5.324    0.199    0.320   87.439  151.245
  506.000    5.530    0.167    0.313   91.486  152.580
  506.250    5.767    0.137    0.322   94.857  153.914
  506.500    5.990    0.123    0.331  100.495  155.555
  506.750    5.880    0.096    0.347  110.908  156.788
  507.000    5.588    0.074    0.368  121.871  156.795
  507.250    5.321    0.149    0.397  126.774  156.599
  507.500    5.086    0.182    0.424  115.085  156.300
  507.750    5.049    0.193    0.380  101.560  154.778
  508.000    5.108    0.201    0.345   89.687  153.051
  508.250    5.286    0.208    0.320   82.835  151.223
  508.500    5.470    0.218    0.336   78.921  150.721
  508.750    5.503    0.247    0.353   78.498  150.933
  509.000    5.422    0.230    0.347   82.054  151.453
  509.250    5.351    0.210    0.339   87.936  152.071
  509.500    5.262    0.190    0.331   95.226  152.795
  509.750    5.165    0.166    0.320  103.373  153.619
  510.000    5.185    0.149    0.319  108.583  154.443
  510.250    5.336    0.148    0.327  108.159  155.268
  510.500    5.575    0.149    0.322  109.878  155.886
  510.750    5.714    0.148    0.326  112.209  157.119
  511.000    5.814    0.146    0.327  115.704  158.250
  511.250    5.674    0.178    0.318   81.852  155.808
  511.500    5.322    0.201    0.307   73.959  150.613
  511.750    4.852    0.215    0.293   65.269  148.478
  512.000    4.517    0.209    0.280   56.642  146.955
  512.250    4.509    0.158    0.281   57.075  148.086
