~VERSION INFORMATION
 VERS.                 2.0:   CWLS LOG ASCII STANDARD -VERSION 2.0
 WRAP.                  NO:   ONE LINE PER DEPTH STEP
~WELL INFORMATION BLOCK
#MNEM.UNIT           DATA                    DESCRIPTION OF MNEMONIC
#---------    -------------------            -------------------------------
# Generated from Intellog Unique Number	CW_70_72/WELL/927
NULL.         -999.25                        : NULL_VALUE
WELL.         LANDBANK ET AL MITSUE 07-29    : Well_name    - WELL              
LOC .         07-29-071-02W5                 : Location     - LOCATION          
UWI .         00/07-29-071-02W5/0            : Uwi          - UNIQUE WELL ID    
ENTR.         JAYE                           : Entered      - ENTERED BY        
SRVC.         SCHLUMBERGER                   : Scn          - SERVICE COMPANY   
DATE.         25 FEB 83                      : Date         - LOG DATE          
STRT.M        400                            : top_depth    - START DEPTH       
STOP.M        630                            : bot_depth    - STOP DEPTH        
STEP.M        0.25                           : increment    - STEP LENGTH       
~CURVE INFORMATION BLOCK
#MNEM UNIT       ERCB CURVE CODE    CURVE DESCRIPTION
#-----------   ------------------   ----------------------------------
DEPT.M        00 001 00 00         : DEPTH        - DEPTH                       
DPHI.V/V      00 890 00 00         : PHID         - DENSITY POROSITY (SANDSTONE)
NPHI.V/V      00 330 00 00         : PHIN         - NEUTRON POROSITY (SANDSTONE)
GR  .API      00 310 00 00         : GR           - GAMMA RAY                   
CALI.MM       00 280 01 00         : CAL          - CALIPER                     
ILD .OHMM     00 120 00 00         : RESD         - DEEP RESISTIVITY (DIL)      
~PARAMETER INFORMATION       
#MNEM.UNIT           DATA             DESCRIPTION OF MNEMONIC
#---------         -----------     ------------------------------
GL  .M        592.56               : gl           - GROUND LEVEL ELEVATION      
EREF.M        596.21               : kb           - ELEVATION OF DEPTH REFERENCE
DATM.M        592.56               : datum        - DATUM ELEVATION             
TDD .M        649                  : tdd          - TOTAL DEPTH DRILLER         
RUN .         ONE                  : Run          - RUN NUMBER                  
ENG .         WRIGHT               : Engineer     - RECORDING ENGINEER          
WIT .         SMITH                : Witness      - WITNESSED BY                
BASE.         EDM                  : Branch       - HOME BASE OF LOGGING UNIT   
MUD .         GEL CHEM             : Mud_type     - MUD TYPE                    
MATR.         SANDSTONE            : Logunit      - NEUTRON MATRIX              
TMAX.C        35.6                 : BHT          - MAXIMUM RECORDED TEMPERATURE
BHTD.M        650                  : BHTDEP       - MAXIMUM RECORDED TEMPERATURE
RMT .C        15.6                 : MDTP         - TEMPERATURE OF MUD          
MUDD.KG/M     1200                 : MWT          - MUD DENSITY                 
NEUT.         1                    : NEUTRON      - NEUTRON TYPE                
RESI.         0                    : RESIST       - RESISTIVITY TYPE            
RM  .OHMM     6.49                 : RM           - RESISTIVITY OF MUD          
RMC .OHMM     0                    : RMC          - RESISTIVITY OF MUD CAKE     
RMF .OHMM     5.45                 : RMF          - RESISTIVITY OF MUD FILTRATE 
SUFT.C        0                    : SUFT         - SURFACE TEMPERATURE         
~A  DEPTH     PHID     PHIN       GR      CAL     RESD
# ...
  582.500    0.048    0.286  105.657  167.686    7.368
  582.750    0.078    0.300  112.165  168.741    6.651
  583.000    0.104    0.331  119.231  170.621    5.762
  583.250    0.125    0.360  119.493  170.334    4.233
  583.500    0.137    0.380  104.723  167.883    3.302
  583.750    0.154    0.422   96.325  172.447    2.571
  584.000    0.203    0.475   97.083  175.870    2.086
  584.250    0.255    0.527   98.272  177.337    1.804
  584.500    0.251    0.542   97.481  177.464    1.675
  584.750    0.241    0.529   98.609  175.634    1.705
  585.000    0.213    0.499  103.388  172.873    1.811
  585.250    0.201    0.482  108.968  169.804    1.942
  585.500    0.196    0.464  111.705  166.219    2.087
  585.750    0.191    0.458  109.120  165.935    2.242
  586.000    0.179    0.489   99.856  166.577    2.395
  586.250    0.162    0.509   91.395  167.221    2.662
  586.500    0.127    0.426   85.349  167.348    3.129
  586.750    0.056    0.340   88.888  167.265    3.833
  587.000   -0.000    0.324   96.696  167.084    4.801
  587.250    0.012    0.338  101.287  167.006    5.560
  587.500    0.057    0.329  100.562  167.029    6.378
  587.750    0.088    0.341  101.626  167.055    6.370
  588.000    0.110    0.388  105.228  166.765    6.037
  588.250    0.119    0.364  108.274  166.689    6.019
  588.500    0.117    0.342  107.236  166.402    6.383
  588.750    0.112    0.335  105.023  166.015    7.080
  589.000    0.098    0.331  100.645  165.317    7.550
  589.250    0.041    0.290   88.289  165.235    7.655
  589.500    0.010    0.259   93.312  165.982    7.517
  589.750    0.013    0.329  103.100  168.791    7.301
  590.000    0.066    0.364  105.343  173.658    7.116
  590.250    0.113    0.381   94.346  172.343    7.041
  590.500    0.063    0.293   79.637  168.550    6.941
  590.750    0.017    0.259   85.777  167.336    6.653
  591.000    0.024    0.281   97.357  168.805    6.365
  591.250    0.053    0.347  110.796  171.818    5.756
  591.500    0.115    0.393  114.026  173.594    5.355
  591.750    0.111    0.379  110.391  170.421    5.439
  592.000    0.094    0.368  104.467  168.590    5.855
  592.250    0.076    0.358   96.687  168.617    6.494
  592.500    0.074    0.339   92.372  168.433    7.122
  592.750    0.070    0.318   91.581  168.250    7.539
  593.000    0.082    0.313   94.998  168.070    7.788
  593.250    0.089    0.324   95.877  167.988    7.837
  593.500    0.073    0.324   97.315  168.014    7.711
  593.750    0.022    0.307   99.370  167.932    7.503
  594.000    0.052    0.330  101.921  167.958    7.031
  594.250    0.095    0.352  102.677  167.155    7.142
  594.500    0.216    0.313   87.846  163.366    7.996
  594.750    0.252    0.255   52.230  160.913   11.166
  595.000    0.281    0.174   41.914  159.701   13.780
  595.250    0.317    0.156   36.980  159.932   17.165
  595.500    0.337    0.141   34.027  160.371   23.702
  595.750    0.338    0.160   32.493  160.703   30.824
  596.000    0.335    0.166   31.827  160.519   36.985
  596.250    0.341    0.172   32.399  160.235   37.218
  596.500    0.348    0.184   33.094  159.739   31.409
  596.750    0.336    0.214   33.666  158.427   27.159
  597.000    0.319    0.228   34.236  156.905   22.922
  597.250    0.296    0.251   35.487  156.205   20.421
  597.500    0.284    0.269   36.984  157.158   17.759
  597.750    0.273    0.289   38.174  158.419   15.385
  598.000    0.265    0.310   38.065  158.954   13.580
  598.250    0.264    0.318   37.214  159.703   12.259
  598.500    0.265    0.312   36.486  159.936   11.297
  598.750    0.265    0.307   36.439  160.058   10.084
  599.000    0.263    0.316   37.566  159.981    8.607
  599.250    0.255    0.322   38.569  159.285    7.400
  599.500    0.250    0.323   38.955  158.687    5.982
  599.750    0.256    0.330   38.969  156.544    4.992
  600.000    0.252    0.332   39.107  153.887    4.150
  600.250    0.244    0.323   40.544  156.801    3.602
  600.500    0.240    0.329   42.785  159.297    3.326
  600.750    0.248    0.332   44.903  161.175    3.117
  601.000    0.248    0.329   47.391  162.030    2.965
  601.250    0.243    0.327   46.663  162.052    2.934
  601.500    0.239    0.325   45.749  162.077    2.947
  601.750    0.242    0.324   46.322  161.789    2.999
  602.000    0.238    0.330   47.263  161.811    3.080
  602.250    0.227    0.341   48.205  161.737    3.218
  602.500    0.232    0.338   49.272  161.756    3.318
  602.750    0.231    0.327   50.893  161.262    3.421
  603.000    0.226    0.319   54.124  160.667    3.554
  603.250    0.219    0.319   58.159  159.974    3.658
  603.500    0.214    0.319   55.266  159.483    3.786
  603.750    0.197    0.312   53.920  159.093    3.910
  604.000    0.199    0.308   55.975  159.015    4.070
  604.250    0.212    0.311   58.837  158.626    4.134
  604.500    0.220    0.316   60.334  157.931    4.168
  604.750    0.208    0.321   61.400  157.331    4.194
  605.000    0.194    0.324   63.333  156.738    4.260
  605.250    0.196    0.335   64.955  156.762    4.368
  605.500    0.203    0.342   66.514  157.817    4.462
  605.750    0.206    0.328   69.499  159.487    4.618
  606.000    0.199    0.315   72.298  160.751    4.744
  606.250    0.187    0.309   73.795  161.391    4.855
  606.500    0.178    0.308   73.130  161.519    4.949
  606.750    0.173    0.310   69.123  161.543    5.009
  607.000    0.167    0.311   68.643  161.568    5.049
  607.250    0.175    0.314   69.214  161.384    5.129
  607.500    0.178    0.319   70.278  161.303    5.249
  607.750    0.167    0.319   71.593  161.636    5.412
  608.000    0.146    0.314   72.783  162.692    5.697
  608.250    0.126    0.299   73.973  164.158    6.121
  608.500    0.107    0.287   76.338  165.319    6.539
  608.750    0.145    0.315   81.237  163.588    6.857
  609.000    0.163    0.351   86.448  161.858    6.978
  609.250    0.154    0.369   60.791  160.644    7.049
  609.500    0.165    0.324   52.887  160.978    7.200
  609.750    0.188    0.276   44.488  161.724    7.564
  610.000    0.152    0.245   40.915  162.678    8.188
  610.250    0.133    0.211   41.240  163.627    8.797
  610.500    0.106    0.189   43.233  165.299    9.453
  610.750    0.076    0.162   44.299  164.812    8.629
  611.000    0.125    0.198   41.405  162.667    7.002
  611.250    0.193    0.255   39.380  161.148    5.639
  611.500    0.233    0.295   38.715  160.756    4.776
  611.750    0.237    0.310   39.468  160.473    3.904
  612.000    0.238    0.320   44.618  160.184    3.408
  612.250    0.243    0.335   47.910  160.212    3.273
  612.500    0.249    0.334   52.936  160.854    3.299
  612.750    0.255    0.351   56.847  161.599    3.447
  613.000    0.251    0.365   57.850  162.138    3.521
  613.250    0.247    0.336   52.977  162.160    3.536
  613.500    0.242    0.325   50.519  161.565    3.559
  613.750    0.238    0.319   51.090  158.702    3.581
  614.000    0.230    0.314   52.340  152.851    3.610
  614.250    0.219    0.311   54.211  153.905    3.667
  614.500    0.203    0.297   51.565  161.352    3.739
  614.750    0.202    0.306   52.632  163.745    3.848
  615.000    0.208    0.307   58.397  164.492    3.945
  615.250    0.202    0.300   66.330  163.589    4.068
  615.500    0.187    0.304   76.364  162.994    4.306
  615.750    0.173    0.323   79.596  162.604    4.643
  616.000    0.159    0.341   82.517  163.041    5.572
  616.250    0.136    0.336   74.120  163.889    7.045
  616.500    0.095    0.156   48.215  164.945    9.248
  616.750    0.056    0.116   27.753  165.483   14.076
  617.000    0.009    0.091   22.945  166.023   17.403
  617.250   -0.026    0.090   24.504  166.563   20.883
  617.500   -0.031    0.216   41.158  166.585   21.693
  617.750    0.004    0.288   53.915  166.200   17.801
  618.000    0.030    0.468   74.899  165.912   14.579
  618.250    0.043    0.449   72.687  165.523   11.763
  618.500    0.042    0.323   63.484  165.134   11.086
  618.750    0.044    0.213   54.591  165.570   11.517
