~VERSION INFORMATION
 VERS.                 2.0:   CWLS LOG ASCII STANDARD -VERSION 2.0
 WRAP.                  NO:   ONE LINE PER DEPTH STEP
~WELL INFORMATION BLOCK
#MNEM.UNIT           DATA                    DESCRIPTION OF MNEMONIC
#---------    -------------------            -------------------------------
# Generated from Intellog Unique Number	CS_73_76/WELL/623
WELL.         PEX PHILLIPS AEC WIAU          : Well_name    - WELL
LOC .         00/06-10-073-07W4/0            : Location     - LOCATION
UWI .         00/06-10-073-07W4/0            : Uwi          - UNIQUE WELL ID
ENTR.         SP                             : Entered      - ENTERED BY
SRVC.         SCHLUMBERGER                   : Scn          - SERVICE COMPANY
STRT.M        350                            : top_depth    - START DEPTH
STOP.M        575                            : bot_depth    - STOP DEPTH
STEP.M        0.25                           : increment    - STEP LENGTH
 NULL. -999.2500:NULL Value
~CURVE INFORMATION BLOCK
#MNEM UNIT       ERCB CURVE CODE    CURVE DESCRIPTION
#-----------   ------------------   ----------------------------------
DEPT.M        00 001 00 00         : DEPTH        - DEPTH
ILD .OHMM     00 120 00 00         : RESD         - DEEP RESISTIVITY (DIL)
DPHI.V/V      00 890 00 00         : PHID         - DENSITY POROSITY (LIMESTONE)
NPHI.V/V      00 330 00 00         : PHIN         - NEUTRON POROSITY (LIMESTONE)
GR  .API      00 310 00 00         : GR           - GAMMA RAY
~PARAMETER INFORMATION
#MNEM.UNIT           DATA             DESCRIPTION OF MNEMONIC
#---------         -----------     ------------------------------
GL  .M        728.6                : gl           - GROUND LEVEL ELEVATION
EREF.M        733                  : kb           - ELEVATION OF DEPTH REFERENCE
DATM.M        728.6                : datum        - DATUM ELEVATION
TDD .M        581                  : tdd          - TOTAL DEPTH DRILLER
RUN .         ONE                  : Run          - RUN NUMBER
ENG .         BILL                 : Engineer     - RECORDING ENGINEER
WIT .         JIM                  : Witness      - WITNESSED BY
MUD .         GEL                  : Mud_type     - MUD TYPE
MATR.         LIMESTONE            : Logunit      - NEUTRON MATRIX
TMAX.C        14                   : BHT          - MAXIMUM RECORDED TEMPERATURE
BHTD.M        581                  : BHTDEP       - MAXIMUM RECORDED TEMPERATURE
MATR.         1                    : LOGUNIT      - NEUTRON MATRIX
RMT .C        25                   : MDTP         - TEMPERATURE OF MUD
NEUT.         1                    : NEUTRON      - NEUTRON TYPE
RESI.         0                    : RESIST       - RESISTIVITY TYPE
RMC .OHMM     0.25                 : RMC          - RESISTIVITY OF MUD CAKE
RMF .OHMM     0.25                 : RMF          - RESISTIVITY OF MUD FILTRATE
SUFT.C        15                   : SUFT         - SURFACE TEMPERATURE
~A  DEPTH     RESD     PHID     PHIN       GR
# ...
  393.500   17.529    0.252    0.393   57.314
  393.750   17.855    0.267    0.407   54.934
  394.000   17.852    0.288    0.405   54.343
  394.250   17.851    0.296    0.405   53.760
  394.500   17.521    0.304    0.410   53.773
  394.750   17.197    0.306    0.418   53.788
  395.000   16.264    0.303    0.425   56.218
  395.250   15.964    0.293    0.420   58.644
  395.500   15.098    0.285    0.408   57.464
  395.750   14.018    0.283    0.401   56.873
  396.000   13.508    0.280    0.401   57.493
  396.250   12.085    0.270    0.405   64.742
  396.500   11.430    0.254    0.408   73.798
  396.750   11.013    0.227    0.412   79.235
  397.000   10.417    0.219    0.415   82.870
  397.250   10.415    0.222    0.431   81.683
  397.500   11.637    0.227    0.445   81.098
  397.750   11.853    0.232    0.459   75.092
  398.000   11.005    0.249    0.454   68.478
  398.250    9.846    0.269    0.438   68.500
  398.500    8.648    0.290    0.431   73.937
  398.750    8.333    0.297    0.432   81.185
  399.000    7.594    0.258    0.433   88.430
  399.250    7.051    0.226    0.437   93.871
  399.500    7.050    0.210    0.449   95.699
  399.750    6.919    0.222    0.473   96.322
  400.000    6.918    0.222    0.484   93.326
  400.250    7.047    0.212    0.480   90.326
  400.500    7.178    0.221    0.479   86.137
  400.750    7.587    0.223    0.479   85.547
  401.000    8.019    0.220    0.483   86.768
  401.250    8.796    0.232    0.487   87.391
  401.500    9.297    0.231    0.489   88.011
  401.750   10.197    0.231    0.499   86.822
  402.000   10.581    0.242    0.506   84.434
  402.250   11.184    0.245    0.506   82.641
  402.500   11.604    0.258    0.476   82.054
  402.750   11.819    0.269    0.455   83.277
  403.000   11.817    0.277    0.455   83.295
  403.250   11.599    0.265    0.463   81.508
  403.500   11.385    0.264    0.440   79.712
  403.750   12.258    0.255    0.419   76.120
  404.000   13.953    0.253    0.418   71.921
  404.250   15.882    0.264    0.436   67.718
  404.500   17.745    0.258    0.446   59.912
  404.750   19.107    0.248    0.456   57.511
  405.000   19.826    0.183    0.377   52.110
  405.250   19.459    0.089    0.329   47.306
  405.500   16.469    0.080    0.315   44.914
  405.750   13.682    0.203    0.371   50.960
  406.000   12.018    0.247    0.402   55.799
  406.250   10.555    0.266    0.449   59.425
  406.500    9.444    0.280    0.448   69.687
  406.750    8.142    0.257    0.450   76.931
  407.000    7.019    0.227    0.463   83.576
  407.250    6.639    0.211    0.480   81.791
  407.500    6.051    0.198    0.491   81.211
  407.750    5.831    0.213    0.501   84.840
  408.000    5.830    0.235    0.509   89.071
  408.250    6.514    0.255    0.515   91.499
  408.500    7.414    0.243    0.519   90.310
  408.750    8.439    0.235    0.504   85.508
  409.000    9.606    0.251    0.483   78.899
  409.250    9.967    0.262    0.463   71.691
  409.500   10.535    0.269    0.451   71.105
  409.750   10.931    0.264    0.450   71.732
  410.000   11.553    0.257    0.452   72.347
  410.250   11.768    0.266    0.452   71.761
  410.500   11.986    0.274    0.453   71.175
  410.750   12.208    0.290    0.470   66.377
  411.000   12.207    0.277    0.486   62.181
  411.250   11.981    0.293    0.492   60.985
  411.500   11.759    0.307    0.455   57.994
  411.750   11.542    0.319    0.459   56.208
  412.000   11.328    0.299    0.475   56.218
  412.250   11.119    0.294    0.488   57.449
  412.500   10.914    0.313    0.481   58.061
  412.750   10.515    0.324    0.450   61.094
  413.000   10.321    0.313    0.446   65.341
  413.250   10.319    0.294    0.438   66.558
  413.500   10.129    0.282    0.444   67.169
  413.750   10.316    0.273    0.453   67.188
  414.000   10.508    0.255    0.457   69.623
  414.250   11.106    0.278    0.461   69.632
  414.500   11.312    0.294    0.442   69.653
  414.750   11.523    0.273    0.435   66.660
  415.000   11.736    0.269    0.422   64.871
  415.250   11.734    0.280    0.419   64.891
  415.500   11.733    0.290    0.430   64.914
  415.750   11.516    0.301    0.436   64.925
  416.000   11.095    0.302    0.437   66.148
  416.250   10.495    0.296    0.445   69.172
  416.500   10.111    0.293    0.452   75.218
  416.750   10.491    0.268    0.460   77.040
  417.000   11.089    0.245    0.467   66.216
  417.250   11.940    0.225    0.473   54.787
  417.500   13.097    0.250    0.481   49.982
  417.750   14.101    0.292    0.471   48.795
  418.000   14.363    0.316    0.468   49.425
  418.250   14.360    0.335    0.448   48.834
  418.500   14.095    0.336    0.439   48.251
  418.750   13.835    0.329    0.440   49.468
  419.000   13.579    0.346    0.442   50.692
  419.250   13.083    0.351    0.446   50.711
  419.500   12.842    0.335    0.454   49.526
  419.750   12.604    0.331    0.458   47.145
  420.000   12.143    0.345    0.462   47.158
  420.250   11.919    0.342    0.467   47.164
  420.500   11.484    0.347    0.470   49.598
  420.750   11.272    0.349    0.476   49.610
  421.000   11.271    0.345    0.459   49.635
  421.250   11.269    0.336    0.473   50.252
  421.500   11.477    0.342    0.479   50.868
  421.750   11.909    0.335    0.478   47.881
  422.000   11.907    0.337    0.470   46.692
  422.250   11.905    0.341    0.465   46.105
  422.500   11.904    0.336    0.478   49.142
  422.750   11.903    0.344    0.462   49.752
  423.000   11.682    0.339    0.438   50.374
  423.250   11.256    0.333    0.435   49.791
  423.500   10.845    0.328    0.439   49.205
  423.750   10.069    0.321    0.442   49.833
  424.000    9.524    0.315    0.434   51.057
  424.250    8.521    0.343    0.440   52.280
  424.500    7.911    0.348    0.455   54.099
  424.750    7.483    0.348    0.461   57.734
  425.000    7.482    0.349    0.492   61.360
  425.250    7.908    0.309    0.513   64.993
  425.500    8.359    0.288    0.493   66.215
  425.750    9.168    0.287    0.481   59.614
  426.000    9.513    0.300    0.476   56.611
  426.250   10.054    0.308    0.474   49.405
  426.500   10.241    0.294    0.467   44.001
  426.750   10.239    0.292    0.423   39.802
  427.000   10.238    0.298    0.409   39.212
  427.250   10.237    0.303    0.393   41.039
  427.500   10.236    0.310    0.394   42.259
  427.750   10.046    0.324    0.395   42.285
  428.000    9.680    0.329    0.406   41.692
  428.250    9.501    0.335    0.427   39.901
  428.500    9.325    0.342    0.440   40.523
  428.750    9.152    0.345    0.448   41.757
  429.000    9.151    0.351    0.458   42.378
  429.250    9.149    0.357    0.463   42.996
  429.500    8.981    0.364    0.464   43.010
  429.750    8.979    0.370    0.470   43.021
  430.000    8.978    0.375    0.476   44.247
  430.250    8.976    0.371    0.478   46.678
  430.500    8.975    0.366    0.494   47.291
  430.750    8.809    0.364    0.489   47.316
  431.000    8.808    0.359    0.444   47.328
  431.250    8.807    0.355    0.432   49.157
  431.500    8.806    0.356    0.436   50.380
  431.750    8.804    0.356    0.450   51.003
  432.000    8.803    0.345    0.456   49.814
  432.250    8.802    0.344    0.444   48.627
  432.500    8.801    0.336    0.437   48.035
  432.750    8.799    0.332    0.431   46.864
  433.000    8.798    0.338    0.425   45.664
  433.250    8.797    0.344    0.416   45.688
  433.500    8.960    0.349    0.433   46.305
  433.750    8.959    0.345    0.444   46.317
  434.000    8.957    0.337    0.448   46.938
  434.250    8.956    0.338    0.433   45.764
  434.500    9.122    0.350    0.437   45.776
  434.750    9.121    0.338    0.449   45.186
  435.000    9.119    0.358    0.447   44.604
  435.250    9.288    0.361    0.463   44.022
  435.500    9.287    0.355    0.477   44.034
  435.750    9.286    0.355    0.467   44.058
  436.000    9.285    0.358    0.458   44.669
  436.250    9.457    0.362    0.457   45.290
  436.500    9.455    0.368    0.492   45.914
  436.750    9.454    0.377    0.509   45.939
