~VERSION INFORMATION
 VERS.                 2.0:   CWLS LOG ASCII STANDARD -VERSION 2.0
 WRAP.                  NO:   ONE LINE PER DEPTH STEP
~WELL INFORMATION BLOCK
#MNEM.UNIT           DATA                    DESCRIPTION OF MNEMONIC
#---------    -------------------            -------------------------------
# Generated from Intellog Unique Number	CS_73_76/WELL/1092
WELL.         BOW VALLLEY INDUSTRIES         : Well_name    - WELL
LOC .         00/02-07-076-13W4/0            : Location     - LOCATION
UWI .         00/02-07-076-13W4/0            : Uwi          - UNIQUE WELL ID
ENTR.         T                              : Entered      - ENTERED BY
SRVC.         SCHLUMBERGER                   : Scn          - SERVICE COMPANY
STRT.M        335                            : top_depth    - START DEPTH
STOP.M        565                            : bot_depth    - STOP DEPTH
STEP.M        0.25                           : increment    - STEP LENGTH
 NULL. -999.2500:NULL Value
~CURVE INFORMATION BLOCK
#MNEM UNIT       ERCB CURVE CODE    CURVE DESCRIPTION
#-----------   ------------------   ----------------------------------
DEPT.M        00 001 00 00         : DEPTH        - DEPTH
GR  .API      00 310 00 00         : GR           - GAMMA RAY
NPHI.V/V      00 330 00 00         : PHIN         - NEUTRON POROSITY (SANDSTONE)
DPHI.V/V      00 890 00 00         : PHID         - DENSITY POROSITY (SANDSTONE)
ILD .OHMM     00 120 00 00         : RESD         - DEEP RESISTIVITY (DIL)
~PARAMETER INFORMATION
#MNEM.UNIT           DATA             DESCRIPTION OF MNEMONIC
#---------         -----------     ------------------------------
GL  .M        709.6                : gl           - GROUND LEVEL ELEVATION
EREF.M        712.3                : kb           - ELEVATION OF DEPTH REFERENCE
DATM.M        712.3                : datum        - DATUM ELEVATION
TDD .M        572                  : tdd          - TOTAL DEPTH DRILLER
RUN .         ONE                  : Run          - RUN NUMBER
ENG .         BILL                 : Engineer     - RECORDING ENGINEER
WIT .         JIM                  : Witness      - WITNESSED BY
MUD .         GEL                  : Mud_type     - MUD TYPE
MATR.         SANDSTONE            : Logunit      - NEUTRON MATRIX
TMAX.C        24                   : BHT          - MAXIMUM RECORDED TEMPERATURE
BHTD.M        572                  : BHTDEP       - MAXIMUM RECORDED TEMPERATURE
MATR.         1                    : LOGUNIT      - NEUTRON MATRIX
RMT .C        25                   : MDTP         - TEMPERATURE OF MUD
NEUT.         1                    : NEUTRON      - NEUTRON TYPE
RESI.         0                    : RESIST       - RESISTIVITY TYPE
RMC .OHMM     0.25                 : RMC          - RESISTIVITY OF MUD CAKE
RMF .OHMM     0.25                 : RMF          - RESISTIVITY OF MUD FILTRATE
SUFT.C        15                   : SUFT         - SURFACE TEMPERATURE
~A  DEPTH       GR     PHIN     PHID     RESD
# ...
  509.000   84.499    0.449    0.157    5.899
  509.250   87.651    0.437    0.144    5.898
  509.500   87.132    0.426    0.153    6.008
  509.750   86.574    0.412    0.160    6.121
  510.000   86.688    0.417    0.165    6.235
  510.250   87.361    0.424    0.158    6.351
  510.500   88.667    0.430    0.150    6.470
  510.750   90.608    0.431    0.139    6.715
  511.000   91.280    0.432    0.141    6.970
  511.250   89.511    0.437    0.147    7.370
  511.500   86.550    0.439    0.143    7.649
  511.750   85.358    0.438    0.132    8.088
  512.000   83.589    0.432    0.117    8.394
  512.250   83.069    0.425    0.141    8.551
  512.500   82.511    0.420    0.148    8.710
  512.750   82.588    0.425    0.159    8.874
  513.000   83.279    0.431    0.166    8.873
  513.250   89.545    0.441    0.163    8.871
  513.500   87.142    0.438    0.156    8.545
  513.750   82.297    0.429    0.133    8.230
  514.000   78.702    0.417    0.128    7.496
  514.250   81.873    0.402    0.124    7.087
  514.500   85.006    0.386    0.127    7.086
  514.750   84.467    0.394    0.136    7.634
  515.000   81.449    0.416    0.146    8.224
  515.250   81.563    0.420    0.148    9.027
  515.500   82.832    0.421    0.147   10.285
  515.750   86.637    0.418    0.148   11.081
  516.000   87.924    0.447    0.155   11.938
  516.250   83.695    0.451    0.166   11.936
  516.500   78.216    0.458    0.186   10.871
  516.750   76.447    0.460    0.210    9.538
  517.000   82.079    0.430    0.222    8.851
  517.250   95.072    0.424    0.229    8.061
  517.500  103.164    0.411    0.212    7.765
  517.750  106.970    0.415    0.194    8.365
  518.000  108.257    0.435    0.169    9.012
  518.250  109.583    0.436    0.161   10.268
  518.500  109.640    0.439    0.161   12.606
  518.750  108.505    0.442    0.163   15.477
  519.000  106.736    0.443    0.165   17.965
  519.250  103.122    0.443    0.169   17.305
  519.500   99.469    0.443    0.164   16.669
  519.750   88.474    0.440    0.187   15.467
  520.000   83.014    0.435    0.197   15.465
  520.250   80.015    0.431    0.206   16.051
  520.500   79.476    0.424    0.187   16.973
  520.750   82.647    0.414    0.173   17.616
  521.000   85.780    0.407    0.194   17.613
  521.250   85.856    0.407    0.199   17.942
  521.500   82.261    0.406    0.205   18.276
  521.750   79.261    0.404    0.206   18.619
  522.000   76.262    0.398    0.191   19.324
  522.250   74.474    0.390    0.183   20.055
  522.500   70.860    0.383    0.186   20.815
  522.750   68.476    0.374    0.196   22.008
  523.000   65.495    0.374    0.210   22.421
  523.250   67.417    0.375    0.204   23.707
  523.500   69.320    0.370    0.173   24.152
  523.750   70.626    0.371    0.165   26.018
  524.000   68.876    0.373    0.184   26.506
  524.250   67.088    0.377    0.208   28.028
  524.500   64.108    0.374    0.222   29.090
  524.750   61.109    0.360    0.267   29.633
  525.000   59.974    0.329    0.297   29.629
  525.250   60.012    0.311    0.322   29.623
  525.500   61.338    0.300    0.334   29.619
  525.750   62.048    0.290    0.354   31.319
  526.000   60.298    0.273    0.339   32.506
  526.250   59.126    0.258    0.259   33.113
  526.500   58.568    0.249    0.237   34.366
  526.750   58.048    0.259    0.247   35.011
  527.000   58.105    0.302    0.263   37.021
  527.250   60.661    0.375    0.269   39.146
  527.500   63.217    0.389    0.263   41.394
  527.750   63.870    0.409    0.258   43.771
  528.000   60.871    0.427    0.260   42.955
  528.250   56.046    0.431    0.264   39.859
  528.500   54.277    0.426    0.264   36.986
  528.750   54.968    0.418    0.262   33.687
  529.000   56.294    0.415    0.263   29.011
  529.250   58.831    0.415    0.265   23.622
  529.500   61.386    0.412    0.264   20.343
  529.750   63.289    0.409    0.262   17.849
  530.000   65.211    0.402    0.258   15.087
  530.250   67.132    0.396    0.252   13.238
  530.500   69.054    0.390    0.246   11.833
  530.750   71.629    0.385    0.237   10.382
  531.000   72.917    0.384    0.229    9.634
  531.250   73.608    0.388    0.230    9.280
  531.500   74.281    0.393    0.226    9.107
  531.750   74.357    0.416    0.212    8.937
  532.000   73.241    0.404    0.202    8.936
  532.250   72.664    0.385    0.197    9.103
  532.500   72.798    0.384    0.193    9.102
  532.750   72.855    0.386    0.191    9.272
  533.000   73.566    0.388    0.188    9.445
  533.250   74.834    0.386    0.182    9.803
  533.500   77.390    0.379    0.181   10.174
  533.750   79.927    0.369    0.179   10.172
  534.000   80.022    0.371    0.178   10.170
  534.250   79.445    0.379    0.177   10.556
  534.500   77.715    0.388    0.179   11.162
  534.750   75.926    0.397    0.187   12.482
  535.000   69.832    0.405    0.195   13.448
  535.250   63.758    0.407    0.203   14.760
  535.500   57.683    0.402    0.215   15.609
  535.750   59.604    0.388    0.219   16.815
  536.000   63.371    0.377    0.220   18.115
  536.250   64.678    0.374    0.208   18.455
  536.500   62.313    0.380    0.204   19.515
  536.750   59.314    0.386    0.210   19.151
  537.000   57.526    0.395    0.217   17.442
  537.250   57.006    0.397    0.238   15.592
  537.500   57.697    0.393    0.244   13.938
  537.750   59.638    0.362    0.213   12.229
  538.000   61.560    0.354    0.157   11.138
  538.250   64.712    0.339    0.143   10.530
  538.500   66.615    0.344    0.125   10.334
  538.750   71.016    0.370    0.205   10.725
  539.000   76.628    0.381    0.211   11.341
  539.250   80.414    0.390    0.176   11.340
  539.500   76.781    0.398    0.204   10.720
  539.750   70.706    0.401    0.224    9.763
  540.000   65.861    0.401    0.232    9.231
  540.250   69.629    0.402    0.223    8.891
  540.500   72.799    0.403    0.209    8.564
  540.750   71.011    0.409    0.204    8.096
  541.000   68.031    0.418    0.211    7.946
  541.250   66.877    0.413    0.205    7.797
  541.500   65.127    0.402    0.181    7.796
  541.750   64.550    0.392    0.173    7.795
  542.000   62.782    0.379    0.162    7.794
  542.250   63.473    0.332    0.203    7.793
  542.500   72.795    0.375    0.215    7.647
  542.750   74.121    0.381    0.224    7.505
  543.000   73.563    0.395    0.232    7.365
  543.250   72.409    0.405    0.240    7.228
  543.500   70.640    0.410    0.245    7.227
  543.750   68.909    0.406    0.247    7.226
  544.000   68.351    0.404    0.247    7.225
  544.250   67.832    0.399    0.244    7.224
  544.500   67.889    0.397    0.241    7.089
  544.750   67.965    0.397    0.237    6.828
  545.000   69.291    0.392    0.233    6.701
  545.250   70.001    0.387    0.227    6.576
  545.500   70.059    0.383    0.221    6.102
  545.750   69.501    0.392    0.212    5.877
  546.000   67.155    0.407    0.209    5.661
  546.250   65.963    0.410    0.220    5.453
  546.500   63.579    0.403    0.236    5.253
  546.750   60.599    0.406    0.251    4.874
  547.000   56.965    0.418    0.262    4.608
  547.250   52.140    0.421    0.271    4.356
  547.500   49.717    0.416    0.278    3.894
  547.750   45.526    0.405    0.278    3.893
  548.000   44.353    0.392    0.276    3.966
  548.250   41.969    0.389    0.275    4.040
  548.500   43.891    0.390    0.270    4.116
  548.750   50.118    0.391    0.262    4.272
  549.000   52.674    0.392    0.255    4.517
  549.250   52.731    0.393    0.246    4.602
  549.500   51.596    0.392    0.246    4.516
  549.750   49.827    0.392    0.250    4.269
  550.000   47.462    0.392    0.254    4.036
  550.250   46.270    0.394    0.260    3.745
  550.500   44.501    0.396    0.263    3.541
  550.750   42.136    0.398    0.262    3.540
  551.000   40.982    0.398    0.262    3.606
  551.250   42.308    0.398    0.273    3.813
  551.500   45.460    0.398    0.300    3.885
  551.750   47.997    0.398    0.278    3.957
  552.000   51.745    0.399    0.269    4.031
  552.250   54.916    0.396    0.259    3.956
