~VERSION INFORMATION
 VERS.                 2.0:   CWLS LOG ASCII STANDARD -VERSION 2.0
 WRAP.                  NO:   ONE LINE PER DEPTH STEP
~WELL INFORMATION BLOCK
#MNEM.UNIT           DATA                    DESCRIPTION OF MNEMONIC
#---------    -------------------            -------------------------------
# Generated from Intellog Unique Number	CS_73_76/WELL/1999
WELL.         HOME OIL COMPANY LIMITED       : Well_name    - WELL
LOC .         00/06-36-075-06W4/0            : Location     - LOCATION
UWI .         00/06-36-075-06W4/0            : Uwi          - UNIQUE WELL ID
ENTR.         SP                             : Entered      - ENTERED BY
SRVC.         SCHLUMBERGER                   : Scn          - SERVICE COMPANY
STRT.M        195                            : top_depth    - START DEPTH
STOP.M        425                            : bot_depth    - STOP DEPTH
STEP.M        0.25                           : increment    - STEP LENGTH
 NULL. -999.2500:NULL Value
~CURVE INFORMATION BLOCK
#MNEM UNIT       ERCB CURVE CODE    CURVE DESCRIPTION
#-----------   ------------------   ----------------------------------
DEPT.M        00 001 00 00         : DEPTH        - DEPTH
ILD .OHMM     00 120 00 00         : RESD         - DEEP RESISTIVITY (DIL)
DPHI.V/V      00 890 00 00         : PHID         - DENSITY POROSITY (LIMESTONE)
NPHI.V/V      00 330 00 00         : PHIN         - NEUTRON POROSITY (LIMESTONE)
GR  .API      00 310 00 00         : GR           - GAMMA RAY
~PARAMETER INFORMATION
#MNEM.UNIT           DATA             DESCRIPTION OF MNEMONIC
#---------         -----------     ------------------------------
GL  .M        608.8                : gl           - GROUND LEVEL ELEVATION
EREF.M        612.3                : kb           - ELEVATION OF DEPTH REFERENCE
DATM.M        608.8                : datum        - DATUM ELEVATION
TDD .M        440                  : tdd          - TOTAL DEPTH DRILLER
RUN .         ONE                  : Run          - RUN NUMBER
ENG .         BILL                 : Engineer     - RECORDING ENGINEER
WIT .         JIM                  : Witness      - WITNESSED BY
MUD .         GEL                  : Mud_type     - MUD TYPE
MATR.         LIMESTONE            : Logunit      - NEUTRON MATRIX
TMAX.C        18                   : BHT          - MAXIMUM RECORDED TEMPERATURE
BHTD.M        440                  : BHTDEP       - MAXIMUM RECORDED TEMPERATURE
MATR.         1                    : LOGUNIT      - NEUTRON MATRIX
RMT .C        25                   : MDTP         - TEMPERATURE OF MUD
NEUT.         1                    : NEUTRON      - NEUTRON TYPE
RESI.         0                    : RESIST       - RESISTIVITY TYPE
RMC .OHMM     0.25                 : RMC          - RESISTIVITY OF MUD CAKE
RMF .OHMM     0.25                 : RMF          - RESISTIVITY OF MUD FILTRATE
SUFT.C        15                   : SUFT         - SURFACE TEMPERATURE
~A  DEPTH     RESD     PHID     PHIN       GR
# ...
  369.000   14.313    0.182    0.349   86.472
  369.250   13.047    0.028    0.327   81.053
  369.500   12.116    0.004    0.291   85.874
  369.750   11.045    0.037    0.287   93.707
  370.000    9.884    0.162    0.330   95.517
  370.250    9.351    0.212    0.368   89.495
  370.500    8.846    0.241    0.373   96.726
  370.750    8.524    0.217    0.368  106.969
  371.000    8.064    0.194    0.388  111.791
  371.250    8.215    0.172    0.395  108.782
  371.500    9.353    0.162    0.402  105.168
  371.750   13.546    0.171    0.373  101.556
  372.000   17.556    0.181    0.355   97.945
  372.250   21.129    0.186    0.342   96.741
  372.500   24.504    0.241    0.295   88.310
  372.750   30.604    0.281    0.223   78.673
  373.000   33.575    0.325    0.204   72.651
  373.250   34.843    0.344    0.217   76.268
  373.500   34.205    0.337    0.226   82.295
  373.750   30.048    0.328    0.238   84.706
  374.000   27.904    0.311    0.238   84.708
  374.250   26.397    0.297    0.232   85.314
  374.500   26.891    0.305    0.242   86.520
  374.750   28.961    0.269    0.234   82.306
  375.000   31.189    0.301    0.205   78.693
  375.250   32.972    0.320    0.191   75.081
  375.500   34.218    0.334    0.219   82.313
  375.750   36.175    0.317    0.230   84.724
  376.000   37.541    0.309    0.237   84.726
  376.250   38.244    0.320    0.248   79.910
  376.500   39.690    0.333    0.244   76.899
  376.750   40.433    0.346    0.231   80.517
  377.000   41.190    0.349    0.229   81.723
  377.250   39.695    0.339    0.238   82.328
  377.500   36.863    0.349    0.250   82.330
  377.750   35.523    0.353    0.261   82.935
  378.000   33.605    0.345    0.273   84.141
  378.250   31.791    0.324    0.283   88.360
  378.500   31.209    0.279    0.274   93.182
  378.750   31.210    0.270    0.306   90.775
  379.000   31.211    0.287    0.339   83.548
  379.250   31.796    0.294    0.367   82.345
  379.500   31.798    0.289    0.377   83.552
  379.750   30.643    0.301    0.384   82.349
  380.000   29.529    0.303    0.396   85.966
  380.250   26.920    0.282    0.374   95.006
  380.500   25.466    0.253    0.355   99.826
  380.750   24.091    0.242    0.360  105.852
  381.000   23.216    0.229    0.367   99.228
  381.250   22.791    0.255    0.379   96.821
  381.500   22.792    0.280    0.373   98.630
  381.750   23.219    0.261    0.360   94.416
  382.000   24.096    0.254    0.372   90.803
  382.250   26.436    0.272    0.381   87.191
  382.500   26.931    0.290    0.393   83.579
  382.750   27.948    0.295    0.390   82.376
  383.000   29.546    0.288    0.396   81.173
  383.250   30.099    0.282    0.386   79.369
  383.500   32.416    0.267    0.384   78.165
  383.750   33.640    0.266    0.393   68.529
  384.000   34.911    0.286    0.403   63.712
  384.250   35.565    0.300    0.399   65.522
  384.500   34.274    0.291    0.397   69.138
  384.750   33.029    0.300    0.410   67.333
  385.000   30.672    0.302    0.405   71.552
  385.250   29.015    0.298    0.379   84.808
  385.500   27.961    0.282    0.363   92.038
  385.750   28.486    0.266    0.391   89.029
  386.000   29.562    0.278    0.398   81.802
  386.250   31.252    0.294    0.399   77.588
  386.500   31.838    0.301    0.404   77.590
  386.750   32.434    0.294    0.405   76.989
  387.000   31.841    0.295    0.390   80.004
  387.250   30.121    0.296    0.385   89.043
  387.500   25.030    0.279    0.383   94.466
  387.750   20.800    0.259    0.366  102.300
  388.000   19.315    0.250    0.355  109.531
  388.250   18.272    0.231    0.358  115.557
  388.500   18.273    0.203    0.366  117.367
  388.750   20.422    0.218    0.392  116.164
  389.000   21.993    0.254    0.384  109.540
  389.250   24.128    0.258    0.379  104.121
  389.500   25.985    0.260    0.390  100.508
  389.750   27.470    0.271    0.401   92.679
  390.000   29.583    0.292    0.396   87.259
  390.250   31.859    0.300    0.391   82.442
  390.500   34.952    0.289    0.387   77.625
  390.750   36.950    0.285    0.382   72.808
  391.000   41.295    0.292    0.387   70.400
  391.250   42.855    0.295    0.391   74.017
  391.500   47.015    0.295    0.394   77.032
  391.750   49.703    0.292    0.381   78.841
  392.000   51.581    0.290    0.382   83.663
  392.250   52.547    0.291    0.392   85.472
  392.500   51.586    0.302    0.394   87.281
  392.750   47.905    0.310    0.400   88.488
  393.000   44.486    0.314    0.405   92.105
  393.250   39.809    0.298    0.381   99.336
  393.500   36.968    0.280    0.372  113.797
  393.750   33.083    0.261    0.361  118.015
  394.000   33.084    0.267    0.376  118.017
  394.250   32.478    0.273    0.384  114.405
  394.500   31.883    0.269    0.392  110.793
  394.750   31.885    0.272    0.388  102.362
  395.000   31.301    0.290    0.380  112.002
  395.250   30.165    0.290    0.373  116.824
  395.500   29.069    0.285    0.375  107.790
  395.750   26.995    0.303    0.380  101.165
  396.000   24.157    0.295    0.361  122.854
  396.250   22.434    0.259    0.368  138.519
  396.500   21.619    0.249    0.374  145.148
  396.750   21.223    0.236    0.378  142.139
  397.000   20.834    0.249    0.368  148.767
  397.250   22.025    0.255    0.367  162.023
  397.500   26.021    0.271    0.386  156.000
  397.750   33.106    0.296    0.402  136.725
  398.000   43.709    0.319    0.409  105.402
  398.250   50.691    0.323    0.396   78.898
  398.500   54.591    0.323    0.388   90.346
  398.750   53.592    0.310    0.392  120.469
  399.000   44.535    0.296    0.381  135.531
  399.250   42.129    0.293    0.394  137.943
  399.500   40.599    0.292    0.397  122.885
  399.750   40.601    0.289    0.398  104.212
  400.000   40.214    0.313    0.375   80.450
  400.250   40.218    0.304    0.372   76.836
  400.500   40.975    0.296    0.371   76.847
  400.750   44.951    0.306    0.384   78.066
  401.000   46.648    0.311    0.393   82.311
  401.250   49.314    0.323    0.388   89.582
  401.500   45.812    0.311    0.384   98.063
  401.750   42.558    0.306    0.383  107.753
  402.000   41.023    0.307    0.401  115.627
  402.250   41.027    0.305    0.414   94.469
  402.500   41.799    0.324    0.412   79.359
  402.750   43.381    0.324    0.408   67.877
  403.000   44.197    0.316    0.399   73.336
  403.250   42.603    0.307    0.402   81.210
  403.500   39.574    0.305    0.392  104.207
  403.750   37.448    0.300    0.379  115.105
  404.000   34.788    0.305    0.397  112.701
  404.250   35.446    0.304    0.382  120.577
  404.500   37.469    0.303    0.377  126.030
  404.750   45.083    0.315    0.400  116.363
  405.000   50.374    0.318    0.418   78.267
  405.250   54.242    0.328    0.431   48.642
  405.500   62.892    0.345    0.424   40.790
  405.750   67.728    0.345    0.414   38.383
  406.000   61.764    0.341    0.403   39.605
  406.250   46.826    0.338    0.393   44.456
  406.500   34.852    0.321    0.384   52.939
  406.750   28.448    0.293    0.373   56.578
  407.000   24.544    0.270    0.409   60.821
  407.250   26.925    0.268    0.490   65.671
  407.500   28.463    0.297    0.476   47.540
  407.750   34.244    0.335    0.451   35.453
  408.000   43.544    0.355    0.434   37.286
  408.250   55.376    0.347    0.421   39.112
  408.500   58.538    0.340    0.405   39.724
  408.750   59.645    0.331    0.394   36.714
  409.000   58.564    0.339    0.393   31.885
  409.250   56.446    0.356    0.395   30.687
  409.500   52.435    0.364    0.401   32.519
  409.750   47.819    0.369    0.429   33.129
  410.000   46.092    0.362    0.444   30.726
  410.250   46.102    0.347    0.424   28.920
  410.500   46.975    0.350    0.415   27.117
  410.750   47.858    0.350    0.419   25.317
  411.000   48.756    0.355    0.419   25.325
  411.250   49.671    0.350    0.425   27.153
  411.500   49.681    0.344    0.434   35.026
  411.750   47.887    0.357    0.430   45.928
  412.000   47.020    0.358    0.428   55.615
  412.250   46.169    0.325    0.386   72.568
