~VERSION INFORMATION
 VERS.                 2.0:   CWLS LOG ASCII STANDARD -VERSION 2.0
 WRAP.                  NO:   ONE LINE PER DEPTH STEP
~WELL INFORMATION BLOCK
#MNEM.UNIT           DATA                    DESCRIPTION OF MNEMONIC
#---------    -------------------            -------------------------------
# Generated from Intellog Unique Number	CW_76_78/WELL/2797
WELL.         SCURRY ATKINSON MCMULLEN 07-13 : Well_name    - WELL
LOC .         00/07-13-078-26W4/0            : Location     - LOCATION
UWI .         00/07-13-078-26W4/0            : Uwi          - UNIQUE WELL ID
ENTR.         JJ                             : Entered      - ENTERED BY
SRVC.         WESTERN ATLAS                  : Scn          - SERVICE COMPANY
DATE.         7 FEB 73                       : Date         - LOG DATE
STRT.M        374.904                        : top_depth    - START DEPTH
STOP.M        502.904                        : bot_depth    - STOP DEPTH
STEP.M        0.25                           : increment    - STEP LENGTH
 NULL. -999.2500:NULL Value
~CURVE INFORMATION BLOCK
#MNEM UNIT       ERCB CURVE CODE    CURVE DESCRIPTION
#-----------   ------------------   ----------------------------------
DEPT.M        00 001 00 00         : DEPTH        - DEPTH
ILD .OHMM     00 120 00 00         : RESD         - DEEP RESISTIVITY (DIL)
GR  .API      00 310 00 00         : GR           - GAMMA RAY
DELT.US/F     00 520 00 00         : DELT         - SONIC TRAVEL TIME
CALI.MM       00 280 01 00         : CAL          - CALIPER
~PARAMETER INFORMATION
#MNEM.UNIT           DATA             DESCRIPTION OF MNEMONIC
#---------         -----------     ------------------------------
GL  .M        591.16               : gl           - GROUND LEVEL ELEVATION
EREF.M        594.482              : kb           - ELEVATION OF DEPTH REFERENCE
DATM.M        591.16               : datum        - DATUM ELEVATION
TDD .M        502.92               : tdd          - TOTAL DEPTH DRILLER
RUN .         ONE                  : Run          - RUN NUMBER
ENG .         CLARK                : Engineer     - RECORDING ENGINEER
WIT .         GALLOWAY             : Witness      - WITNESSED BY
BASE.         V.V.                 : Branch       - HOME BASE OF LOGGING UNIT
MUD .         MUD/GEL              : Mud_type     - MUD TYPE
MATR.         SANDSTONE            : Logunit      - NEUTRON MATRIX
TMAX.C        25                   : BHT          - MAXIMUM RECORDED TEMPERATURE
BHTD.M        501.396              : BHTDEP       - MAXIMUM RECORDED TEMPERATURE
RMT .C        16.6667              : MDTP         - TEMPERATURE OF MUD
MUDD.KG/M     1140                 : MWT          - MUD DENSITY
NEUT.         1                    : NEUTRON      - NEUTRON TYPE
RESI.         0                    : RESIST       - RESISTIVITY TYPE
RM  .OHMM     8.5                  : RM           - RESISTIVITY OF MUD
RMC .OHMM     9.7                  : RMC          - RESISTIVITY OF MUD CAKE
RMF .OHMM     6.5                  : RMF          - RESISTIVITY OF MUD FILTRATE
SUFT.C        5                    : SUFT         - SURFACE TEMPERATURE
~A  DEPTH     RESD       GR     DELT      CAL
  374.904    8.586   90.785  378.084  181.437
  375.154    8.624   92.577  384.233  180.483
  375.404    8.585   87.827  391.312  178.608
  375.654    8.382   88.339  391.942  176.948
  375.904    8.115   91.295  393.464  175.687
  376.154    7.954   94.618  399.177  174.733
  376.404    8.156   91.763  402.837  174.991
  376.654    8.288   91.359  398.337  176.053
  376.904    8.368   93.031  397.246  177.619
  377.154    8.304   94.396  396.468  178.274
  377.404    8.081   91.176  392.898  180.558
  377.654    8.060   90.766  389.825  179.397
  377.904    8.057   92.501  389.261  176.919
  378.154    8.060   92.400  391.806  185.549
  378.404    8.071   92.421  397.352  189.152
  378.654    7.992   95.929  397.487  189.203
  378.904    7.930   97.232  394.200  189.051
  379.154    7.910   95.237  393.981  188.601
  379.404    7.873   99.601  397.639  187.843
  379.654    7.932  102.922  400.175  187.195
  379.904    8.004  101.965  404.499  185.427
  380.154    8.101   99.112  398.238  180.531
  380.404    8.292   96.501  389.530  176.043
  380.654    8.375   93.343  386.344  173.571
  380.904    8.426   91.037  391.426  174.128
  381.154    8.397   89.283  394.453  179.432
  381.404    8.392   89.182  392.899  185.143
  381.654    8.387   90.059  390.792  188.823
  381.904    8.450   91.304  390.276  187.868
  382.154    8.725   92.303  387.722  184.695
  382.404    9.387   92.691  385.204  180.000
  382.654    9.997   88.798  382.160  173.689
  382.904   11.007   85.149  377.009  169.601
  383.154   12.400   82.294  368.913  174.196
  383.404   13.027   79.806  338.195  177.685
  383.654   12.241   77.993  306.213  180.262
  383.904   11.423   76.728  325.003  181.227
  384.154   10.293   77.299  373.018  181.982
  384.404    9.152   79.644  392.809  178.909
  384.654    8.796   85.903  395.716  174.210
  384.904    9.127   86.965  385.092  174.165
  385.154    9.046   85.884  382.315  179.873
  385.404    8.459   86.274  394.338  183.963
  385.654    7.888   88.195  388.854  185.941
  385.904    8.130   92.371  385.631  187.308
  386.154    8.869   93.926  391.270  187.958
  386.404    9.697   94.371  392.999  187.314
  386.654   10.534   97.388  381.733  181.910
  386.904   11.639   93.314  376.808  176.610
  387.154   12.931   88.990  379.949  181.598
  387.404   13.438   83.075  375.434  182.372
  387.654   13.226   80.222  376.465  180.301
  387.904   13.203   79.018  381.639  177.530
  388.154   13.620   78.062  374.491  179.498
  388.404   14.143   77.651  374.132  182.280
  388.654   14.672   77.918  370.726  178.394
  388.904   15.233   80.141  356.689  177.340
  389.154   15.992   79.611  362.657  182.936
  389.404   16.251   76.389  370.693  184.812
  389.654   15.997   73.779  378.380  185.475
  389.904   16.329   72.821  380.810  182.897
  390.154   15.691   76.453  378.374  178.807
  390.404   14.338   78.185  378.629  177.040
  390.654   12.801   77.227  381.505  177.705
  390.904   11.761   80.856  385.125  179.279
  391.154   10.717   82.104  376.298  179.430
  391.404   10.285   82.981  368.698  179.586
  391.654   10.661   84.898  363.748  183.071
  391.904   11.530   86.813  364.615  183.632
  392.154   12.915   89.528  368.921  178.223
  392.404   15.011   93.338  363.852  176.358
  392.654   17.368   93.727  316.124  177.221
  392.904   19.467   86.715  294.583  177.275
  393.154   20.578   80.556  272.517  182.577
  393.404   19.263   76.356  261.681  179.297
  393.654   16.503   76.009  313.963  177.435
  393.904   14.266   78.354  359.065  179.000
  394.154   13.045   80.823  366.576  180.978
  394.404   12.304   83.170  362.809  181.837
  394.654   12.304   86.004  351.525  180.778
  394.904   12.104   86.757  340.526  183.863
  395.154   11.675   85.187  334.030  184.519
  395.404   11.829   83.678  343.667  184.463
  395.654   12.812   84.253  358.926  184.427
  395.904   14.393   86.840  341.846  183.566
  396.154   16.090   89.923  275.310  182.505
  396.404   17.294   88.900  241.233  180.546
  396.654   15.915   80.723  236.042  178.875
  396.904   13.796   81.662  303.363  183.380
  397.154   11.645   86.027  361.288  186.158
  397.404   10.108   89.841  377.499  182.368
  397.654    9.570   92.920  378.042  179.699
  397.904    9.656   96.365  382.089  178.132
  398.154   10.075   96.696  379.535  183.540
  398.404   10.293   95.553  376.751  183.495
  398.654   10.338   95.083  377.883  177.286
  398.904   10.281   97.489  376.757  181.380
  399.154   10.114  100.878  375.827  185.977
  399.404    9.967  101.139  375.178  179.462
  399.654    9.732   98.407  376.767  182.244
  399.904    9.554   98.734  384.407  184.103
  400.154    9.348   99.735  388.153  183.056
  400.404    9.243  101.651  383.157  183.819
  400.654    9.282  103.384  382.646  184.982
  400.904    9.541  102.489  386.479  185.639
  401.154   10.055  100.307  388.870  185.998
  401.404   10.707   98.492  379.409  177.965
  401.654   11.279   95.281  316.474  175.789
  401.904   11.673   96.331  307.561  175.952
  402.154   11.525   95.496  346.574  177.321
  402.404   10.898   85.608  386.229  179.591
  402.654   10.177   83.975  386.860  179.547
  402.904    9.627   89.869  382.238  182.025
  403.154    9.928   95.947  376.249  184.196
  403.404   10.329   96.028  377.470  183.543
  403.654   10.314   92.562  378.239  182.587
  403.904   10.176   89.464  379.099  181.833
  404.154   10.011   88.935  381.641  182.392
  404.404    9.999   89.627  383.626  178.097
  404.654   10.030   91.852  384.600  176.027
  404.904   10.144   93.034  381.879  175.276
  405.154   10.352   93.055  379.741  176.035
  405.404   10.795   91.121  380.158  176.798
  405.654   11.567   89.180  377.167  175.130
  405.904   12.874   86.754  372.671  173.166
  406.154   13.775   83.350  362.199  172.200
  406.404   14.343   79.821  329.008  176.200
  406.654   14.403   77.028  319.895  172.414
  406.904   14.563   77.295  344.565  171.356
  407.154   15.196   79.705  365.001  169.994
  407.404   16.354   80.825  341.687  168.729
  407.654   19.180   80.662  300.386  168.682
  407.904   22.642   78.418  289.448  169.750
  408.154   25.099   74.096  284.738  172.529
  408.404   26.017   71.363  289.304  174.202
  408.654   24.318   72.669  298.520  176.679
  408.904   22.058   74.158  308.697  177.636
  409.154   19.453   76.136  320.514  177.489
  409.404   17.073   78.485  336.186  178.252
  409.654   15.063   80.951  355.382  179.215
  409.904   13.707   83.539  352.444  177.243
  410.154   13.547   86.987  347.512  173.663
  410.404   13.525   89.454  355.443  175.332
  410.654   13.427   90.513  349.135  176.700
  410.904   13.206   90.904  341.682  172.001
  411.154   13.298   89.822  346.105  169.422
  411.404   13.670   88.252  354.224  172.207
  411.654   14.768   85.764  345.407  176.200
  411.904   15.374   83.399  284.145  176.857
  412.154   15.103   84.521  241.129  175.700
  412.404   14.665   84.175  278.981  175.957
  412.654   13.682   78.080  339.007  177.119
  412.904   12.445   79.628  349.922  178.793
  413.154   11.649   87.297  347.283  180.656
  413.404   11.757   90.436  348.663  179.799
  413.654   12.142   89.114  348.865  178.642
  413.904   12.493   89.254  344.700  177.187
  414.154   12.758   88.359  342.261  176.324
  414.404   13.012   88.195  339.955  175.060
  414.654   13.231   92.562  339.146  174.617
  414.904   13.375   92.580  339.462  174.152
  415.154   13.493   92.173  337.284  174.822
  415.404   13.655   93.112  337.550  175.483
  415.654   13.796   91.115  332.599  175.530
  415.904   13.893   90.216  326.546  175.682
  416.154   14.107   89.813  324.734  177.460
  416.404   13.845   89.649  351.736  181.044
  416.654   13.142   89.729  368.469  178.879
  416.904   12.594   89.933  374.799  179.531
  417.154   12.415   89.222  376.283  180.703
  417.404   12.364   89.732  371.057  180.251
  417.654   11.914   91.954  363.103  178.683
  417.904   11.070   94.788  374.639  177.829
  418.154   10.198   90.529  380.050  178.086
