~VERSION INFORMATION
 VERS.                 2.0:   CWLS LOG ASCII STANDARD -VERSION 2.0
 WRAP.                  NO:   ONE LINE PER DEPTH STEP
~WELL INFORMATION BLOCK
#MNEM.UNIT           DATA                    DESCRIPTION OF MNEMONIC
#---------    -------------------            -------------------------------
# Generated from Intellog Unique Number	CN_91_93/WELL/2999
WELL.         PARAMOUNT RESOURCES LTD.       : Well_name    - WELL
LOC .         00/07-36-093-19W4/0            : Location     - LOCATION
UWI .         00/07-36-093-19W4/0            : Uwi          - UNIQUE WELL ID
ENTR.         JOETTE                         : Entered      - ENTERED BY
SRVC.         COMPUTALOG                     : Scn          - SERVICE COMPANY
DATE.         04/07/92                       : Date         - LOG DATE
STRT.M        110                            : top_depth    - START DEPTH
STOP.M        241                            : bot_depth    - STOP DEPTH
STEP.M        0.25                           : increment    - STEP LENGTH
 NULL. -999.2500:NULL Value
~CURVE INFORMATION BLOCK
#MNEM UNIT       ERCB CURVE CODE    CURVE DESCRIPTION
#-----------   ------------------   ----------------------------------
DEPT.M        00 001 00 00         : DEPTH        - DEPTH
CALI.MM       00 280 01 00         : CAL          - CALIPER
GR  .API      00 310 00 00         : GR           - GAMMA RAY
NPHI.V/V      00 330 00 00         : PHIN         - NEUTRON POROSITY (SANDSTONE)
DPHI.V/V      00 890 00 00         : PHID         - DENSITY POROSITY (SANDSTONE)
ILD .OHMM     00 120 00 00         : RESD         - DEEP RESISTIVITY (DIL)
~PARAMETER INFORMATION
#MNEM.UNIT           DATA             DESCRIPTION OF MNEMONIC
#---------         -----------     ------------------------------
GL  .M        521.1                : gl           - GROUND LEVEL ELEVATION
EREF.M        524.6                : kb           - ELEVATION OF DEPTH REFERENCE
DATM.M        524.6                : datum        - DATUM ELEVATION
TDD .M        240.8                : tdd          - TOTAL DEPTH DRILLER
RUN .         ONE                  : Run          - RUN NUMBER
ENG .         JO                   : Engineer     - RECORDING ENGINEER
WIT .         TIM                  : Witness      - WITNESSED BY
MUD .         GEL                  : Mud_type     - MUD TYPE
MATR.         SANDSTONE            : Logunit      - NEUTRON MATRIX
TMAX.C        25                   : BHT          - MAXIMUM RECORDED TEMPERATURE
BHTD.M        240.8                : BHTDEP       - MAXIMUM RECORDED TEMPERATURE
RMT .C        15.5                 : MDTP         - TEMPERATURE OF MUD
MUDD.KG/M     1110                 : MWT          - MUD DENSITY
NEUT.         1                    : NEUTRON      - NEUTRON TYPE
RESI.         0                    : RESIST       - RESISTIVITY TYPE
RM  .OHMM     3                    : RM           - RESISTIVITY OF MUD
RMC .OHMM     3                    : RMC          - RESISTIVITY OF MUD CAKE
RMF .OHMM     3                    : RMF          - RESISTIVITY OF MUD FILTRATE
SUFT.C        4                    : SUFT         - SURFACE TEMPERATURE
~A  DEPTH      CAL       GR     PHIN     PHID     RESD
  110.000  158.358   90.349    0.443    0.262    4.837
  110.250  160.410   93.345    0.469    0.256    4.715
  110.500  167.364   92.505    0.489    0.263    4.719
  110.750  172.827   93.141    0.507    0.262    4.858
  111.000  175.869   97.608    0.532    0.258    5.140
  111.250  176.420   94.715    0.512    0.253    5.337
  111.500  177.501   87.709    0.477    0.248    5.594
  111.750  177.091   86.281    0.471    0.231    5.808
  112.000  175.201   86.923    0.460    0.237    6.202
  112.250  164.005   89.619    0.463    0.249    6.326
  112.500  156.721   91.720    0.454    0.251    6.451
  112.750  168.588   92.957    0.439    0.251    6.579
  113.000  165.237   91.235    0.427    0.252    6.649
  113.250  165.798   88.930    0.430    0.249    6.595
  113.500  169.320   90.160    0.443    0.238    6.665
  113.750  171.872   89.326    0.443    0.233    6.861
  114.000  171.442   86.433    0.432    0.242    6.941
  114.250  165.159   86.475    0.438    0.250    7.072
  114.500  158.876   90.066    0.453    0.253    7.209
  114.750  160.908   93.344    0.464    0.247    7.154
  115.000  165.390   94.568    0.467    0.241    6.908
  115.250  168.913   93.446    0.461    0.239    6.668
  115.500  172.925   94.083    0.440    0.241    6.438
  115.750  174.477   96.190    0.435    0.241    6.395
  116.000  167.193   96.244    0.429    0.242    6.340
  116.250  173.657   98.346    0.429    0.239    6.350
  116.500  175.229   98.694    0.445    0.235    6.358
  116.750  174.308   95.519    0.458    0.236    6.365
  117.000  173.899   95.267    0.459    0.238    6.374
  117.250  173.979   95.027    0.432    0.231    6.384
  117.500  172.098   92.122    0.432    0.224    6.451
  117.750  165.805   86.287    0.438    0.218    6.345
  118.000  160.013   93.983    0.449    0.222    6.125
  118.250  160.583   98.456    0.456    0.234    5.859
  118.500  162.615   99.693    0.465    0.245    5.708
  118.750  165.667   99.429    0.465    0.253    5.413
  119.000  168.689   98.006    0.439    0.268    5.321
  119.250  164.827   97.178    0.435    0.252    5.327
  119.500  158.545   96.932    0.440    0.251    5.794
  119.750  160.096   95.510    0.435    0.251    6.071
  120.000  166.059   92.028    0.426    0.247    6.307
  120.250  172.523   92.365    0.423    0.242    6.314
  120.500  175.535   90.078    0.432    0.242    6.264
  120.750  174.645   83.354    0.434    0.243    6.391
  121.000  173.255   80.155    0.430    0.227    6.636
  121.250  171.374   77.261    0.436    0.174    6.645
  121.500  167.043   90.259    0.469    0.128    5.298
  121.750  164.672  102.968    0.503    0.199    4.930
  122.000  168.684  107.141    0.485    0.236    4.266
  122.250  169.745  105.424    0.481    0.255    3.936
  122.500  162.472  103.425    0.486    0.249    3.942
  122.750  160.091  104.044    0.489    0.233    4.056
  123.000  161.152  107.039    0.476    0.228    4.056
  123.250  168.106  108.264    0.482    0.226    4.259
  123.500  172.139  106.254    0.490    0.231    4.462
  123.750  171.709  102.778    0.496    0.235    4.634
  124.000  171.779  101.349    0.484    0.237    4.813
  124.250  172.380   99.645    0.462    0.236    4.914
  124.500  172.441  100.858    0.467    0.231    4.961
  124.750  171.551  106.507    0.472    0.216    4.534
  125.000  167.229  108.903    0.473    0.213    4.182
  125.250  162.877  110.422    0.476    0.239    4.001
  125.500  164.928  108.411    0.492    0.256    4.043
  125.750  166.490   99.928    0.504    0.260    4.237
  126.000  164.099   99.100    0.511    0.270    4.524
  126.250  160.267   98.854    0.473    0.275    4.524
  126.500  167.722   95.079    0.436    0.250    4.838
  126.750  165.341   95.121    0.451    0.238    5.208
  127.000  164.451   98.417    0.464    0.230    5.561
  127.250  163.530  100.230    0.477    0.220    5.568
  127.500  158.718   99.690    0.491    0.224    5.474
  127.750  158.319   99.150    0.492    0.243    5.335
  128.000  160.340   98.310    0.465    0.257    5.390
  128.250  162.892   88.645    0.441    0.279    5.702
  128.500  163.473   77.809    0.430    0.294    6.198
  128.750  165.014   81.093    0.431    0.285    6.496
  129.000  167.546   80.847    0.437    0.226    6.506
  129.250  165.655   83.843    0.443    0.133    6.398
  129.500  158.892   90.951    0.449    0.191    6.413
  129.750  154.560   95.124    0.454    0.229    6.357
  130.000  154.140   93.113    0.444    0.246    6.424
  130.250  155.691   87.572    0.431    0.253    6.493
  130.500  158.233   82.614    0.429    0.253    6.619
  130.750  155.852   75.897    0.429    0.274    6.689
  131.000  154.462   75.945    0.444    0.284    6.639
  131.250  154.552   92.772    0.461    0.259    6.410
  131.500  158.065   96.350    0.449    0.240    6.131
  131.750  162.077   98.170    0.443    0.237    5.117
  132.000  164.619   97.636    0.444    0.182    4.850
  132.250  166.160   98.560    0.466    0.173    4.515
  132.500  165.751  106.257    0.489    0.210    4.319
  132.750  160.929  110.723    0.506    0.225    4.132
  133.000  160.529  107.242    0.520    0.230    4.026
  133.250  161.590  107.890    0.523    0.228    3.995
  133.500  161.170  108.521    0.497    0.225    4.036
  133.750  160.760  107.681    0.491    0.227    4.193
  134.000  159.870  105.376    0.491    0.232    4.354
  134.250  159.460  105.424    0.490    0.235    4.565
  134.500  160.531  108.126    0.489    0.237    4.612
  134.750  162.563  109.357    0.482    0.240    4.576
  135.000  164.624  107.928    0.474    0.242    4.459
  135.250  164.624  105.923    0.478    0.241    4.346
  135.500  165.276  106.848    0.473    0.238    4.351
  135.750  165.356  106.308    0.478    0.234    4.437
  136.000  164.456  104.898    0.495    0.236    4.609
  136.250  164.036  101.704    0.504    0.236    4.875
  136.500  164.117   94.104    0.479    0.229    5.700
  136.750  163.217   92.388    0.455    0.194    6.791
  137.000  161.336   89.194    0.438    0.180    6.987
  137.250  157.995   82.183    0.411    0.195    7.325
  137.500  156.614   75.753    0.398    0.229    7.538
  137.750  158.156   75.513    0.422    0.245    7.481
  138.000  161.188   81.445    0.436    0.249    7.288
  138.250  163.229   88.565    0.428    0.250    7.165
  138.500  165.771   89.790    0.413    0.217    7.047
  138.750  166.332   87.185    0.391    0.163    7.056
  139.000  164.941   80.173    0.409    0.108    6.937
  139.250  164.041  103.760    0.434    0.092    6.516
  139.500  163.642  123.241    0.457    0.113    6.066
  139.750  163.732  114.465    0.470    0.166    5.698
  140.000  163.792  113.036    0.484    0.179    5.452
  140.250  163.883  110.443    0.489    0.163    5.264
  140.500  163.973  108.720    0.491    0.158    5.036
  140.750  164.064  112.299    0.497    0.156    4.773
  141.000  164.144  119.118    0.495    0.204    4.527
  141.250  163.244  117.696    0.509    0.227    4.369
  141.500  161.844  114.809    0.515    0.236    4.182
  141.750  160.934  109.850    0.513    0.234    4.000
  142.000  161.024  108.134    0.509    0.235    3.896
  142.250  161.024  106.423    0.501    0.248    3.763
  142.500  161.195  105.583    0.517    0.261    3.665
  142.750  161.766  103.872    0.536    0.268    3.571
  143.000  161.766  102.744    0.546    0.269    3.417
  143.250  162.407  104.263    0.551    0.266    3.298
  143.500  162.407  106.370    0.527    0.272    3.155
  143.750  163.069  107.307    0.501    0.281    3.104
  144.000  165.130  105.897    0.507    0.269    3.283
  144.250  165.751  105.044    0.508    0.232    3.535
  144.500  166.262  103.039    0.480    0.224    4.135
  144.750  165.842  102.505    0.446    0.229    5.202
  145.000  163.971   99.012    0.419    0.238    6.369
  145.250  161.610   88.476    0.403    0.243    6.799
  145.500  160.220   81.747    0.401    0.226    7.459
  145.750  159.820   76.212    0.409    0.192    8.883
  146.000  159.881   71.548    0.398    0.159    8.883
  146.250  158.991   73.655    0.384    0.213    9.154
