~VERSION INFORMATION
 VERS.                 2.0:   CWLS LOG ASCII STANDARD -VERSION 2.0
 WRAP.                  NO:   ONE LINE PER DEPTH STEP
~WELL INFORMATION BLOCK
#MNEM.UNIT           DATA                    DESCRIPTION OF MNEMONIC
#---------    -------------------            -------------------------------
# Generated from Intellog Unique Number	CS_73_76/WELL/3218
WELL.         CANADIAN OCCIDENTAL            : Well_name    - WELL
LOC .         00/08-24-076-02W4/0            : Location     - LOCATION
UWI .         00/08-24-076-02W4/0            : Uwi          - UNIQUE WELL ID
ENTR.         SP                             : Entered      - ENTERED BY
SRVC.         SCHLUMBERGER                   : Scn          - SERVICE COMPANY
STRT.M        237.744                        : top_depth    - START DEPTH
STOP.M        524.244                        : bot_depth    - STOP DEPTH
STEP.M        0.25                           : increment    - STEP LENGTH
 NULL. -999.2500:NULL Value
~CURVE INFORMATION BLOCK
#MNEM UNIT       ERCB CURVE CODE    CURVE DESCRIPTION
#-----------   ------------------   ----------------------------------
DEPT.M        00 001 00 00         : DEPTH        - DEPTH
DPHI.V/V      00 890 00 00         : PHID         - DENSITY POROSITY (SANDSTONE)
NPHI.V/V      00 330 00 00         : PHIN         - NEUTRON POROSITY (SANDSTONE)
ILD .OHMM     00 120 00 00         : RESD         - DEEP RESISTIVITY (DIL)
GR  .API      00 310 00 00         : GR           - GAMMA RAY
~PARAMETER INFORMATION
#MNEM.UNIT           DATA             DESCRIPTION OF MNEMONIC
#---------         -----------     ------------------------------
GL  .M        630.326              : gl           - GROUND LEVEL ELEVATION
EREF.M        633.832              : kb           - ELEVATION OF DEPTH REFERENCE
DATM.M        630.326              : datum        - DATUM ELEVATION
TDD .M        536.143              : tdd          - TOTAL DEPTH DRILLER
RUN .         ONE                  : Run          - RUN NUMBER
ENG .         BILL                 : Engineer     - RECORDING ENGINEER
WIT .         JIM                  : Witness      - WITNESSED BY
MUD .         GEL                  : Mud_type     - MUD TYPE
MATR.         SANDSTONE            : Logunit      - NEUTRON MATRIX
TMAX.C        22.2222              : BHT          - MAXIMUM RECORDED TEMPERATURE
BHTD.M        536.143              : BHTDEP       - MAXIMUM RECORDED TEMPERATURE
MATR.         1                    : LOGUNIT      - NEUTRON MATRIX
RMT .C        25                   : MDTP         - TEMPERATURE OF MUD
NEUT.         1                    : NEUTRON      - NEUTRON TYPE
RESI.         0                    : RESIST       - RESISTIVITY TYPE
RMC .OHMM     0.25                 : RMC          - RESISTIVITY OF MUD CAKE
RMF .OHMM     0.25                 : RMF          - RESISTIVITY OF MUD FILTRATE
SUFT.C        15                   : SUFT         - SURFACE TEMPERATURE
~A  DEPTH     PHID     PHIN     RESD       GR
# ...
  368.244    0.266    0.478    5.803   76.090
  368.494    0.284    0.479    5.907   74.341
  368.744    0.286    0.485    6.135   76.149
  368.994    0.238    0.505    6.499   78.531
  369.244    0.255    0.504    7.025   76.768
  369.494    0.249    0.451    7.486   77.721
  369.744    0.257    0.449    7.949   77.994
  369.994    0.267    0.450    8.197   78.558
  370.244    0.270    0.459    8.229   78.327
  370.494    0.269    0.454    8.068   77.948
  370.744    0.264    0.440    7.413   78.875
  370.994    0.257    0.425    6.742   81.893
  371.244    0.253    0.446    6.052   84.417
  371.494    0.247    0.462    5.236   86.016
  371.744    0.243    0.476    4.233   86.766
  371.994    0.231    0.489    3.789   85.636
  372.244    0.241    0.504    3.263   87.016
  372.494    0.254    0.531    2.814   90.752
  372.744    0.266    0.548    2.532   93.728
  372.994    0.276    0.567    2.379   94.540
  373.244    0.270    0.574    2.290   94.506
  373.494    0.253    0.572    2.368   95.573
  373.744    0.246    0.539    2.386   95.955
  373.994    0.233    0.535    2.463   98.617
  374.244    0.233    0.522    2.504  101.426
  374.494    0.223    0.532    2.636  103.071
  374.744    0.215    0.529    2.742  102.295
  374.994    0.204    0.529    2.992   99.658
  375.244    0.208    0.530    3.349   96.722
  375.494    0.210    0.529    3.832   89.688
  375.744    0.233    0.530    4.420   83.426
  375.994    0.253    0.518    5.099   79.499
  376.244    0.264    0.501    5.845   78.616
  376.494    0.247    0.500    6.762   75.356
  376.744    0.258    0.504    7.691   69.406
  376.994    0.261    0.500    9.272   65.237
  377.244    0.221    0.500   10.668   61.566
  377.494    0.148    0.498   11.627   56.548
  377.744    0.140    0.380   11.472   56.461
  377.994    0.213    0.378   10.451   62.443
  378.244    0.273    0.454    9.231   65.770
  378.494    0.307    0.473    8.814   66.332
  378.744    0.305    0.481    9.275   64.608
  378.994    0.290    0.463   10.010   62.779
  379.244    0.279    0.447   10.674   59.054
  379.494    0.205    0.425   10.396   53.855
  379.744    0.130    0.328   10.103   51.352
  379.994    0.080    0.279    9.377   59.954
  380.244    0.198    0.349    8.858   64.736
  380.494    0.249    0.388    8.363   69.123
  380.744    0.276    0.427    7.732   69.028
  380.994    0.286    0.476    7.529   70.560
  381.244    0.300    0.480    7.294   72.190
  381.494    0.300    0.473    7.235   73.113
  381.744    0.280    0.484    7.003   73.610
  381.994    0.277    0.485    7.037   72.740
  382.244    0.272    0.478    7.424   71.154
  382.494    0.282    0.483    7.785   72.240
  382.744    0.294    0.485    7.803   73.195
  382.994    0.289    0.473    7.643   74.159
  383.244    0.293    0.464    7.140   74.856
  383.494    0.279    0.452    6.911   73.246
  383.744    0.270    0.459    6.621   72.898
  383.994    0.256    0.471    6.620   75.307
  384.244    0.247    0.474    6.611   73.651
  384.494    0.232    0.482    6.836   71.183
  384.744    0.224    0.487    7.200   72.719
  384.994    0.236    0.477    7.403   74.203
  385.244    0.254    0.465    7.272   74.206
  385.494    0.272    0.469    7.209   72.839
  385.744    0.276    0.471    6.982   72.900
  385.994    0.266    0.460    6.862   74.152
  386.244    0.254    0.446    6.849   76.303
  386.494    0.241    0.437    7.130   74.642
  386.744    0.244    0.454    7.441   77.656
  386.994    0.238    0.460    7.753   77.941
  387.244    0.247    0.470    7.951   73.541
  387.494    0.272    0.465    8.141   73.719
  387.744    0.293    0.459    7.752   76.913
  387.994    0.303    0.456    7.073   77.416
  388.244    0.297    0.451    6.201   78.948
  388.494    0.278    0.454    5.542   82.012
  388.744    0.257    0.465    4.595   86.082
  388.994    0.246    0.473    4.004   87.327
  389.244    0.235    0.478    3.346   86.965
  389.494    0.226    0.507    2.974   83.084
  389.744    0.255    0.534    2.702   82.221
  389.994    0.265    0.559    2.563   84.061
  390.244    0.264    0.575    2.488   84.356
  390.494    0.269    0.573    2.423   80.675
  390.744    0.264    0.567    2.426   79.995
  390.994    0.262    0.569    2.420   78.437
  391.244    0.268    0.559    2.468   76.033
  391.494    0.278    0.550    2.425   74.620
  391.744    0.273    0.554    2.439   75.002
  391.994    0.269    0.538    2.572   77.010
  392.244    0.280    0.520    2.812   82.241
  392.494    0.261    0.523    3.130   87.207
  392.744    0.245    0.509    3.503   88.773
  392.994    0.236    0.502    3.916   90.073
  393.244    0.233    0.508    4.174   88.021
  393.494    0.219    0.492    4.352   85.232
  393.744    0.207    0.457    4.440   83.589
  393.994    0.195    0.439    4.419   82.678
  394.244    0.201    0.445    4.419   81.176
  394.494    0.207    0.440    4.699   79.167
  394.744    0.217    0.458    4.882   77.941
  394.994    0.221    0.468    5.197   77.423
  395.244    0.217    0.457    5.337   77.590
  395.494    0.207    0.442    5.334   79.290
  395.744    0.194    0.427    5.358   79.067
  395.994    0.200    0.425    5.317   78.872
  396.244    0.203    0.445    4.955   82.735
  396.494    0.212    0.443    4.579   87.191
  396.744    0.202    0.440    4.335   91.561
  396.994    0.211    0.441    4.134   92.295
  397.244    0.221    0.449    4.095   89.455
  397.494    0.223    0.459    3.974   86.742
  397.744    0.208    0.460    3.978   87.275
  397.994    0.200    0.472    3.956   89.712
  398.244    0.204    0.481    3.749   89.906
  398.494    0.203    0.471    3.540   91.887
  398.744    0.195    0.452    3.279   93.394
  398.994    0.215    0.460    3.194   90.950
  399.244    0.223    0.491    3.234   91.811
  399.494    0.206    0.494    3.343   91.648
  399.744    0.195    0.486    3.686   86.373
  399.994    0.186    0.458    4.442   79.999
  400.244    0.187    0.429    4.834   71.514
  400.494    0.202    0.405    5.215   67.434
  400.744    0.219    0.391    5.490   64.608
  400.994    0.238    0.386    5.646   65.693
  401.244    0.228    0.386    5.923   67.157
  401.494    0.227    0.389    5.996   66.971
  401.744    0.224    0.397    6.066   66.657
  401.994    0.214    0.392    6.183   68.036
  402.244    0.217    0.385    6.207   69.805
  402.494    0.217    0.393    6.404   71.357
  402.744    0.212    0.388    6.571   71.579
  402.994    0.184    0.378    7.064   70.209
  403.244    0.145    0.392    7.629   66.245
  403.494    0.103    0.384    8.529   61.429
  403.744    0.073    0.341    7.707   63.006
  403.994    0.101    0.352    6.852   66.480
  404.244    0.223    0.391    5.891   67.256
  404.494    0.253    0.417    5.310   66.464
  404.744    0.264    0.421    5.008   61.505
  404.994    0.263    0.405    4.774   58.030
  405.244    0.246    0.381    4.692   62.719
  405.494    0.249    0.367    4.543   71.581
  405.744    0.243    0.387    4.485   69.752
  405.994    0.248    0.407    4.289   68.911
  406.244    0.256    0.416    4.170   70.959
  406.494    0.246    0.428    3.959   71.292
  406.744    0.246    0.440    3.850   63.877
  406.994    0.259    0.446    3.730   52.807
  407.244    0.270    0.381    3.704   46.533
  407.494    0.282    0.350    3.757   42.034
  407.744    0.297    0.353    3.872   42.215
  407.994    0.290    0.363    3.986   42.805
  408.244    0.286    0.364    4.095   44.039
  408.494    0.278    0.358    4.267   49.571
  408.744    0.273    0.355    4.450   61.871
  408.994    0.274    0.369    4.612   68.872
  409.244    0.250    0.382    4.847   68.747
  409.494    0.247    0.371    5.051   70.599
  409.744    0.250    0.363    5.249   71.596
  409.994    0.250    0.367    5.563   71.722
  410.244    0.245    0.366    5.830   73.280
  410.494    0.227    0.364    6.127   76.463
  410.744    0.202    0.362    6.442   84.188
  410.994    0.184    0.364    6.653   86.839
  411.244    0.182    0.373    6.800   90.316
  411.494    0.197    0.380    6.647   90.129
