~VERSION INFORMATION
 VERS.                 2.0:   CWLS LOG ASCII STANDARD -VERSION 2.0
 WRAP.                  NO:   ONE LINE PER DEPTH STEP
~WELL INFORMATION BLOCK
#MNEM.UNIT           DATA                    DESCRIPTION OF MNEMONIC
#---------    -------------------            -------------------------------
# Generated from Intellog Unique Number	CW_70_72/WELL/642
NULL.         -999.25                        : NULL_VALUE
WELL.         MIDAS AMOCO MEYER 06-21        : Well_name    - WELL              
LOC .         06-21-071-25W4                 : Location     - LOCATION          
UWI .         00/06-21-071-25W4/0            : Uwi          - UNIQUE WELL ID    
ENTR.         JAYE                           : Entered      - ENTERED BY        
SRVC.         SCHLUMBERGER                   : Scn          - SERVICE COMPANY   
DATE.         4 FEB 73                       : Date         - LOG DATE          
STRT.M        402.336                        : top_depth    - START DEPTH       
STOP.M        624.836                        : bot_depth    - STOP DEPTH        
STEP.M        0.25                           : increment    - STEP LENGTH       
~CURVE INFORMATION BLOCK
#MNEM UNIT       ERCB CURVE CODE    CURVE DESCRIPTION
#-----------   ------------------   ----------------------------------
DEPT.M        00 001 00 00         : DEPTH        - DEPTH                       
DPHI.V/V      00 890 00 00         : PHID         - DENSITY POROSITY (SANDSTONE)
NPHI.V/V      00 330 00 00         : PHIN         - NEUTRON POROSITY (SANDSTONE)
GR  .API      00 310 00 00         : GR           - GAMMA RAY                   
CALI.MM       00 280 01 00         : CAL          - CALIPER                     
ILD .OHMM     00 120 00 00         : RESD         - DEEP RESISTIVITY (DIL)      
~PARAMETER INFORMATION       
#MNEM.UNIT           DATA             DESCRIPTION OF MNEMONIC
#---------         -----------     ------------------------------
GL  .M        598.322              : gl           - GROUND LEVEL ELEVATION      
EREF.M        601.37               : kb           - ELEVATION OF DEPTH REFERENCE
DATM.M        598.322              : datum        - DATUM ELEVATION             
TDD .M        628.802              : tdd          - TOTAL DEPTH DRILLER         
RUN .         ONE                  : Run          - RUN NUMBER                  
ENG .         LEWIS                : Engineer     - RECORDING ENGINEER          
WIT .         JAMES                : Witness      - WITNESSED BY                
BASE.         LLOYD                : Branch       - HOME BASE OF LOGGING UNIT   
MUD .         GEL                  : Mud_type     - MUD TYPE                    
MATR.         SANDSTONE            : Logunit      - NEUTRON MATRIX              
TMAX.C        25.5556              : BHT          - MAXIMUM RECORDED TEMPERATURE
BHTD.M        627.583              : BHTDEP       - MAXIMUM RECORDED TEMPERATURE
RMT .C        15                   : MDTP         - TEMPERATURE OF MUD          
MUDD.KG/M     1116                 : MWT          - MUD DENSITY                 
NEUT.         1                    : NEUTRON      - NEUTRON TYPE                
RESI.         0                    : RESIST       - RESISTIVITY TYPE            
RM  .OHMM     8.41                 : RM           - RESISTIVITY OF MUD          
RMC .OHMM     5                    : RMC          - RESISTIVITY OF MUD CAKE     
RMF .OHMM     3.96                 : RMF          - RESISTIVITY OF MUD FILTRATE 
SUFT.C        -17.7778             : SUFT         - SURFACE TEMPERATURE         
~A  DEPTH     PHID     PHIN       GR      CAL     RESD
# ...
  548.336    0.099    0.411  101.955  172.908    4.167
  548.586    0.068    0.396   98.557  172.875    4.158
  548.836    0.100    0.383   98.169  172.741    4.150
  549.086    0.119    0.378  104.712  172.583    4.145
  549.336    0.123    0.384  104.869  172.648    4.160
  549.586    0.119    0.378  105.812  173.427    4.176
  549.836    0.123    0.387  108.740  173.894    4.190
  550.086    0.134    0.411  114.739  174.365    4.224
  550.336    0.127    0.413  119.657  174.319    4.268
  550.586    0.133    0.399  114.993  173.869    4.314
  550.836    0.134    0.401  110.751  173.527    4.335
  551.086    0.122    0.418  110.426  173.484    4.373
  551.336    0.119    0.419  114.560  173.646    4.357
  551.586    0.120    0.412  116.827  173.810    4.362
  551.836    0.112    0.398  116.137  173.669    4.353
  552.086    0.112    0.413  116.474  173.334    4.454
  552.336    0.121    0.422  114.341  173.179    4.790
  552.586    0.118    0.430  104.735  172.736    5.431
  552.836    0.113    0.372   93.142  172.086    6.317
  553.086    0.083    0.342   82.331  171.938    7.444
  553.336    0.054    0.314   73.330  171.683    8.836
  553.586   -0.001    0.290   66.314  171.032   10.000
  553.836    0.004    0.281   67.737  170.590   10.390
  554.086    0.046    0.297   75.425  170.961    9.810
  554.336    0.077    0.319   85.285  171.120    8.918
  554.586    0.101    0.343   88.937  171.583    8.033
  554.836    0.144    0.363   91.323  172.151    7.276
  555.086    0.131    0.380   91.177  170.075    6.822
  555.336    0.140    0.374   90.252  167.072    6.590
  555.586    0.144    0.364   92.817  165.197    6.610
  555.836    0.139    0.368   95.567  165.053    6.464
  556.086    0.125    0.360   97.829  167.154    6.252
  556.336    0.097    0.344  101.602  169.049    5.907
  556.586    0.107    0.350  106.340  169.727    5.599
  556.836    0.124    0.357  110.473  169.795    5.290
  557.086    0.131    0.370  108.278  169.351    5.217
  557.336    0.133    0.384   96.684  169.098    5.682
  557.586    0.142    0.382   87.621  168.857    6.249
  557.836    0.027    0.341   80.610  168.803    7.019
  558.086    0.004    0.312   74.798  168.668    7.902
  558.336   -0.016    0.301   70.195  168.732    7.840
  558.586   -0.001    0.295   73.727  168.693    6.504
  558.836    0.009    0.309   80.210  168.642    6.857
  559.086    0.039    0.353   87.960  168.713    6.619
  559.336    0.062    0.392   93.840  169.181    5.801
  559.586    0.038    0.380   92.793  169.539    5.561
  559.836    0.027    0.347   80.715  170.010    5.726
  560.086   -0.005    0.323   86.904  170.276    6.394
  560.336    0.008    0.317   87.116  170.443    6.439
  560.586    0.025    0.336   91.971  170.608    5.246
  560.836    0.092    0.364   99.782  170.766    4.250
  561.086    0.070    0.387  101.747  171.131    6.122
  561.336    0.100    0.379  102.082  171.297    5.816
  561.586    0.106    0.382  106.338  170.333    5.078
  561.836    0.100    0.394  101.312  171.422    4.650
  562.086    0.106    0.398  103.638  172.191    3.154
  562.336    0.102    0.398   99.456  171.132    1.994
  562.586    0.107    0.388   94.309  169.563    0.974
  562.836    0.108    0.381   99.171  166.981    0.795
  563.086    0.104    0.376  101.615  166.417    0.703
  563.336    0.096    0.368  106.474  169.445    0.573
  563.586    0.073    0.362  111.205  171.027    0.507
  563.836    0.069    0.369  110.157  171.701    0.468
  564.086    0.083    0.354  112.000  171.149    0.501
  564.336    0.102    0.360  108.121  169.994    0.624
  564.586    0.071    0.369  102.432  169.031    0.901
  564.836    0.074    0.377  104.759  167.051    1.309
  565.086    0.058    0.359  100.213  165.275    1.931
  565.336    0.055    0.307   91.874  164.210    5.469
  565.586    0.032    0.275   91.490  164.480    5.849
  565.836    0.038    0.314  100.443  164.740    5.546
  566.086    0.084    0.345  104.335  165.822    5.068
  566.336    0.097    0.364  103.107  166.702    4.282
  566.586    0.109    0.366  104.349  167.480    3.470
  566.836    0.100    0.360  104.626  168.051    2.847
  567.086    0.079    0.337  102.913  168.417    2.249
  567.336    0.056    0.295   94.575  168.680    1.907
  567.586    0.046    0.273   91.777  169.361    2.058
  567.836    0.010    0.313  100.070  169.723    2.599
  568.086    0.049    0.333  103.359  170.105    3.380
  568.336    0.029    0.328  105.565  170.150    4.048
  568.586    0.032    0.316  108.794  170.018    4.283
  568.836    0.063    0.335  113.650  170.176    4.557
  569.086    0.081    0.353  118.630  170.238    4.751
  569.336    0.094    0.342  112.097  170.602    4.871
  569.586    0.089    0.345  102.671  171.173    4.932
  569.836    0.054    0.345  100.177  171.536    5.077
  570.086    0.037    0.329   97.260  172.114    5.261
  570.336    0.057    0.300   86.811  172.171    5.223
  570.586    0.047    0.267   78.896  170.700    4.986
  570.836    0.021    0.272   72.062  165.965    4.346
  571.086   -0.006    0.306   99.996  166.027    3.297
  571.336    0.093    0.527  112.808  170.067    2.671
  571.586    0.209    0.521  119.050  178.903    2.216
  571.836    0.112    0.503  120.653  183.249    1.925
  572.086    0.097    0.554  120.206  189.235    1.886
  572.336    0.143    0.539  116.808  195.514    1.980
  572.586    0.133    0.572  118.593  199.662    2.173
  572.836    0.134    0.541  120.074  205.435    2.441
  573.086    0.144    0.426  115.471  196.724    2.664
  573.336    0.122    0.360  110.023  186.577    2.830
  573.586    0.035    0.372  110.123  174.799    2.912
  573.836    0.053    0.385  108.889  173.942    2.997
  574.086    0.037    0.387  110.374  174.112    3.086
  574.336    0.057    0.381  111.854  174.075    3.146
  574.586    0.018    0.374  115.205  173.832    3.190
  574.836    0.053    0.370  120.845  173.888    3.394
  575.086    0.051    0.365  117.026  174.253    3.730
  575.336    0.071    0.365  113.806  173.900    4.378
  575.586    0.085    0.366  108.781  173.248    4.858
  575.836    0.065    0.346   99.961  173.106    4.830
  576.086    0.044    0.312   93.189  174.189    4.725
  576.336    0.044    0.318  103.286  176.801    4.645
  576.586    0.067    0.352  114.047  180.023    4.559
  576.836    0.099    0.418  113.360  173.146    4.491
  577.086    0.086    0.397  104.361  170.756    4.547
  577.336    0.063    0.391   99.512  170.113    4.654
  577.586    0.077    0.383   94.791  170.280    4.745
  577.836    0.073    0.379   96.632  170.430    4.815
  578.086    0.041    0.368   98.175  170.910    4.849
  578.336    0.043    0.391  103.276  171.178    4.889
  578.586    0.069    0.383  103.429  171.432    4.897
  578.836    0.081    0.384  107.142  171.501    4.904
  579.086    0.079    0.385  113.866  171.768    4.870
  579.336    0.059    0.388  113.422  171.924    4.846
  579.586    0.073    0.378  110.625  172.303    4.844
  579.836    0.069    0.377  114.335  172.756    4.887
  580.086    0.079    0.371  111.724  173.230    5.070
  580.336    0.068    0.368  108.204  173.202    5.215
  580.586    0.051    0.359  105.526  173.156    5.412
  580.836    0.081    0.345  102.308  173.105    5.536
  581.086    0.073    0.349  104.695  173.166    5.616
  581.336    0.061    0.360  110.576  173.331    5.563
  581.586    0.052    0.370  110.552  173.502    5.427
  581.836    0.027    0.366  109.143  173.966    5.156
  582.086    0.032    0.376  109.660  172.706    4.860
  582.336    0.061    0.377  107.048  171.341    4.435
  582.586    0.126    0.352   89.908  170.065    4.113
  582.836    0.152    0.335   74.758  168.901    3.692
  583.086    0.175    0.325   56.415  168.155    3.194
  583.336    0.192    0.342   48.739  167.493    2.679
  583.586    0.182    0.356   43.533  166.536    2.348
  583.836    0.199    0.345   40.133  167.424    2.135
  584.086    0.187    0.333   39.630  168.085    2.065
  584.336    0.219    0.325   41.532  168.146    2.038
  584.586    0.223    0.323   40.123  168.000    2.040
