~VERSION INFORMATION
 VERS.                 2.0:   CWLS LOG ASCII STANDARD -VERSION 2.0
 WRAP.                  NO:   ONE LINE PER DEPTH STEP
~WELL INFORMATION BLOCK
#MNEM.UNIT           DATA                    DESCRIPTION OF MNEMONIC
#---------    -------------------            -------------------------------
# Generated from Intellog Unique Number	CX_WELLS/WELL/4044
WELL.         AMOCO KERBRY                   : Well_name    - WELL
LOC .         00/07-19-074-05W4/0            : Location     - LOCATION
UWI .         00/07-19-074-05W4/0            : Uwi          - UNIQUE WELL ID
ENTR.         T                              : Entered      - ENTERED BY
SRVC.         SCHLUMBERGER                   : Scn          - SERVICE COMPANY
STRT.F        850                            : top_depth    - START DEPTH
STOP.F        1630.02                        : bot_depth    - STOP DEPTH
STEP.F        0.82                           : increment    - STEP LENGTH
 NULL. -999.2500:NULL Value
~CURVE INFORMATION BLOCK
#MNEM UNIT       ERCB CURVE CODE    CURVE DESCRIPTION
#-----------   ------------------   ----------------------------------
DEPT.F        00 001 00 00         : DEPTH        - DEPTH
GR  .API      00 310 00 00         : GR           - GAMMA RAY
NPHI.V/V      00 330 00 00         : PHIN         - NEUTRON POROSITY (SANDSTONE)
DPHI.V/V      00 890 00 00         : PHID         - DENSITY POROSITY (SANDSTONE)
ILD .OHMM     00 120 00 00         : RESD         - DEEP RESISTIVITY (DIL)
~PARAMETER INFORMATION
#MNEM.UNIT           DATA             DESCRIPTION OF MNEMONIC
#---------         -----------     ------------------------------
GL  .F        2144                 : gl           - GROUND LEVEL ELEVATION
EREF.F        2156                 : kb           - ELEVATION OF DEPTH REFERENCE
DATM.F        2156                 : datum        - DATUM ELEVATION
TDD .F        1677                 : tdd          - TOTAL DEPTH DRILLER
RUN .         ONE                  : Run          - RUN NUMBER
ENG .         BILL                 : Engineer     - RECORDING ENGINEER
WIT .         JIM                  : Witness      - WITNESSED BY
MUD .         GEL                  : Mud_type     - MUD TYPE
MATR.         SANDSTONE            : Logunit      - NEUTRON MATRIX
TMAX.F        62.6                 : BHT          - MAXIMUM RECORDED TEMPERATURE
BHTD.F        1677                 : BHTDEP       - MAXIMUM RECORDED TEMPERATURE
MATR.         1                    : LOGUNIT      - NEUTRON MATRIX
RMT .F        77                   : MDTP         - TEMPERATURE OF MUD
NEUT.         1                    : NEUTRON      - NEUTRON TYPE
RESI.         5.6                  : RESIST       - RESISTIVITY TYPE
RMC .OHMM     5.2                  : RMC          - RESISTIVITY OF MUD CAKE
RMF .OHMM     4.2                  : RMF          - RESISTIVITY OF MUD FILTRATE
SUFT.F        59                   : SUFT         - SURFACE TEMPERATURE
~A  DEPTH       GR     PHIN     PHID     RESD
  850.000   97.094    0.407    0.239    4.672
  850.820   97.104    0.407    0.245    4.587
  851.640   97.763    0.407    0.248    4.589
  852.461   98.404    0.407    0.240    4.507
  853.281   99.052    0.407    0.238    4.427
  854.101  100.338    0.407    0.238    4.428
  854.921  100.980    0.407    0.239    4.350
  855.741  102.262    0.407    0.241    4.272
  856.562  104.179    0.407    0.243    4.273
  857.382  106.097    0.407    0.245    4.197
  858.202  107.379    0.407    0.246    4.122
  859.022  106.758    0.403    0.247    4.124
  859.843  105.506    0.401    0.249    4.051
  860.663  105.523    0.396    0.246    4.052
  861.483  104.261    0.393    0.245    3.980
  862.303  101.736    0.393    0.235    3.981
  863.123   99.212    0.393    0.226    3.982
  863.944   99.860    0.391    0.205    3.984
  864.764   99.242    0.389    0.184    3.986
  865.584   98.618    0.386    0.164    4.136
  866.404   97.366    0.382    0.147    4.137
  867.224   94.841    0.379    0.157    4.215
  868.045   92.948    0.374    0.189    4.217
  868.865   89.154    0.367    0.217    4.297
  869.685   84.725    0.361    0.221    4.459
  870.505   81.566    0.352    0.272    4.543
  871.325   77.772    0.343    0.287    4.891
  872.146   75.886    0.346    0.279    5.169
  872.966   78.438    0.350    0.268    5.773
  873.786   82.255    0.352    0.267    6.330
  874.606   88.614    0.347    0.266    6.814
  875.427   98.150    0.343    0.264    7.895
  876.247   94.990    0.333    0.261    8.817
  877.067   89.927    0.321    0.260    9.846
  877.887   86.130    0.312    0.262   11.618
  878.707   81.705    0.311    0.263   13.215
  879.528   77.280    0.312    0.264   15.031
  880.348   75.383    0.317    0.264   15.598
  881.168   71.590    0.322    0.267   15.042
  881.988   65.896    0.331    0.270   14.773
  882.808   62.099    0.336    0.275   15.904
  883.629   58.305    0.341    0.280   16.811
  884.449   58.318    0.334    0.286   17.446
  885.269   64.681    0.320    0.290   17.452
  886.089   66.598    0.315    0.292   17.457
  886.909   67.243    0.317    0.287   17.463
  887.730   67.256    0.327    0.280   17.794
  888.550   71.077    0.348    0.272   18.466
  889.370   76.167    0.361    0.266   18.471
  890.190   81.261    0.358    0.264   18.477
  891.010   85.082    0.351    0.258   18.151
  891.831   88.906    0.345    0.255   17.824
  892.651   91.454    0.342    0.260   17.508
  893.471   94.006    0.340    0.272   17.194
  894.291   94.023    0.343    0.276   16.582
  895.112   94.033    0.350    0.273   16.587
  895.932   95.954    0.353    0.270   15.705
  896.752   97.875    0.359    0.260   15.143
  897.572   99.154    0.362    0.244   14.078
  898.392  100.433    0.365    0.234   13.575
  899.213  102.988    0.362    0.223   13.332
  900.033  104.906    0.356    0.202   13.584
  900.853  104.919    0.349    0.177   13.842
  901.673  101.760    0.333    0.177   13.594
  902.493   98.597    0.319    0.192   13.108
  903.314   86.558    0.320    0.224   12.643
  904.134   85.299    0.323    0.246   12.415
  904.954   81.505    0.321    0.260   11.973
  905.774   77.080    0.328    0.255   11.760
  906.594   75.190    0.332    0.242   11.550
  907.415   75.204    0.337    0.230   11.345
  908.235   76.483    0.331    0.219   11.144
  909.055   80.304    0.335    0.217   11.146
  909.875   89.836    0.343    0.212   12.222
  910.696  100.006    0.350    0.198   13.157
  911.516  105.727    0.359    0.183   14.695
  912.336  108.913    0.369    0.174   15.818
  913.156  106.392    0.374    0.202   16.719
  913.976  105.136    0.383    0.205   17.351
  914.797  108.319    0.383    0.197   17.677
  915.617  111.506    0.388    0.193   16.739
  916.437  114.692    0.391    0.189   15.845
  917.257  118.513    0.398    0.199   13.941
  918.077  121.699    0.400    0.202   12.723
  918.898  126.155    0.402    0.206   11.400
  919.718  125.534    0.404    0.216   10.216
  920.538  121.744    0.402    0.234    9.155
  921.358  118.584    0.401    0.241    8.204
  922.178  114.791    0.400    0.250    7.487
  922.999  111.631    0.396    0.261    6.832
  923.819  109.103    0.392    0.260    6.236
  924.639  107.213    0.386    0.260    5.797
  925.459  105.958    0.366    0.269    5.101
  926.280  104.702    0.347    0.274    4.828
  927.100  102.181    0.345    0.287    4.571
  927.920   95.845    0.338    0.292    4.573
  928.740   96.493    0.345    0.282    4.834
  929.560   99.045    0.353    0.264    5.204
  930.381   95.889    0.381    0.244    5.705
  931.201   94.634    0.388    0.224    6.610
  932.021   89.568    0.395    0.234    7.518
  932.841   81.967    0.388    0.246    9.724
  933.661   75.638    0.380    0.259   11.475
  934.482   75.017    0.360    0.265   12.580
  935.302   76.931    0.353    0.270   16.572
  936.122   80.121    0.340    0.273   21.433
  936.942   82.038    0.330    0.273   23.936
  937.762   82.683    0.322    0.275   26.247
  938.583   85.238    0.326    0.277   28.256
  939.403   85.248    0.336    0.277   29.866
  940.223   85.261    0.344    0.273   28.276
  941.043   85.278    0.345    0.273   24.425
  941.864   86.561    0.341    0.276   21.099
  942.684   89.113    0.337    0.277   18.907
  943.504   91.030    0.329    0.274   17.575
  944.324   92.948    0.318    0.276   17.907
  945.144   95.496    0.308    0.279   19.634
  945.965  101.220    0.305    0.282   21.135
  946.785  105.679    0.311    0.282   21.933
  947.605  105.693    0.319    0.273   19.653
  948.425  101.261    0.322    0.266   17.613
  949.245   94.295    0.329    0.268   16.372
  950.066   85.424    0.341    0.270   15.499
  950.886   77.827    0.367    0.254   14.946
  951.706   75.299    0.379    0.181   17.002
  952.526   72.139    0.379    0.191   18.987
  953.346   69.615    0.373    0.200   19.702
  954.167   67.725    0.359    0.206   20.826
  954.987   66.469    0.349    0.212   21.613
  955.807   67.117    0.338    0.218   22.426
  956.627   69.669    0.339    0.223   23.275
  957.448   72.221    0.342    0.228   23.714
  958.268   72.872    0.347    0.243   24.162
  959.088   70.351    0.351    0.263   24.616
  959.908   69.092    0.342    0.276   24.629
  960.728   69.106    0.325    0.282   24.636
  961.549   72.292    0.301    0.279   24.196
  962.369   73.575    0.302    0.277   22.907
  963.189   73.585    0.311    0.273   20.526
  964.009   73.602    0.319    0.269   17.730
  964.829   74.247    0.327    0.261   15.037
  965.650   76.802    0.337    0.254   13.474
  966.470   78.719    0.337    0.248   11.639
  967.290   80.002    0.332    0.239   10.819
  968.110   81.281    0.329    0.233    9.874
  968.930   85.105    0.329    0.219    8.687
  969.751   87.019    0.329    0.213    7.784
  970.571   90.840    0.329    0.228    7.506
  971.391   95.296    0.322    0.249    7.373
  972.211   90.867    0.320    0.267    7.242
  973.031   82.632    0.318    0.278    7.244
  973.852   78.207    0.317    0.277    7.247
  974.672   79.489    0.322    0.276    7.249
  975.492   79.500    0.327    0.275    7.119
  976.312   80.789    0.330    0.270    6.992
  977.133   82.068    0.338    0.260    6.869
  977.953   85.889    0.340    0.247    6.870
  978.773   98.591    0.342    0.241    6.873
  979.593  102.415    0.344    0.232    6.751
  980.413  107.505    0.346    0.227    6.754
  981.234  114.499    0.347    0.225    6.755
  982.054  119.589    0.347    0.220    6.757
  982.874  122.144    0.350    0.219    6.760
  983.694  118.981    0.355    0.221    6.762
  984.514  114.553    0.362    0.225    6.765
  985.335  112.028    0.364    0.229    6.767
  986.155  110.142    0.369    0.231    6.769
  986.975  108.886    0.367    0.233    6.773
  987.795  110.803    0.362    0.241    6.774
  988.615  109.544    0.362    0.247    6.654
  989.436  104.481    0.362    0.252    6.535
  990.256  107.033    0.358    0.258    6.188
  991.076  108.323    0.351    0.263    6.078
  991.896  106.426    0.351    0.264    5.969
