~VERSION INFORMATION
 VERS.                 2.0:   CWLS LOG ASCII STANDARD -VERSION 2.0
 WRAP.                  NO:   ONE LINE PER DEPTH STEP
~WELL INFORMATION BLOCK
#MNEM.UNIT           DATA                    DESCRIPTION OF MNEMONIC
#---------    -------------------            -------------------------------
# Generated from Intellog Unique Number	CS_67_68/WELL/702
WELL.         FISHER CREEK                   : Well_name    - WELL
LOC .         00/06-29-068-04W4/0            : Location     - LOCATION
UWI .         00/06-29-068-04W4/0            : Uwi          - UNIQUE WELL ID
ENTR.         SP                             : Entered      - ENTERED BY
SRVC.         SCHLUMBERGER                   : Scn          - SERVICE COMPANY
STRT.M        350                            : top_depth    - START DEPTH
STOP.M        585                            : bot_depth    - STOP DEPTH
STEP.M        0.25                           : increment    - STEP LENGTH
 NULL. -999.2500:NULL Value
~CURVE INFORMATION BLOCK
#MNEM UNIT       ERCB CURVE CODE    CURVE DESCRIPTION
#-----------   ------------------   ----------------------------------
DEPT.M        00 001 00 00         : DEPTH        - DEPTH
ILD .OHMM     00 120 00 00         : RESD         - DEEP RESISTIVITY (DIL)
DPHI.V/V      00 890 00 00         : PHID         - DENSITY POROSITY (LIMESTONE)
NPHI.V/V      00 330 00 00         : PHIN         - NEUTRON POROSITY (LIMESTONE)
GR  .API      00 310 00 00         : GR           - GAMMA RAY
~PARAMETER INFORMATION
#MNEM.UNIT           DATA             DESCRIPTION OF MNEMONIC
#---------         -----------     ------------------------------
GL  .M        710.98               : gl           - GROUND LEVEL ELEVATION
EREF.M        714.48               : kb           - ELEVATION OF DEPTH REFERENCE
DATM.M        710.98               : datum        - DATUM ELEVATION
TDD .M        589                  : tdd          - TOTAL DEPTH DRILLER
RUN .         ONE                  : Run          - RUN NUMBER
ENG .         BILL                 : Engineer     - RECORDING ENGINEER
WIT .         JIM                  : Witness      - WITNESSED BY
MUD .         GEL                  : Mud_type     - MUD TYPE
MATR.         LIMESTONE            : Logunit      - NEUTRON MATRIX
TMAX.C        29                   : BHT          - MAXIMUM RECORDED TEMPERATURE
BHTD.M        589                  : BHTDEP       - MAXIMUM RECORDED TEMPERATURE
MATR.         1                    : LOGUNIT      - NEUTRON MATRIX
RMT .C        25                   : MDTP         - TEMPERATURE OF MUD
NEUT.         1                    : NEUTRON      - NEUTRON TYPE
RESI.         0                    : RESIST       - RESISTIVITY TYPE
RMC .OHMM     0.25                 : RMC          - RESISTIVITY OF MUD CAKE
RMF .OHMM     0.25                 : RMF          - RESISTIVITY OF MUD FILTRATE
SUFT.C        15                   : SUFT         - SURFACE TEMPERATURE
~A  DEPTH     RESD     PHID     PHIN       GR
# ...
  480.500   17.926    0.321    0.442   64.407
  480.750   16.642    0.316    0.440   66.432
  481.000   15.745    0.320    0.450   69.254
  481.250   15.321    0.313    0.455   71.831
  481.500   15.129    0.310    0.451   73.120
  481.750   15.142    0.311    0.457   72.570
  482.000   15.437    0.318    0.470   71.835
  482.250   15.563    0.326    0.479   72.143
  482.500   15.429    0.332    0.480   74.168
  482.750   14.139    0.326    0.473   77.113
  483.000   12.669    0.324    0.481   79.260
  483.250   11.653    0.325    0.496   80.918
  483.500   11.296    0.324    0.508   81.164
  483.750   11.411    0.322    0.510   78.651
  484.000   11.721    0.328    0.510   74.176
  484.250   12.291    0.329    0.509   72.644
  484.500   13.789    0.327    0.504   71.848
  484.750   15.525    0.333    0.490   70.746
  485.000   17.350    0.341    0.472   69.275
  485.250   18.712    0.348    0.465   67.314
  485.500   19.474    0.347    0.477   66.395
  485.750   20.502    0.345    0.490   65.354
  486.000   20.900    0.345    0.493   64.988
  486.250   20.915    0.347    0.481   65.663
  486.500   20.049    0.344    0.471   66.094
  486.750   18.859    0.342    0.466   64.562
  487.000   16.835    0.345    0.468   63.644
  487.250   15.514    0.341    0.474   65.669
  487.500   14.844    0.332    0.484   66.958
  487.750   16.220    0.327    0.475   67.389
  488.000   18.196    0.323    0.467   67.145
  488.250   19.438    0.321    0.467   66.717
  488.500   21.524    0.320    0.455   66.228
  488.750   22.569    0.323    0.443   65.861
  489.000   23.097    0.329    0.432   65.433
  489.250   22.813    0.341    0.424   65.434
  489.500   21.867    0.337    0.420   65.190
  489.750   20.493    0.330    0.429   65.253
  490.000   19.865    0.325    0.441   65.745
  490.250   20.909    0.321    0.454   66.482
  490.500   22.131    0.326    0.468   67.342
  490.750   24.052    0.345    0.471   66.791
  491.000   25.410    0.339    0.444   65.873
  491.250   26.494    0.255    0.346   64.586
  491.500   27.524    0.152    0.305   61.276
  491.750   28.329    0.081    0.382   56.433
  492.000   28.670    0.325    0.435   60.236
  492.250   28.794    0.362    0.467   66.186
  492.500   28.491    0.372    0.479   69.560
  492.750   27.617    0.372    0.489   71.401
  493.000   25.835    0.375    0.494   71.402
  493.250   23.988    0.366    0.491   67.479
  493.500   22.608    0.359    0.483   65.273
  493.750   21.957    0.352    0.473   63.925
  494.000   20.585    0.349    0.471   63.926
  494.250   19.910    0.348    0.480   65.215
  494.500   18.695    0.348    0.487   66.566
  494.750   18.019    0.345    0.496   68.162
  495.000   17.368    0.350    0.494   69.819
  495.250   16.836    0.346    0.481   71.169
  495.500   16.504    0.345    0.473   72.091
  495.750   16.240    0.356    0.468   72.214
  496.000   15.802    0.352    0.467   70.928
  496.250   15.432    0.345    0.470   70.193
  496.500   14.793    0.343    0.474   70.685
  496.750   14.418    0.346    0.481   70.809
  497.000   13.794    0.348    0.487   70.197
  497.250   13.549    0.335    0.474   68.481
  497.500   13.735    0.294    0.453   66.582
  497.750   13.067    0.271    0.440   71.182
  498.000    9.009    0.260    0.462   75.170
  498.250    4.647    0.269    0.502   80.384
  498.500    2.837    0.290    0.539   83.145
  498.750    2.084    0.301    0.554   84.802
  499.000    1.829    0.301    0.543   85.232
  499.250    1.790    0.317    0.545   84.804
  499.500    1.768    0.303    0.554   84.560
  499.750    1.753    0.307    0.557   85.911
  500.000    1.761    0.306    0.546   86.955
  500.250    1.778    0.301    0.540   88.489
  500.500    1.806    0.297    0.542   90.269
  500.750    1.855    0.304    0.546   91.803
  501.000    1.920    0.307    0.545   93.216
  501.250    1.995    0.308    0.539   93.646
  501.500    2.084    0.308    0.541   92.237
  501.750    2.161    0.306    0.548   90.214
  502.000    2.258    0.298    0.545   90.584
  502.250    2.315    0.289    0.547   93.344
  502.500    2.369    0.278    0.549   95.737
  502.750    2.371    0.269    0.546   98.315
  503.000    2.377    0.278    0.545   99.788
  503.250    2.401    0.286    0.540  100.770
  503.500    2.476    0.281    0.538  101.814
  503.750    2.553    0.277    0.539  102.613
  504.000    2.632    0.288    0.529  102.737
  504.250    2.734    0.277    0.518  102.799
  504.500    2.830    0.261    0.500  102.923
  504.750    2.875    0.246    0.499  102.556
  505.000    2.888    0.234    0.506  102.251
  505.250    2.873    0.235    0.514  102.375
  505.500    2.870    0.225    0.521   97.716
  505.750    2.926    0.214    0.525  100.967
  506.000    2.983    0.237    0.528  103.544
  506.250    3.042    0.243    0.536  105.998
  506.500    3.072    0.245    0.529  107.901
  506.750    3.092    0.247    0.511  108.454
  507.000    3.147    0.248    0.498  106.677
  507.250    3.281    0.193    0.489  100.791
  507.500    3.402    0.173    0.478  100.179
  507.750    3.535    0.176    0.467  103.553
  508.000    3.645    0.200    0.464  106.866
  508.250    3.716    0.218    0.468  108.891
  508.500    3.818    0.225    0.471  111.346
  508.750    3.877    0.218    0.461  110.856
  509.000    3.946    0.216    0.452  109.570
  509.250    3.949    0.223    0.448  109.326
  509.500    3.937    0.227    0.447  110.676
  509.750    3.903    0.226    0.451  111.475
  510.000    3.855    0.232    0.459  107.245
  510.250    3.765    0.244    0.462  100.316
  510.500    3.608    0.231    0.421   91.119
  510.750    3.965    0.095    0.367   84.191
  511.000    5.225    0.078    0.282   76.404
  511.250    6.924    0.198    0.248   69.966
  511.500    8.988    0.298    0.222   61.872
  511.750   11.887    0.375    0.233   55.925
  512.000   15.960    0.364    0.243   56.417
  512.250   20.640    0.365    0.233   57.890
  512.500   23.284    0.385    0.227   58.689
  512.750   20.981    0.401    0.256   57.709
  513.000   15.885    0.400    0.287   56.422
  513.250   11.630    0.368    0.326   61.391
  513.500    9.887    0.342    0.361   64.520
  513.750    8.614    0.332    0.391   69.427
  514.000    8.882    0.325    0.402   73.292
  514.250   10.285    0.321    0.412   76.482
  514.500   12.000    0.326    0.430   79.366
  514.750   14.895    0.327    0.446   82.065
  515.000   17.606    0.324    0.455   83.416
  515.250   19.934    0.330    0.453   83.295
  515.500   22.152    0.340    0.449   79.555
  515.750   24.071    0.343    0.446   75.938
  516.000   25.431    0.338    0.446   76.369
  516.250   23.656    0.329    0.452   82.196
  516.500   20.693    0.315    0.449   85.509
  516.750   19.068    0.308    0.446   89.864
  517.000   18.002    0.304    0.446   93.422
  517.250   16.343    0.299    0.448   96.796
  517.500   14.134    0.292    0.439   99.128
  517.750   12.854    0.284    0.424  100.417
  518.000   11.648    0.275    0.403   98.641
  518.250   10.835    0.266    0.390   97.722
  518.500   10.231    0.251    0.384   98.704
  518.750    9.537    0.242    0.388  100.423
  519.000    9.226    0.242    0.396  101.773
  519.250    8.744    0.248    0.394  102.265
  519.500    8.350    0.263    0.391  103.922
  519.750    7.960    0.275    0.406  104.905
  520.000    7.671    0.272    0.435  103.127
  520.250    7.339    0.256    0.466   83.689
  520.500    8.973    0.264    0.459   61.245
  520.750   12.252    0.278    0.414   54.501
  521.000   15.845    0.290    0.387   49.719
  521.250   20.569    0.301    0.386   56.098
  521.500   27.309    0.320    0.397   60.576
  521.750   32.100    0.332    0.411   64.563
  522.000   25.906    0.333    0.413   64.136
  522.250   23.039    0.289    0.401   56.655
  522.500   20.875    0.293    0.390   48.991
  522.750   20.655    0.307    0.385   41.449
  523.000   22.952    0.318    0.384   40.592
  523.250   27.395    0.317    0.394   50.712
  523.500   30.847   -0.011    0.365   58.502
  523.750   32.036   -0.000    0.315   67.150
