~VERSION INFORMATION
 VERS.                 2.0:   CWLS LOG ASCII STANDARD -VERSION 2.0
 WRAP.                  NO:   ONE LINE PER DEPTH STEP
~WELL INFORMATION BLOCK
#MNEM.UNIT           DATA                    DESCRIPTION OF MNEMONIC
#---------    -------------------            -------------------------------
# Generated from Intellog Unique Number	CW_70_72/WELL/3016
NULL.         -999.25                        : NULL_VALUE
WELL.         GULF CHISHOLM 07-10            : Well_name    - WELL              
LOC .         07-10-070-26W4                 : Location     - LOCATION          
UWI .         00/07-10-070-26W4/0            : Uwi          - UNIQUE WELL ID    
ENTR.         J                              : Entered      - ENTERED BY        
SRVC.         SCHLUMBERGER                   : Scn          - SERVICE COMPANY   
DATE.         12 MAR 77                      : Date         - LOG DATE          
STRT.M        463.296                        : top_depth    - START DEPTH       
STOP.M        701.046                        : bot_depth    - STOP DEPTH        
STEP.M        0.25                           : increment    - STEP LENGTH       
~CURVE INFORMATION BLOCK
#MNEM UNIT       ERCB CURVE CODE    CURVE DESCRIPTION
#-----------   ------------------   ----------------------------------
DEPT.M        00 001 00 00         : DEPTH        - DEPTH                       
ILD .OHMM     00 120 00 00         : RESD         - DEEP RESISTIVITY (DIL)      
CALI.MM       00 280 01 00         : CAL          - CALIPER                     
GR  .API      00 310 00 00         : GR           - GAMMA RAY                   
NPHI.V/V      00 330 00 00         : PHIN         - NEUTRON POROSITY (SANDSTONE)
DPHI.V/V      00 890 00 00         : PHID         - DENSITY POROSITY (SANDSTONE)
~PARAMETER INFORMATION       
#MNEM.UNIT           DATA             DESCRIPTION OF MNEMONIC
#---------         -----------     ------------------------------
GL  .M        638.861              : gl           - GROUND LEVEL ELEVATION      
EREF.M        642.214              : kb           - ELEVATION OF DEPTH REFERENCE
DATM.M        638.861              : datum        - DATUM ELEVATION             
TDD .M        701.345              : tdd          - TOTAL DEPTH DRILLER         
RUN .         ONE                  : Run          - RUN NUMBER                  
ENG .         FIGGURES             : Engineer     - RECORDING ENGINEER          
WIT .         LANE                 : Witness      - WITNESSED BY                
BASE.         EDM                  : Branch       - HOME BASE OF LOGGING UNIT   
MATR.         SANDSTONE            : Logunit      - NEUTRON MATRIX              
TMAX.C        25.5556              : BHT          - MAXIMUM RECORDED TEMPERATURE
BHTD.M        701.345              : BHTDEP       - MAXIMUM RECORDED TEMPERATURE
RMT .C        16.6667              : MDTP         - TEMPERATURE OF MUD          
MUDD.KG/M     1116                 : MWT          - MUD DENSITY                 
NEUT.         1                    : NEUTRON      - NEUTRON TYPE                
RESI.         0                    : RESIST       - RESISTIVITY TYPE            
RM  .OHMM     0.54                 : RM           - RESISTIVITY OF MUD          
RMC .OHMM     0.25                 : RMC          - RESISTIVITY OF MUD CAKE     
RMF .OHMM     0.25                 : RMF          - RESISTIVITY OF MUD FILTRATE 
SUFT.C        -17.7778             : SUFT         - SURFACE TEMPERATURE         
~A  DEPTH     RESD      CAL       GR     PHIN     PHID
  463.296    2.612  168.698  128.952    0.525    0.229
  463.546    2.577  175.880  131.373    0.539    0.227
  463.796    2.515  174.432  130.881    0.541    0.241
  464.046    2.405  172.778  126.447    0.517    0.262
  464.296    2.292  172.973  123.167    0.500    0.252
  464.546    2.224  172.450  118.005    0.496    0.243
  464.796    2.174  179.733  121.335    0.514    0.268
  465.046    2.172  170.377  126.970    0.543    0.293
  465.296    2.207  166.361  128.541    0.528    0.269
  465.546    2.271  163.373  129.748    0.518    0.229
  465.796    2.354  161.204  131.078    0.511    0.218
  466.046    2.365  160.373  132.224    0.501    0.202
  466.296    2.303  159.234  134.280    0.491    0.184
  466.546    2.175  158.815  134.274    0.511    0.146
  466.796    2.142  157.877  133.238    0.520    0.200
  467.046    2.156  157.561  128.926    0.530    0.213
  467.296    2.247  157.757  124.310    0.536    0.215
  467.546    2.465  158.775  118.785    0.547    0.237
  467.796    2.815  165.851  112.228    0.564    0.246
  468.046    3.065  174.675  104.701    0.577    0.281
  468.296    3.218  178.979   93.777    0.519    0.306
  468.546    3.239  161.817   88.374    0.488    0.247
  468.796    3.155  156.056   84.607    0.452    0.203
  469.046    3.136  152.861   84.965    0.413    0.199
  469.296    3.220  151.620   88.112    0.425    0.208
  469.546    3.475  151.095   89.563    0.441    0.209
  469.796    3.661  151.187   91.134    0.454    0.211
  470.046    3.652  151.795   92.160    0.446    0.227
  470.296    3.380  154.354   93.306    0.422    0.196
  470.546    3.032  159.376   96.514    0.425    0.157
  470.796    2.810  161.523   99.724    0.440    0.138
  471.046    2.554  159.254  103.054    0.461    0.137
  471.296    2.275  155.136   95.528    0.471    0.203
  471.546    2.113  153.071   80.297    0.457    0.211
  471.796    2.038  151.727   68.100    0.449    0.203
  472.046    1.961  149.968   59.360    0.443    0.240
  472.296    1.948  149.652   56.867    0.436    0.286
  472.546    2.038  149.845   61.835    0.427    0.290
  472.796    2.231  149.838   68.076    0.420    0.282
  473.046    2.502  149.932   78.079    0.407    0.277
  473.296    2.780  150.332   85.655    0.397    0.247
  473.546    3.044  151.555   90.623    0.404    0.241
  473.796    3.278  152.676   93.346    0.422    0.251
  474.046    3.405  154.102   95.343    0.411    0.234
  474.296    3.384  155.017   99.461    0.419    0.245
  474.546    3.321  155.418  103.883    0.435    0.230
  474.796    3.245  154.688   99.753    0.449    0.226
  475.046    3.189  153.859   92.529    0.460    0.220
  475.296    3.124  152.309   86.034    0.452    0.227
  475.546    3.133  150.961   80.143    0.435    0.240
  475.796    3.349  150.543   77.470    0.422    0.251
  476.046    3.868  150.530   74.734    0.422    0.250
  476.296    4.266  150.828   73.091    0.427    0.241
  476.546    4.749  151.334   72.357    0.422    0.217
  476.796    5.344  150.915   71.987    0.414    0.231
  477.046    6.284  150.082   72.224    0.402    0.240
  477.296    9.253  150.690   69.852    0.382    0.214
  477.546   11.793  151.294   65.600    0.334    0.175
  477.796   13.222  151.902   62.138    0.302    0.130
  478.046   14.242  153.433   59.341    0.294    0.138
  478.296   13.973  154.859   58.062    0.285    0.151
  478.546   11.109  154.747   57.329    0.282    0.122
  478.796    8.076  156.177   58.293    0.283    0.115
  479.046    6.260  156.268   62.836    0.288    0.127
  479.296    5.067  154.307   67.257    0.314    0.111
  479.546    3.993  152.141   70.953    0.338    0.121
  479.796    3.478  148.845   76.528    0.371    0.151
  480.046    3.003  146.986   77.189    0.414    0.185
  480.296    2.645  148.106   74.513    0.442    0.237
  480.546    2.425  148.917   71.961    0.440    0.268
  480.796    2.324  149.832   69.408    0.436    0.278
  481.046    2.268  151.056   68.128    0.443    0.286
  481.296    2.250  151.866   70.609    0.464    0.271
  481.546    2.247  152.370   69.996    0.468    0.277
  481.796    2.259  153.079   69.202    0.462    0.280
  482.046    2.277  153.480   69.439    0.453    0.277
  482.296    2.284  153.470   71.858    0.444    0.282
  482.546    2.295  153.154   73.309    0.436    0.271
  482.796    2.340  152.836   74.335    0.432    0.259
  483.046    2.425  152.823   74.449    0.445    0.255
  483.296    2.505  152.816   74.626    0.451    0.237
  483.546    2.597  152.189   76.926    0.448    0.251
  483.796    2.666  151.975   81.833    0.437    0.264
  484.046    2.835  152.273   91.471    0.424    0.268
  484.296    2.998  154.727   99.654    0.407    0.243
  484.546    3.171  157.285  112.750    0.407    0.215
  484.796    3.210  158.098  119.598    0.411    0.183
  485.046    3.143  157.471  121.291    0.417    0.168
  485.296    3.039  156.024  110.609    0.416    0.172
  485.546    2.891  154.882   99.322    0.406    0.191
  485.796    2.764  154.567   92.826    0.394    0.206
  486.046    2.606  154.248   96.216    0.381    0.209
  486.296    2.429  154.340   97.788    0.381    0.197
  486.546    2.340  154.228   94.447    0.386    0.186
  486.796    2.226  154.011   88.435    0.390    0.176
  487.046    2.156  154.004   82.303    0.393    0.187
  487.296    2.130  154.302   78.295    0.395    0.209
  487.546    2.180  153.982   80.290    0.388    0.233
  487.796    2.151  153.871   77.495    0.375    0.231
  488.046    2.330  152.937   83.918    0.359    0.237
  488.296    2.565  153.232   90.706    0.362    0.220
  488.546    2.814  154.044   97.372    0.376    0.209
  488.796    3.082  154.653  102.582    0.390    0.200
  489.046    3.234  155.979  107.246    0.401    0.187
  489.296    3.555  156.996  112.518    0.399    0.195
  489.546    3.759  158.014  119.852    0.395    0.188
  489.796    3.777  159.133  125.608    0.406    0.179
  490.046    3.540  160.562  128.574    0.412    0.164
  490.296    3.264  161.270  128.387    0.406    0.152
  490.546    2.998  161.877  127.168    0.400    0.154
  490.796    2.651  161.971  123.704    0.396    0.180
  491.046    2.430  162.371  123.153    0.415    0.218
  491.296    2.106  163.389  126.422    0.462    0.240
  491.546    1.960  166.049  128.055    0.575    0.295
  491.796    2.042  163.061  129.869    0.591    0.318
  492.046    2.303  168.804  131.621    0.569    0.302
  492.296    2.540  173.313  132.828    0.590    0.305
  492.546    2.869  177.000  133.915    0.569    0.279
  492.796    3.085  159.837  135.365    0.503    0.290
  493.046    3.215  157.980  129.839    0.456    0.260
  493.296    3.277  158.380  119.947    0.436    0.173
  493.546    3.323  158.986  110.721    0.438    0.165
  493.796    3.352  159.594  116.599    0.462    0.158
  494.046    3.392  159.685  116.411    0.463    0.149
  494.296    3.452  159.574  110.037    0.448    0.197
  494.546    3.513  158.741  103.116    0.432    0.191
  494.796    3.588  157.293  100.805    0.445    0.199
  495.046    3.686  156.256  102.802    0.449    0.221
  495.296    3.737  155.322  103.279    0.443    0.218
  495.546    3.775  154.901  104.852    0.451    0.207
  495.796    3.773  154.790  108.061    0.448    0.198
  496.046    3.736  155.499  105.143    0.440    0.202
  496.296    3.586  156.104  104.955    0.445    0.194
  496.546    3.385  157.225  107.376    0.460    0.203
  496.796    3.104  159.475  110.767    0.465    0.191
  497.046    2.841  160.697  109.548    0.463    0.183
  497.296    2.549  157.606  103.295    0.457    0.181
  497.546    2.346  155.131   93.767    0.469    0.200
  497.796    2.071  153.785   85.754    0.466    0.226
  498.046    2.035  153.572   76.590    0.454    0.269
  498.296    2.041  153.253   73.733    0.452    0.303
  498.546    2.131  153.655   79.186    0.462    0.285
  498.796    2.213  153.953   86.337    0.461    0.273
  499.046    2.281  154.971   92.215    0.445    0.264
  499.296    2.313  156.604  106.281    0.433    0.254
  499.546    2.333  159.469  113.858    0.473    0.215
