~VERSION INFORMATION
 VERS.                 2.0:   CWLS LOG ASCII STANDARD -VERSION 2.0
 WRAP.                  NO:   ONE LINE PER DEPTH STEP
~WELL INFORMATION BLOCK
#MNEM.UNIT           DATA                    DESCRIPTION OF MNEMONIC
#---------    -------------------            -------------------------------
# Generated from Intellog Unique Number	CS_73_76/WELL/2162
WELL.         HOUSTON OILS LIMITED           : Well_name    - WELL
LOC .         00/06-08-074-14W4/0            : Location     - LOCATION
UWI .         00/06-08-074-14W4/0            : Uwi          - UNIQUE WELL ID
ENTR.         SP                             : Entered      - ENTERED BY
SRVC.         SCHLUMBERGER                   : Scn          - SERVICE COMPANY
STRT.M        365.76                         : top_depth    - START DEPTH
STOP.M        600.26                         : bot_depth    - STOP DEPTH
STEP.M        0.25                           : increment    - STEP LENGTH
 NULL. -999.2500:NULL Value
~CURVE INFORMATION BLOCK
#MNEM UNIT       ERCB CURVE CODE    CURVE DESCRIPTION
#-----------   ------------------   ----------------------------------
DEPT.M        00 001 00 00         : DEPTH        - DEPTH
GR  .API      00 310 00 00         : GR           - GAMMA RAY
DPHI.V/V      00 890 00 00         : PHID         - DENSITY POROSITY (SANDSTONE)
NPHI.V/V      00 330 00 00         : PHIN         - NEUTRON POROSITY (SANDSTONE)
ILD .OHMM     00 120 00 00         : RESD         - DEEP RESISTIVITY (DIL)
~PARAMETER INFORMATION
#MNEM.UNIT           DATA             DESCRIPTION OF MNEMONIC
#---------         -----------     ------------------------------
GL  .M        712.318              : gl           - GROUND LEVEL ELEVATION
EREF.M        715.366              : kb           - ELEVATION OF DEPTH REFERENCE
DATM.M        712.318              : datum        - DATUM ELEVATION
TDD .M        611.124              : tdd          - TOTAL DEPTH DRILLER
RUN .         ONE                  : Run          - RUN NUMBER
ENG .         BILL                 : Engineer     - RECORDING ENGINEER
WIT .         JIM                  : Witness      - WITNESSED BY
MUD .         GEL                  : Mud_type     - MUD TYPE
MATR.         SANDSTONE            : Logunit      - NEUTRON MATRIX
TMAX.C        25.5556              : BHT          - MAXIMUM RECORDED TEMPERATURE
BHTD.M        611.124              : BHTDEP       - MAXIMUM RECORDED TEMPERATURE
MATR.         1                    : LOGUNIT      - NEUTRON MATRIX
RMT .C        25                   : MDTP         - TEMPERATURE OF MUD
NEUT.         1                    : NEUTRON      - NEUTRON TYPE
RESI.         0                    : RESIST       - RESISTIVITY TYPE
RMC .OHMM     0.25                 : RMC          - RESISTIVITY OF MUD CAKE
RMF .OHMM     0.25                 : RMF          - RESISTIVITY OF MUD FILTRATE
SUFT.C        15                   : SUFT         - SURFACE TEMPERATURE
~A  DEPTH       GR     PHID     PHIN     RESD
# ...
  409.260  102.123    0.239    0.535    7.232
  409.510   99.550    0.265    0.522    7.376
  409.760  101.753    0.253    0.517    7.609
  410.010  101.172    0.259    0.531    7.635
  410.260   98.292    0.254    0.544    7.637
  410.510   97.525    0.227    0.563    7.573
  410.760   99.001    0.244    0.556    7.187
  411.010   98.914    0.257    0.620    6.859
  411.260   98.004    0.274    0.649    6.576
  411.510   96.228    0.284    0.662    6.480
  411.760   92.720    0.253    0.646    6.457
  412.010   89.621    0.243    0.614    6.833
  412.260   84.273    0.271    0.583    7.251
  412.510   81.913    0.301    0.553    7.597
  412.760   80.312    0.294    0.532    7.830
  413.010   84.088    0.293    0.521    7.906
  413.260   86.187    0.298    0.506    7.817
  413.510   88.000    0.301    0.496    7.579
  413.760   89.374    0.283    0.495    7.348
  414.010   89.190    0.295    0.508    7.353
  414.260   86.706    0.305    0.532    7.391
  414.510   84.206    0.291    0.561    7.733
  414.760   82.887    0.297    0.521    8.210
  415.010   81.754    0.303    0.520    8.514
  415.260   85.876    0.315    0.521    8.775
  415.510   90.784    0.303    0.528    9.052
  415.760   96.731    0.273    0.528    9.131
  416.010  100.263    0.263    0.521    9.131
  416.260  100.788    0.282    0.496    9.128
  416.510  100.200    0.295    0.472    9.127
  416.760  101.187    0.280    0.478    9.236
  417.010  102.041    0.282    0.493    9.287
  417.260  102.493    0.270    0.501    9.293
  417.510  107.173    0.267    0.507    9.386
  417.760  113.900    0.269    0.494    9.457
  418.010  110.435    0.271    0.484    9.442
  418.260  105.537    0.278    0.500    9.630
  418.510   98.285    0.305    0.533    9.814
  418.760   83.081    0.345    0.548    9.916
  419.010   65.980    0.430    0.581   10.509
  419.260   55.788    0.514    0.598   11.154
  419.510   46.246    0.591    0.585   11.730
  419.760   41.376    0.603    0.832   11.821
  420.010   48.181    0.527    0.698   11.976
  420.260   53.100    0.404    0.628   11.859
  420.510   57.031    0.298    0.491   11.489
  420.760   58.446    0.309    0.446   11.161
  421.010   57.770    0.324    0.451   10.584
  421.260   57.778    0.330    0.469   10.510
  421.510   57.274    0.334    0.483   10.186
  421.760   56.188    0.342    0.506    9.943
  422.010   54.972    0.349    0.491    9.949
  422.260   57.248    0.349    0.468    9.786
  422.510   57.286    0.345    0.454    9.581
  422.760   57.293    0.355    0.458    9.598
  423.010   57.250    0.352    0.461    9.481
  423.260   58.099    0.348    0.450    9.428
  423.510   59.488    0.342    0.444    9.413
  423.760   65.055    0.335    0.446    9.127
  424.010   68.459    0.342    0.440    8.926
  424.260   69.337    0.338    0.450    8.911
  424.510   68.660    0.338    0.477    8.911
  424.760   67.964    0.342    0.491    8.913
  425.010   65.900    0.344    0.490    8.778
  425.260   65.928    0.342    0.448    8.749
  425.510   66.936    0.340    0.439    8.742
  425.760   67.935    0.342    0.469    8.759
  426.010   69.004    0.345    0.493    8.574
  426.260   68.169    0.347    0.499    8.431
  426.510   66.727    0.353    0.491    8.181
  426.760   69.386    0.364    0.488    7.938
  427.010   71.679    0.375    0.511    7.694
  427.260   72.402    0.370    0.544    7.671
  427.510   71.500    0.363    0.548    7.833
  427.760   70.996    0.363    0.500    7.921
  428.010   70.981    0.354    0.466    8.346
  428.260   68.565    0.350    0.473    8.585
  428.510   66.388    0.359    0.486    8.716
  428.760   67.263    0.354    0.488    8.905
  429.010   67.578    0.345    0.491    8.883
  429.260   66.416    0.353    0.487    9.056
  429.510   65.061    0.346    0.478    9.043
  429.760   64.031    0.349    0.466    9.040
  430.010   64.402    0.358    0.459    9.021
  430.260   64.790    0.358    0.449    9.219
  430.510   66.345    0.366    0.443    9.202
  430.760   67.349    0.358    0.452    9.219
  431.010   67.559    0.362    0.474    9.025
  431.260   66.496    0.352    0.480    8.915
  431.510   66.201    0.354    0.510    8.693
  431.760   65.842    0.357    0.516    8.703
  432.010   65.822    0.357    0.510    8.719
  432.260   65.636    0.365    0.523    8.526
  432.510   62.298    0.375    0.533    8.542
  432.760   61.601    0.370    0.535    8.542
  433.010   62.307    0.362    0.516    8.547
  433.260   62.806    0.358    0.521    8.394
  433.510   63.802    0.359    0.524    8.385
  433.760   64.809    0.365    0.510    8.379
  434.010   65.252    0.363    0.537    8.378
  434.260   65.942    0.355    0.547    8.373
  434.510   65.871    0.361    0.553    8.364
  434.760   64.114    0.363    0.561    8.214
  435.010   61.086    0.354    0.564    8.219
  435.260   62.328    0.355    0.545    8.219
  435.510   63.377    0.362    0.559    8.217
  435.760   63.550    0.357    0.562    8.216
  436.010   62.952    0.355    0.562    8.214
  436.260   62.659    0.356    0.564    8.198
  436.510   61.735    0.361    0.547    8.384
  436.760   61.217    0.368    0.532    8.222
  437.010   61.132    0.374    0.513    8.133
  437.260   61.874    0.364    0.526    8.045
  437.510   62.324    0.364    0.544    7.904
  437.760   62.929    0.363    0.558    7.910
  438.010   60.493    0.352    0.548    7.910
  438.260   59.964    0.354    0.550    7.801
  438.510   59.844    0.361    0.551    7.767
  438.760   58.804    0.359    0.562    7.761
  439.010   58.483    0.361    0.585    7.759
  439.260   57.507    0.359    0.563    7.758
  439.510   58.277    0.361    0.541    7.757
  439.760   56.544    0.358    0.534    7.759
  440.010   57.816    0.356    0.537    7.776
  440.260   59.398    0.359    0.548    7.901
  440.510   59.699    0.366    0.552    7.896
  440.760   60.014    0.375    0.540    7.895
  441.010   60.468    0.376    0.535    7.848
  441.260   61.500    0.370    0.528    8.383
  441.510   61.829    0.368    0.525    8.334
  441.760   60.856    0.359    0.535    8.331
  442.010   60.011    0.356    0.538    8.331
  442.260   60.062    0.363    0.534    8.327
  442.510   59.866    0.360    0.508    8.235
  442.760   63.072    0.359    0.502    8.179
  443.010   66.969    0.364    0.536    8.173
  443.260   69.569    0.367    0.545    8.172
  443.510   68.209    0.354    0.545    8.171
  443.760   67.277    0.364    0.557    8.167
  444.010   66.545    0.355    0.550    8.119
  444.260   67.292    0.361    0.527    7.871
  444.510   65.334    0.354    0.512    7.763
  444.760   64.040    0.349    0.531    7.689
  445.010   64.302    0.344    0.543    7.586
  445.260   65.964    0.339    0.534    7.708
  445.510   68.920    0.329    0.538    8.070
  445.760   69.711    0.301    0.512    8.293
  446.010   69.772    0.273    0.497    8.524
  446.260   69.075    0.234    0.389    8.951
  446.510   68.639    0.267    0.411    9.084
  446.760   67.802    0.312    0.484    8.844
  447.010   69.326    0.339    0.535    8.589
  447.260   74.393    0.347    0.562    8.350
  447.510   76.936    0.340    0.571    7.925
  447.760   78.647    0.342    0.575    7.705
  448.010   75.017    0.340    0.566    7.480
  448.260   73.432    0.339    0.542    7.289
  448.510   77.384    0.326    0.532    7.293
  448.760   81.150    0.321    0.551    7.430
  449.010   79.381    0.319    0.558    7.607
  449.260   75.918    0.319    0.559    7.710
  449.510   78.073    0.309    0.565    7.401
  449.760   83.128    0.309    0.578    6.305
  450.010   90.344    0.311    0.658    4.966
  450.260   94.711    0.297    0.680    3.876
  450.510  100.468    0.262    0.618    3.107
  450.760  102.093    0.245    0.610    2.464
  451.010  101.469    0.270    0.632    2.108
  451.260   99.674    0.262    0.654    1.848
  451.510   96.059    0.244    0.667    1.631
  451.760   93.170    0.225    0.653    1.559
  452.010   97.039    0.217    0.636    1.709
  452.260  100.232    0.213    0.613    2.059
  452.510  100.022    0.212    0.622    2.112
