~VERSION INFORMATION
 VERS.                 2.0:   CWLS LOG ASCII STANDARD -VERSION 2.0
 WRAP.                  NO:   ONE LINE PER DEPTH STEP
~WELL INFORMATION BLOCK
#MNEM.UNIT           DATA                    DESCRIPTION OF MNEMONIC
#---------    -------------------            -------------------------------
# Generated from Intellog Unique Number	CS_73_76/WELL/699
WELL.         PEX KIRBY                      : Well_name    - WELL
LOC .         00/06-34-073-08W4/0            : Location     - LOCATION
UWI .         00/06-34-073-08W4/0            : Uwi          - UNIQUE WELL ID
ENTR.         SP                             : Entered      - ENTERED BY
SRVC.         SCHLUMBERGER                   : Scn          - SERVICE COMPANY
STRT.M        325                            : top_depth    - START DEPTH
STOP.M        550                            : bot_depth    - STOP DEPTH
STEP.M        0.25                           : increment    - STEP LENGTH
 NULL. -999.2500:NULL Value
~CURVE INFORMATION BLOCK
#MNEM UNIT       ERCB CURVE CODE    CURVE DESCRIPTION
#-----------   ------------------   ----------------------------------
DEPT.M        00 001 00 00         : DEPTH        - DEPTH
ILD .OHMM     00 120 00 00         : RESD         - DEEP RESISTIVITY (DIL)
DPHI.V/V      00 890 00 00         : PHID         - DENSITY POROSITY (LIMESTONE)
NPHI.V/V      00 330 00 00         : PHIN         - NEUTRON POROSITY (LIMESTONE)
GR  .API      00 310 00 00         : GR           - GAMMA RAY
~PARAMETER INFORMATION
#MNEM.UNIT           DATA             DESCRIPTION OF MNEMONIC
#---------         -----------     ------------------------------
GL  .M        705.44               : gl           - GROUND LEVEL ELEVATION
EREF.M        708.84               : kb           - ELEVATION OF DEPTH REFERENCE
DATM.M        705.44               : datum        - DATUM ELEVATION
TDD .M        555                  : tdd          - TOTAL DEPTH DRILLER
RUN .         ONE                  : Run          - RUN NUMBER
ENG .         BILL                 : Engineer     - RECORDING ENGINEER
WIT .         JIM                  : Witness      - WITNESSED BY
MUD .         GEL                  : Mud_type     - MUD TYPE
MATR.         LIMESTONE            : Logunit      - NEUTRON MATRIX
TMAX.C        20                   : BHT          - MAXIMUM RECORDED TEMPERATURE
BHTD.M        555                  : BHTDEP       - MAXIMUM RECORDED TEMPERATURE
MATR.         1                    : LOGUNIT      - NEUTRON MATRIX
RMT .C        25                   : MDTP         - TEMPERATURE OF MUD
NEUT.         1                    : NEUTRON      - NEUTRON TYPE
RESI.         0                    : RESIST       - RESISTIVITY TYPE
RMC .OHMM     0.25                 : RMC          - RESISTIVITY OF MUD CAKE
RMF .OHMM     0.25                 : RMF          - RESISTIVITY OF MUD FILTRATE
SUFT.C        15                   : SUFT         - SURFACE TEMPERATURE
~A  DEPTH     RESD     PHID     PHIN       GR
# ...
  455.500    6.040    0.190    0.364   81.908
  455.750    5.819    0.183    0.367   80.065
  456.000    5.820    0.183    0.356   80.672
  456.250    5.931    0.181    0.358   81.891
  456.500    6.160    0.180    0.361   81.273
  456.750    6.161    0.177    0.372   77.592
  457.000    6.279    0.185    0.383   77.587
  457.250    6.280    0.193    0.386   79.416
  457.500    6.401    0.198    0.375   81.248
  457.750    6.523    0.198    0.380   81.241
  458.000    6.524    0.188    0.386   80.624
  458.250    6.525    0.184    0.391   80.006
  458.500    6.527    0.182    0.374   80.610
  458.750    6.528    0.191    0.368   82.441
  459.000    6.530    0.202    0.366   81.823
  459.250    6.531    0.202    0.369   81.817
  459.500    6.533    0.203    0.376   81.812
  459.750    6.535    0.195    0.379   81.193
  460.000    6.415    0.190    0.383   79.349
  460.250    6.416    0.184    0.391   80.567
  460.500    6.067    0.181    0.396   83.010
  460.750    5.737    0.187    0.388   85.453
  461.000    5.527    0.190    0.385   86.673
  461.250    5.227    0.195    0.416   86.052
  461.500    5.036    0.206    0.422   84.824
  461.750    4.673    0.202    0.424   82.369
  462.000    4.337    0.201    0.407   81.138
  462.250    3.735    0.195    0.430   80.519
  462.500    3.466    0.196    0.440   81.125
  462.750    3.099    0.202    0.438   81.119
  463.000    2.876    0.217    0.428   82.338
  463.250    2.771    0.226    0.444   78.046
  463.500    2.572    0.231    0.432   79.876
  463.750    2.524    0.235    0.425   81.708
  464.000    2.432    0.242    0.425   82.925
  464.250    2.388    0.235    0.428   80.470
  464.500    2.388    0.230    0.424   78.016
  464.750    2.434    0.221    0.436   81.681
  465.000    2.527    0.219    0.419   83.514
  465.250    2.724    0.208    0.416   81.670
  465.500    2.993    0.201    0.436   82.886
  465.750    3.166    0.209    0.445   82.271
  466.000    3.478    0.213    0.411   79.814
  466.250    3.749    0.213    0.387   77.359
  466.500    4.275    0.197    0.373   76.128
  466.750    4.874    0.195    0.382   74.898
  467.000    5.254    0.201    0.384   74.281
  467.250    5.991    0.212    0.388   73.662
  467.500    7.502    0.207    0.360   71.819
  467.750   10.709    0.234    0.343   69.364
  468.000   14.452    0.258    0.319   65.071
  468.250   19.141    0.277    0.335   63.229
  468.500   19.876    0.299    0.338   62.000
  468.750   19.514    0.322    0.329   61.381
  469.000   19.517    0.314    0.331   60.151
  469.250   19.891    0.307    0.336   57.696
  469.500   22.681    0.314    0.347   56.464
  469.750   27.356    0.325    0.337   55.233
  470.000   30.048    0.298    0.337   56.452
  470.250   31.792    0.290    0.342   58.894
  470.500   32.398    0.290    0.335   60.726
  470.750   31.806    0.286    0.325   61.944
  471.000   31.220    0.289    0.344   61.938
  471.250   29.524    0.285    0.349   60.095
  471.500   27.921    0.278    0.348   58.864
  471.750   27.407    0.289    0.349   60.081
  472.000   27.413    0.295    0.350   61.300
  472.250   27.421    0.303    0.361   61.295
  472.500   27.942    0.295    0.354   59.450
  472.750   31.864    0.279    0.361   58.220
  473.000   37.019    0.274    0.335   56.377
  473.250   46.352    0.264    0.295   55.148
  473.500   72.659    0.234    0.274   53.918
  473.750  113.896    0.168    0.232   52.072
  474.000  185.349    0.009    0.174   51.455
  474.250  285.153    0.000    0.145   50.837
  474.500  509.597    0.000    0.155   50.220
  474.750  407.153    0.025    0.162   54.499
  475.000  178.711    0.062    0.200   59.391
  475.250   96.367    0.114    0.247   59.998
  475.500   49.130    0.222    0.291   58.765
  475.750   29.095    0.283    0.348   56.924
  476.000   24.589    0.275    0.357   59.365
  476.250   22.821    0.278    0.357   59.973
  476.500   21.987    0.279    0.347   58.129
  476.750   21.993    0.273    0.358   57.512
  477.000   22.413    0.261    0.356   57.506
  477.250   24.621    0.275    0.357   56.887
  477.500   25.565    0.281    0.370   55.656
  477.750   27.047    0.261    0.359   55.036
  478.000   28.614    0.210    0.337   55.031
  478.250   30.847    0.176    0.325   56.862
  478.500   32.031    0.252    0.346   59.917
  478.750   30.288    0.280    0.362   61.137
  479.000   27.587    0.292    0.369   60.517
  479.250   26.087    0.291    0.379   58.675
  479.500   25.610    0.283    0.382   55.608
  479.750   25.619    0.278    0.393   56.827
  480.000   26.601    0.272    0.412   58.654
  480.250   27.110    0.258    0.397   57.426
  480.500   28.150    0.233    0.381   56.196
  480.750   28.686    0.220    0.371   58.026
  481.000   29.237    0.234    0.379   59.245
  481.250   28.700    0.272    0.376   56.176
  481.500   28.175    0.296    0.381   58.007
  481.750   26.149    0.303    0.378   59.838
  482.000   25.192    0.297    0.385   59.832
  482.250   23.380    0.285    0.379   59.213
  482.500   21.699    0.283    0.395   59.819
  482.750   21.300    0.274    0.392   59.202
  483.000   20.911    0.282    0.408   56.746
  483.250   20.918    0.308    0.407   59.189
  483.500   20.922    0.313    0.404   61.020
  483.750   20.538    0.294    0.403   62.851
  484.000   20.160    0.288    0.378   64.067
  484.250   18.710    0.284    0.369   63.450
  484.500   16.727    0.276    0.370   61.607
  484.750   14.676    0.251    0.364   60.376
  485.000   13.367    0.108    0.346   60.372
  485.250   11.297    0.145    0.329   67.710
  485.500    9.548    0.182    0.327   71.378
  485.750    8.377    0.204    0.338   71.985
  486.000    7.350    0.211    0.344   66.469
  486.250    7.491    0.230    0.357   60.953
  486.500    8.542    0.224    0.340   57.886
  486.750    9.559    0.210    0.339   57.267
  487.000   10.498    0.193    0.339   56.037
  487.250   14.168    0.186    0.349   49.908
  487.500   19.481    0.205    0.338   44.392
  487.750   32.302    0.255    0.327   36.425
  488.000   51.591    0.289    0.320   33.359
  488.250   72.283    0.295    0.318   29.680
  488.500   79.389    0.283    0.320   25.388
  488.750   88.850    0.277    0.326   28.442
  489.000   94.002    0.278    0.315   29.660
  489.250   99.461    0.270    0.315   29.653
  489.500  101.366    0.267    0.309   29.649
  489.750   97.670    0.275    0.303   30.867
  490.000   94.100    0.280    0.298   32.084
  490.250   90.659    0.281    0.295   33.301
  490.500   87.344    0.282    0.320   33.298
  490.750   81.059    0.282    0.345   33.904
  491.000   73.832    0.292    0.349   34.509
  491.250   62.404    0.301    0.340   35.115
  491.500   56.837    0.304    0.343   35.109
  491.750   48.038    0.295    0.350   33.266
  492.000   42.942    0.291    0.360   35.097
  492.250   34.959    0.282    0.369   38.152
  492.500   30.102    0.280    0.373   39.983
  492.750   25.440    0.287    0.379   40.589
  493.000   23.172    0.291    0.395   41.196
  493.250   22.749    0.287    0.400   41.186
  493.500   23.621    0.305    0.391   41.182
  493.750   25.464    0.311    0.384   44.851
  494.000   27.451    0.295    0.357   53.416
  494.250   28.504    0.266    0.382   57.082
  494.500   23.645    0.254    0.357   58.912
  494.750   20.361    0.248    0.353   60.743
  495.000   17.532    0.242    0.360   63.798
  495.250   15.381    0.232    0.338   66.242
  495.500   13.245    0.226    0.351   69.298
  495.750   11.622    0.225    0.360   73.578
  496.000   10.389    0.223    0.355   79.694
  496.250    9.463    0.217    0.366   83.361
  496.500    8.782    0.209    0.348   86.416
  496.750    9.291    0.201    0.360   88.247
  497.000   10.595    0.196    0.364   87.014
  497.250   11.638    0.220    0.350   82.112
  497.500   12.545    0.257    0.343   70.474
  497.750   13.273    0.282    0.344   56.998
  498.000   12.788    0.273    0.345   63.113
  498.250   11.648    0.230    0.345   67.394
  498.500   10.030    0.208    0.351   72.897
  498.750    8.638    0.188    0.354   77.790
