~VERSION INFORMATION
 VERS.                 2.0:   CWLS LOG ASCII STANDARD -VERSION 2.0
 WRAP.                  NO:   ONE LINE PER DEPTH STEP
~WELL INFORMATION BLOCK
#MNEM.UNIT           DATA                    DESCRIPTION OF MNEMONIC
#---------    -------------------            -------------------------------
# Generated from Intellog Unique Number	CW_73_75/WELL/3515
WELL.         ULSTER PETROLEUMS LTD.         : Well_name    - WELL
LOC .         00/01-24-075-24W4/0            : Location     - LOCATION
UWI .         00/01-24-075-24W4/0            : Uwi          - UNIQUE WELL ID
ENTR.         JOETTE                         : Entered      - ENTERED BY
SRVC.         SCHLUMBERGER                   : Scn          - SERVICE COMPANY
DATE.         05/22/92                       : Date         - LOG DATE
STRT.M        375                            : top_depth    - START DEPTH
STOP.M        610                            : bot_depth    - STOP DEPTH
STEP.M        0.25                           : increment    - STEP LENGTH
 NULL. -999.2500:NULL Value
~CURVE INFORMATION BLOCK
#MNEM UNIT       ERCB CURVE CODE    CURVE DESCRIPTION
#-----------   ------------------   ----------------------------------
DEPT.M        00 001 00 00         : DEPTH        - DEPTH
ILD .OHMM     00 120 00 00         : RESD         - DEEP RESISTIVITY (DIL)
DPHI.V/V      00 890 00 00         : PHID         - DENSITY POROSITY (SANDSTONE)
NPHI.V/V      00 330 00 00         : PHIN         - NEUTRON POROSITY (SANDSTONE)
GR  .API      00 310 00 00         : GR           - GAMMA RAY
~PARAMETER INFORMATION
#MNEM.UNIT           DATA             DESCRIPTION OF MNEMONIC
#---------         -----------     ------------------------------
GL  .M        699.8                : gl           - GROUND LEVEL ELEVATION
EREF.M        703.6                : kb           - ELEVATION OF DEPTH REFERENCE
DATM.M        703.6                : datum        - DATUM ELEVATION
TDD .M        615                  : tdd          - TOTAL DEPTH DRILLER
RUN .         ONE                  : Run          - RUN NUMBER
ENG .         BILL                 : Engineer     - RECORDING ENGINEER
WIT .         JIM                  : Witness      - WITNESSED BY
MUD .         GEL                  : Mud_type     - MUD TYPE
MATR.         SANDSTONE            : Logunit      - NEUTRON MATRIX
TMAX.C        28                   : BHT          - MAXIMUM RECORDED TEMPERATURE
BHTD.M        615                  : BHTDEP       - MAXIMUM RECORDED TEMPERATURE
RMT .C        20                   : MDTP         - TEMPERATURE OF MUD
MUDD.KG/M     1130                 : MWT          - MUD DENSITY
NEUT.         1                    : NEUTRON      - NEUTRON TYPE
RESI.         0                    : RESIST       - RESISTIVITY TYPE
RM  .OHMM     3.1                  : RM           - RESISTIVITY OF MUD
RMC .OHMM     1.57                 : RMC          - RESISTIVITY OF MUD CAKE
RMF .OHMM     2.7                  : RMF          - RESISTIVITY OF MUD FILTRATE
SUFT.C        4                    : SUFT         - SURFACE TEMPERATURE
~A  DEPTH     RESD     PHID     PHIN       GR
# ...
  549.000    6.865    0.153    0.349   95.069
  549.250    6.879    0.142    0.355   97.475
  549.500    7.020    0.142    0.363   96.959
  549.750    7.299    0.138    0.380   99.967
  550.000    7.588    0.107    0.378  102.958
  550.250    7.603    0.137    0.368  101.256
  550.500    7.341    0.162    0.374   90.237
  550.750    7.352    0.151    0.385   92.626
  551.000    7.231    0.141    0.391   90.959
  551.250    7.253    0.130    0.363   89.257
  551.500    7.267    0.154    0.358   90.494
  551.750    7.277    0.175    0.374   94.653
  552.000    7.161    0.161    0.372   99.999
  552.250    7.172    0.143    0.368  101.838
  552.500    6.925    0.150    0.373   99.551
  552.750    6.687    0.145    0.384   97.884
  553.000    6.700    0.145    0.398   97.969
  553.250    6.716    0.152    0.397   99.189
  553.500    6.726    0.159    0.388  100.994
  553.750    6.865    0.163    0.377  101.647
  554.000    7.137    0.154    0.382   99.979
  554.250    7.154    0.147    0.382   99.446
  554.500    6.911    0.141    0.369   99.515
  554.750    6.795    0.144    0.364  100.752
  555.000    6.561    0.157    0.380  100.236
  555.250    6.335    0.170    0.396   96.798
  555.500    6.231    0.174    0.393  100.373
  555.750    6.606    0.177    0.405  106.302
  556.000    6.861    0.172    0.386  109.293
  556.250    7.136    0.149    0.380  109.963
  556.500    7.284    0.095    0.389  101.850
  556.750    7.164    0.106    0.391  100.165
  557.000    7.047    0.150    0.377   96.125
  557.250    7.064    0.173    0.348   93.839
  557.500    7.071    0.177    0.381   94.526
  557.750    7.217    0.157    0.382   98.668
  558.000    7.503    0.141    0.341   99.923
  558.250    7.665    0.137    0.347   97.654
  558.500    7.672    0.089    0.375   89.523
  558.750    7.834    0.097    0.369   88.406
  559.000    8.301    0.142    0.329   82.630
  559.250    7.583    0.172    0.342   82.716
  559.500    6.928    0.166    0.372   89.797
  559.750    6.689    0.162    0.378   91.619
  560.000    6.702    0.155    0.382   92.873
  560.250    6.715    0.147    0.383   94.111
  560.500    6.728    0.148    0.385   95.331
  560.750    6.741    0.149    0.388   96.585
  561.000    6.751    0.138    0.389   94.900
  561.250    6.768    0.164    0.391   91.462
  561.500    6.777    0.172    0.392   93.885
  561.750    6.794    0.156    0.395   94.521
  562.000    6.810    0.121    0.399   95.157
  562.250    6.817    0.158    0.390   96.428
  562.500    6.830    0.186    0.375   98.817
  562.750    6.843    0.195    0.344   95.964
  563.000    6.988    0.204    0.349   96.617
  563.250    7.269    0.208    0.373   99.023
  563.500    8.288    0.196    0.383   95.001
  563.750    9.277    0.148    0.377   88.623
  564.000   10.971    0.086    0.345   84.016
  564.250   14.516    0.110    0.326   81.163
  564.500   14.278    0.106    0.297   74.803
  564.750   13.287    0.110    0.303   57.322
  565.000   12.595    0.122    0.312   61.481
  565.250   12.848    0.106    0.327   71.519
  565.500   13.613    0.076    0.322   69.250
  565.750   13.633    0.078    0.314   67.548
  566.000   13.914    0.080    0.311   65.279
  566.250   13.686    0.074    0.303   63.611
  566.500   12.050    0.059    0.302   62.528
  566.750    9.858    0.067    0.302   61.978
  567.000    8.837    0.119    0.314   63.215
  567.250    8.073    0.152    0.327   77.911
  567.500    7.375    0.141    0.355   82.654
  567.750    6.991    0.131    0.379   86.814
  568.000    6.883    0.159    0.372   89.254
  568.250    6.893    0.157    0.348   86.383
  568.500    6.906    0.146    0.371   84.097
  568.750    6.916    0.149    0.372   99.979
  569.000    6.933    0.157    0.371  101.783
  569.250    7.079    0.151    0.376  105.358
  569.500    7.222    0.143    0.386  111.890
  569.750    7.367    0.124    0.361  108.452
  570.000    7.955    0.104    0.356  105.581
  570.250    8.115    0.104    0.343  102.710
  570.500    8.437    0.138    0.336   97.519
  570.750    8.615    0.152    0.330   88.254
  571.000    8.628    0.164    0.319   87.136
  571.250    8.645    0.157    0.310   88.391
  571.500    8.666    0.143    0.311   89.061
  571.750    8.682    0.149    0.317   90.264
  572.000    8.540    0.153    0.316   91.501
  572.250    8.400    0.149    0.312   93.340
  572.500    7.817    0.146    0.312   94.560
  572.750    7.274    0.145    0.315   97.585
  573.000    7.024    0.151    0.320  101.143
  573.250    7.034    0.161    0.329  104.133
  573.500    7.874    0.157    0.357  108.310
  573.750    9.150    0.142    0.369  107.777
  574.000   11.879    0.059    0.339  103.170
  574.250   11.684   -0.023    0.334   96.225
  574.500   10.099   -0.006    0.307   87.528
  574.750    9.221    0.058    0.266   75.891
  575.000    7.402    0.104    0.263   71.868
  575.250    6.639    0.145    0.296   83.625
  575.500    6.299    0.167    0.364   90.724
  575.750    6.305    0.153    0.388   98.389
  576.000    6.317    0.124    0.387  100.795
  576.250    6.448    0.089    0.414  101.465
  576.500    6.707    0.051    0.396   99.781
  576.750    6.716    0.078    0.359   93.403
  577.000    6.606    0.088    0.308   77.091
  577.250    6.148    0.103    0.309   82.437
  577.500    5.939    0.132    0.327   90.102
  577.750    5.954    0.115    0.367   93.093
  578.000    5.962    0.068    0.368   87.902
  578.250    6.202    0.099    0.341   83.896
  578.500    6.208    0.119    0.328   88.039
  578.750    6.220    0.122    0.361   95.722
  579.000    6.118    0.121    0.366   99.881
  579.250    5.290    0.123    0.366  102.871
  579.500    4.923    0.127    0.362  103.524
  579.750    4.758    0.124    0.357  100.103
  580.000    4.763    0.127    0.367  100.756
  580.250    4.685    0.137    0.370  103.162
  580.500    4.526    0.132    0.368  104.984
  580.750    4.366    0.126    0.377  105.654
  581.000    4.220    0.122    0.373  103.368
  581.250    4.224    0.088    0.368  101.081
  581.500    4.733    0.077    0.367  100.583
  581.750    4.920    0.120    0.361  102.404
  582.000    5.409    0.134    0.352   88.430
  582.250    5.618    0.144    0.340   93.758
  582.500    5.734    0.142    0.335   97.951
  582.750    4.956    0.157    0.341   98.020
  583.000    4.445    0.194    0.358  101.612
  583.250    3.773    0.188    0.459  106.321
  583.500    3.261    0.174    0.489  114.004
  583.750    3.149    0.161    0.514  111.735
  584.000    3.097    0.151    0.496  110.050
  584.250    3.160    0.139    0.459  109.517
  584.500    3.409    0.124    0.435  108.451
  584.750    3.887    0.112    0.410  107.317
  585.000    4.954    0.111    0.376  102.125
  585.250    5.754    0.108    0.351   94.029
  585.500    6.440    0.125    0.335   95.284
  585.750    6.821    0.127    0.365   94.166
  586.000    6.834    0.125    0.365   93.049
  586.250    6.850    0.122    0.342   90.779
  586.500    6.864    0.124    0.328   90.848
  586.750    6.387    0.125    0.317   96.176
  587.000    5.941    0.125    0.334  102.106
  587.250    6.653    0.305    0.337   97.482
  587.500    7.872    0.351    0.318   75.910
  587.750    9.487    0.373    0.183   64.290
  588.000   34.035    0.376    0.136   49.731
  588.250   49.365    0.374    0.127   38.730
  588.500   48.556    0.368    0.131   38.765
  588.750   42.770    0.369    0.140   41.772
  589.000   39.801    0.378    0.144   39.486
  589.250   38.413    0.373    0.153   40.173
  589.500   37.092    0.370    0.162   41.393
  589.750   35.851    0.372    0.169   43.232
  590.000   35.229    0.368    0.175   43.283
  590.250   34.017    0.364    0.180   42.183
  590.500   33.459    0.358    0.184   44.005
  590.750   32.309    0.347    0.187   46.411
  591.000   30.656    0.351    0.190   47.648
  591.250   29.573    0.353    0.193   49.487
  591.500   28.555    0.354    0.197   50.140
  591.750   26.586    0.344    0.199   48.455
  592.000   25.659    0.334    0.202   47.355
  592.250   24.323    0.327    0.206   47.440
