~VERSION INFORMATION
 VERS.                 2.0:   CWLS LOG ASCII STANDARD -VERSION 2.0
 WRAP.                  NO:   ONE LINE PER DEPTH STEP
~WELL INFORMATION BLOCK
#MNEM.UNIT           DATA                    DESCRIPTION OF MNEMONIC
#---------    -------------------            -------------------------------
# Generated from Intellog Unique Number	CW_73_75/WELL/619
WELL.         HB AMOCO MARTIN HILLS 06-33    : Well_name    - WELL
LOC .         00/06-33-074-26W4/0            : Location     - LOCATION
UWI .         00/06-33-074-26W4/0            : Uwi          - UNIQUE WELL ID
ENTR.         JAYE                           : Entered      - ENTERED BY
SRVC.         SCHLUMBERGER                   : Scn          - SERVICE COMPANY
DATE.         9 FEB 77                       : Date         - LOG DATE
STRT.M        554.736                        : top_depth    - START DEPTH
STOP.M        771.236                        : bot_depth    - STOP DEPTH
STEP.M        0.25                           : increment    - STEP LENGTH
 NULL. -999.2500:NULL Value
~CURVE INFORMATION BLOCK
#MNEM UNIT       ERCB CURVE CODE    CURVE DESCRIPTION
#-----------   ------------------   ----------------------------------
DEPT.M        00 001 00 00         : DEPTH        - DEPTH
ILD .OHMM     00 120 00 00         : RESD         - DEEP RESISTIVITY (DIL)
NPHI.V/V      00 330 00 00         : PHIN         - NEUTRON POROSITY (SANDSTONE)
DPHI.V/V      00 890 00 00         : PHID         - DENSITY POROSITY (SANDSTONE)
GR  .API      00 310 00 00         : GR           - GAMMA RAY
CALI.MM       00 280 01 00         : CAL          - CALIPER
~PARAMETER INFORMATION
#MNEM.UNIT           DATA             DESCRIPTION OF MNEMONIC
#---------         -----------     ------------------------------
GL  .M        817.778              : gl           - GROUND LEVEL ELEVATION
EREF.M        820.826              : kb           - ELEVATION OF DEPTH REFERENCE
DATM.M        817.778              : datum        - DATUM ELEVATION
TDD .M        745.236              : tdd          - TOTAL DEPTH DRILLER
RUN .         ONE                  : Run          - RUN NUMBER
ENG .         PRICE                : Engineer     - RECORDING ENGINEER
WIT .         MAQUE                : Witness      - WITNESSED BY
BASE.         EDM                  : Branch       - HOME BASE OF LOGGING UNIT
MUD .         GEL CHEM             : Mud_type     - MUD TYPE
MATR.         SANDSTONE            : Logunit      - NEUTRON MATRIX
TMAX.C        25.5556              : BHT          - MAXIMUM RECORDED TEMPERATURE
BHTD.M        746.15               : BHTDEP       - MAXIMUM RECORDED TEMPERATURE
RMT .C        18.8889              : MDTP         - TEMPERATURE OF MUD
MUDD.KG/M     1170                 : MWT          - MUD DENSITY
NEUT.         1                    : NEUTRON      - NEUTRON TYPE
RESI.         0                    : RESIST       - RESISTIVITY TYPE
RM  .OHMM     4.49                 : RM           - RESISTIVITY OF MUD
RMC .OHMM     0                    : RMC          - RESISTIVITY OF MUD CAKE
RMF .OHMM     4.59                 : RMF          - RESISTIVITY OF MUD FILTRATE
SUFT.C        -17.7778             : SUFT         - SURFACE TEMPERATURE
~A  DEPTH     RESD     PHIN     PHID       GR      CAL
# ...
  664.236    3.788    0.308    0.125   62.789  143.897
  664.486    3.578    0.326    0.153   64.170  143.433
  664.736    3.564    0.362    0.193   63.163  141.733
  664.986    3.917    0.395    0.245   64.238  140.020
  665.236    4.236    0.423    0.254   66.351  138.726
  665.486    4.344    0.449    0.260   66.146  137.748
  665.736    4.303    0.444    0.267   65.014  137.076
  665.986    4.193    0.424    0.257   64.307  136.608
  666.236    4.056    0.417    0.244   63.787  136.047
  666.486    3.930    0.385    0.251   66.335  135.897
  666.736    3.822    0.390    0.244   68.817  135.529
  666.986    3.724    0.410    0.231   69.707  134.553
  667.236    3.636    0.421    0.233   69.005  133.567
  667.486    3.523    0.409    0.214   68.794  132.585
  667.736    3.439    0.406    0.229   71.154  130.878
  667.986    3.333    0.418    0.243   74.005  130.414
  668.236    3.277    0.428    0.236   78.020  132.030
  668.486    3.229    0.421    0.201   84.363  135.504
  668.736    3.198    0.435    0.161   90.337  141.164
  668.986    3.179    0.451    0.162   91.666  144.020
  669.236    3.202    0.446    0.188   92.241  145.117
  669.486    3.271    0.445    0.181   93.441  145.582
  669.736    3.330    0.447    0.177   97.638  145.222
  669.986    3.434    0.445    0.179   94.793  144.554
  670.236    3.528    0.452    0.183   92.006  143.580
  670.486    3.559    0.446    0.195   90.325  142.071
  670.736    3.578    0.425    0.213   91.216  137.775
  670.986    3.550    0.428    0.226   91.430  135.957
  671.236    3.503    0.440    0.235   88.093  138.916
  671.486    3.477    0.452    0.227   88.802  141.986
  671.736    3.456    0.462    0.216   88.771  143.802
  671.986    3.443    0.468    0.215   84.822  144.589
  672.236    3.467    0.455    0.231   81.915  143.496
  672.486    3.510    0.449    0.246   79.251  139.506
  672.736    3.528    0.447    0.233   77.326  133.960
  672.986    3.520    0.426    0.230   81.524  132.771
  673.236    3.436    0.432    0.232   80.272  135.007
  673.486    3.392    0.451    0.229   78.895  137.448
  673.736    3.366    0.444    0.225   80.949  138.435
  673.986    3.433    0.416    0.232   86.740  138.284
  674.236    3.572    0.432    0.240   87.388  136.683
  674.486    3.891    0.439    0.247   83.189  136.219
  674.736    4.316    0.435    0.268   78.629  137.728
  674.986    4.608    0.426    0.255   75.598  138.927
  675.236    4.786    0.416    0.234   73.671  138.873
  675.486    4.891    0.403    0.224   73.947  138.519
  675.736    4.925    0.392    0.214   75.758  137.852
  675.986    4.843    0.382    0.198   77.938  137.381
  676.236    4.642    0.377    0.178   79.808  136.919
  676.486    4.360    0.391    0.190   81.250  136.559
  676.736    4.074    0.409    0.204   81.956  136.510
  676.986    3.962    0.438    0.206   82.725  138.022
  677.236    3.889    0.455    0.226   83.367  139.427
  677.486    3.859    0.445    0.245   85.301  140.313
  677.736    3.837    0.430    0.236   87.232  140.788
  677.986    3.822    0.442    0.249   89.776  140.734
  678.236    3.855    0.445    0.234   89.691  140.894
  678.486    3.896    0.428    0.215   89.965  140.847
  678.736    3.966    0.411    0.225   90.308  140.595
  678.986    3.994    0.421    0.215   90.218  139.920
  679.236    4.059    0.438    0.221   90.310  139.564
  679.486    4.193    0.429    0.206   86.606  140.036
  679.736    4.452    0.417    0.214   88.107  140.185
  679.986    5.113    0.413    0.220   88.385  139.732
  680.236    6.080    0.417    0.214   88.665  139.163
  680.486    7.151    0.409    0.196   87.287  139.112
  680.736    7.962    0.378    0.160   80.518  139.892
  680.986    8.270    0.282    0.129   70.261  140.361
  681.236    7.912    0.260    0.105   65.944  140.001
  681.486    7.101    0.263    0.018   63.159  139.643
  681.736    6.397    0.221    0.024   64.538  141.670
  681.986    5.762    0.244    0.011   72.780  143.072
  682.236    5.315    0.330    0.006   85.801  143.650
  682.486    5.048    0.374    0.040   94.412  143.917
  682.736    5.120    0.413    0.131   97.998  143.865
  682.986    5.358    0.422    0.158   89.761  144.024
  683.236    5.524    0.411    0.167   86.300  144.081
  683.486    5.624    0.425    0.181   88.297  143.925
  683.736    5.551    0.422    0.201   90.840  143.675
  683.986    5.340    0.413    0.190   93.079  143.213
  684.236    4.998    0.431    0.185   93.785  142.641
  684.486    4.712    0.444    0.207   94.306  141.139
  684.736    4.711    0.425    0.216   96.851  139.535
  684.986    4.787    0.423    0.181  100.805  138.558
  685.236    5.055    0.417    0.147   99.676  138.919
  685.486    5.486    0.403    0.158   97.991  140.739
  685.736    6.030    0.388    0.160   97.599  142.871
  685.986    6.095    0.365    0.110   98.121  142.510
  686.236    6.070    0.339    0.059   97.478  139.972
  686.486    5.609    0.336    0.029   96.532  138.266
  686.736    5.386    0.360    0.075   97.482  137.074
  686.986    5.201    0.399    0.109  101.621  135.988
  687.236    5.003    0.433    0.136  104.780  134.699
  687.486    4.804    0.449    0.150  105.975  134.131
  687.736    4.596    0.441    0.159  103.985  134.395
  687.986    4.479    0.432    0.165  102.057  137.251
  688.236    4.348    0.446    0.159  102.028  139.277
  688.486    4.268    0.442    0.154   97.160  139.231
  688.736    4.197    0.447    0.177   96.644  137.632
  688.986    4.134    0.440    0.181   98.329  135.920
  689.236    4.080    0.427    0.176   99.035  134.629
  689.486    4.027    0.419    0.177  104.766  134.990
  689.736    4.025    0.427    0.167  107.556  138.987
  689.986    4.031    0.430    0.163  106.917  141.638
  690.236    4.089    0.438    0.173  104.435  140.764
  690.486    4.170    0.445    0.174   99.934  138.847
  690.736    4.207    0.434    0.171  102.603  138.277
  690.986    4.260    0.428    0.174  106.251  138.967
  691.236    4.289    0.418    0.179  106.898  139.329
  691.486    4.304    0.433    0.172  106.193  139.481
  691.736    4.357    0.450    0.157  104.266  139.123
  691.986    4.396    0.447    0.158  102.033  137.412
  692.236    4.434    0.433    0.165  102.128  135.293
  692.486    4.522    0.415    0.163  103.264  136.072
  692.736    4.579    0.427    0.160  104.827  137.895
  692.986    4.679    0.425    0.166  106.023  139.088
  693.236    4.798    0.417    0.163  105.385  138.733
  693.486    4.885    0.412    0.158  103.883  137.651
  693.736    5.028    0.413    0.163  102.568  137.076
  693.986    5.223    0.405    0.169  102.725  137.237
  694.236    5.545    0.423    0.174  102.818  138.432
  694.486    5.824    0.410    0.170  101.930  138.591
  694.736    5.972    0.395    0.151  100.984  139.378
  694.986    5.819    0.378    0.127   97.095  139.956
  695.236    5.712    0.367    0.104   96.335  140.841
  695.486    5.586    0.390    0.105   98.084  141.725
  695.736    5.452    0.407    0.134  100.443  142.507
  695.986    5.352    0.432    0.148  103.416  142.145
  696.236    5.214    0.432    0.155  105.530  141.677
  696.486    5.137    0.399    0.147  105.626  141.947
  696.736    5.088    0.382    0.135  102.594  140.861
  696.986    5.031    0.360    0.121   99.995  141.222
  697.236    4.947    0.379    0.095  100.457  143.569
  697.486    4.901    0.398    0.124  102.509  143.414
  697.736    4.863    0.412    0.152  106.649  142.634
  697.986    4.835    0.415    0.149  109.254  141.551
  698.236    4.904    0.412    0.139  108.981  140.879
  698.486    4.993    0.405    0.127  107.970  140.209
  698.736    5.064    0.401    0.148  106.472  141.715
  698.986    5.184    0.409    0.159  102.584  144.574
  699.236    5.346    0.421    0.156   97.347  144.842
  699.486    5.532    0.421    0.158   94.075  144.271
  699.736    5.789    0.430    0.172   89.757  143.496
  699.986    6.203    0.442    0.205   78.761  141.271
  700.236    6.995    0.430    0.247   67.948  137.589
  700.486    8.770    0.402    0.214   67.315  137.031
