~VERSION INFORMATION
 VERS.                 2.0:   CWLS LOG ASCII STANDARD -VERSION 2.0
 WRAP.                  NO:   ONE LINE PER DEPTH STEP
~WELL INFORMATION BLOCK
#MNEM.UNIT           DATA                    DESCRIPTION OF MNEMONIC
#---------    -------------------            -------------------------------
# Generated from Intellog Unique Number	CS_71_72/WELL/810
WELL.         BVI ET AL CHARRON              : Well_name    - WELL
LOC .         00/07-12-071-15W4/0            : Location     - LOCATION
UWI .         00/07-12-071-15W4/0            : Uwi          - UNIQUE WELL ID
ENTR.         SP                             : Entered      - ENTERED BY
SRVC.         SCHLUMBERGER                   : Scn          - SERVICE COMPANY
STRT.M        305                            : top_depth    - START DEPTH
STOP.M        510                            : bot_depth    - STOP DEPTH
STEP.M        0.25                           : increment    - STEP LENGTH
 NULL. -999.2500:NULL Value
~CURVE INFORMATION BLOCK
#MNEM UNIT       ERCB CURVE CODE    CURVE DESCRIPTION
#-----------   ------------------   ----------------------------------
DEPT.M        00 001 00 00         : DEPTH        - DEPTH
ILD .OHMM     00 120 00 00         : RESD         - DEEP RESISTIVITY (DIL)
DPHI.V/V      00 890 00 00         : PHID         - DENSITY POROSITY (LIMESTONE)
NPHI.V/V      00 330 00 00         : PHIN         - NEUTRON POROSITY (LIMESTONE)
GR  .API      00 310 00 00         : GR           - GAMMA RAY
~PARAMETER INFORMATION
#MNEM.UNIT           DATA             DESCRIPTION OF MNEMONIC
#---------         -----------     ------------------------------
GL  .M        618.3                : gl           - GROUND LEVEL ELEVATION
EREF.M        621.8                : kb           - ELEVATION OF DEPTH REFERENCE
DATM.M        618.3                : datum        - DATUM ELEVATION
TDD .M        517                  : tdd          - TOTAL DEPTH DRILLER
RUN .         ONE                  : Run          - RUN NUMBER
ENG .         BILL                 : Engineer     - RECORDING ENGINEER
WIT .         JIM                  : Witness      - WITNESSED BY
MUD .         GEL                  : Mud_type     - MUD TYPE
MATR.         LIMESTONE            : Logunit      - NEUTRON MATRIX
TMAX.C        27                   : BHT          - MAXIMUM RECORDED TEMPERATURE
BHTD.M        517                  : BHTDEP       - MAXIMUM RECORDED TEMPERATURE
MATR.         1                    : LOGUNIT      - NEUTRON MATRIX
RMT .C        25                   : MDTP         - TEMPERATURE OF MUD
NEUT.         1                    : NEUTRON      - NEUTRON TYPE
RESI.         0                    : RESIST       - RESISTIVITY TYPE
RMC .OHMM     0.25                 : RMC          - RESISTIVITY OF MUD CAKE
RMF .OHMM     0.25                 : RMF          - RESISTIVITY OF MUD FILTRATE
SUFT.C        15                   : SUFT         - SURFACE TEMPERATURE
~A  DEPTH     RESD     PHID     PHIN       GR
  305.000    2.562    0.263    0.549   96.094
  305.250    2.615    0.278    0.561   84.314
  305.500    2.720    0.004    0.580   73.743
  305.750    2.756   -0.008    0.517   67.947
  306.000    2.771    0.126    0.456   90.979
  306.250    2.787    0.212    0.474   92.797
  306.500    2.797    0.233    0.488   93.044
  306.750    2.845    0.223    0.506   89.786
  307.000    2.915    0.219    0.522   88.099
  307.250    2.904    0.195    0.502   94.148
  307.500    2.898    0.192    0.523   97.175
  307.750    2.882    0.209    0.541   99.054
  308.000    2.909    0.203    0.551   99.784
  308.250    2.947    0.202    0.543  100.817
  308.500    3.065    0.219    0.518  101.064
  308.750    3.194    0.228    0.480  103.427
  309.000    3.273    0.207    0.465  104.943
  309.250    3.379    0.191    0.482  106.157
  309.500    3.502    0.212    0.503  104.289
  309.750    3.670    0.216    0.515   97.525
  310.000    3.774    0.223    0.496   92.635
  310.250    3.760    0.234    0.489   97.112
  310.500    3.655    0.219    0.474   98.689
  310.750    3.429    0.211    0.477   98.271
  311.000    3.272    0.209    0.488   96.162
  311.250    3.133    0.225    0.479   95.501
  311.500    3.063    0.220    0.491   98.832
  311.750    3.080    0.216    0.509  102.826
  312.000    3.086    0.215    0.525  105.671
  312.250    3.138    0.220    0.537  106.402
  312.500    3.222    0.225    0.523  103.989
  312.750    3.283    0.223    0.511  101.154
  313.000    3.364    0.221    0.508   97.897
  313.250    3.459    0.233    0.509   95.544
  313.500    3.518    0.241    0.487   91.624
  313.750    3.472    0.248    0.469   90.901
  314.000    3.300    0.247    0.448   96.528
  314.250    3.079    0.227    0.461   99.010
  314.500    2.926    0.212    0.487   99.499
  314.750    2.893    0.200    0.510   96.422
  315.000    3.343    0.262    0.544   89.719
  315.250    3.966    0.307    0.585   80.477
  315.500    5.100    0.355    0.593   67.912
  315.750    6.497    0.343    0.472   54.621
  316.000    8.659    0.363    0.304   43.687
  316.250   10.427    0.393    0.136   33.358
  316.500    9.819    0.391    0.293   50.225
  316.750    7.971    0.364    0.338   57.966
  317.000    6.495    0.339    0.361   69.273
  317.250    5.424    0.329    0.385   76.652
  317.500    4.965    0.325    0.397   76.416
  317.750    4.649    0.318    0.394   75.997
  318.000    4.469    0.286    0.392   78.662
  318.250    4.411    0.261    0.389   80.722
  318.500    4.486    0.247    0.368   81.332
  318.750    4.536    0.242    0.356   85.870
  319.000    4.361    0.243    0.374   92.946
  319.250    4.247    0.234    0.398   99.055
  319.500    4.544    0.208    0.420  104.077
  319.750    5.182    0.197    0.427  104.928
  320.000    6.777    0.213    0.443   99.857
  320.250    9.169    0.266    0.467   77.501
  320.500   11.770    0.339    0.303   52.849
  320.750   15.656    0.394    0.204   41.975
  321.000   18.433    0.431    0.153   34.365
  321.250   20.284    0.432    0.144   34.129
  321.500   15.449    0.428    0.150   39.333
  321.750    9.661    0.424    0.157   42.177
  322.000    7.007    0.415    0.204   47.078
  322.250    5.377    0.395    0.285   49.441
  322.500    4.189    0.372    0.327   48.902
  322.750    3.420    0.356    0.351   52.291
  323.000    2.970    0.342    0.372   56.649
  323.250    2.807    0.335    0.394   57.560
  323.500    2.719    0.336    0.413   57.203
  323.750    2.663    0.333    0.432   61.862
  324.000    2.703    0.327    0.405   66.400
  324.250    2.817    0.324    0.386   70.212
  324.500    3.077    0.319    0.374   74.509
  324.750    3.399    0.300    0.379   79.773
  325.000    3.747    0.265    0.393   81.711
  325.250    4.178    0.250    0.406   84.859
  325.500    4.685    0.243    0.394   84.139
  325.750    5.003    0.239    0.380   80.458
  326.000    4.956    0.239    0.367   78.288
  326.250    4.201    0.242    0.372   71.283
  326.500    4.008    0.260    0.388   65.123
  326.750    3.642    0.286    0.404   55.217
  327.000    3.384    0.314    0.407   47.607
  327.250    3.217    0.331    0.406   42.233
  327.500    3.127    0.325    0.409   45.562
  327.750    3.081    0.320    0.420   44.360
  328.000    3.046    0.328    0.440   43.096
  328.250    3.046    0.326    0.421   43.765
  328.500    3.017    0.325    0.399   45.523
  328.750    2.966    0.325    0.401   46.858
  329.000    2.950    0.327    0.388   49.523
  329.250    2.983    0.330    0.376   51.643
  329.500    3.033    0.337    0.382   50.742
  329.750    3.215    0.331    0.409   50.808
  330.000    3.264    0.263    0.412   63.505
  330.250    3.388    0.211    0.396   85.630
  330.500    3.538    0.172    0.412   95.729
  330.750    3.700    0.147    0.441  103.892
  331.000    3.806    0.191    0.460  113.990
  331.250    3.878    0.190    0.475  116.292
  331.500    3.870    0.172    0.463  113.398
  331.750    3.805    0.129    0.443  107.842
  332.000    3.720    0.148    0.428  109.601
  332.250    3.503    0.161    0.458  113.594
  332.500    3.219    0.130    0.488  116.923
  332.750    2.969    0.117    0.507  117.050
  333.000    2.780    0.156    0.517  116.632
  333.250    2.623    0.180    0.522  121.775
  333.500    2.555    0.203    0.535  124.318
  333.750    2.521    0.215    0.546  122.691
  334.000    2.667    0.241    0.555  116.471
  334.250    2.968    0.265    0.566  108.076
  334.500    3.347    0.278    0.577   99.862
  334.750    3.897    0.269    0.465   97.510
  335.000    4.545    0.259    0.444   96.005
  335.250    5.030    0.266    0.427   87.488
  335.500    5.251    0.281    0.405   76.615
  335.750    5.381    0.284    0.384   73.659
  336.000    5.411    0.273    0.398   75.417
  336.250    5.162    0.268    0.418   73.972
  336.500    4.861    0.253    0.431   80.323
  336.750    4.717    0.244    0.452   86.553
  337.000    4.483    0.245    0.482   93.448
  337.250    4.359    0.226    0.453  100.041
  337.500    4.198    0.207    0.458  105.789
  337.750    4.051    0.199    0.469  108.392
  338.000    3.945    0.208    0.478  111.177
  338.250    3.850    0.200    0.482  110.941
  338.500    3.806    0.201    0.481  110.342
  338.750    3.944    0.213    0.486  109.199
  339.000    4.049    0.222    0.498  105.880
  339.250    4.188    0.207    0.508  101.776
  339.500    4.422    0.161    0.491  104.924
  339.750    4.540    0.154    0.476  111.638
  340.000    4.696    0.215    0.460  117.445
  340.250    4.749    0.266    0.439  112.313
  340.500    4.793    0.249    0.430  101.622
  340.750    4.730    0.246    0.423   95.764
  341.000    4.668    0.272    0.425   88.638
  341.250    4.642    0.286    0.427   91.665
  341.500    4.650    0.275    0.421   97.171
  341.750    4.765    0.269    0.416   99.472
  342.000    4.928    0.266    0.425   96.395
  342.250    5.040    0.258    0.414  103.048
  342.500    5.126    0.249    0.422  109.037
  342.750    5.155    0.242    0.435  104.267
  343.000    5.068    0.245    0.450   90.251
  343.250    4.955    0.270    0.452   90.982
  343.500    4.853    0.266    0.447  101.140
  343.750    4.817    0.269    0.447  109.971
  344.000    4.789    0.267    0.429  114.992
  344.250    4.807    0.258    0.426  119.106
  344.500    4.816    0.252    0.444  112.646
  344.750    4.825    0.269    0.464  106.183
  345.000    4.788    0.280    0.473  101.656
  345.250    4.788    0.295    0.447   98.881
  345.500    4.806    0.244    0.421   99.612
  345.750    4.952    0.215    0.409  102.518
  346.000    5.122    0.203    0.408  104.880
  346.250    5.248    0.212    0.406  104.221
  346.500    5.357    0.215    0.395  107.490
  346.750    5.397    0.214    0.388  109.671
  347.000    5.277    0.207    0.413  109.494
  347.250    5.073    0.193    0.439  105.874
  347.500    4.813    0.162    0.448  106.906
  347.750    4.549    0.144    0.456  111.082
  348.000    4.340    0.183    0.469  113.384
  348.250    4.195    0.211    0.456  111.697
