~VERSION INFORMATION
 VERS.                 2.0:   CWLS LOG ASCII STANDARD -VERSION 2.0
 WRAP.                  NO:   ONE LINE PER DEPTH STEP
~WELL INFORMATION BLOCK
#MNEM.UNIT           DATA                    DESCRIPTION OF MNEMONIC
#---------    -------------------            -------------------------------
# Generated from Intellog Unique Number	CS_67_68/WELL/774
WELL.         MERLAND EXPLORATION            : Well_name    - WELL
LOC .         00/07-20-068-10W4/0            : Location     - LOCATION
UWI .         00/07-20-068-10W4/0            : Uwi          - UNIQUE WELL ID
ENTR.         SP                             : Entered      - ENTERED BY
SRVC.         SCHLUMBERGER                   : Scn          - SERVICE COMPANY
STRT.M        375                            : top_depth    - START DEPTH
STOP.M        615                            : bot_depth    - STOP DEPTH
STEP.M        0.25                           : increment    - STEP LENGTH
 NULL. -999.2500:NULL Value
~CURVE INFORMATION BLOCK
#MNEM UNIT       ERCB CURVE CODE    CURVE DESCRIPTION
#-----------   ------------------   ----------------------------------
DEPT.M        00 001 00 00         : DEPTH        - DEPTH
ILD .OHMM     00 120 00 00         : RESD         - DEEP RESISTIVITY (DIL)
DPHI.V/V      00 890 00 00         : PHID         - DENSITY POROSITY (LIMESTONE)
NPHI.V/V      00 330 00 00         : PHIN         - NEUTRON POROSITY (LIMESTONE)
GR  .API      00 310 00 00         : GR           - GAMMA RAY
~PARAMETER INFORMATION
#MNEM.UNIT           DATA             DESCRIPTION OF MNEMONIC
#---------         -----------     ------------------------------
GL  .M        690.3                : gl           - GROUND LEVEL ELEVATION
EREF.M        693.05               : kb           - ELEVATION OF DEPTH REFERENCE
DATM.M        690.3                : datum        - DATUM ELEVATION
TDD .M        616                  : tdd          - TOTAL DEPTH DRILLER
RUN .         ONE                  : Run          - RUN NUMBER
ENG .         BILL                 : Engineer     - RECORDING ENGINEER
WIT .         JIM                  : Witness      - WITNESSED BY
MUD .         GEL                  : Mud_type     - MUD TYPE
MATR.         LIMESTONE            : Logunit      - NEUTRON MATRIX
TMAX.C        26                   : BHT          - MAXIMUM RECORDED TEMPERATURE
BHTD.M        616                  : BHTDEP       - MAXIMUM RECORDED TEMPERATURE
MATR.         1                    : LOGUNIT      - NEUTRON MATRIX
RMT .C        25                   : MDTP         - TEMPERATURE OF MUD
NEUT.         1                    : NEUTRON      - NEUTRON TYPE
RESI.         0                    : RESIST       - RESISTIVITY TYPE
RMC .OHMM     0.25                 : RMC          - RESISTIVITY OF MUD CAKE
RMF .OHMM     0.25                 : RMF          - RESISTIVITY OF MUD FILTRATE
SUFT.C        15                   : SUFT         - SURFACE TEMPERATURE
~A  DEPTH     RESD     PHID     PHIN       GR
# ...
  462.000    5.565    0.295    0.415   76.725
  462.250    5.710    0.285    0.405   73.688
  462.500    5.794    0.292    0.397   73.816
  462.750    5.890    0.294    0.389   76.380
  463.000    5.954    0.283    0.382   79.552
  463.250    6.008    0.267    0.379   82.664
  463.500    5.984    0.251    0.382   84.741
  463.750    5.950    0.236    0.379   85.295
  464.000    5.937    0.227    0.387   84.571
  464.250    5.958    0.235    0.404   82.934
  464.500    6.000    0.246    0.421   83.123
  464.750    6.021    0.255    0.440   82.644
  465.000    6.042    0.265    0.470   81.067
  465.250    6.029    0.273    0.470   77.542
  465.500    5.950    0.278    0.466   77.549
  465.750    5.711    0.269    0.461   83.157
  466.000    5.128    0.257    0.448   89.982
  466.250    3.984    0.246    0.434   97.903
  466.500    3.195    0.257    0.429  102.597
  466.750    2.816    0.247    0.437  101.325
  467.000    2.419    0.234    0.444   97.497
  467.250    2.220    0.241    0.506  115.585
  467.500    2.195    0.255    0.538  120.218
  467.750    2.394    0.254    0.558  116.572
  468.000    2.700    0.253    0.579  113.839
  468.250    2.978    0.245    0.583  109.587
  468.500    3.352    0.248    0.547  106.791
  468.750    3.752    0.256    0.511  103.327
  469.000    4.108    0.248    0.484   99.194
  469.250    4.191    0.252    0.453   98.531
  469.500    4.151    0.239    0.439   98.112
  469.750    3.977    0.229    0.451   98.059
  470.000    3.817    0.221    0.466   97.760
  470.250    3.726    0.240    0.479   97.827
  470.500    3.711    0.255    0.482   97.956
  470.750    3.751    0.250    0.484   96.684
  471.000    3.792    0.237    0.493   97.056
  471.250    3.841    0.231    0.485   98.037
  471.500    3.868    0.243    0.483   97.922
  471.750    3.904    0.248    0.484   95.128
  472.000    3.953    0.270    0.477   93.004
  472.250    4.019    0.263    0.473   93.072
  472.500    4.055    0.250    0.468   90.461
  472.750    4.032    0.260    0.487   83.892
  473.000    4.023    0.288    0.500   77.751
  473.250    4.007    0.316    0.508   73.678
  473.500    3.984    0.346    0.476   68.692
  473.750    3.939    0.346    0.478   68.212
  474.000    3.894    0.339    0.481   67.549
  474.250    3.865    0.335    0.485   68.469
  474.500    3.842    0.331    0.491   69.329
  474.750    3.862    0.349    0.484   66.474
  475.000    3.883    0.354    0.478   66.724
  475.250    3.889    0.350    0.468   68.315
  475.500    3.895    0.346    0.463   69.172
  475.750    3.887    0.350    0.467   68.570
  476.000    3.894    0.360    0.474   66.872
  476.250    3.857    0.355    0.481   68.098
  476.500    3.834    0.348    0.471   68.773
  476.750    3.833    0.344    0.457   69.328
  477.000    3.818    0.352    0.448   67.812
  477.250    3.810    0.346    0.443   65.627
  477.500    3.788    0.342    0.462   63.807
  477.750    3.773    0.337    0.475   63.936
  478.000    3.779    0.333    0.478   65.101
  478.250    3.806    0.343    0.464   65.959
  478.500    3.826    0.341    0.451   66.574
  478.750    3.840    0.334    0.446   66.763
  479.000    3.824    0.333    0.450   66.344
  479.250    3.823    0.343    0.451   66.168
  479.500    3.822    0.348    0.464   64.835
  479.750    3.836    0.344    0.470   64.476
  480.000    3.906    0.338    0.464   65.761
  480.250    3.971    0.341    0.452   67.290
  480.500    4.105    0.338    0.460   67.966
  480.750    4.282    0.364    0.484   67.547
  481.000    4.501    0.365    0.507   71.146
  481.250    4.936    0.357    0.511   74.928
  481.500    5.434    0.352    0.483   77.795
  481.750    5.775    0.335    0.438   80.480
  482.000    6.048    0.253    0.410   83.897
  482.250    5.614    0.249    0.409   86.521
  482.500    5.164    0.256    0.439   88.659
  482.750    4.767    0.262    0.458   90.067
  483.000    4.610    0.267    0.477   89.585
  483.250    4.490    0.285    0.490   85.634
  483.500    4.399    0.288    0.488   88.077
  483.750    4.373    0.254    0.484   90.092
  484.000    4.388    0.225    0.479   92.230
  484.250    4.461    0.237    0.474   93.942
  484.500    4.526    0.241    0.472   94.678
  484.750    4.661    0.242    0.475   94.807
  485.000    4.818    0.249    0.467   94.144
  485.250    4.916    0.250    0.464   93.420
  485.500    5.035    0.246    0.461   93.853
  485.750    5.108    0.238    0.444   95.320
  486.000    5.136    0.224    0.436   97.276
  486.250    5.114    0.223    0.448   98.865
  486.500    5.114    0.228    0.466   99.663
  486.750    5.122    0.237    0.474   95.956
  487.000    5.121    0.248    0.467   93.528
  487.250    5.139    0.250    0.463   95.118
  487.500    5.175    0.224    0.457   96.828
  487.750    5.174    0.205    0.459   98.662
  488.000    5.173    0.209    0.466   99.948
  488.250    5.171    0.211    0.460  100.440
  488.500    5.170    0.212    0.453  100.996
  488.750    5.168    0.211    0.449   97.957
  489.000    5.158    0.213    0.458   96.686
  489.250    5.137    0.218    0.468  100.832
  489.500    5.117    0.214    0.469   99.318
  489.750    5.125    0.211    0.475   98.715
  490.000    5.133    0.214    0.476   99.515
  490.250    5.103    0.212    0.473  100.190
  490.500    5.093    0.204    0.481  100.684
  490.750    5.054    0.195    0.488  100.995
  491.000    4.988    0.204    0.495  101.308
  491.250    4.913    0.205    0.484  101.437
  491.500    4.812    0.207    0.469  101.381
  491.750    4.723    0.201    0.470  102.056
  492.000    4.541    0.199    0.470  105.899
  492.250    4.303    0.207    0.479  109.801
  492.500    3.899    0.206    0.490  109.504
  492.750    3.424    0.209    0.490  104.824
  493.000    3.120    0.204    0.478  102.881
  493.250    2.913    0.212    0.468  101.366
  493.500    2.780    0.219    0.472  100.947
  493.750    2.708    0.230    0.471  102.659
  494.000    2.698    0.228    0.483  105.100
  494.250    2.758    0.218    0.495  108.211
  494.500    2.824    0.217    0.500  107.062
  494.750    2.887    0.220    0.501  104.510
  495.000    2.984    0.215    0.501  102.448
  495.250    3.039    0.224    0.508  104.890
  495.500    3.124    0.237    0.513  106.236
  495.750    3.211    0.249    0.515  106.181
  496.000    3.356    0.268    0.518   95.839
  496.250    3.476    0.283    0.508   88.601
  496.500    3.633    0.294    0.490   90.862
  496.750    3.776    0.276    0.476   94.277
  497.000    3.867    0.230    0.478   97.387
  497.250    3.975    0.221    0.484  100.804
  497.500    4.041    0.222    0.481  100.810
  497.750    4.062    0.232    0.478   98.626
  498.000    4.031    0.226    0.483   97.780
  498.250    3.941    0.232    0.488   96.873
  498.500    3.748    0.237    0.484   96.210
  498.750    3.486    0.243    0.488   94.695
  499.000    3.346    0.253    0.490   90.561
  499.250    3.229    0.257    0.485   85.698
  499.500    3.163    0.274    0.478   81.808
  499.750    3.116    0.281    0.468   79.075
  500.000    3.132    0.294    0.461   77.499
  500.250    3.323    0.300    0.462   77.932
  500.500    3.796    0.296    0.473   80.800
  500.750    4.705    0.270    0.482   81.903
  501.000    6.143    0.226    0.473   77.161
  501.250    7.350    0.181    0.455   71.507
  501.500    8.032    0.121    0.303   68.346
  501.750    7.319    0.019    0.226   62.752
  502.000    6.216    0.023    0.210   61.541
  502.250    5.814    0.066    0.262   67.637
  502.500    5.162    0.120    0.328   73.548
  502.750    4.774    0.172    0.394   79.155
  503.000    4.515    0.226    0.435   83.241
  503.250    4.415    0.144    0.384   79.109
  503.500    4.324    0.116    0.327   77.167
  503.750    4.189    0.141    0.338   78.756
  504.000    3.969    0.181    0.374   80.772
  504.250    3.859    0.216    0.409   82.118
  504.500    3.809    0.234    0.432   82.916
  504.750    3.807    0.235    0.445   85.662
  505.000    3.835    0.231    0.437   88.835
  505.250    3.848    0.240    0.439   88.842
