~VERSION INFORMATION
 VERS.                 2.0:   CWLS LOG ASCII STANDARD -VERSION 2.0
 WRAP.                  NO:   ONE LINE PER DEPTH STEP
~WELL INFORMATION BLOCK
#MNEM.UNIT           DATA                    DESCRIPTION OF MNEMONIC
#---------    -------------------            -------------------------------
# Generated from Intellog Unique Number	CS_69_70/WELL/702
NULL.         -999.25                        : NULL_VALUE
WELL.         HUSKY OIL OPERATION LTD        : Well_name    - WELL              
LOC .         00/05-23-070-06W4/0            : Location     - LOCATION          
UWI .         00/05-23-070-06W4/0            : Uwi          - UNIQUE WELL ID    
ENTR.         SP                             : Entered      - ENTERED BY        
SRVC.         SCHLUMBERGER                   : Scn          - SERVICE COMPANY   
STRT.M        300                            : top_depth    - START DEPTH       
STOP.M        540                            : bot_depth    - STOP DEPTH        
STEP.M        0.25                           : increment    - STEP LENGTH       
~CURVE INFORMATION BLOCK
#MNEM UNIT       ERCB CURVE CODE    CURVE DESCRIPTION
#-----------   ------------------   ----------------------------------
DEPT.M        00 001 00 00         : DEPTH        - DEPTH                       
ILD .OHMM     00 120 00 00         : RESD         - DEEP RESISTIVITY (DIL)      
DPHI.V/V      00 890 00 00         : PHID         - DENSITY POROSITY (LIMESTONE)
NPHI.V/V      00 330 00 00         : PHIN         - NEUTRON POROSITY (LIMESTONE)
GR  .API      00 310 00 00         : GR           - GAMMA RAY                   
~PARAMETER INFORMATION       
#MNEM.UNIT           DATA             DESCRIPTION OF MNEMONIC
#---------         -----------     ------------------------------
GL  .M        657                  : gl           - GROUND LEVEL ELEVATION      
EREF.M        660.6                : kb           - ELEVATION OF DEPTH REFERENCE
DATM.M        657                  : datum        - DATUM ELEVATION             
TDD .M        545                  : tdd          - TOTAL DEPTH DRILLER         
RUN .         ONE                  : Run          - RUN NUMBER                  
ENG .         BILL                 : Engineer     - RECORDING ENGINEER          
WIT .         JIM                  : Witness      - WITNESSED BY                
MUD .         GEL                  : Mud_type     - MUD TYPE                    
MATR.         LIMESTONE            : Logunit      - NEUTRON MATRIX              
TMAX.C        25                   : BHT          - MAXIMUM RECORDED TEMPERATURE
BHTD.M        545                  : BHTDEP       - MAXIMUM RECORDED TEMPERATURE
MATR.         1                    : LOGUNIT      - NEUTRON MATRIX              
RMT .C        25                   : MDTP         - TEMPERATURE OF MUD          
NEUT.         1                    : NEUTRON      - NEUTRON TYPE                
RESI.         0                    : RESIST       - RESISTIVITY TYPE            
RMC .OHMM     0.25                 : RMC          - RESISTIVITY OF MUD CAKE     
RMF .OHMM     0.25                 : RMF          - RESISTIVITY OF MUD FILTRATE 
SUFT.C        15                   : SUFT         - SURFACE TEMPERATURE         
~A  DEPTH     RESD     PHID     PHIN       GR
# ...
  343.500    7.849    0.260    0.450  106.428
  343.750    7.706    0.259    0.455  102.198
  344.000    7.567    0.259    0.442   96.157
  344.250    7.429    0.246    0.453   93.747
  344.500    7.430    0.238    0.459   92.544
  344.750    7.295    0.241    0.459   91.943
  345.000    7.162    0.258    0.451   93.767
  345.250    7.033    0.252    0.450   96.798
  345.500    6.905    0.249    0.454   98.617
  345.750    6.906    0.248    0.458  100.438
  346.000    6.907    0.244    0.470  101.053
  346.250    7.037    0.243    0.457  101.058
  346.500    7.306    0.264    0.442  102.275
  346.750    7.726    0.275    0.428   99.862
  347.000    8.019    0.283    0.422   93.819
  347.250    8.641    0.288    0.426   88.987
  347.500    8.642    0.287    0.428   93.230
  347.750    8.806    0.283    0.419   98.077
  348.000    8.807    0.279    0.415   99.289
  348.250    8.809    0.272    0.409   95.065
  348.500    8.811    0.266    0.408   92.651
  348.750    8.813    0.261    0.409   93.263
  349.000    8.653    0.267    0.409   95.690
  349.250    8.495    0.281    0.415   95.694
  349.500    8.187    0.288    0.414   93.888
  349.750    7.890    0.279    0.408   93.288
  350.000    7.605    0.257    0.429   94.509
  350.250    7.466    0.242    0.447   95.723
  350.500    7.468    0.245    0.458   99.965
  350.750    7.469    0.247    0.465  103.600
  351.000    7.471    0.249    0.457  106.024
  351.250    7.612    0.260    0.449   97.566
  351.500    7.757    0.268    0.435   93.942
  351.750    7.904    0.276    0.423   88.505
  352.000    8.054    0.273    0.426   85.487
  352.250    8.055    0.277    0.444   84.284
  352.500    8.057    0.285    0.438   83.084
  352.750    8.058    0.277    0.447   82.483
  353.000    8.060    0.252    0.466   81.282
  353.250    8.214    0.257    0.464   79.472
  353.500    8.369    0.288    0.426   74.037
  353.750    8.527    0.303    0.410   67.389
  354.000    8.689    0.320    0.421   64.979
  354.250    8.853    0.330    0.425   67.404
  354.500    9.021    0.313    0.408   69.227
  354.750    9.024    0.296    0.421   69.233
  355.000    9.025    0.302    0.425   68.635
  355.250    9.027    0.308    0.415   69.851
  355.500    9.029    0.323    0.403   69.858
  355.750    9.031    0.335    0.386   66.839
  356.000    9.033    0.337    0.388   58.985
  356.250    9.034    0.337    0.405   61.410
  356.500    9.036    0.337    0.414   61.416
  356.750    9.038    0.337    0.404   59.608
  357.000    9.040    0.337    0.397   63.852
  357.250    9.041    0.337    0.411   66.276
  357.500    8.877    0.342    0.416   67.491
  357.750    8.879    0.346    0.411   69.316
  358.000    8.881    0.337    0.415   71.741
  358.250    8.884    0.335    0.420   73.561
  358.500    8.885    0.329    0.406   73.567
  358.750    8.887    0.326    0.394   72.364
  359.000    8.889    0.326    0.391   76.000
  359.250    8.890    0.327    0.389   80.846
  359.500    8.892    0.329    0.397   83.271
  359.750    8.895    0.330    0.399   75.416
  360.000    8.896    0.324    0.402   70.584
  360.250    8.897    0.313    0.416   70.592
  360.500    8.900    0.306    0.411   73.621
  360.750    9.068    0.302    0.400   80.889
  361.000    9.070    0.299    0.409   83.917
  361.250    9.072    0.302    0.412   86.948
  361.500    9.244    0.308    0.414   89.980
  361.750    9.246    0.313    0.403   83.938
  362.000    9.248    0.308    0.393   77.897
  362.250    9.250    0.299    0.425   75.483
  362.500    9.252    0.274    0.439   83.959
  362.750    9.427    0.248    0.418   90.013
  363.000    9.429    0.242    0.411   93.651
  363.250    9.608    0.251    0.433   91.841
  363.500    9.609    0.270    0.424   80.356
  363.750    9.612    0.310    0.409   70.685
  364.000    9.794    0.330    0.421   57.990
  364.250    9.796    0.338    0.437   51.343
  364.500    9.983    0.342    0.424   55.586
  364.750    9.800    0.347    0.412   58.617
  365.000    9.802    0.350    0.407   59.831
  365.250    9.447    0.342    0.407   58.025
  365.500    9.105    0.338    0.421   61.056
  365.750    8.775    0.327    0.434   64.087
  366.000    8.615    0.314    0.438   68.329
  366.250    8.150    0.302    0.449   71.967
  366.500    7.854    0.304    0.457   70.155
  366.750    7.431    0.314    0.451   64.719
  367.000    7.296    0.326    0.416   62.306
  367.250    7.163    0.332    0.436   63.522
  367.500    7.164    0.323    0.452   67.158
  367.750    7.165    0.319    0.427   68.376
  368.000    7.438    0.316    0.394   67.172
  368.250    7.866    0.312    0.372   68.993
  368.500    8.318    0.300    0.378   72.025
  368.750    8.475    0.294    0.374   75.661
  369.000    8.798    0.291    0.371   78.085
  369.250    8.965    0.288    0.370   81.117
  369.500    8.967    0.289    0.373   79.916
  369.750    8.804    0.301    0.376   76.898
  370.000    8.805    0.301    0.376   81.139
  370.250    8.645    0.276    0.386   83.564
  370.500    8.809    0.280    0.406   84.780
  370.750    8.976    0.290    0.407   78.136
  371.000    8.978    0.293    0.382   76.931
  371.250    9.320    0.254    0.373   77.543
  371.500    9.322    0.238    0.368   78.760
  371.750    9.499    0.253    0.366   82.399
  372.000    9.678    0.262    0.367   83.612
  372.250   10.047    0.269    0.369   84.831
  372.500   10.048    0.273    0.371   84.834
  372.750   10.432    0.237    0.364   85.446
  373.000   10.433    0.208    0.368   77.591
  373.250   10.435    0.179    0.392   71.548
  373.500    9.872    0.214    0.402   64.297
  373.750    9.340    0.255    0.406   61.884
  374.000    9.169    0.273    0.414   63.707
  374.250    8.675    0.298    0.428   66.739
  374.500    8.516    0.301    0.429   67.955
  374.750    8.362    0.307    0.434   68.569
  375.000    8.209    0.305    0.445   68.573
  375.250    8.211    0.302    0.449   67.370
  375.500    8.213    0.301    0.449   68.586
  375.750    8.064    0.306    0.446   69.802
  376.000    8.065    0.308    0.437   71.018
  376.250    7.773    0.305    0.447   67.396
  376.500    7.631    0.304    0.449   71.033
  376.750    7.354    0.304    0.455   72.853
  377.000    7.088    0.306    0.449   70.443
  377.250    6.831    0.299    0.431   66.820
  377.500    6.583    0.296    0.424   65.616
  377.750    6.833    0.293    0.420   66.832
  378.000    7.362    0.291    0.421   69.259
  378.250    7.642    0.297    0.442   74.103
  378.500    7.787    0.310    0.455   74.715
  378.750    8.084    0.324    0.465   70.489
  379.000    7.936    0.329    0.460   77.153
  379.250    7.649    0.314    0.453   80.785
  379.500    7.102    0.300    0.463   88.049
  379.750    6.011    0.283    0.469   92.895
  380.000    5.686    0.280    0.478   92.297
  380.250    5.183    0.299    0.506   87.466
  380.500    4.724    0.322    0.510   83.844
  380.750    4.470    0.341    0.500   81.430
  381.000    4.554    0.301    0.496   80.833
  381.250    4.907    0.281    0.444   79.628
  381.500    4.999    0.301    0.413   76.007
  381.750    5.190    0.307    0.427   73.594
  382.000    5.288    0.305    0.449   77.232
  382.250    5.388    0.298    0.462   77.842
  382.500    5.389    0.296    0.450   77.243
  382.750    5.390    0.295    0.464   77.252
  383.000    5.493    0.302    0.464   76.048
  383.250    5.597    0.314    0.465   73.031
  383.500    5.703    0.326    0.465   70.014
  383.750    5.811    0.332    0.453   69.414
  384.000    5.812    0.323    0.440   70.026
  384.250    5.813    0.318    0.443   70.033
  384.500    5.814    0.324    0.466   70.040
  384.750    5.709    0.320    0.465   72.469
  385.000    5.710    0.313    0.466   73.682
  385.250    5.606    0.307    0.476   74.899
  385.500    5.110    0.307    0.480   75.510
  385.750    4.745    0.310    0.474   77.334
  386.000    4.325    0.312    0.467   79.759
  386.250    3.943    0.297    0.456   82.789
  386.500    3.730    0.289    0.473   84.006
  386.750    3.400    0.284    0.483   87.037
