~VERSION INFORMATION
 VERS.                 2.0:   CWLS LOG ASCII STANDARD -VERSION 2.0
 WRAP.                  NO:   ONE LINE PER DEPTH STEP
~WELL INFORMATION BLOCK
#MNEM.UNIT           DATA                    DESCRIPTION OF MNEMONIC
#---------    -------------------            -------------------------------
# Generated from Intellog Unique Number	CW_73_75/WELL/549
WELL.         AMOCO 59 MARTEN HILLS 06-21    : Well_name    - WELL
LOC .         00/06-21-075-25W4/0            : Location     - LOCATION
UWI .         00/06-21-075-25W4/0            : Uwi          - UNIQUE WELL ID
ENTR.         JAYE                           : Entered      - ENTERED BY
SRVC.         SCHLUMBERGER                   : Scn          - SERVICE COMPANY
DATE.         27 JAN 75                      : Date         - LOG DATE
STRT.M        445.008                        : top_depth    - START DEPTH
STOP.M        647.508                        : bot_depth    - STOP DEPTH
STEP.M        0.25                           : increment    - STEP LENGTH
 NULL. -999.2500:NULL Value
~CURVE INFORMATION BLOCK
#MNEM UNIT       ERCB CURVE CODE    CURVE DESCRIPTION
#-----------   ------------------   ----------------------------------
DEPT.M        00 001 00 00         : DEPTH        - DEPTH
ILD .OHMM     00 120 00 00         : RESD         - DEEP RESISTIVITY (DIL)
NPHI.V/V      00 330 00 00         : PHIN         - NEUTRON POROSITY (SANDSTONE)
DPHI.V/V      00 890 00 00         : PHID         - DENSITY POROSITY (SANDSTONE)
GR  .API      00 310 00 00         : GR           - GAMMA RAY
CALI.MM       00 280 01 00         : CAL          - CALIPER
~PARAMETER INFORMATION
#MNEM.UNIT           DATA             DESCRIPTION OF MNEMONIC
#---------         -----------     ------------------------------
GL  .M        724.51               : gl           - GROUND LEVEL ELEVATION
EREF.M        728.624              : kb           - ELEVATION OF DEPTH REFERENCE
DATM.M        724.51               : datum        - DATUM ELEVATION
TDD .M        647.7                : tdd          - TOTAL DEPTH DRILLER
RUN .         ONE                  : Run          - RUN NUMBER
MATR.         SANDSTONE            : Logunit      - NEUTRON MATRIX
TMAX.C        27.7778              : BHT          - MAXIMUM RECORDED TEMPERATURE
BHTD.M        648.005              : BHTDEP       - MAXIMUM RECORDED TEMPERATURE
RMT .C        17.2222              : MDTP         - TEMPERATURE OF MUD
MUDD.KG/M     0                    : MWT          - MUD DENSITY
NEUT.         1                    : NEUTRON      - NEUTRON TYPE
RESI.         0                    : RESIST       - RESISTIVITY TYPE
RM  .OHMM     4.33                 : RM           - RESISTIVITY OF MUD
RMC .OHMM     0                    : RMC          - RESISTIVITY OF MUD CAKE
RMF .OHMM     5.22                 : RMF          - RESISTIVITY OF MUD FILTRATE
SUFT.C        -17.7778             : SUFT         - SURFACE TEMPERATURE
~A  DEPTH     RESD     PHIN     PHID       GR      CAL
# ...
  554.508    6.468    0.434    0.219   78.591  209.323
  554.758    6.338    0.446    0.213   79.613  214.832
  555.008    6.212    0.448    0.205   80.936  219.932
  555.258    6.155    0.432    0.216   81.958  221.151
  555.508    6.087    0.436    0.212   83.583  220.838
  555.758    6.021    0.455    0.227   81.830  220.119
  556.008    5.977    0.470    0.216   78.268  219.806
  556.258    5.977    0.486    0.210   75.490  219.698
  556.508    5.933    0.485    0.203   72.713  219.793
  556.758    5.933    0.462    0.242   70.357  219.787
  557.008    5.933    0.430    0.229   69.026  219.475
  557.258    5.868    0.427    0.225   70.772  218.856
  557.508    5.803    0.433    0.216   74.628  218.544
  557.758    5.814    0.459    0.205   78.002  218.641
  558.008    5.867    0.471    0.197   81.135  218.941
  558.258    6.020    0.462    0.220   80.166  218.526
  558.508    6.268    0.430    0.237   77.750  217.091
  558.758    6.538    0.435    0.225   74.610  215.451
  559.008    6.720    0.448    0.205   69.903  217.078
  559.258    6.683    0.452    0.213   66.642  218.808
  559.508    6.561    0.455    0.223   67.905  219.415
  559.758    6.442    0.453    0.234   70.133  218.591
  560.008    6.348    0.451    0.246   72.662  217.462
  560.258    6.176    0.459    0.241   76.096  217.864
  560.508    6.097    0.489    0.234   78.084  218.064
  560.758    6.075    0.484    0.223   77.839  218.057
  561.008    6.086    0.472    0.216   76.085  218.153
  561.258    6.130    0.459    0.217   74.393  217.943
  561.508    6.209    0.443    0.222   74.088  217.324
  561.758    6.336    0.424    0.227   74.688  216.092
  562.008    6.501    0.418    0.236   74.685  215.372
  562.258    6.818    0.433    0.250   72.630  215.468
  562.508    7.230    0.435    0.236   70.998  215.972
  562.758    7.968    0.426    0.217   69.245  216.885
  563.008    8.798    0.372    0.189   67.795  218.308
  563.258   10.058    0.347    0.167   61.700  219.631
  563.508   11.208    0.336    0.136   55.785  221.055
  563.758   12.239    0.369    0.152   54.998  221.764
  564.008   13.026    0.392    0.176   56.442  222.166
  564.258   12.766    0.399    0.172   58.730  221.445
  564.508   11.084    0.378    0.137   58.787  221.337
  564.758    9.802    0.404    0.095   59.266  220.921
  565.008    8.862    0.426    0.173   61.554  220.712
  565.258    8.011    0.442    0.185   66.858  219.991
  565.508    7.513    0.428    0.174   72.162  218.964
  565.758    7.176    0.413    0.185   71.796  216.303
  566.008    6.880    0.414    0.188   68.898  214.356
  566.258    6.583    0.440    0.188   68.773  215.269
  566.508    6.404    0.464    0.225   69.976  213.730
  566.758    6.323    0.440    0.212   71.480  211.478
  567.008    6.253    0.422    0.212   72.321  207.795
  567.258    6.265    0.421    0.213   73.825  205.747
  567.508    6.334    0.412    0.215   76.114  205.537
  567.758    6.392    0.402    0.228   78.704  210.535
  568.008    6.499    0.416    0.215   82.138  215.329
  568.258    6.582    0.431    0.206   74.475  217.366
  568.508    6.704    0.425    0.197   71.154  217.768
  568.758    6.942    0.422    0.204   74.347  217.761
  569.008    7.083    0.435    0.210   75.610  218.062
  569.258    7.321    0.446    0.202   74.581  218.465
  569.508    7.580    0.439    0.214   73.793  219.070
  569.758    8.556    0.406    0.200   73.187  219.372
  570.008    9.782    0.370    0.166   73.002  219.467
  570.258   11.328    0.336    0.110   71.612  219.053
  570.508   13.361    0.314    0.090   67.869  218.229
  570.758   13.658    0.339    0.087   65.392  217.406
  571.008   13.336    0.363    0.111   67.499  216.584
  571.258   12.438    0.390    0.134   71.235  214.331
  571.508   11.306    0.409    0.170   72.981  210.750
  571.758   10.017    0.419    0.186   72.072  206.761
  572.008    8.697    0.412    0.197   72.189  203.078
  572.258    7.863    0.401    0.184   73.150  200.724
  572.508    7.226    0.391    0.176   74.836  201.228
  572.758    6.715    0.400    0.175   76.943  204.389
  573.008    6.355    0.426    0.178   79.050  209.182
  573.258    6.104    0.454    0.183   82.364  213.976
  573.508    5.916    0.447    0.200   85.738  213.664
  573.758    5.852    0.436    0.222   87.182  207.734
  574.008    5.916    0.430    0.214   87.842  209.465
  574.258    6.048    0.430    0.211   88.743  215.382
  574.508    6.126    0.435    0.203   90.187  217.316
  574.758    6.205    0.442    0.185   92.898  217.617
  575.008    6.228    0.448    0.205   90.059  217.713
  575.258    6.251    0.447    0.208   88.186  218.625
  575.508    6.262    0.431    0.203   84.745  219.437
  575.758    6.262    0.429    0.195   85.284  219.941
  576.008    6.262    0.432    0.184   88.959  220.344
  576.258    6.250    0.435    0.173   89.559  220.236
  576.508    6.204    0.443    0.193   89.073  220.434
  576.758    6.182    0.451    0.188   88.708  220.837
  577.008    6.193    0.448    0.212   88.221  221.546
  577.258    6.204    0.421    0.209   85.685  221.845
  577.508    6.227    0.410    0.190   83.631  221.738
  577.758    6.284    0.426    0.175   83.325  221.221
  578.008    6.342    0.449    0.174   86.156  220.704
  578.258    6.412    0.454    0.189   86.454  220.391
  578.508    6.495    0.441    0.190   85.064  220.181
  578.758    6.555    0.457    0.174   84.939  219.971
  579.008    6.627    0.471    0.168   86.022  218.944
  579.258    6.762    0.454    0.180   87.466  215.976
  579.508    6.989    0.425    0.195   86.617  215.561
  579.758    7.330    0.410    0.188   83.357  216.985
  580.008    7.688    0.404    0.170   85.706  218.613
  580.258    8.138    0.397    0.155   85.280  219.628
  580.508    8.304    0.380    0.142   82.623  219.010
  580.758    7.946    0.360    0.120   84.187  216.552
  581.008    7.646    0.390    0.138   88.647  214.402
  581.258    7.438    0.417    0.186   90.935  214.293
  581.508    7.329    0.404    0.187   89.243  214.798
  581.758    7.276    0.411    0.176   87.550  216.018
  582.008    7.249    0.414    0.162   84.350  217.441
  582.258    7.236    0.404    0.159   82.900  218.456
  582.508    7.170    0.389    0.148   84.886  219.266
  582.758    7.052    0.397    0.161   91.698  219.976
  583.008    6.936    0.418    0.201   97.303  220.787
  583.258    6.810    0.421    0.212   97.903  221.496
  583.508    6.699    0.420    0.194   94.582  222.001
  583.758    6.625    0.427    0.175   88.547  222.096
  584.008    6.637    0.431    0.161   84.141  221.683
  584.258    6.674    0.426    0.178   81.423  221.574
  584.508    6.711    0.441    0.184   80.816  221.159
  584.758    6.810    0.459    0.163   81.959  219.826
  585.008    6.910    0.477    0.198   82.076  217.369
  585.258    6.987    0.461    0.170   79.720  214.401
  585.508    7.129    0.434    0.137   75.435  213.987
  585.758    7.450    0.428    0.093   77.059  216.534
  586.008    7.886    0.444    0.133   80.252  219.183
  586.258    8.165    0.438    0.179   83.988  221.628
  586.508    8.061    0.438    0.199   87.061  222.541
  586.758    7.972    0.432    0.196   84.645  223.148
  587.008    8.165    0.435    0.174   79.334  223.448
  587.258    8.770    0.448    0.148   73.359  223.646
  587.508   10.306    0.431    0.153   66.178  223.640
  587.758   12.796    0.402    0.173   62.556  223.123
  588.008   16.302    0.371    0.178   59.115  222.199
  588.258   20.315    0.373    0.147   58.930  221.069
  588.508   23.569    0.404    0.174   59.771  219.429
  588.758   24.093    0.426    0.231   61.878  216.666
  589.008   24.137    0.442    0.283   65.976  219.008
  589.258   23.611    0.442    0.271   72.546  220.943
  589.508   23.139    0.427    0.256   68.804  222.366
  589.758   23.012    0.393    0.237   62.226  222.565
  590.008   23.224    0.396    0.230   59.508  222.354
  590.258   23.610    0.409    0.224   57.696  221.838
  590.508   24.180    0.402    0.212   56.063  221.218
  590.758   25.267    0.383    0.200   55.637  221.110
