~VERSION INFORMATION
 VERS.                 2.0:   CWLS LOG ASCII STANDARD -VERSION 2.0
 WRAP.                  NO:   ONE LINE PER DEPTH STEP
~WELL INFORMATION BLOCK
#MNEM.UNIT           DATA                    DESCRIPTION OF MNEMONIC
#---------    -------------------            -------------------------------
# Generated from Intellog Unique Number	CS_71_72/WELL/644
WELL.         AMOCO AEC IPIATIK              : Well_name    - WELL
LOC .         00/05-05-072-04W4/0            : Location     - LOCATION
UWI .         00/05-05-072-04W4/0            : Uwi          - UNIQUE WELL ID
ENTR.         SP                             : Entered      - ENTERED BY
SRVC.         SCHLUMBERGER                   : Scn          - SERVICE COMPANY
STRT.M        295                            : top_depth    - START DEPTH
STOP.M        500                            : bot_depth    - STOP DEPTH
STEP.M        0.25                           : increment    - STEP LENGTH
 NULL. -999.2500:NULL Value
~CURVE INFORMATION BLOCK
#MNEM UNIT       ERCB CURVE CODE    CURVE DESCRIPTION
#-----------   ------------------   ----------------------------------
DEPT.M        00 001 00 00         : DEPTH        - DEPTH
DPHI.V/V      00 890 00 00         : PHID         - DENSITY POROSITY (LIMESTONE)
NPHI.V/V      00 330 00 00         : PHIN         - NEUTRON POROSITY (LIMESTONE)
GR  .API      00 310 00 00         : GR           - GAMMA RAY
ILD .OHMM     00 120 00 00         : RESD         - DEEP RESISTIVITY (DIL)
~PARAMETER INFORMATION
#MNEM.UNIT           DATA             DESCRIPTION OF MNEMONIC
#---------         -----------     ------------------------------
GL  .M        673.5                : gl           - GROUND LEVEL ELEVATION
EREF.M        677.76               : kb           - ELEVATION OF DEPTH REFERENCE
DATM.M        673.5                : datum        - DATUM ELEVATION
TDD .M        519                  : tdd          - TOTAL DEPTH DRILLER
RUN .         ONE                  : Run          - RUN NUMBER
ENG .         BILL                 : Engineer     - RECORDING ENGINEER
WIT .         JIM                  : Witness      - WITNESSED BY
MUD .         GEL                  : Mud_type     - MUD TYPE
MATR.         LIMESTONE            : Logunit      - NEUTRON MATRIX
TMAX.C        19.5                 : BHT          - MAXIMUM RECORDED TEMPERATURE
BHTD.M        549                  : BHTDEP       - MAXIMUM RECORDED TEMPERATURE
MATR.         1                    : LOGUNIT      - NEUTRON MATRIX
RMT .C        25                   : MDTP         - TEMPERATURE OF MUD
NEUT.         1                    : NEUTRON      - NEUTRON TYPE
RESI.         0                    : RESIST       - RESISTIVITY TYPE
RMC .OHMM     0.25                 : RMC          - RESISTIVITY OF MUD CAKE
RMF .OHMM     0.25                 : RMF          - RESISTIVITY OF MUD FILTRATE
SUFT.C        15                   : SUFT         - SURFACE TEMPERATURE
~A  DEPTH     PHID     PHIN       GR     RESD
# ...
  338.500    0.336    0.465   62.664    4.220
  338.750    0.314    0.451   76.592    4.628
  339.000    0.265    0.489   84.467    4.802
  339.250    0.233    0.507   89.921    5.076
  339.500    0.212    0.509   92.353    5.270
  339.750    0.222    0.513   94.182    5.273
  340.000    0.237    0.495   94.194    5.276
  340.250    0.230    0.484   93.601    5.280
  340.500    0.250    0.467   91.193    5.283
  340.750    0.263    0.464   88.786    5.192
  341.000    0.279    0.469   90.008    5.010
  341.250    0.285    0.465   91.233    4.922
  341.500    0.263    0.449   88.828    4.925
  341.750    0.260    0.443   87.626    4.929
  342.000    0.244    0.455   84.016    5.116
  342.250    0.226    0.461   82.816    5.215
  342.500    0.215    0.458   83.433    5.316
  342.750    0.220    0.470   84.049    5.318
  343.000    0.234    0.487   85.270    5.132
  343.250    0.256    0.505   85.889    4.862
  343.500    0.258    0.515   84.692    4.607
  343.750    0.260    0.494   78.052    4.366
  344.000    0.273    0.478   72.620    4.289
  344.250    0.281    0.468   68.397    4.291
  344.500    0.258    0.471   65.386    4.619
  344.750    0.150    0.414   63.584    5.650
  345.000    0.119    0.352   60.573    6.909
  345.250    0.107    0.339   59.374    7.999
  345.500    0.118    0.328   62.410    8.303
  345.750    0.148    0.421   67.874    6.926
  346.000    0.258    0.461   69.089    5.776
  346.250    0.305    0.483   67.287    4.996
  346.500    0.279    0.461   62.460    4.400
  346.750    0.260    0.446   57.033    3.806
  347.000    0.301    0.457   55.833    3.117
  347.250    0.328    0.461   55.240    2.953
  347.500    0.328    0.452   56.467    2.698
  347.750    0.325    0.452   57.685    2.557
  348.000    0.319    0.459   58.913    2.466
  348.250    0.321    0.475   59.524    2.380
  348.500    0.328    0.484   58.326    2.382
  348.750    0.339    0.469   57.135    2.428
  349.000    0.343    0.465   57.146    2.429
  349.250    0.319    0.455   57.157    2.475
  349.500    0.306    0.441   57.772    2.524
  349.750    0.311    0.464   59.604    2.525
  350.000    0.317    0.483   60.215    2.526
  350.250    0.326    0.459   62.044    2.483
  350.500    0.314    0.442   63.265    2.485
  350.750    0.314    0.439   62.672    2.486
  351.000    0.306    0.453   65.111    2.489
  351.250    0.296    0.462   66.329    2.445
  351.500    0.286    0.470   66.944    2.403
  351.750    0.285    0.464   62.726    2.405
  352.000    0.305    0.452   65.764    2.320
  352.250    0.318    0.449   68.193    2.322
  352.500    0.313    0.451   70.020    2.281
  352.750    0.308    0.459   67.611    2.284
  353.000    0.314    0.458   63.392    2.285
  353.250    0.314    0.444   62.193    2.286
  353.500    0.314    0.441   65.230    2.247
  353.750    0.316    0.441   70.085    2.248
  354.000    0.320    0.447   72.513    2.250
  354.250    0.309    0.458   79.188    2.293
  354.500    0.299    0.454   81.616    2.380
  354.750    0.290    0.448   82.833    2.516
  355.000    0.280    0.447   82.242    2.611
  355.250    0.276    0.449   78.020    2.759
  355.500    0.273    0.449   72.590    2.865
  355.750    0.270    0.442   67.766    2.919
  356.000    0.274    0.439   65.358    2.921
  356.250    0.287    0.459   67.182    2.871
  356.500    0.290    0.455   70.224    2.721
  356.750    0.286    0.459   70.836    2.673
  357.000    0.285    0.465   70.248    2.579
  357.250    0.294    0.480   68.445    2.400
  357.500    0.312    0.492   66.640    2.315
  357.750    0.333    0.497   66.052    2.155
  358.000    0.317    0.489   65.458    2.079
  358.250    0.317    0.498   64.262    2.005
  358.500    0.321    0.490   62.457    1.970
  358.750    0.333    0.485   61.259    1.867
  359.000    0.328    0.485   60.667    1.802
  359.250    0.324    0.489   61.288    1.770
  359.500    0.329    0.474   61.903    1.740
  359.750    0.330    0.473   61.916    1.741
  360.000    0.329    0.492   62.534    1.742
  360.250    0.328    0.505   63.154    1.808
  360.500    0.328    0.496   63.773    1.842
  360.750    0.329    0.486   64.996    1.984
  361.000    0.316    0.480   65.610    2.059
  361.250    0.304    0.484   66.227    2.176
  361.500    0.293    0.470   63.214    2.258
  361.750    0.290    0.434   60.202    2.302
  362.000    0.300    0.433   55.377    2.303
  362.250    0.311    0.438   51.758    2.143
  362.500    0.320    0.430   48.745    2.068
  362.750    0.326    0.429   48.154    1.924
  363.000    0.336    0.436   52.404    1.856
  363.250    0.340    0.437   53.622    1.727
  363.500    0.342    0.439   54.241    1.667
  363.750    0.338    0.443   54.856    1.699
  364.000    0.337    0.448   54.264    1.731
  364.250    0.338    0.463   52.462    1.764
  364.500    0.336    0.472   53.081    1.934
  364.750    0.342    0.492   53.699    2.044
  365.000    0.333    0.505   53.713    2.282
  365.250    0.327    0.496   54.934    2.547
  365.500    0.330    0.505   57.367    2.950
  365.750    0.318    0.513   60.400    3.117
  366.000    0.306    0.505   64.652    3.235
  366.250    0.291    0.498   66.474    3.297
  366.500    0.277    0.502   68.905    3.423
  366.750    0.262    0.497   77.388    3.553
  367.000    0.254    0.513   82.241    3.555
  367.250    0.260    0.526   84.673    3.557
  367.500    0.267    0.515   85.286    3.370
  367.750    0.255    0.496   81.066    3.024
  368.000    0.256    0.480   77.448    2.762
  368.250    0.288    0.467   76.253    2.569
  368.500    0.305    0.457   75.660    2.305
  368.750    0.320    0.455   70.836    2.184
  369.000    0.331    0.455   66.009    2.147
  369.250    0.335    0.460   62.995    2.109
  369.500    0.329    0.463   59.986    2.111
  369.750    0.322    0.475   58.791    2.113
  370.000    0.316    0.484   58.802    2.153
  370.250    0.303    0.491   58.811    2.194
  370.500    0.308    0.495   59.435    2.236
  370.750    0.304    0.498   60.045    2.278
  371.000    0.299    0.491   61.880    2.453
  371.250    0.293    0.493   63.703    2.546
  371.500    0.287    0.499   67.953    2.691
  371.750    0.291    0.510   70.380    2.792
  372.000    0.294    0.497   74.628    2.952
  372.250    0.283    0.484   78.879    3.064
  372.500    0.271    0.492   80.097    3.179
  372.750    0.243    0.508   81.315    3.362
  373.000    0.236    0.511   82.541    3.426
  373.250    0.259    0.516   83.154    3.491
  373.500    0.259    0.533   84.378    3.494
  373.750    0.257    0.545   85.606    3.496
  374.000    0.247    0.557   85.611    3.498
  374.250    0.250    0.550   85.020    3.502
  374.500    0.261    0.546   86.243    3.503
  374.750    0.265    0.550   89.888    3.443
  375.000    0.254    0.556   92.925    3.445
  375.250    0.244    0.551   95.355    3.449
  375.500    0.251    0.539   92.342    3.451
  375.750    0.245    0.528   89.936    3.453
  376.000    0.245    0.536   92.370    3.456
  376.250    0.233    0.542   93.591    3.458
  376.500    0.225    0.547   92.999    3.460
  376.750    0.224    0.546   92.405    3.464
  377.000    0.228    0.541   92.416    3.466
  377.250    0.238    0.531   93.644    3.468
  377.500    0.234    0.516   95.468    3.471
  377.750    0.240    0.508   97.901    3.473
  378.000    0.244    0.496   98.513    3.476
  378.250    0.245    0.512   94.900    3.416
  378.500    0.238    0.529   91.887    3.418
  378.750    0.246    0.532   90.689    3.420
  379.000    0.228    0.535   89.493    3.362
  379.250    0.223    0.523   88.298    3.364
  379.500    0.245    0.503   87.101    3.366
  379.750    0.251    0.488   85.301    3.368
  380.000    0.263    0.500   84.702    3.370
  380.250    0.251    0.503   82.906    3.375
  380.500    0.256    0.505   81.704    3.316
  380.750    0.256    0.500   79.301    3.319
  381.000    0.264    0.492   77.500    3.261
  381.250    0.265    0.489   75.692    3.263
  381.500    0.277    0.488   73.285    3.206
  381.750    0.293    0.492   69.669    3.149
