~VERSION INFORMATION
 VERS.                 2.0:   CWLS LOG ASCII STANDARD -VERSION 2.0
 WRAP.                  NO:   ONE LINE PER DEPTH STEP
~WELL INFORMATION BLOCK
#MNEM.UNIT           DATA                    DESCRIPTION OF MNEMONIC
#---------    -------------------            -------------------------------
# Generated from Intellog Unique Number	CS_71_72/WELL/768
WELL.         SULPETRO BRENDA IPIATIK        : Well_name    - WELL
LOC .         00/06-09-072-09W4/0            : Location     - LOCATION
UWI .         00/06-09-072-09W4/0            : Uwi          - UNIQUE WELL ID
ENTR.         SP                             : Entered      - ENTERED BY
SRVC.         SCHLUMBERGER                   : Scn          - SERVICE COMPANY
STRT.M        315                            : top_depth    - START DEPTH
STOP.M        510                            : bot_depth    - STOP DEPTH
STEP.M        0.25                           : increment    - STEP LENGTH
 NULL. -999.2500:NULL Value
~CURVE INFORMATION BLOCK
#MNEM UNIT       ERCB CURVE CODE    CURVE DESCRIPTION
#-----------   ------------------   ----------------------------------
DEPT.M        00 001 00 00         : DEPTH        - DEPTH
ILD .OHMM     00 120 00 00         : RESD         - DEEP RESISTIVITY (DIL)
DPHI.V/V      00 890 00 00         : PHID         - DENSITY POROSITY (LIMESTONE)
NPHI.V/V      00 330 00 00         : PHIN         - NEUTRON POROSITY (LIMESTONE)
GR  .API      00 310 00 00         : GR           - GAMMA RAY
~PARAMETER INFORMATION
#MNEM.UNIT           DATA             DESCRIPTION OF MNEMONIC
#---------         -----------     ------------------------------
GL  .M        678.34               : gl           - GROUND LEVEL ELEVATION
EREF.M        681.39               : kb           - ELEVATION OF DEPTH REFERENCE
DATM.M        678.34               : datum        - DATUM ELEVATION
TDD .M        519                  : tdd          - TOTAL DEPTH DRILLER
RUN .         ONE                  : Run          - RUN NUMBER
ENG .         BILL                 : Engineer     - RECORDING ENGINEER
WIT .         JIM                  : Witness      - WITNESSED BY
MUD .         GEL                  : Mud_type     - MUD TYPE
MATR.         LIMESTONE            : Logunit      - NEUTRON MATRIX
TMAX.C        28                   : BHT          - MAXIMUM RECORDED TEMPERATURE
BHTD.M        519                  : BHTDEP       - MAXIMUM RECORDED TEMPERATURE
MATR.         1                    : LOGUNIT      - NEUTRON MATRIX
RMT .C        25                   : MDTP         - TEMPERATURE OF MUD
NEUT.         1                    : NEUTRON      - NEUTRON TYPE
RESI.         0                    : RESIST       - RESISTIVITY TYPE
RMC .OHMM     0.25                 : RMC          - RESISTIVITY OF MUD CAKE
RMF .OHMM     0.25                 : RMF          - RESISTIVITY OF MUD FILTRATE
SUFT.C        15                   : SUFT         - SURFACE TEMPERATURE
~A  DEPTH     RESD     PHID     PHIN       GR
# ...
  402.000   14.514    0.296    0.373   74.836
  402.250   14.233    0.298    0.371   75.447
  402.500   13.958    0.298    0.382   76.059
  402.750   13.435    0.297    0.383   74.848
  403.000   13.429    0.296    0.387   72.422
  403.250   13.172    0.294    0.389   69.997
  403.500   13.163    0.295    0.393   68.787
  403.750   13.404    0.300    0.396   68.790
  404.000   13.394    0.302    0.401   68.188
  404.250   13.131    0.302    0.409   68.798
  404.500   13.125    0.297    0.418   71.232
  404.750   12.873    0.295    0.429   71.841
  405.000   12.625    0.295    0.433   71.238
  405.250   12.383    0.298    0.443   67.599
  405.500   12.144    0.303    0.449   67.602
  405.750   11.688    0.307    0.461   77.930
  406.000   11.465    0.309    0.472   84.007
  406.250   11.036    0.312    0.487   83.403
  406.500   11.027    0.312    0.480   77.335
  406.750   11.229    0.313    0.473   73.694
  407.000   11.434    0.315    0.471   71.877
  407.250   11.861    0.317    0.467   71.274
  407.500   11.856    0.318    0.455   75.529
  407.750   12.073    0.320    0.429   77.961
  408.000   12.290    0.319    0.405   77.358
  408.250   12.753    0.315    0.407   74.933
  408.500   12.987    0.313    0.432   72.507
  408.750   13.224    0.312    0.443   70.083
  409.000   13.464    0.312    0.434   68.874
  409.250   13.456    0.313    0.412   68.877
  409.500   13.703    0.313    0.400   68.879
  409.750   13.693    0.314    0.410   70.706
  410.000   13.685    0.314    0.435   72.531
  410.250   13.421    0.312    0.454   74.966
  410.500   12.441    0.310    0.428   75.575
  410.750   11.318    0.309    0.416   78.010
  411.000   10.895    0.309    0.435   78.620
  411.250   10.099    0.302    0.454   79.231
  411.500    9.538    0.299    0.437   79.234
  411.750    9.357    0.295    0.412   79.845
  412.000    9.174    0.293    0.390   78.635
  412.250    9.344    0.292    0.388   75.603
  412.500    9.696    0.292    0.388   75.606
  412.750    9.689    0.294    0.417   76.826
  413.000    9.500    0.298    0.444   78.043
  413.250    9.495    0.302    0.421   79.261
  413.500    9.490    0.303    0.374   80.480
  413.750    9.483    0.297    0.359   78.664
  414.000    9.301    0.288    0.367   77.452
  414.250    9.121    0.279    0.383   75.027
  414.500    9.115    0.272    0.416   73.208
  414.750    9.110    0.270    0.407   71.390
  415.000    9.103    0.272    0.411   70.179
  415.250    8.927    0.272    0.394   72.612
  415.500    8.754    0.269    0.403   78.690
  415.750    8.586    0.258    0.424   83.552
  416.000    8.264    0.242    0.450   87.200
  416.250    8.107    0.227    0.417   90.240
  416.500    7.803    0.209    0.401   92.673
  416.750    7.508    0.207    0.396   94.499
  417.000    7.505    0.218    0.405   95.718
  417.250    7.358    0.226    0.397   94.507
  417.500    7.356    0.234    0.394   93.296
  417.750    7.212    0.228    0.402   92.691
  418.000    7.074    0.215    0.420   93.303
  418.250    7.070    0.210    0.439   94.521
  418.500    6.932    0.201    0.467   93.917
  418.750    6.928    0.200    0.511   90.278
  419.000    6.924    0.199    0.539   92.105
  419.250    6.919    0.198    0.534   93.930
  419.500    6.914    0.198    0.471   92.719
  419.750    6.909    0.200    0.442   84.221
  420.000    6.904    0.205    0.417   89.083
  420.250    6.901    0.206    0.401   95.161
  420.500    6.895    0.204    0.398   97.594
  420.750    6.764    0.197    0.406   97.597
  421.000    6.758    0.195    0.408  101.852
  421.250    6.881    0.194    0.415  104.892
  421.500    6.878    0.196    0.436  106.111
  421.750    6.746    0.202    0.457  104.899
  422.000    6.741    0.206    0.445   98.223
  422.250    6.734    0.210    0.403   96.406
  422.500    6.731    0.202    0.392   96.409
  422.750    6.728    0.193    0.413   94.591
  423.000    6.721    0.188    0.424   92.166
  423.250    6.592    0.190    0.424   93.992
  423.500    6.589    0.194    0.406   98.854
  423.750    6.583    0.197    0.386  101.894
  424.000    6.457    0.199    0.371  102.505
  424.250    6.452    0.197    0.382  104.939
  424.500    6.330    0.195    0.393  106.157
  424.750    6.207    0.192    0.412  104.946
  425.000    5.974    0.197    0.402   98.877
  425.250    5.539    0.201    0.391   97.059
  425.500    5.135    0.203    0.385   97.063
  425.750    4.585    0.208    0.409   98.282
  426.000    3.798    0.213    0.469   98.286
  426.250    3.146    0.217    0.491   98.289
  426.500    2.757    0.218    0.472  103.759
  426.750    2.508    0.219    0.450  103.764
  427.000    2.506    0.212    0.428  106.196
  427.250    2.552    0.200    0.416  104.379
  427.500    2.648    0.191    0.410  102.560
  427.750    2.799    0.189    0.398  100.136
  428.000    2.959    0.198    0.391   99.531
  428.250    3.187    0.206    0.377   98.320
  428.500    3.370    0.210    0.367   97.109
  428.750    3.564    0.206    0.399  100.152
  429.000    3.986    0.208    0.418   98.940
  429.250    4.541    0.214    0.416   94.694
  429.500    4.625    0.223    0.397   92.267
  429.750    4.889    0.230    0.399   88.627
  430.000    5.266    0.238    0.411   86.809
  430.250    5.361    0.243    0.426   88.637
  430.500    5.563    0.252    0.445   88.639
  430.750    5.560    0.261    0.415   83.785
  431.000    5.557    0.268    0.404   79.537
  431.250    5.876    0.267    0.452   72.255
  431.500    6.695    0.260    0.496   69.221
  431.750    6.819    0.208    0.388   65.581
  432.000    6.943    0.170    0.289   78.338
  432.250    6.808    0.167    0.304   91.703
  432.500    6.554    0.219    0.408   95.350
  432.750    6.191    0.260    0.441   96.568
  433.000    5.848    0.279    0.433   92.323
  433.250    5.842    0.283    0.430   88.683
  433.500    5.950    0.280    0.437   86.256
  433.750    6.057    0.279    0.443   81.403
  434.000    6.055    0.277    0.438   79.584
  434.250    6.165    0.277    0.432   78.980
  434.500    6.162    0.277    0.435   77.770
  434.750    6.274    0.261    0.414   86.275
  435.000    6.270    0.237    0.376   91.139
  435.250    6.266    0.226    0.366   92.963
  435.500    6.260    0.219    0.381   92.968
  435.750    6.258    0.218    0.409   86.291
  436.000    6.252    0.228    0.433   80.832
  436.250    6.249    0.237    0.482   79.620
  436.500    6.245    0.250    0.460   77.194
  436.750    6.240    0.257    0.455   74.768
  437.000    6.352    0.256    0.448   74.165
  437.250    6.347    0.252    0.464   80.243
  437.500    6.344    0.244    0.480   83.282
  437.750    6.223    0.240    0.471   84.501
  438.000    6.218    0.242    0.453   85.112
  438.250    6.100    0.248    0.452   86.330
  438.500    5.981    0.236    0.457   90.586
  438.750    5.978    0.225    0.432   92.411
  439.000    5.973    0.221    0.384   91.807
  439.250    5.859    0.218    0.362   85.132
  439.500    5.855    0.221    0.389   82.706
  439.750    5.742    0.230    0.425   82.102
  440.000    5.527    0.236    0.466   87.574
  440.250    5.320    0.242    0.496   91.221
  440.500    5.025    0.235    0.483   94.260
  440.750    4.837    0.230    0.453   93.050
  441.000    4.656    0.223    0.439   86.981
  441.250    4.652    0.227    0.441   82.126
  441.500    4.649    0.238    0.448   79.093
  441.750    4.823    0.254    0.418   82.742
  442.000    4.820    0.263    0.401   85.174
  442.250    4.908    0.253    0.418   90.644
  442.500    4.998    0.242    0.452   91.254
  442.750    5.090    0.238    0.474   83.364
  443.000    5.379    0.234    0.459   80.331
  443.250    5.477    0.231    0.431   86.409
  443.500    5.577    0.231    0.409   90.055
  443.750    5.574    0.230    0.391   88.847
  444.000    5.678    0.227    0.389   87.635
  444.250    5.674    0.227    0.398   85.210
  444.500    5.778    0.227    0.401   86.427
  444.750    5.881    0.231    0.411   90.683
  445.000    5.990    0.235    0.426   93.723
  445.250    5.986    0.238    0.453   95.549
