~VERSION INFORMATION
 VERS.                 2.0:   CWLS LOG ASCII STANDARD -VERSION 2.0
 WRAP.                  NO:   ONE LINE PER DEPTH STEP
~WELL INFORMATION BLOCK
#MNEM.UNIT           DATA                    DESCRIPTION OF MNEMONIC
#---------    -------------------            -------------------------------
# Generated from Intellog Unique Number	CW_79_81/WELL/2442
WELL.         CHEVRON MISTEHAEN              : Well_name    - WELL
LOC .         00/03-19-081-05W5/0            : Location     - LOCATION
UWI .         00/03-19-081-05W5/0            : Uwi          - UNIQUE WELL ID
ENTR.         MAX                            : Entered      - ENTERED BY
SRVC.         SCHLUMBERGER                   : Scn          - SERVICE COMPANY
STRT.M        304.8                          : top_depth    - START DEPTH
STOP.M        533.05                         : bot_depth    - STOP DEPTH
STEP.M        0.25                           : increment    - STEP LENGTH
 NULL. -999.2500:NULL Value
~CURVE INFORMATION BLOCK
#MNEM UNIT       ERCB CURVE CODE    CURVE DESCRIPTION
#-----------   ------------------   ----------------------------------
DEPT.M        00 001 00 00         : DEPTH        - DEPTH
ILD .OHMM     00 120 00 00         : RESD         - DEEP RESISTIVITY (DIL)
NPHI.V/V      00 330 00 00         : PHIN         - NEUTRON POROSITY (SANDSTONE)
DPHI.V/V      00 890 00 00         : PHID         - DENSITY POROSITY (SANDSTONE)
GR  .API      00 310 00 00         : GR           - GAMMA RAY
CALI.MM       00 280 01 00         : CAL          - CALIPER
~PARAMETER INFORMATION
#MNEM.UNIT           DATA             DESCRIPTION OF MNEMONIC
#---------         -----------     ------------------------------
GL  .M        611.734              : gl           - GROUND LEVEL ELEVATION
EREF.M        614.111              : kb           - ELEVATION OF DEPTH REFERENCE
DATM.M        611.734              : datum        - DATUM ELEVATION
TDD .M        550.774              : tdd          - TOTAL DEPTH DRILLER
RUN .         ONE                  : Run          - RUN NUMBER
ENG .         BILL                 : Engineer     - RECORDING ENGINEER
WIT .         JIM                  : Witness      - WITNESSED BY
MUD .         GEL                  : Mud_type     - MUD TYPE
MATR.         SANDSTONE            : Logunit      - NEUTRON MATRIX
TMAX.C        29.4444              : BHT          - MAXIMUM RECORDED TEMPERATURE
BHTD.M        550.774              : BHTDEP       - MAXIMUM RECORDED TEMPERATURE
MATR.         1                    : LOGUNIT      - NEUTRON MATRIX
RMT .C        20                   : MDTP         - TEMPERATURE OF MUD
NEUT.         1                    : NEUTRON      - NEUTRON TYPE
RESI.         0                    : RESIST       - RESISTIVITY TYPE
RMC .OHMM     4.1                  : RMC          - RESISTIVITY OF MUD CAKE
RMF .OHMM     5.07                 : RMF          - RESISTIVITY OF MUD FILTRATE
SUFT.C        -20.5556             : SUFT         - SURFACE TEMPERATURE
~A  DEPTH     RESD     PHIN     PHID       GR      CAL
# ...
  377.800    3.637    0.555    0.241   75.121  212.466
  378.050    3.549    0.590    0.254   73.687  211.923
  378.300    3.389    0.589    0.275   73.675  207.320
  378.550    3.289    0.573    0.276   73.424  203.701
  378.800    3.282    0.557    0.284   74.235  201.876
  379.050    3.352    0.541    0.293   74.103  200.649
  379.300    3.493    0.528    0.299   72.026  199.623
  379.550    3.719    0.526    0.306   66.868  199.199
  379.800    3.803    0.560    0.307   61.201  199.176
  380.050    3.801    0.563    0.308   58.119  199.151
  380.300    3.798    0.554    0.316   58.400  198.825
  380.550    3.796    0.546    0.323   59.211  198.599
  380.800    3.787    0.539    0.324   58.253  198.475
  381.050    3.751    0.516    0.314   53.113  198.046
  381.300    3.720    0.496    0.304   49.905  198.022
  381.550    3.691    0.513    0.305   51.304  197.995
  381.800    3.682    0.522    0.303   52.527  198.271
  382.050    3.680    0.526    0.304   53.573  198.448
  382.300    3.678    0.529    0.308   54.445  198.525
  382.550    3.676    0.523    0.311   55.087  198.894
  382.800    3.674    0.514    0.311   54.824  198.866
  383.050    3.698    0.520    0.305   54.574  198.843
  383.300    3.784    0.530    0.295   55.739  198.816
  383.550    3.922    0.525    0.278   57.965  198.791
  383.800    4.152    0.495    0.240   60.191  198.770
  384.050    4.720    0.424    0.147   60.203  198.739
  384.300    5.419    0.343    0.102   57.976  198.708
  384.550    6.119    0.368    0.118   58.434  199.082
  384.800    6.391    0.441    0.146   60.662  199.758
  385.050    6.029    0.506    0.192   64.775  199.934
  385.300    5.382    0.529    0.236   69.360  199.609
  385.550    4.838    0.498    0.229   71.512  199.577
  385.800    4.417    0.487    0.223   71.744  199.554
  386.050    4.319    0.476    0.220   69.136  199.532
  386.300    4.293    0.464    0.208   67.057  199.507
  386.550    4.275    0.471    0.208   66.688  199.681
  386.800    4.250    0.501    0.225   67.853  199.855
  387.050    4.247    0.549    0.251   69.017  199.433
  387.300    4.244    0.567    0.280   67.525  198.906
  387.550    4.242    0.543    0.274   66.774  198.459
  387.800    4.216    0.540    0.271   68.204  198.354
  388.050    4.198    0.539    0.263   70.313  198.532
  388.300    4.203    0.542    0.253   71.833  198.806
  388.550    4.232    0.565    0.254   71.583  198.779
  388.800    4.307    0.588    0.242   70.975  199.250
  389.050    4.304    0.568    0.246   71.451  199.640
  389.300    4.302    0.550    0.254   71.711  199.696
  389.550    4.299    0.534    0.256   71.106  199.471
  389.800    4.297    0.529    0.255   69.794  199.050
  390.050    4.295    0.546    0.265   68.836  198.623
  390.300    4.291    0.538    0.249   68.524  198.592
  390.550    4.322    0.523    0.249   68.508  198.569
  390.800    4.350    0.528    0.256   68.671  198.544
  391.050    4.363    0.537    0.262   68.539  198.318
  391.300    4.361    0.545    0.265   67.522  197.995
  391.550    4.344    0.554    0.267   64.760  197.887
  391.800    4.276    0.545    0.271   64.008  197.445
  392.050    4.305    0.530    0.288   64.937  197.415
  392.300    4.381    0.524    0.292   63.566  197.391
  392.550    4.492    0.528    0.292   61.428  197.169
  392.800    4.598    0.544    0.294   59.586  196.745
  393.050    4.621    0.561    0.301   58.478  196.229
  393.300    4.584    0.545    0.299   57.723  195.792
  393.550    4.514    0.545    0.303   57.236  195.764
  393.800    4.496    0.533    0.302   58.520  195.441
  394.050    4.493    0.524    0.298   60.513  195.018
  394.300    4.490    0.520    0.292   62.328  194.593
  394.550    4.487    0.507    0.284   62.908  194.245
  394.800    4.484    0.512    0.277   61.173  194.635
  395.050    4.482    0.515    0.284   59.977  195.012
  395.300    4.455    0.506    0.286   59.138  196.584
  395.550    4.420    0.499    0.287   58.534  197.756
  395.800    4.377    0.497    0.290   58.284  198.131
  396.050    4.298    0.492    0.297   58.885  198.584
  396.300    4.230    0.511    0.302   59.607  198.980
  396.550    4.136    0.523    0.304   59.591  199.354
  396.800    4.067    0.507    0.298   59.931  200.028
  397.050    4.020    0.488    0.291   60.743  200.802
  397.300    4.039    0.475    0.278   61.789  201.477
  397.550    4.274    0.452    0.227   62.233  201.929
  397.800    4.576    0.431    0.164   60.988  202.316
  398.050    4.881    0.392    0.137   60.031  202.294
  398.300    5.098    0.325    0.110   58.543  202.270
  398.550    5.304    0.314    0.129   56.288  202.245
  398.800    5.418    0.372    0.186   55.862  202.319
  399.050    5.127    0.441    0.223   63.520  202.684
  399.300    4.861    0.478    0.222   67.683  202.660
  399.550    4.683    0.483    0.229   69.556  203.035
  399.800    4.664    0.490    0.232   71.251  202.511
  400.050    4.797    0.490    0.229   72.769  202.088
  400.300    5.089    0.478    0.221   73.697  202.065
  400.550    5.701    0.445    0.198   72.814  202.037
  400.800    6.545    0.414    0.154   70.833  202.009
  401.050    7.817    0.366    0.149   67.754  201.984
  401.300    9.079    0.390    0.180   64.319  200.763
  401.550   10.079    0.431    0.232   60.883  199.540
  401.800   10.371    0.470    0.277   58.627  198.913
  402.050    9.129    0.521    0.269   59.749  199.128
  402.300    7.410    0.531    0.259   60.717  200.353
  402.550    6.480    0.512    0.263   63.062  201.129
  402.800    5.607    0.487    0.249   64.876  201.305
  403.050    5.095    0.438    0.220   65.570  201.281
  403.300    4.886    0.391    0.186   65.261  201.258
  403.550    4.818    0.428    0.183   65.065  201.228
  403.800    4.853    0.480    0.222   66.526  201.202
  404.050    4.745    0.518    0.239   68.634  201.178
  404.300    4.613    0.535    0.241   71.273  201.149
  404.550    4.528    0.537    0.240   72.082  201.124
  404.800    4.493    0.536    0.239   71.240  201.102
  405.050    4.457    0.544    0.236   71.608  201.068
  405.300    4.454    0.540    0.237   72.331  201.047
  405.550    4.451    0.538    0.237   72.551  201.025
  405.800    4.498    0.531    0.238   74.187  200.997
  406.050    4.545    0.522    0.240   75.235  201.169
  406.300    4.576    0.515    0.241   75.162  201.445
  406.550    4.606    0.507    0.243   74.909  201.420
  406.800    4.603    0.497    0.239   74.893  201.391
  407.050    4.668    0.493    0.238   74.880  201.367
  407.300    4.708    0.521    0.237   74.511  201.340
  407.550    4.757    0.536    0.234   73.552  201.316
  407.800    4.807    0.529    0.230   72.536  201.295
  408.050    4.811    0.523    0.222   72.801  201.263
  408.300    4.845    0.501    0.220   73.034  201.239
  408.550    4.913    0.505    0.205   74.669  201.215
  408.800    4.955    0.504    0.215   76.483  201.190
  409.050    5.025    0.499    0.234   77.413  201.365
  409.300    5.170    0.500    0.247   76.808  201.637
  409.550    5.512    0.526    0.247   73.840  201.684
  409.800    5.901    0.507    0.244   70.879  202.080
  410.050    5.855    0.501    0.247   67.323  202.457
  410.300    5.840    0.486    0.248   67.133  202.534
  410.550    5.837    0.478    0.247   68.652  202.311
  410.800    5.845    0.476    0.245   69.580  201.686
  411.050    5.936    0.461    0.244   65.594  200.703
  411.300    6.210    0.447    0.260   58.698  201.931
  411.550    6.625    0.461    0.248   56.087  200.708
  411.800    7.370    0.467    0.263   53.831  200.084
  412.050    8.284    0.459    0.280   50.987  199.857
  412.300    9.152    0.442    0.284   48.437  199.928
  412.550    9.681    0.433    0.266   49.332  200.300
  412.800    9.246    0.431    0.252   51.528  200.275
  413.050    8.086    0.433    0.235   54.106  200.649
  413.300    7.037    0.436    0.219   59.165  200.722
  413.550    6.294    0.445    0.203   64.814  200.697
  413.800    5.822    0.454    0.192   69.577  200.675
  414.050    5.487    0.457    0.199   72.044  200.645
