~VERSION INFORMATION
 VERS.                 2.0:   CWLS LOG ASCII STANDARD -VERSION 2.0
 WRAP.                  NO:   ONE LINE PER DEPTH STEP
~WELL INFORMATION BLOCK
#MNEM.UNIT           DATA                    DESCRIPTION OF MNEMONIC
#---------    -------------------            -------------------------------
# Generated from Intellog Unique Number	CN_94_101/WELL/3368
WELL.         SHELL CANADA LTD.              : Well_name    - WELL
LOC .         00/08-07-095-15W4/0            : Location     - LOCATION
UWI .         00/08-07-095-15W400            : Uwi          - UNIQUE WELL ID
ENTR.         JOETTE                         : Entered      - ENTERED BY
SRVC.         SCHLUMBERGER                   : Scn          - SERVICE COMPANY
DATE.         07/24/92                       : Date         - LOG DATE
STRT.F        300                            : top_depth    - START DEPTH
STOP.F        1049.67                        : bot_depth    - STOP DEPTH
STEP.F        0.82                           : increment    - STEP LENGTH
 NULL. -999.2500:NULL Value
~CURVE INFORMATION BLOCK
#MNEM UNIT       ERCB CURVE CODE    CURVE DESCRIPTION
#-----------   ------------------   ----------------------------------
DEPT.F        00 001 00 00         : DEPTH        - DEPTH
ILD .OHMM     00 120 00 00         : RESD         - DEEP RESISTIVITY (DIL)
GR  .API      00 310 00 00         : GR           - GAMMA RAY
DPHI.V/V      00 890 00 00         : PHID         - DENSITY POROSITY (SANDSTONE)
NPHI.V/V      00 330 00 00         : PHIN         - NEUTRON POROSITY (SANDSTONE)
~PARAMETER INFORMATION
#MNEM.UNIT           DATA             DESCRIPTION OF MNEMONIC
#---------         -----------     ------------------------------
GL  .F        1870.5               : gl           - GROUND LEVEL ELEVATION
EREF.F        1880.7               : kb           - ELEVATION OF DEPTH REFERENCE
DATM.F        1880.7               : datum        - DATUM ELEVATION
TDD .F        1063                 : tdd          - TOTAL DEPTH DRILLER
RUN .         ONE                  : Run          - RUN NUMBER
ENG .         JO                   : Engineer     - RECORDING ENGINEER
WIT .         TIM                  : Witness      - WITNESSED BY
MUD .         GEL                  : Mud_type     - MUD TYPE
MATR.         SANDSTONE            : Logunit      - NEUTRON MATRIX
TMAX.F        55                   : BHT          - MAXIMUM RECORDED TEMPERATURE
BHTD.F        1063                 : BHTDEP       - MAXIMUM RECORDED TEMPERATURE
RMT .F        50                   : MDTP         - TEMPERATURE OF MUD
MUDD.LB/G     9.6                  : MWT          - MUD DENSITY
NEUT.         1                    : NEUTRON      - NEUTRON TYPE
RESI.         0                    : RESIST       - RESISTIVITY TYPE
RM  .OHMM     1.5                  : RM           - RESISTIVITY OF MUD
RMC .OHMM     1.5                  : RMC          - RESISTIVITY OF MUD CAKE
RMF .OHMM     1.5                  : RMF          - RESISTIVITY OF MUD FILTRATE
SUFT.F        39.2                 : SUFT         - SURFACE TEMPERATURE
~A  DEPTH     RESD       GR     PHID     PHIN
# ...
  585.433    5.881  119.899    0.316    0.486
  586.253    6.211  119.929    0.304    0.499
  587.073    6.442  118.734    0.291    0.520
  587.894    5.103  116.937    0.262    0.509
  588.714    3.316  118.188    0.214    0.509
  589.534    3.566  115.778    0.235    0.519
  590.354    3.633  127.335    0.310    0.525
  591.175    3.323  129.793    0.311    0.522
  591.995    3.209  130.425    0.320    0.532
  592.815    3.271  135.912    0.347    0.540
  593.635    3.331  131.694    0.348    0.535
  594.455    3.395  125.035    0.355    0.522
  595.276    3.458  124.458    0.357    0.475
  596.096    3.461  127.518    0.349    0.468
  596.916    3.591  128.149    0.353    0.475
  597.736    3.861  126.959    0.362    0.488
  598.556    3.935  123.955    0.362    0.504
  599.377    3.664  120.343    0.354    0.503
  600.197    3.474  119.749    0.349    0.497
  601.017    3.416  119.773    0.358    0.492
  601.837    3.417  121.011    0.369    0.482
  602.657    3.483  123.464    0.370    0.473
  603.478    3.549  130.778    0.361    0.476
  604.298    3.615  132.623    0.342    0.487
  605.118    3.818  133.255    0.338    0.453
  605.938    4.181  133.898    0.343    0.390
  606.759    4.661  133.303    0.348    0.368
  607.579    4.923  131.507    0.333    0.362
  608.399    4.926  127.282    0.336    0.358
  609.219    6.814  122.451    0.332    0.360
  610.039   13.758  117.024    0.320    0.385
  610.860   10.323  114.008    0.307    0.398
  611.680    7.610  109.783    0.292    0.404
  612.500    8.038  103.131    0.283    0.403
  613.320    7.621  101.340    0.282    0.401
  614.140    6.256  106.220    0.302    0.390
  614.961    5.621  105.031    0.309    0.344
  615.781    5.624  106.876    0.299    0.322
  616.601    5.942  106.900    0.300    0.340
  617.421    6.505  110.567    0.309    0.364
  618.241    7.793  114.233    0.318    0.364
  619.062    9.677  114.257    0.323    0.387
  619.882   11.185  119.138    0.317    0.390
  620.702   10.798  118.561    0.315    0.380
  621.522   10.238  109.481    0.322    0.394
  622.343   10.245   99.186    0.340    0.424
  623.163   10.628   98.603    0.323    0.337
  623.983   11.431   96.200    0.304    0.283
  624.803   11.861   91.975    0.345    0.291
  625.623   11.865   95.035    0.344    0.290
  626.444   11.666   90.203    0.342    0.335
  627.264   10.866   87.806    0.337    0.338
  628.084   10.676   88.437    0.331    0.422
  628.904   11.075   86.039    0.329    0.432
  629.724   11.083   86.671    0.337    0.436
  630.545    8.024   87.296    0.324    0.447
  631.365    4.516   92.783    0.308    0.452
  632.185    4.601   98.878    0.279    0.419
  633.005    6.966  103.764    0.300    0.409
  633.825    6.371  108.037    0.322    0.402
  634.646    5.621  112.918    0.321    0.398
  635.466    5.141  114.763    0.315    0.400
  636.286    5.732  118.441    0.312    0.393
  637.106    6.054  119.680    0.315    0.403
  637.927    5.739  119.710    0.308    0.451
  638.747    5.642  119.115    0.288    0.466
  639.567    6.291  114.284    0.283    0.301
  640.387    6.408  119.164    0.286    0.274
  641.207    6.186  120.409    0.296    0.312
  642.028    5.458  118.618    0.302    0.405
  642.848    4.402  120.463    0.306    0.452
  643.668    5.273  122.910    0.299    0.457
  644.488   14.980  127.790    0.289    0.424
  645.308   11.242  118.709    0.267    0.404
  646.129    4.495   95.668    0.231    0.407
  646.949    3.497   87.195    0.194    0.415
  647.769    3.969  104.215    0.270    0.452
  648.589    4.044  131.560    0.298    0.460
  649.409    3.975  132.798    0.329    0.431
  650.230    3.978  135.250    0.330    0.416
  651.050    3.982  137.102    0.330    0.405
  651.870    4.282  134.698    0.331    0.408
  652.690    4.773  137.758    0.336    0.401
  653.510    5.823  134.747    0.338    0.379
  654.331    6.149  127.487    0.334    0.376
  655.151    6.856  122.049    0.323    0.385
  655.971    7.922  119.038    0.313    0.380
  656.791    7.511  121.491    0.307    0.368
  657.612    6.393  120.307    0.302    0.305
  658.432    6.398  116.089    0.304    0.287
  659.252    7.394  112.471    0.302    0.282
  660.072   10.047  108.847    0.306    0.294
  660.892   11.821  111.300    0.313    0.370
  661.713   11.832  114.966    0.339    0.415
  662.533    9.713  108.920    0.357    0.428
  663.353    6.200  101.661    0.376    0.390
  664.173    5.000   90.759    0.383    0.340
  664.993    4.105  103.537    0.348    0.308
  665.814    4.576  121.164    0.317    0.285
  666.634    7.444  126.044    0.311    0.376
  667.454   10.114  121.820    0.335    0.434
  668.274   12.560  103.634    0.326    0.442
  669.094   13.507   89.698    0.327    0.440
  669.915   11.092   82.438    0.337    0.409
  670.735    8.475   80.642    0.324    0.394
  671.555    7.085   84.314    0.306    0.399
  672.375    6.031  100.126    0.329    0.416
  673.196    5.617  105.000    0.313    0.414
  674.016    5.827  115.350    0.304    0.418
  674.836    6.496  114.767    0.297    0.431
  675.656    6.985  115.398    0.309    0.400
  676.476    6.743  114.209    0.313    0.396
  677.297    5.741  112.412    0.311    0.401
  678.117    5.443  115.472    0.313    0.409
  678.937    5.447  116.710    0.313    0.412
  679.757    5.963  114.312    0.306    0.422
  680.577    6.298  112.516    0.306    0.439
  681.398    5.971  114.361    0.318    0.402
  682.218    6.084  118.033    0.317    0.357
  683.038    7.161  116.844    0.315    0.352
  683.858    6.788  114.434    0.316    0.378
  684.678    5.991  116.292    0.324    0.386
  685.499    6.213  115.102    0.333    0.410
  686.319    7.311  115.126    0.329    0.422
  687.139    9.245  117.573    0.330    0.448
  687.959    6.228  116.383    0.340    0.457
  688.780    4.758  113.979    0.333    0.372
  689.600    3.635  112.796    0.330    0.401
  690.420    3.981  120.711    0.325    0.451
  691.240    3.984  126.805    0.317    0.472
  692.060    4.284  132.900    0.306    0.441
  692.881    9.128  132.317    0.283    0.434
  693.701    7.230  126.272    0.273    0.442
  694.521    4.784  120.226    0.225    0.442
  695.341    4.376  113.573    0.242    0.427
  696.161    4.622  130.600    0.284    0.433
  696.982    4.625  138.515    0.302    0.442
  697.802    4.386  138.545    0.293    0.476
  698.622    4.310  137.957    0.284    0.476
  699.442    4.236  136.178    0.277    0.471
  700.262    4.240  139.238    0.286    0.467
  701.083    4.321  141.077    0.290    0.474
  701.903    4.564  137.459    0.282    0.472
  702.723    4.908  133.836    0.284    0.395
  703.543    5.470  128.397    0.284    0.405
  704.364    5.376  127.207    0.274    0.411
  705.184    4.918  124.209    0.263    0.355
  706.004    6.107  124.233    0.247    0.346
  706.824    8.150  127.894    0.267    0.349
  707.644    9.940  132.774    0.272    0.349
  708.465   11.912  132.798    0.284    0.339
  709.285   11.918  135.251    0.277    0.347
  710.105   11.716  121.921    0.285    0.396
  710.925   11.723  111.020    0.288    0.406
  711.745   13.070  110.443    0.285    0.374
  712.566   12.847  112.895    0.281    0.366
  713.386   11.333  115.955    0.279    0.373
  714.206    9.141  109.909    0.279    0.406
  715.026    8.986  112.362    0.269    0.406
  715.846    9.322  118.462    0.268    0.393
  716.667    9.164  123.348    0.282    0.382
  717.487    9.167  123.373    0.290    0.370
  718.307    9.012  124.611    0.293    0.353
  719.127    9.017  127.670    0.296    0.338
  719.948    9.529  122.833    0.296    0.333
  720.768    9.705  118.608    0.292    0.323
  721.588   10.251  117.425    0.305    0.317
  722.408   10.444  117.455    0.297    0.331
  723.228   10.644  115.051    0.296    0.344
  724.049   10.845  112.642    0.295    0.367
  724.869   11.456  109.637    0.288    0.335
  725.689   10.860  106.621    0.274    0.325
  726.509    9.758  102.396    0.253    0.319
  727.329    9.589   99.385    0.286    0.339
