~VERSION INFORMATION
 VERS.                 2.0:   CWLS LOG ASCII STANDARD -VERSION 2.0
 WRAP.                  NO:   ONE LINE PER DEPTH STEP
~WELL INFORMATION BLOCK
#MNEM.UNIT           DATA                    DESCRIPTION OF MNEMONIC
#---------    -------------------            -------------------------------
# Generated from Intellog Unique Number	CS_71_72/WELL/843
WELL.         AEC IPIATIK NOVEMBER           : Well_name    - WELL
LOC .         00/09-14-071-06W4/0            : Location     - LOCATION
UWI .         00/09-14-071-06W4/0            : Uwi          - UNIQUE WELL ID
ENTR.         SP                             : Entered      - ENTERED BY
SRVC.         SCHLUMBERGER                   : Scn          - SERVICE COMPANY
STRT.M        305                            : top_depth    - START DEPTH
STOP.M        525                            : bot_depth    - STOP DEPTH
STEP.M        0.25                           : increment    - STEP LENGTH
 NULL. -999.2500:NULL Value
~CURVE INFORMATION BLOCK
#MNEM UNIT       ERCB CURVE CODE    CURVE DESCRIPTION
#-----------   ------------------   ----------------------------------
DEPT.M        00 001 00 00         : DEPTH        - DEPTH
ILD .OHMM     00 120 00 00         : RESD         - DEEP RESISTIVITY (DIL)
DPHI.V/V      00 890 00 00         : PHID         - DENSITY POROSITY (LIMESTONE)
NPHI.V/V      00 330 00 00         : PHIN         - NEUTRON POROSITY (LIMESTONE)
GR  .API      00 310 00 00         : GR           - GAMMA RAY
~PARAMETER INFORMATION
#MNEM.UNIT           DATA             DESCRIPTION OF MNEMONIC
#---------         -----------     ------------------------------
GL  .M        672.05               : gl           - GROUND LEVEL ELEVATION
EREF.M        676.32               : kb           - ELEVATION OF DEPTH REFERENCE
DATM.M        672.05               : datum        - DATUM ELEVATION
TDD .M        566.79               : tdd          - TOTAL DEPTH DRILLER
RUN .         ONE                  : Run          - RUN NUMBER
ENG .         BILL                 : Engineer     - RECORDING ENGINEER
WIT .         JIM                  : Witness      - WITNESSED BY
MUD .         GEL                  : Mud_type     - MUD TYPE
MATR.         LIMESTONE            : Logunit      - NEUTRON MATRIX
TMAX.C        27                   : BHT          - MAXIMUM RECORDED TEMPERATURE
BHTD.M        566.79               : BHTDEP       - MAXIMUM RECORDED TEMPERATURE
MATR.         1                    : LOGUNIT      - NEUTRON MATRIX
RMT .C        25                   : MDTP         - TEMPERATURE OF MUD
NEUT.         1                    : NEUTRON      - NEUTRON TYPE
RESI.         0                    : RESIST       - RESISTIVITY TYPE
RMC .OHMM     0.25                 : RMC          - RESISTIVITY OF MUD CAKE
RMF .OHMM     0.25                 : RMF          - RESISTIVITY OF MUD FILTRATE
SUFT.C        15                   : SUFT         - SURFACE TEMPERATURE
~A  DEPTH     RESD     PHID     PHIN       GR
  305.000    2.678    0.207    0.541   91.060
  305.250    2.924    0.214    0.528   90.058
  305.500    2.953    0.226    0.529   88.932
  305.750    2.955    0.229    0.535   88.473
  306.000    2.951    0.219    0.543   91.952
  306.250    2.953    0.221    0.550   95.304
  306.500    2.977    0.224    0.531   95.270
  306.750    3.045    0.212    0.530   95.357
  307.000    3.122    0.202    0.540   95.868
  307.250    3.206    0.198    0.542   97.710
  307.500    3.274    0.207    0.522   98.278
  307.750    3.338    0.212    0.524   97.275
  308.000    3.428    0.205    0.532   94.998
  308.250    3.508    0.198    0.525   92.543
  308.500    3.582    0.201    0.516   90.817
  308.750    3.659    0.204    0.509   89.992
  309.000    3.709    0.187    0.500   89.774
  309.250    3.717    0.200    0.508   90.645
  309.500    3.590    0.207    0.523   91.944
  309.750    3.441    0.210    0.533   92.028
  310.000    3.417    0.202    0.532   91.510
  310.250    3.497    0.200    0.518   91.417
  310.500    3.585    0.209    0.503   91.322
  310.750    3.688    0.214    0.493   90.676
  311.000    3.795    0.211    0.482   89.914
  311.250    3.919    0.195    0.481   93.636
  311.500    3.981    0.195    0.493   93.725
  311.750    3.866    0.202    0.510   93.141
  312.000    3.637    0.214    0.520   92.437
  312.250    3.415    0.210    0.530   91.013
  312.500    3.249    0.202    0.528   89.099
  312.750    3.167    0.188    0.512   86.403
  313.000    3.271    0.177    0.516   83.519
  313.250    3.620    0.167    0.523   78.825
  313.500    4.066    0.160    0.495   75.698
  313.750    4.911    0.187    0.467   72.091
  314.000    5.921    0.182    0.410   69.331
  314.250    6.968    0.207    0.391   66.753
  314.500    7.886    0.230    0.376   64.779
  314.750    8.808    0.254    0.354   62.688
  315.000    9.548    0.273    0.314   60.110
  315.250   10.351    0.287    0.330   60.073
  315.500   10.791    0.263    0.355   66.337
  315.750   10.857    0.222    0.383   70.722
  316.000    9.951    0.190    0.401   73.957
  316.250    9.036    0.188    0.399   75.618
  316.500    8.581    0.195    0.397   76.856
  316.750    8.396    0.197    0.394   76.698
  317.000    8.370    0.192    0.392   75.811
  317.250    8.452    0.191    0.390   74.383
  317.500    8.584    0.197    0.392   71.808
  317.750    8.669    0.208    0.397   70.742
  318.000    8.577    0.213    0.382   71.008
  318.250    8.055    0.205    0.377   73.338
  318.500    7.099    0.197    0.393   78.873
  318.750    6.257    0.188    0.413   85.377
  319.000    5.587    0.178    0.424   90.667
  319.250    5.179    0.191    0.442   95.476
  319.500    5.020    0.197    0.468   94.411
  319.750    4.930    0.200    0.493   92.558
  320.000    4.970    0.204    0.504   90.889
  320.250    5.019    0.206    0.512   88.434
  320.500    5.088    0.196    0.498   85.980
  320.750    5.100    0.181    0.493   84.065
  321.000    5.008    0.178    0.481   86.754
  321.250    4.909    0.189    0.473   89.746
  321.500    4.986    0.200    0.491   91.411
  321.750    5.064    0.210    0.503   91.672
  322.000    5.133    0.191    0.505   91.765
  322.250    5.184    0.168    0.485   90.272
  322.500    5.255    0.159    0.485   88.358
  322.750    5.307    0.182    0.461   87.293
  323.000    5.481    0.188    0.452   84.655
  323.250    6.263    0.174    0.477   78.565
  323.500    6.725    0.160    0.487   71.931
  323.750    7.595    0.187    0.446   62.815
  324.000    8.691    0.241    0.384   52.122
  324.250    9.964    0.296    0.366   39.556
  324.500   11.298    0.340    0.354   33.647
  324.750   11.645    0.348    0.348   31.977
  325.000   11.544    0.352    0.357   31.460
  325.250   11.215    0.336    0.372   31.121
  325.500   10.142    0.324    0.391   31.387
  325.750   10.035    0.307    0.404   31.783
  326.000    9.873    0.313    0.419   31.742
  326.250    9.841    0.306    0.417   31.406
  326.500    9.810    0.293    0.411   30.883
  326.750    9.797    0.305    0.407   30.668
  327.000   10.006    0.314    0.407   31.057
  327.250   10.068    0.312    0.411   32.176
  327.500   10.054    0.302    0.415   34.023
  327.750   10.097    0.311    0.416   36.053
  328.000   10.121    0.339    0.435   38.383
  328.250   10.090    0.319    0.452   38.872
  328.500    9.964    0.268    0.457   44.291
  328.750    9.658    0.202    0.440   52.000
  329.000    9.190    0.223    0.432   54.326
  329.250    9.368    0.275    0.426   53.203
  329.500    9.250    0.298    0.420   60.855
  329.750    9.034    0.278    0.410   68.933
  330.000    8.692    0.237    0.403   76.223
  330.250    8.239    0.193    0.403   82.909
  330.500    7.722    0.182    0.410   88.263
  330.750    7.025    0.188    0.419   96.280
  331.000    6.203    0.193    0.443  104.660
  331.250    5.447    0.199    0.461  110.680
  331.500    4.801    0.218    0.483  112.827
  331.750    4.351    0.227    0.502  112.001
  332.000    4.452    0.220    0.509  106.821
  332.250    4.800    0.212    0.489   97.648
  332.500    5.213    0.208    0.463   91.371
  332.750    5.790    0.205    0.453   85.887
  333.000    6.372    0.219    0.449   81.737
  333.250    6.831    0.240    0.447   79.280
  333.500    7.255    0.253    0.440   76.278
  333.750    7.549    0.257    0.436   74.366
  334.000    7.958    0.275    0.462   78.932
  334.250    8.436    0.298    0.495   85.254
  334.500    8.745    0.290    0.476   89.820
  334.750    8.981    0.263    0.448   92.265
  335.000    9.173    0.247    0.437   95.380
  335.250    9.316    0.249    0.430   96.253
  335.500    9.321    0.244    0.429   89.678
  335.750    9.343    0.225    0.424   83.164
  336.000    9.349    0.225    0.415   75.925
  336.250    9.301    0.244    0.410   70.016
  336.500    9.203    0.274    0.417   65.080
  336.750    9.071    0.283    0.433   61.954
  337.000    9.127    0.313    0.451   58.168
  337.250    9.287    0.324    0.450   55.229
  337.500    9.327    0.316    0.444   58.279
  337.750    9.228    0.301    0.449   63.148
  338.000    9.029    0.291    0.455   63.898
  338.250    8.967    0.288    0.450   62.289
  338.500    9.005    0.284    0.436   59.352
  338.750    9.197    0.281    0.426   58.648
  339.000    9.463    0.285    0.435   59.760
  339.250    9.664    0.309    0.443   62.404
  339.500    9.890    0.326    0.439   63.264
  339.750    9.986    0.309    0.428   66.447
  340.000   10.031    0.298    0.421   69.377
  340.250    9.998    0.289    0.414   72.793
  340.500    9.818    0.280    0.419   75.537
  340.750    9.323    0.264    0.421   79.631
  341.000    8.626    0.243    0.407   81.036
  341.250    8.040    0.216    0.399   84.695
  341.500    7.678    0.189    0.400   87.806
  341.750    7.333    0.164    0.404   90.194
  342.000    7.255    0.173    0.405   90.521
  342.250    7.465    0.188    0.418   88.910
  342.500    7.767    0.209    0.439   83.487
  342.750    8.358    0.235    0.449   78.124
  343.000    9.011    0.249    0.438   73.429
  343.250    9.428    0.254    0.438   71.335
  343.500    9.718    0.251    0.451   71.359
  343.750    9.870    0.237    0.463   71.688
  344.000    9.729    0.222    0.453   72.198
  344.250    9.716    0.207    0.456   72.588
  344.500    9.722    0.200    0.451   71.766
  344.750    9.836    0.232    0.428   68.823
  345.000    9.916    0.243    0.410   64.488
  345.250    9.737    0.233    0.403   61.970
  345.500    8.992    0.224    0.411   67.263
  345.750    8.350    0.230    0.413   75.340
  346.000    8.019    0.235    0.412   80.997
  346.250    7.934    0.233    0.419   85.565
  346.500    8.149    0.249    0.435   88.378
  346.750    8.276    0.234    0.445   88.763
  347.000    8.357    0.234    0.438   86.912
  347.250    8.269    0.241    0.435   90.145
  347.500    7.867    0.229    0.445   94.956
  347.750    7.402    0.223    0.462   98.736
  348.000    7.029    0.218    0.482  101.302
  348.250    6.662    0.223    0.490  104.058
