~VERSION INFORMATION
 VERS.                 2.0:   CWLS LOG ASCII STANDARD -VERSION 2.0
 WRAP.                  NO:   ONE LINE PER DEPTH STEP
~WELL INFORMATION BLOCK
#MNEM.UNIT           DATA                    DESCRIPTION OF MNEMONIC
#---------    -------------------            -------------------------------
# Generated from Intellog Unique Number	CN_94_101/WELL/3386
WELL.         PARAMOUNT RES                  : Well_name    - WELL
LOC .         00/03-28-095-18W4/0            : Location     - LOCATION
UWI .         00/03-28-095-18W400            : Uwi          - UNIQUE WELL ID
ENTR.         T                              : Entered      - ENTERED BY
SRVC.         SCHLUMBERGER                   : Scn          - SERVICE COMPANY
DATE.         07/07/92                       : Date         - LOG DATE
STRT.M        225                            : top_depth    - START DEPTH
STOP.M        400                            : bot_depth    - STOP DEPTH
STEP.M        0.25                           : increment    - STEP LENGTH
 NULL. -999.2500:NULL Value
~CURVE INFORMATION BLOCK
#MNEM UNIT       ERCB CURVE CODE    CURVE DESCRIPTION
#-----------   ------------------   ----------------------------------
DEPT.M        00 001 00 00         : DEPTH        - DEPTH
GR  .API      00 310 00 00         : GR           - GAMMA RAY
NPHI.V/V      00 330 00 00         : PHIN         - NEUTRON POROSITY (SANDSTONE)
DPHI.V/V      00 890 00 00         : PHID         - DENSITY POROSITY (SANDSTONE)
ILD .OHMM     00 120 00 00         : RESD         - DEEP RESISTIVITY (DIL)
~PARAMETER INFORMATION
#MNEM.UNIT           DATA             DESCRIPTION OF MNEMONIC
#---------         -----------     ------------------------------
GL  .M        680.3                : gl           - GROUND LEVEL ELEVATION
EREF.M        683.8                : kb           - ELEVATION OF DEPTH REFERENCE
DATM.M        683.8                : datum        - DATUM ELEVATION
TDD .M        398                  : tdd          - TOTAL DEPTH DRILLER
RUN .         ONE                  : Run          - RUN NUMBER
ENG .         JO                   : Engineer     - RECORDING ENGINEER
WIT .         TIM                  : Witness      - WITNESSED BY
MUD .         GEL                  : Mud_type     - MUD TYPE
MATR.         SANDSTONE            : Logunit      - NEUTRON MATRIX
TMAX.C        32                   : BHT          - MAXIMUM RECORDED TEMPERATURE
BHTD.M        398                  : BHTDEP       - MAXIMUM RECORDED TEMPERATURE
RMT .C        21                   : MDTP         - TEMPERATURE OF MUD
MUDD.KG/M     1100                 : MWT          - MUD DENSITY
NEUT.         1                    : NEUTRON      - NEUTRON TYPE
RESI.         0                    : RESIST       - RESISTIVITY TYPE
RM  .OHMM     4                    : RM           - RESISTIVITY OF MUD
RMC .OHMM     3.5                  : RMC          - RESISTIVITY OF MUD CAKE
RMF .OHMM     5                    : RMF          - RESISTIVITY OF MUD FILTRATE
SUFT.C        4                    : SUFT         - SURFACE TEMPERATURE
~A  DEPTH       GR     PHIN     PHID     RESD
  225.000   47.892    0.349    0.324   18.961
  225.250   47.264    0.348    0.320   18.986
  225.500   48.563    0.349    0.320   19.023
  225.750   49.847    0.354    0.323   19.047
  226.000   50.500    0.364    0.323   19.066
  226.250   49.238    0.367    0.318   19.084
  226.500   47.337    0.354    0.303   19.121
  226.750   44.797    0.345    0.305   19.140
  227.000   43.535    0.355    0.315   18.801
  227.250   43.553    0.363    0.321   18.485
  227.500   44.202    0.370    0.314   18.503
  227.750   47.412    0.367    0.315   17.836
  228.000   53.169    0.361    0.325   16.888
  228.250   54.464    0.366    0.331   16.588
  228.500   51.286    0.370    0.333   15.990
  228.750   54.490    0.374    0.324   15.135
  229.000   62.169    0.375    0.315   15.150
  229.250   64.099    0.378    0.320   14.891
  229.500   62.202    0.378    0.324   14.915
  229.750   59.020    0.374    0.324   15.209
  230.000   55.204    0.366    0.317   16.115
  230.250   48.834    0.356    0.314   17.731
  230.500   44.375    0.340    0.313   21.051
  230.750   34.813    0.317    0.312   22.298
  231.000   23.973    0.302    0.310   25.001
  231.250   16.968    0.303    0.302   26.994
  231.500   14.429    0.303    0.288   27.553
  231.750   15.078    0.301    0.300   27.082
  232.000   22.116    0.301    0.321   25.131
  232.250   47.034    0.335    0.325   20.456
  232.500   61.733    0.365    0.298   17.286
  232.750   69.409    0.388    0.307   16.046
  233.000   69.427    0.361    0.321   15.767
  233.250   64.330    0.342    0.332   15.787
  233.500   38.806    0.328    0.329   16.727
  233.750   24.774    0.324    0.299   18.767
  234.000   20.319    0.326    0.280   19.501
  234.250   28.634    0.325    0.279   20.670
  234.500   25.459    0.325    0.288   21.090
  234.750   22.916    0.323    0.303   20.723
  235.000   18.469    0.320    0.313   19.609
  235.250   17.203    0.318    0.324   18.202
  235.500   16.579    0.318    0.328   15.674
  235.750   19.143    0.323    0.324   13.492
  236.000   45.335    0.407    0.306   10.573
  236.250   53.649    0.440    0.271    8.934
  236.500   63.879    0.469    0.254    7.693
  236.750  109.228    0.496    0.244    5.387
  237.000  115.627    0.484    0.237    5.098
  237.250  115.649    0.465    0.236    4.732
  237.500  111.825    0.472    0.239    4.233
  237.750  107.371    0.488    0.241    4.079
  238.000  116.962    0.503    0.241    4.006
  238.250  120.169    0.515    0.241    3.792
  238.500  122.102    0.523    0.240    3.725
  238.750  122.113    0.518    0.238    3.732
  239.000  120.212    0.508    0.235    3.736
  239.250  114.484    0.495    0.225    3.739
  239.500  111.302    0.473    0.204    3.748
  239.750  108.763    0.474    0.184    3.822
  240.000  108.777    0.491    0.198    3.829
  240.250  110.707    0.501    0.211    3.906
  240.500  113.914    0.486    0.222    3.910
  240.750  117.766    0.476    0.229    3.992
  241.000  119.051    0.495    0.234    4.072
  241.250  120.980    0.504    0.238    4.076
  241.500  124.191    0.500    0.242    4.082
  241.750  124.844    0.501    0.244    4.086
  242.000  121.024    0.505    0.248    3.943
  242.250  114.015    0.500    0.253    3.873
  242.500  111.479    0.421    0.255    3.878
  242.750  108.301    0.396    0.259    3.958
  243.000  108.316    0.397    0.259    4.037
  243.250  108.965    0.406    0.258    4.199
  243.500  110.256    0.416    0.255    4.363
  243.750  111.548    0.432    0.253    4.804
  244.000  110.931    0.441    0.249    4.994
  244.250  109.030    0.446    0.248    5.094
  244.500  105.852    0.443    0.245    5.400
  244.750  103.313    0.433    0.245    5.615
  245.000  102.047    0.410    0.254    5.619
  245.250   98.869    0.397    0.274    5.846
  245.500   95.052    0.407    0.278    5.961
  245.750   94.428    0.419    0.264    6.437
  246.000   97.635    0.422    0.254    6.950
  246.250  102.119    0.399    0.257    7.226
  246.500  101.495    0.409    0.264    7.240
  246.750   96.401    0.443    0.266    7.110
  247.000   91.947    0.459    0.271    6.602
  247.250   88.130    0.445    0.275    6.487
  247.500   84.317    0.400    0.275    6.619
  247.750   84.328    0.428    0.273    6.506
  248.000   89.451    0.461    0.255    5.928
  248.250  100.957    0.485    0.243    5.402
  248.500  104.164    0.481    0.242    5.014
  248.750  104.182    0.478    0.244    4.572
  249.000  103.558    0.475    0.247    4.325
  249.250  105.484    0.476    0.249    4.248
  249.500  108.691    0.480    0.252    4.174
  249.750  110.621    0.487    0.259    4.101
  250.000  105.528    0.489    0.263    4.107
  250.250  101.715    0.487    0.269    4.112
  250.500   96.618    0.477    0.272    4.277
  250.750   87.694    0.460    0.277    4.618
  251.000   85.154    0.453    0.272    5.377
  251.250   86.446    0.442    0.260    6.263
  251.500   93.483    0.425    0.232    6.762
  251.750   97.967    0.407    0.205    7.029
  252.000   97.343    0.387    0.159    7.040
  252.250   90.976    0.391    0.190    6.915
  252.500   89.076    0.406    0.223    6.301
  252.750   90.363    0.436    0.244    5.634
  253.000   92.935    0.457    0.269    5.136
  253.250   94.869    0.473    0.280    4.858
  253.500   96.153    0.494    0.278    4.345
  253.750   98.083    0.503    0.273    4.189
  254.000  100.012    0.486    0.269    4.114
  254.250  100.030    0.466    0.267    4.045
  254.500   95.579    0.462    0.265    3.974
  254.750   94.313    0.463    0.262    3.978
  255.000   95.605    0.464    0.259    4.137
  255.250  102.642    0.464    0.254    4.385
  255.500  106.494    0.467    0.246    4.558
  255.750  104.586    0.472    0.245    4.742
  256.000  101.408    0.473    0.247    4.837
  256.250   95.677    0.474    0.247    4.842
  256.500   90.583    0.473    0.242    4.944
  256.750   86.767    0.466    0.233    5.041
  257.000   82.316    0.454    0.227    5.447
  257.250   79.138    0.429    0.231    5.556
  257.500   79.791    0.421    0.234    5.779
  257.750   83.632    0.431    0.242    5.782
  258.000   88.116    0.450    0.248    5.790
  258.250   91.326    0.445    0.251    5.689
  258.500   91.341    0.449    0.256    5.284
  258.750   90.717    0.467    0.267    4.815
  259.000   93.282    0.497    0.274    4.388
  259.250   97.765    0.509    0.282    4.310
  259.500   97.141    0.500    0.284    4.160
  259.750   91.413    0.475    0.289    4.162
  260.000   93.343    0.481    0.297    4.166
  260.250   95.269    0.488    0.290    4.094
  260.500   99.756    0.498    0.279    4.099
  260.750  101.683    0.490    0.282    4.028
  261.000  101.059    0.471    0.287    4.034
  261.250   96.604    0.456    0.284    4.117
  261.500   90.234    0.439    0.270    4.122
  261.750   80.036    0.423    0.254    4.204
  262.000   77.493    0.397    0.229    4.716
  262.250   76.238    0.408    0.202    5.092
  262.500   78.160    0.428    0.222    5.498
  262.750   83.283    0.452    0.251    5.609
  263.000   88.405    0.477    0.271    5.615
  263.250   89.696    0.498    0.295    5.414
  263.500   89.714    0.492    0.315    5.123
  263.750   89.090    0.469    0.313    4.848
  264.000   89.743    0.459    0.301    4.763
  264.250   91.673    0.455    0.289    4.769
  264.500   95.518    0.462    0.272    4.599
  264.750  101.917    0.469    0.255    5.158
  265.000  107.043    0.455    0.247    5.465
  265.250  107.696    0.461    0.247    5.471
  265.500  108.987    0.481    0.257    5.478
  265.750  110.913    0.425    0.266    5.593
  266.000  111.566    0.439    0.272    5.596
  266.250  108.392    0.454    0.282    5.607
  266.500  110.322    0.447    0.283    5.613
  266.750  112.887    0.437    0.243    5.618
  267.000  112.270    0.425    0.239    5.629
  267.250  111.000    0.431    0.243    5.635
  267.500  110.376    0.437    0.253    5.536
  267.750  111.033    0.449    0.263    5.438
  268.000  111.682    0.464    0.276    5.344
  268.250  112.335    0.466    0.278    5.154
