~VERSION INFORMATION
 VERS.                 2.0:   CWLS LOG ASCII STANDARD -VERSION 2.0
 WRAP.                  NO:   ONE LINE PER DEPTH STEP
~WELL INFORMATION BLOCK
#MNEM.UNIT           DATA                    DESCRIPTION OF MNEMONIC
#---------    -------------------            -------------------------------
# Generated from Intellog Unique Number	CS_69_70/WELL/474
NULL.         -999.25                        : NULL_VALUE
WELL.         07-03-070-08W4                 : Well_name    - WELL              
LOC .         00/07-03-070-08W4/0            : Location     - LOCATION          
UWI .         00/07-03-070-08W4/0            : Uwi          - UNIQUE WELL ID    
ENTR.         JOETTE                         : Entered      - ENTERED BY        
SRVC.         SCHLUMBERGER                   : Scn          - SERVICE COMPANY   
DATE.         05\15\92                       : Date         - LOG DATE          
STRT.M        300                            : top_depth    - START DEPTH       
STOP.M        520                            : bot_depth    - STOP DEPTH        
STEP.M        0.25                           : increment    - STEP LENGTH       
~CURVE INFORMATION BLOCK
#MNEM UNIT       ERCB CURVE CODE    CURVE DESCRIPTION
#-----------   ------------------   ----------------------------------
DEPT.M        00 001 00 00         : DEPTH        - DEPTH                       
GR  .API      00 310 00 00         : GR           - GAMMA RAY                   
NPHI.V/V      00 330 00 00         : PHIN         - NEUTRON POROSITY (SANDSTONE)
DPHI.V/V      00 890 00 00         : PHID         - DENSITY POROSITY (SANDSTONE)
ILD .OHMM     00 120 00 00         : RESD         - DEEP RESISTIVITY (DIL)      
CALI.MM       00 280 01 00         : CAL          - CALIPER                     
~PARAMETER INFORMATION       
#MNEM.UNIT           DATA             DESCRIPTION OF MNEMONIC
#---------         -----------     ------------------------------
GL  .M        640                  : gl           - GROUND LEVEL ELEVATION      
EREF.M        648.7                : kb           - ELEVATION OF DEPTH REFERENCE
DATM.M        648.7                : datum        - DATUM ELEVATION             
TDD .M        625                  : tdd          - TOTAL DEPTH DRILLER         
RUN .         ONE                  : Run          - RUN NUMBER                  
ENG .         JO                   : Engineer     - RECORDING ENGINEER          
WIT .         TIM                  : Witness      - WITNESSED BY                
MUD .         GEL                  : Mud_type     - MUD TYPE                    
MATR.         SANDSTONE            : Logunit      - NEUTRON MATRIX              
TMAX.C        25                   : BHT          - MAXIMUM RECORDED TEMPERATURE
BHTD.M        625                  : BHTDEP       - MAXIMUM RECORDED TEMPERATURE
RMT .C        15                   : MDTP         - TEMPERATURE OF MUD          
MUDD.KG/M     1080                 : MWT          - MUD DENSITY                 
NEUT.         1                    : NEUTRON      - NEUTRON TYPE                
RESI.         0                    : RESIST       - RESISTIVITY TYPE            
RM  .OHMM     3.3                  : RM           - RESISTIVITY OF MUD          
RMC .OHMM     3.3                  : RMC          - RESISTIVITY OF MUD CAKE     
RMF .OHMM     3.3                  : RMF          - RESISTIVITY OF MUD FILTRATE 
SUFT.C        4                    : SUFT         - SURFACE TEMPERATURE         
~A  DEPTH       GR     PHIN     PHID     RESD      CAL
  300.000   98.149    0.504    0.266    3.538  180.536
  300.250   95.776    0.534    0.275    3.545  174.619
  300.500   91.605    0.458    0.279    3.619  169.657
  300.750   88.644    0.454    0.272    4.052  162.704
  301.000   91.751    0.469    0.283    4.214  162.840
  301.250   96.070    0.482    0.290    4.145  170.010
  301.500   97.346    0.487    0.275    3.926  171.127
  301.750   97.394    0.492    0.265    3.790  172.272
  302.000   97.443    0.499    0.264    3.336  173.362
  302.250   96.936    0.504    0.256    3.221  174.534
  302.500   95.185    0.521    0.269    3.166  176.660
  302.750   95.856    0.562    0.283    3.056  176.714
  303.000   98.342    0.549    0.308    3.063  176.823
  303.250   98.996    0.497    0.313    3.126  175.922
  303.500  100.877    0.476    0.312    3.250  171.996
  303.750  102.758    0.483    0.298    3.320  169.078
  304.000  103.428    0.496    0.292    3.323  166.188
  304.250  101.089    0.503    0.296    3.269  162.234
  304.500   98.733    0.516    0.294    3.273  169.431
  304.750   95.755    0.503    0.283    3.279  175.620
  305.000   91.584    0.469    0.291    3.348  178.728
  305.250   92.859    0.477    0.309    3.481  178.836
  305.500   91.714    0.506    0.323    3.620  174.910
  305.750   88.753    0.507    0.339    3.625  168.966
  306.000   99.745    0.503    0.351    3.633  174.118
  306.250   91.926    0.464    0.325    3.445  180.279
  306.500   88.376    0.460    0.300    3.324  181.397
  306.750   86.020    0.512    0.276    3.207  178.479
  307.000   84.859    0.540    0.272    3.042  174.553
  307.250   81.914    0.549    0.304    3.045  171.635
  307.500   80.736    0.559    0.317    3.166  166.700
  307.750   77.775    0.492    0.234    4.189  160.756
  308.000   71.787    0.308    0.187   10.215  156.830
  308.250   60.353    0.262    0.204   13.026  156.938
  308.500   51.944    0.214    0.281   19.615  156.065
  308.750   47.151    0.187    0.341   25.012  154.156
  309.000   43.585    0.175    0.386   29.060  154.238
  309.250   40.035    0.132    0.380   33.143  154.374
  309.500   37.057    0.104    0.393   35.116  154.509
  309.750   34.702    0.111    0.405   34.550  154.564
  310.000   32.951    0.142    0.396   29.283  154.699
  310.250   34.832    0.210    0.359   21.801  153.827
  310.500   56.114    0.278    0.329   15.079  153.908
  310.750   70.705    0.306    0.284   12.095  154.017
  311.000   90.154    0.361    0.257    9.701  154.125
  311.250   90.825    0.399    0.246    8.223  153.225
  311.500   87.880    0.390    0.246    7.239  152.325
  311.750   93.376    0.399    0.227    7.122  155.460
  312.000  100.115    0.422    0.230    7.138  157.586
  312.250  102.601    0.422    0.240    7.013  156.686
  312.500  102.061    0.409    0.235    6.771  153.768
  312.750   97.285    0.398    0.244    7.039  152.868
  313.000   93.113    0.388    0.266    7.458  154.994
  313.250   89.547    0.396    0.278    7.468  156.139
  313.500   89.023    0.420    0.266    7.485  156.302
  313.750   89.693    0.424    0.268    7.357  156.356
  314.000   92.163    0.422    0.273    7.106  156.492
  314.250   92.228    0.413    0.272    7.525  156.573
  314.500   90.478    0.411    0.265    8.270  156.682
  314.750   85.701    0.417    0.265    8.602  155.836
  315.000   78.503    0.406    0.275    8.304  155.890
  315.250   71.305    0.371    0.294    7.721  154.990
  315.500   63.486    0.384    0.314    7.883  153.136
  315.750   65.972    0.390    0.322    8.045  152.208
  316.000   75.148    0.381    0.319    7.624  152.317
  316.250   78.224    0.386    0.304    7.225  153.461
  316.500   80.710    0.398    0.304    6.721  154.579
  316.750   86.844    0.390    0.304    6.491  155.723
  317.000   94.172    0.394    0.299    6.751  155.778
  317.250   94.254    0.407    0.310    6.884  155.913
  317.500   88.250    0.353    0.323    7.433  155.995
  317.750   82.868    0.343    0.312    7.724  156.104
  318.000   87.170    0.375    0.234    7.738  159.238
  318.250  101.777    0.419    0.181    7.749  162.373
  318.500  100.632    0.455    0.112    7.211  162.482
  318.750   99.519    0.465    0.079    6.591  162.618
  319.000  100.762    0.473    0.162    6.243  162.726
  319.250  105.669    0.479    0.182    5.916  162.835
  319.500  116.040    0.493    0.212    5.504  164.961
  319.750  116.711    0.503    0.204    5.216  167.114
  320.000  116.776    0.496    0.204    4.850  168.232
  320.250  116.857    0.479    0.215    4.431  167.332
  320.500  116.922    0.473    0.243    4.044  166.432
  320.750  116.382    0.500    0.257    3.762  167.576
  321.000  114.027    0.526    0.281    3.310  167.630
  321.250  111.654    0.540    0.291    2.913  167.766
  321.500  107.483    0.529    0.296    2.761  166.866
  321.750   93.038    0.499    0.269    2.924  163.976
  322.000   90.061    0.461    0.252    3.397  160.049
  322.250   84.057    0.453    0.249    3.946  158.086
  322.500   68.991    0.469    0.296    4.942  155.168
  322.750   60.583    0.440    0.326    5.849  153.287
  323.000   55.789    0.424    0.351    6.799  153.449
  323.250   60.124    0.402    0.348    7.071  153.531
  323.500   58.962    0.400    0.353    6.951  152.658
  323.750   53.580    0.410    0.358    6.833  152.712
  324.000   50.603    0.403    0.356    6.722  152.821
  324.250   57.358    0.394    0.350    6.608  152.957
  324.500   59.239    0.400    0.345    6.620  153.038
  324.750   56.884    0.411    0.344    6.513  153.147
  325.000   53.906    0.414    0.348    6.525  153.255
  325.250   48.524    0.419    0.353    6.414  152.355
  325.500   47.379    0.424    0.358    6.428  152.491
  325.750   55.917    0.410    0.354    6.324  152.573
  326.000   98.383    0.393    0.348    6.333  152.735
  326.250  117.227    0.404    0.347    6.347  151.835
  326.500   82.171    0.430    0.348    6.361  151.917
  326.750   65.273    0.440    0.352    6.367  152.025
  327.000   56.865    0.435    0.357    6.379  152.188
  327.250   51.483    0.428    0.358    6.273  152.270
  327.500   49.143    0.419    0.353    6.287  152.406
  327.750   49.208    0.421    0.352    6.183  152.487
  328.000   49.879    0.430    0.353    6.080  152.569
  328.250   51.743    0.422    0.356    5.979  152.704
  328.500   54.835    0.427    0.357    5.990  152.840
  328.750   59.137    0.434    0.357    5.891  152.922
  329.000   72.550    0.435    0.356    6.014  152.076
  329.250   73.221    0.449    0.350    6.025  151.148
  329.500   73.891    0.462    0.342    6.149  151.230
  329.750   73.940    0.454    0.343    6.390  150.384
  330.000   72.189    0.449    0.344    6.773  149.457
  330.250   66.218    0.464    0.342    7.173  149.538
  330.500   69.293    0.457    0.347    7.457  149.701
  330.750   71.174    0.432    0.346    7.610  149.783
  331.000   73.677    0.405    0.328    7.631  149.864
  331.250   79.794    0.417    0.321    7.638  149.045
  331.500   82.886    0.430    0.326    7.648  149.127
  331.750   83.556    0.440    0.329    7.669  149.181
  332.000   88.480    0.447    0.322    7.541  149.344
  332.250   88.561    0.442    0.317    7.416  149.426
  332.500   84.373    0.439    0.317    7.430  149.589
  332.750   82.034    0.444    0.318    7.310  149.670
  333.000   83.310    0.446    0.318    7.320  149.751
  333.250   82.753    0.436    0.314    7.467  150.896
  333.500   82.213    0.424    0.302    7.623  150.977
  333.750   88.936    0.414    0.286    7.776  151.140
  334.000   92.665    0.396    0.269    7.943  151.195
  334.250   92.125    0.391    0.262    7.954  151.331
  334.500   93.990    0.397    0.253    7.682  150.430
  334.750   99.519    0.403    0.253    7.419  150.539
  335.000   97.147    0.396    0.260    7.426  150.620
  335.250   91.764    0.399    0.265    7.446  149.720
  335.500   93.040    0.416    0.272    7.456  149.856
  335.750   91.895    0.419    0.287    7.466  149.965
  336.000   96.197    0.431    0.291    7.342  151.109
  336.250  107.173    0.451    0.281    6.958  152.199
