~VERSION INFORMATION
 VERS.                 2.0:   CWLS LOG ASCII STANDARD -VERSION 2.0
 WRAP.                  NO:   ONE LINE PER DEPTH STEP
~WELL INFORMATION BLOCK
#MNEM.UNIT           DATA                    DESCRIPTION OF MNEMONIC
#---------    -------------------            -------------------------------
# Generated from Intellog Unique Number	CS_67_68/WELL/2166
WELL.         MURPHY ET AL ATMORE            : Well_name    - WELL
LOC .         00/06-11-067-17W4/0            : Location     - LOCATION
UWI .         00/06-11-067-17W4/0            : Uwi          - UNIQUE WELL ID
ENTR.         SP                             : Entered      - ENTERED BY
SRVC.         SCHLUMBERGER                   : Scn          - SERVICE COMPANY
STRT.M        381                            : top_depth    - START DEPTH
STOP.M        554.50                         : bot_depth    - STOP DEPTH
STEP.M        0.25                           : increment    - STEP LENGTH
 NULL. -999.2500:NULL Value
~CURVE INFORMATION BLOCK
#MNEM UNIT       ERCB CURVE CODE    CURVE DESCRIPTION
#-----------   ------------------   ----------------------------------
DEPT.M        00 001 00 00         : DEPTH        - DEPTH
CALI.MM       00 280 01 00         : CAL          - CALIPER
GR  .API      00 310 00 00         : GR           - GAMMA RAY
DPHI.V/V      00 890 00 00         : PHID         - DENSITY POROSITY (SANDSTONE)
NPHI.V/V      00 330 00 00         : PHIN         - NEUTRON POROSITY (SANDSTONE)
ILD .OHMM     00 120 00 00         : RESD         - DEEP RESISTIVITY (DIL)
~PARAMETER INFORMATION
#MNEM.UNIT           DATA             DESCRIPTION OF MNEMONIC
#---------         -----------     ------------------------------
GL  .M        608.076              : gl           - GROUND LEVEL ELEVATION
EREF.M        611.124              : kb           - ELEVATION OF DEPTH REFERENCE
DATM.M        611.124              : datum        - DATUM ELEVATION
TDD .M        566.928              : tdd          - TOTAL DEPTH DRILLER
RUN .         `                    : Run          - RUN NUMBER
ENG .         BILL                 : Engineer     - RECORDING ENGINEER
WIT .         JIM                  : Witness      - WITNESSED BY
MUD .         GEL                  : Mud_type     - MUD TYPE
MATR.         SANDSTONE            : Logunit      - NEUTRON MATRIX
TMAX.C        24.4444              : BHT          - MAXIMUM RECORDED TEMPERATURE
BHTD.M        567.538              : BHTDEP       - MAXIMUM RECORDED TEMPERATURE
MATR.         1                    : LOGUNIT      - NEUTRON MATRIX
RMT .C        25                   : MDTP         - TEMPERATURE OF MUD
NEUT.         1                    : NEUTRON      - NEUTRON TYPE
RESI.         0                    : RESIST       - RESISTIVITY TYPE
RMC .OHMM     0.25                 : RMC          - RESISTIVITY OF MUD CAKE
RMF .OHMM     0.25                 : RMF          - RESISTIVITY OF MUD FILTRATE
SUFT.C        15                   : SUFT         - SURFACE TEMPERATURE
~A  DEPTH      CAL       GR     PHID     PHIN     RESD
# ...
  527.000  172.865  120.632    0.077    0.477    2.881
  527.250  174.024  122.670    0.117    0.477    2.893
  527.500  175.261  123.350    0.147    0.482    2.906
  527.750  175.564  120.176    0.150    0.477    2.933
  528.000  175.734  120.632    0.130    0.482    2.966
  528.250  176.022  122.909    0.112    0.478    3.008
  528.500  176.183  125.332    0.115    0.472    3.046
  528.750  176.353  127.852    0.110    0.465    3.045
  529.000  175.846  129.772    0.140    0.463    3.027
  529.250  174.906  131.038    0.161    0.464    2.971
  529.500  172.916  129.592    0.172    0.466    2.988
  529.750  170.814  124.450    0.174    0.468    3.126
  530.000  169.390  119.993    0.162    0.467    3.302
  530.250  167.957  117.247    0.151    0.461    3.386
  530.500  167.356  117.144    0.132    0.449    3.408
  530.750  166.944  120.325    0.144    0.427    3.293
  531.000  166.925  123.306    0.148    0.463    3.059
  531.250  166.935  126.031    0.152    0.488    2.709
  531.500  166.862  127.192    0.166    0.502    2.446
  531.750  166.912  125.552    0.182    0.510    2.421
  532.000  166.898  122.180    0.176    0.494    2.893
  532.250  166.800  112.802    0.170    0.488    3.766
  532.500  166.624  104.972    0.169    0.411    5.070
  532.750  166.622   97.225    0.171    0.369    6.908
  533.000  166.637   85.448    0.186    0.318    9.061
  533.250  166.419   71.762    0.210    0.296   11.486
  533.500  166.429   65.269    0.241    0.291   13.352
  533.750  166.270   65.503    0.231    0.297   14.857
  534.000  165.914   65.751    0.207    0.298   16.012
  534.250  165.884   66.206    0.209    0.292   16.474
  534.500  165.472   67.493    0.234    0.308   15.073
  534.750  165.425   69.146    0.237    0.321   13.164
  535.000  165.182   70.265    0.220    0.337   11.728
  535.250  164.955   69.708    0.216    0.347   11.312
  535.500  164.677   69.783    0.213    0.358   11.839
  535.750  164.809   70.079    0.209    0.369   12.766
  536.000  164.570   70.467    0.206    0.364   13.565
  536.250  164.526   70.865    0.222    0.366   14.048
  536.500  164.560   71.348    0.218    0.361   13.531
  536.750  164.467   74.598    0.208    0.358   12.473
  537.000  164.456   78.612    0.188    0.357   11.588
  537.250  164.569   82.546    0.179    0.354   10.778
  537.500  164.846   85.990    0.175    0.350   10.274
  537.750  165.030   89.368    0.164    0.346    9.907
  538.000  165.191   91.918    0.156    0.343    9.624
  538.250  165.434   94.750    0.171    0.345    9.447
  538.500  166.074   98.304    0.165    0.348    8.596
  538.750  167.533  101.014    0.153    0.344    7.222
  539.000  168.993  103.711    0.141    0.341    5.333
  539.250  168.974  104.755    0.139    0.340    4.473
  539.500  166.957   96.555    0.141    0.347    3.915
  539.750  165.369   88.960    0.149    0.350    3.555
  540.000  164.381   93.821    0.178    0.343    3.508
  540.250  163.700  102.028    0.197    0.331    3.873
  540.500  163.479  108.967    0.189    0.317    4.116
  540.750  164.033  114.652    0.160    0.310    4.360
  541.000  164.808  120.177    0.147    0.324    4.564
  541.250  165.670  125.653    0.157    0.331    4.798
  541.500  166.407  129.467    0.159    0.338    5.020
  541.750  167.180  132.569    0.143    0.341    5.066
  542.000  168.093  135.910    0.131    0.348    5.066
  542.250  168.514  140.901    0.131    0.356    5.066
  542.500  169.115  147.668    0.144    0.356    5.079
  542.750  169.332  155.253    0.138    0.352    5.078
  543.000  169.242  156.554    0.140    0.350    5.037
  543.250  168.779  152.869    0.128    0.346    5.026
  543.500  168.169  147.546    0.118    0.339    4.915
  543.750  167.844  144.471    0.131    0.336    4.903
  544.000  167.377  142.836    0.145    0.336    4.976
  544.250  166.910  141.720    0.152    0.335    5.079
  544.500  166.556  138.460    0.140    0.331    5.400
  544.750  166.492  135.840    0.141    0.325    5.743
  545.000  166.668  133.566    0.132    0.320    6.105
  545.250  166.660  133.075    0.114    0.313    6.366
  545.500  166.720  135.629    0.105    0.307    6.532
  545.750  167.072  135.800    0.114    0.303    6.609
  546.000  167.691  127.777    0.106    0.302    6.569
  546.250  168.367  121.793    0.093    0.313    6.460
  546.500  168.908  115.353    0.083    0.319    6.381
  546.750  169.462  113.510    0.078    0.319    6.279
  547.000  170.041  114.331    0.084    0.320    6.077
  547.250  170.445  116.482    0.090    0.323    6.018
  547.500  170.728  117.896    0.094    0.330    6.010
  547.750  171.138  114.926    0.100    0.340    6.063
  548.000  171.441  111.215    0.109    0.352    6.137
  548.250  173.511  107.909    0.117    0.346    6.112
  548.500  174.729  103.587    0.121    0.348    5.854
  548.750  174.636  105.106    0.116    0.352    5.466
  549.000  173.868  110.149    0.108    0.342    5.066
  549.250  173.380  115.465    0.111    0.343    4.587
  549.500  173.014  122.750    0.127    0.349    4.236
  549.750  172.085  128.685    0.144    0.392    3.930
  550.000  170.973  132.719    0.160    0.443    3.602
  550.250  170.163  135.246    0.170    0.549    3.347
  550.500  171.126  135.779    0.168    0.532    3.209
  550.750  175.672  136.882    0.160    0.522    3.074
  551.000  179.779  139.121    0.168    0.536    3.017
  551.250  182.994  140.958    0.181    0.557    3.000
  551.500  185.430  142.384    0.191    0.568    3.026
  551.750  184.912  143.481    0.191    0.539    3.241
  552.000  181.594  144.341    0.154    0.493    4.366
  552.250  176.418  144.661    0.061    0.359    8.117
  552.500  173.235  136.161    0.020    0.274   10.934
  552.750  170.066   97.233    0.000    0.243   13.419
  553.000  168.213   74.514    0.000    0.231   15.356
  553.250  166.394   71.664   -0.000    0.223   16.375
  553.500  165.371   99.973    0.000    0.231   13.357
  553.750  165.577  114.871    0.003    0.288    9.892
  554.000  167.146  123.409    0.026    0.329    8.631
  554.250  168.398  124.936    0.031    0.355    7.797
  554.500  169.097  122.674    0.022    0.367    7.514
