~VERSION INFORMATION
 VERS.                 2.0:   CWLS LOG ASCII STANDARD -VERSION 2.0
 WRAP.                  NO:   ONE LINE PER DEPTH STEP
~WELL INFORMATION BLOCK
#MNEM.UNIT           DATA                    DESCRIPTION OF MNEMONIC
#---------    -------------------            -------------------------------
# Generated from Intellog Unique Number	CC_84_87/WELL/1056
NULL.         -999.25                        : NULL_VALUE
WELL.         PETROREP ET AL HOUSE           : Well_name    - WELL              
LOC .         04-30-084-14W4                 : Location     - LOCATION          
UWI .         00/04-30-084-14W400            : Uwi          - UNIQUE WELL ID    
ENTR.         JHS                            : Entered      - ENTERED BY        
SRVC.         COMPUTALOG                     : Scn          - SERVICE COMPANY   
DATE.         18 JAN 85                      : Date         - LOG DATE
STRT.M        100                            : top_depth    - START DEPTH       
STOP.M        265.001                        : bot_depth    - STOP DEPTH        
STEP.M        0.3                            : increment    - STEP LENGTH       
~CURVE INFORMATION BLOCK
#MNEM UNIT       ERCB CURVE CODE    CURVE DESCRIPTION
#-----------   ------------------   ----------------------------------
DEPT.M        00 001 00 00         : DEPTH        - DEPTH                       
DPHI.V/V      00 890 00 00         : PHID         - DENSITY POROSITY (LIMESTONE)
NPHI.V/V      00 330 00 00         : PHIN         - NEUTRON POROSITY (LIMESTONE)
GR  .API      00 310 00 00         : GR           - GAMMA RAY                   
ILD .OHMM     00 120 00 00         : RESD         - DEEP RESISTIVITY (DIL)      
~PARAMETER INFORMATION       
#MNEM.UNIT           DATA             DESCRIPTION OF MNEMONIC
#---------         -----------     ------------------------------
GL  .M        541.57               : gl           - GROUND LEVEL ELEVATION      
EREF.M        545.67               : kb           - ELEVATION OF DEPTH REFERENCE
DATM.M        545.67               : datum        - DATUM ELEVATION             
TDD .M        272                  : tdd          - TOTAL DEPTH DRILLER         
RUN .         ONE                  : Run          - RUN NUMBER                  
ENG .         BILL                 : Engineer     - RECORDING ENGINEER          
WIT .         JIM                  : Witness      - WITNESSED BY                
MUD .         GEL                  : Mud_type     - MUD TYPE                    
MATR.         LIMESTONE            : Logunit      - NEUTRON MATRIX              
TMAX.C        12                   : BHT          - MAXIMUM RECORDED TEMPERATURE
BHTD.M        272                  : BHTDEP       - MAXIMUM RECORDED TEMPERATURE
MATR.         1                    : LOGUNIT      - NEUTRON MATRIX              
RMT .C        25                   : MDTP         - TEMPERATURE OF MUD          
NEUT.         1                    : NEUTRON      - NEUTRON TYPE                
RESI.         0                    : RESIST       - RESISTIVITY TYPE            
RMC .OHMM     0.25                 : RMC          - RESISTIVITY OF MUD CAKE     
RMF .OHMM     0.25                 : RMF          - RESISTIVITY OF MUD FILTRATE 
SUFT.C        15                   : SUFT         - SURFACE TEMPERATURE         
~A  DEPTH     PHID     PHIN       GR     RESD
  100.000    0.282    0.459   83.751   11.974
  100.300    0.320    0.448   70.054   10.117
  100.600    0.337    0.403   64.478    9.562
  100.900    0.346    0.401   63.293   11.097
  101.200    0.357    0.422   68.961   13.120
  101.500    0.339    0.424   71.510   13.614
  101.800    0.309    0.399   77.182   13.356
  102.100    0.284    0.401   93.483   11.713
  102.400    0.284    0.432   95.410   10.468
  102.700    0.292    0.436   81.091    8.520
  103.000    0.318    0.410   78.019    8.205
  103.300    0.324    0.408   79.316    8.837
  103.600    0.328    0.426   76.866    9.879
  103.900    0.341    0.434   78.794   11.681
  104.200    0.350    0.432   75.093   13.059
  104.500    0.346    0.410   67.643   14.329
  104.800    0.354    0.391   67.698   14.593
  105.100    0.349    0.391   78.994   14.315
  105.400    0.326    0.402   84.672   13.784
  105.700    0.333    0.421   81.608   13.274
  106.000    0.337    0.426   87.897   13.023
  106.300    0.323    0.442   99.826   12.538
  106.600    0.275    0.451  102.999   12.073
  106.900    0.239    0.437   98.678   11.200
  107.200    0.250    0.409   89.978    9.641
  107.500    0.290    0.411   81.280    8.944
  107.800    0.305    0.407   77.583    8.611
  108.100    0.299    0.395   86.384    9.450
  108.400    0.268    0.392   97.681    9.805
  108.700    0.257    0.409  106.489    9.266
  109.000    0.240    0.461  111.538    8.437
  109.300    0.201    0.479  115.959    7.129
  109.600    0.202    0.497  116.012    5.912
  109.900    0.209    0.483  115.438    5.089
  110.200    0.204    0.464  116.118    4.901
  110.500    0.181    0.447  111.796    4.990
  110.800    0.160    0.423  111.219    5.275
  111.100    0.177    0.437  116.899    5.372
  111.400    0.250    0.494  118.826    5.270
  111.700    0.250    0.509  117.004    4.889
  112.000    0.250    0.499  121.424    4.288
  112.300    0.263    0.519  120.853    3.761
  112.600    0.294    0.505  112.774    3.360
  112.900    0.330    0.408   89.698    3.688
  113.200    0.379    0.273   81.629    5.663
  113.500    0.397    0.266   86.050   10.879
  113.800    0.384    0.295   92.974   15.795
  114.100    0.367    0.322   90.524   15.494
  114.400    0.350    0.356   96.206   14.374
  114.700    0.312    0.380  101.251   10.857
  115.000    0.264    0.402  105.061    9.703
  115.300    0.249    0.429  108.231    8.510
  115.600    0.250    0.445  105.787    7.894
  115.900    0.257    0.454   98.334    7.601
  116.200    0.273    0.429   94.013    7.886
  116.500    0.327    0.374   93.436    8.655
  116.800    0.370    0.314  103.492   13.043
  117.100    0.461    0.207  120.415   20.028
  117.400    0.486    0.180  116.092   29.629
  117.700    0.491    0.178  103.012   37.748
  118.000    0.460    0.192   80.563   36.348
  118.300    0.399    0.291   59.990   26.949
  118.600    0.345    0.362   64.423   17.533
  118.900    0.304    0.404   71.348   12.292
  119.200    0.271    0.416   77.648   10.006
  119.500    0.276    0.402   76.453    8.454
  119.800    0.380    0.354   68.381    8.771
  120.100    0.409    0.332   63.440    9.991
  120.400    0.415    0.332   62.226   11.595
  120.700    0.429    0.316   61.037   13.457
  121.000    0.427    0.318   59.199   13.962
  121.300    0.437    0.373   54.876   12.475
  121.600    0.413    0.430   47.433   13.689
  121.900    0.295    0.431   46.230   16.187
  122.200    0.178    0.298   40.654   21.014
  122.500    0.144    0.297   43.835   21.802
  122.800    0.276    0.393   45.767   19.482
  123.100    0.394    0.499   46.432   15.565
  123.400    0.394    0.477   50.864   13.152
  123.700    0.379    0.454   55.288   13.145
  124.000    0.379    0.482   55.335   12.658
  124.300    0.381    0.467   51.010   11.962
  124.600    0.354    0.371   46.689   13.626
  124.900    0.254    0.328   46.112   14.952
  125.200    0.307    0.446   55.539   13.613
  125.500    0.359    0.468   55.600   12.394
  125.800    0.381    0.469   52.516   13.101
  126.100    0.384    0.448   49.456   14.376
  126.400    0.382    0.437   50.753   14.370
  126.700    0.374    0.424   53.299   13.083
  127.000    0.362    0.405   54.603   11.911
  127.300    0.351    0.413   52.780   11.686
  127.600    0.363    0.454   51.583   11.898
  127.900    0.368    0.450   52.252   12.344
  128.200    0.388    0.436   53.550   12.811
  128.500    0.398    0.409   54.226   13.543
  128.800    0.393    0.393   52.403   14.585
  129.100    0.379    0.392   50.581   14.853
  129.400    0.373    0.409   51.254   14.037
  129.700    0.368    0.432   57.557   12.085
  130.000    0.352    0.456   66.986    8.960
  130.300    0.305    0.477   72.661    6.896
  130.600    0.287    0.484   77.717    4.926
  130.900    0.326    0.467   81.514    4.569
  131.200    0.328    0.425   80.941    6.042
  131.500    0.336    0.409   84.115    7.557
  131.800    0.342    0.428   84.786    8.935
  132.100    0.328    0.425   72.965    9.989
  132.400    0.335    0.399   64.271   10.757
  132.700    0.353    0.419   59.940   11.587
  133.000    0.350    0.436   56.873   12.478
  133.300    0.355    0.443   56.918   12.708
  133.600    0.357    0.436   54.467   12.467
  133.900    0.355    0.420   58.899   11.783
  134.200    0.359    0.439   58.961   10.930
  134.500    0.351    0.457   57.124   10.329
  134.800    0.343    0.439   52.800   10.519
  135.100    0.364    0.418   49.732   11.541
  135.400    0.360    0.428   49.151   11.976
  135.700    0.356    0.426   51.078   12.426
  136.000    0.354    0.441   57.376   12.191
  136.300    0.340    0.432   61.181   11.307
  136.600    0.325    0.421   64.985   10.105
  136.900    0.316    0.408   68.158    9.373
  137.200    0.331    0.421   66.959    9.370
  137.500    0.340    0.447   62.632   10.091
  137.800    0.330    0.469   65.184   10.086
  138.100    0.325    0.457   65.237    9.712
  138.400    0.333    0.439   62.785    9.352
  138.700    0.340    0.436   64.093    9.523
  139.000    0.333    0.438   66.015   10.067
  139.300    0.285    0.441   61.069   10.444
  139.600    0.288    0.435   61.120   10.836
  139.900    0.366    0.424   58.042   11.456
  140.200    0.368    0.427   53.727   12.109
  140.500    0.367    0.437   54.408   12.104
  140.800    0.365    0.452   57.569   11.875
  141.100    0.357    0.452   58.243   11.433
  141.400    0.345    0.444   55.169   11.428
  141.700    0.336    0.432   53.978   11.423
  142.000    0.341    0.446   52.778   11.852
  142.300    0.373    0.452   52.200   12.529
  142.600    0.376    0.450   52.881   12.999
  142.900    0.366    0.460   54.806   12.994
  143.200    0.363    0.468   54.234   12.512
  143.500    0.344    0.419   50.534   12.505
  143.800    0.264    0.319   49.954   13.468
  144.100    0.265    0.340   52.506   15.630
  144.400    0.284    0.379   49.431   16.835
  144.700    0.217    0.323   48.238   17.142
  145.000    0.247    0.358   52.660   16.819
  145.300    0.323    0.420   53.958   15.313
  145.600    0.380    0.429   51.518   13.684
  145.900    0.378    0.444   54.688   12.932
  146.200    0.364    0.455   59.739   12.688
  146.500    0.352    0.449   64.789   12.682
  146.800    0.354    0.444   62.338   13.657
  147.100    0.323    0.405   50.518   14.985
  147.400    0.306    0.402   49.949   15.841
  147.700    0.362    0.425   49.995   15.253
  148.000    0.377    0.457   51.295   14.150
  148.300    0.376    0.449   55.097   12.411
  148.600    0.364    0.428   57.647   10.886
  148.900    0.380    0.416   56.447   11.084
  149.201    0.375    0.423   59.628   10.875
  149.501    0.356    0.481   65.297    9.901
  149.801    0.344    0.479   65.351    8.848
  150.101    0.358    0.449   58.534    9.010
  150.401    0.352    0.428   58.581    9.175
  150.701    0.333    0.417   61.130    8.673
  151.001    0.302    0.452   66.806    7.328
  151.301    0.303    0.475   71.854    6.308
  151.601    0.319    0.457   63.785    5.961
  151.901    0.366    0.432   53.837    6.185
