~VERSION INFORMATION
 VERS.                 2.0:   CWLS LOG ASCII STANDARD -VERSION 2.0
 WRAP.                  NO:   ONE LINE PER DEPTH STEP
~WELL INFORMATION BLOCK
#MNEM.UNIT           DATA                    DESCRIPTION OF MNEMONIC
#---------    -------------------            -------------------------------
# Generated from Intellog Unique Number	CS_77_79/WELL/870
WELL.         NORCEN                         : Well_name    - WELL
LOC .         00/06-11-077-13W4/0            : Location     - LOCATION
UWI .         00/06-11-077-13W4/0            : Uwi          - UNIQUE WELL ID
ENTR.         SP                             : Entered      - ENTERED BY
SRVC.         SCHLUMBERGER                   : Scn          - SERVICE COMPANY
STRT.M        274.32                         : top_depth    - START DEPTH
STOP.M        517.82                         : bot_depth    - STOP DEPTH
STEP.M        0.25                           : increment    - STEP LENGTH
 NULL. -999.2500:NULL Value
~CURVE INFORMATION BLOCK
#MNEM UNIT       ERCB CURVE CODE    CURVE DESCRIPTION
#-----------   ------------------   ----------------------------------
DEPT.M        00 001 00 00         : DEPTH        - DEPTH
GR  .API      00 310 00 00         : GR           - GAMMA RAY
DPHI.V/V      00 890 00 00         : PHID         - DENSITY POROSITY (SANDSTONE)
NPHI.V/V      00 330 00 00         : PHIN         - NEUTRON POROSITY (SANDSTONE)
ILD .OHMM     00 120 00 00         : RESD         - DEEP RESISTIVITY (DIL)
~PARAMETER INFORMATION
#MNEM.UNIT           DATA             DESCRIPTION OF MNEMONIC
#---------         -----------     ------------------------------
GL  .M        677.692              : gl           - GROUND LEVEL ELEVATION
EREF.M        681.045              : kb           - ELEVATION OF DEPTH REFERENCE
DATM.M        677.692              : datum        - DATUM ELEVATION
TDD .M        524.256              : tdd          - TOTAL DEPTH DRILLER
RUN .         ONE                  : Run          - RUN NUMBER
ENG .         BILL                 : Engineer     - RECORDING ENGINEER
WIT .         JIM                  : Witness      - WITNESSED BY
MUD .         GEL                  : Mud_type     - MUD TYPE
MATR.         SANDSTONE            : Logunit      - NEUTRON MATRIX
TMAX.C        23.8889              : BHT          - MAXIMUM RECORDED TEMPERATURE
BHTD.M        524.256              : BHTDEP       - MAXIMUM RECORDED TEMPERATURE
MATR.         1                    : LOGUNIT      - NEUTRON MATRIX
RMT .C        25                   : MDTP         - TEMPERATURE OF MUD
NEUT.         1                    : NEUTRON      - NEUTRON TYPE
RESI.         0                    : RESIST       - RESISTIVITY TYPE
RMC .OHMM     0.25                 : RMC          - RESISTIVITY OF MUD CAKE
RMF .OHMM     0.25                 : RMF          - RESISTIVITY OF MUD FILTRATE
SUFT.C        15                   : SUFT         - SURFACE TEMPERATURE
~A  DEPTH       GR     PHID     PHIN     RESD
# ...
  491.820   92.318    0.126    0.382   16.130
  492.070   92.000    0.110    0.385   15.039
  492.320   83.612    0.138    0.390   16.577
  492.570   73.703    0.165    0.392   20.405
  492.820   66.028    0.153    0.386   23.253
  493.070   64.212    0.208    0.382   27.627
  493.320   65.323    0.216    0.385   30.680
  493.570   67.078    0.215    0.390   28.585
  493.820   67.326    0.239    0.396   29.011
  494.070   64.515    0.236    0.388   35.804
  494.320   59.594    0.237    0.408   45.258
  494.570   54.100    0.273    0.420   58.621
  494.820   51.051    0.291    0.412   57.838
  495.070   59.722    0.243    0.394   35.790
  495.320   73.400    0.194    0.384   27.646
  495.570   83.861    0.150    0.383   20.552
  495.820   87.793    0.162    0.374   17.995
  496.070   84.918    0.177    0.369   16.932
  496.320   85.342    0.182    0.381   16.465
  496.570   85.283    0.181    0.391   15.608
  496.820   83.188    0.206    0.405   15.187
  497.070   82.786    0.217    0.401   14.327
  497.320   83.922    0.202    0.400   12.800
  497.570   86.463    0.187    0.406   11.332
  497.820   86.767    0.187    0.422   10.250
  498.070   82.124    0.245    0.431    9.495
  498.320   82.097    0.245    0.415    9.066
  498.570   88.576    0.217    0.406    8.645
  498.820   91.018    0.206    0.422    8.193
  499.070   85.554    0.234    0.436    7.796
  499.320   80.330    0.211    0.400    7.601
  499.570   83.045    0.183    0.400    7.623
  499.820   90.043    0.189    0.403    7.483
  500.070   92.666    0.192    0.403    7.307
  500.320   94.777    0.181    0.416    7.093
  500.570   92.346    0.191    0.425    6.877
  500.820   88.202    0.182    0.429    6.657
  501.070   86.158    0.213    0.420    6.369
  501.320   78.238    0.224    0.411    5.913
  501.570   72.476    0.238    0.408    5.755
  501.820   67.345    0.252    0.426    5.484
  502.070   63.565    0.265    0.441    5.359
  502.320   59.997    0.260    0.427    5.262
  502.570   54.317    0.267    0.411    5.267
  502.820   53.261    0.270    0.392    5.267
  503.070   54.459    0.237    0.381    5.268
  503.320   56.972    0.236    0.370    5.275
  503.570   55.293    0.251    0.377    5.137
  503.820   52.276    0.267    0.390    4.829
  504.070   49.805    0.275    0.391    4.577
  504.320   45.744    0.277    0.380    4.446
  504.570   43.859    0.267    0.391    4.378
  504.820   45.033    0.242    0.391    4.415
  505.070   51.796    0.226    0.392    4.466
  505.320   60.711    0.224    0.396    4.553
  505.570   66.066    0.245    0.402    4.531
  505.820   65.668    0.259    0.398    4.386
  506.070   57.143    0.264    0.373    4.342
  506.320   49.633    0.280    0.374    4.204
  506.570   46.235    0.292    0.389    4.148
  506.820   45.396    0.292    0.395    4.143
  507.070   47.074    0.289    0.393    4.237
  507.320   49.138    0.291    0.402    4.232
  507.570   49.111    0.272    0.418    4.239
  507.820   45.959    0.242    0.411    4.146
  508.070   45.519    0.246    0.397    4.083
  508.320   45.399    0.255    0.401    3.969
  508.570   43.682    0.275    0.411    3.932
  508.820   42.772    0.281    0.394    3.909
  509.070   41.010    0.283    0.386    3.952
  509.320   40.125    0.276    0.376    4.080
  509.570   39.150    0.264    0.371    4.511
  509.820   39.629    0.244    0.358    5.260
  510.070   41.757    0.175    0.351    6.532
  510.320   43.752    0.093    0.197    9.490
  510.570   45.760   -0.003    0.159   19.891
  510.820   44.547    0.000    0.130   31.310
  511.070   36.987    0.000    0.114   46.565
  511.320   30.076    0.000    0.110   59.787
  511.570   25.852   -0.000    0.120   72.714
  511.820   25.992    0.000    0.133   78.605
  512.070   29.133   -0.000    0.140   78.351
  512.320   30.657   -0.000    0.150   67.245
  512.570   33.187   -0.000    0.161   53.079
  512.820   41.992    0.003    0.174   45.909
  513.070   48.883    0.008    0.189   41.151
  513.320   53.148    0.004    0.198   41.622
  513.570   54.142   -0.000    0.203   42.864
  513.820   53.332    0.001    0.195   45.775
  514.070   47.031    0.005    0.182   45.401
  514.320   44.287    0.003    0.193   37.078
  514.570   49.157   -0.001    0.204   32.156
  514.820   56.177    0.011    0.212   28.647
  515.070   61.430    0.025    0.223   28.149
  515.320   61.854    0.020    0.219   28.279
  515.570   63.304    0.012    0.206   29.232
  515.820   65.711    0.021    0.209   30.914
  516.070   65.748    0.008    0.219   32.721
  516.320   63.234    0.000    0.222   36.523
  516.570   53.916    0.000    0.200   39.262
  516.820   47.884    0.003    0.188   41.227
  517.070   45.973    0.003    0.184   45.485
  517.320   44.137    0.026    0.187   47.073
  517.570   39.307    0.022    0.196   48.565
  517.820   27.945    0.020    0.196   48.512
