~VERSION INFORMATION
 VERS.                 2.0:   CWLS LOG ASCII STANDARD -VERSION 2.0
 WRAP.                  NO:   ONE LINE PER DEPTH STEP
~WELL INFORMATION BLOCK
#MNEM.UNIT           DATA                    DESCRIPTION OF MNEMONIC
#---------    -------------------            -------------------------------
# Generated from Intellog Unique Number	CS_69_70/WELL/834
WELL.         ET AL TWEEDIE                  : Well_name    - WELL
LOC .         00/07-18-069-12W4/0            : Location     - LOCATION
UWI .         00/07-18-069-12W4/0            : Uwi          - UNIQUE WELL ID
ENTR.         SP                             : Entered      - ENTERED BY
SRVC.         SCHLUMBERGER                   : Scn          - SERVICE COMPANY
STRT.M        290                            : top_depth    - START DEPTH
STOP.M        495                            : bot_depth    - STOP DEPTH
STEP.M        0.25                           : increment    - STEP LENGTH
 NULL. -999.2500:NULL Value
~CURVE INFORMATION BLOCK
#MNEM UNIT       ERCB CURVE CODE    CURVE DESCRIPTION
#-----------   ------------------   ----------------------------------
DEPT.M        00 001 00 00         : DEPTH        - DEPTH
GR  .API      00 310 00 00         : GR           - GAMMA RAY
NPHI.V/V      00 330 00 00         : PHIN         - NEUTRON POROSITY (LIMESTONE)
DPHI.V/V      00 890 00 00         : PHID         - DENSITY POROSITY (LIMESTONE)
ILD .OHMM     00 120 00 00         : RESD         - DEEP RESISTIVITY (DIL)
~PARAMETER INFORMATION
#MNEM.UNIT           DATA             DESCRIPTION OF MNEMONIC
#---------         -----------     ------------------------------
GL  .M        595.57               : gl           - GROUND LEVEL ELEVATION
EREF.M        598.5                : kb           - ELEVATION OF DEPTH REFERENCE
DATM.M        597.57               : datum        - DATUM ELEVATION
TDD .M        495                  : tdd          - TOTAL DEPTH DRILLER
RUN .         ONE                  : Run          - RUN NUMBER
ENG .         BILL                 : Engineer     - RECORDING ENGINEER
WIT .         JIM                  : Witness      - WITNESSED BY
MUD .         GEL                  : Mud_type     - MUD TYPE
MATR.         LIMESTONE            : Logunit      - NEUTRON MATRIX
TMAX.C        26                   : BHT          - MAXIMUM RECORDED TEMPERATURE
BHTD.M        495                  : BHTDEP       - MAXIMUM RECORDED TEMPERATURE
MATR.         1                    : LOGUNIT      - NEUTRON MATRIX
RMT .C        25                   : MDTP         - TEMPERATURE OF MUD
NEUT.         1                    : NEUTRON      - NEUTRON TYPE
RESI.         0                    : RESIST       - RESISTIVITY TYPE
RMC .OHMM     0.25                 : RMC          - RESISTIVITY OF MUD CAKE
RMF .OHMM     0.25                 : RMF          - RESISTIVITY OF MUD FILTRATE
SUFT.C        15                   : SUFT         - SURFACE TEMPERATURE
~A  DEPTH       GR     PHIN     PHID     RESD
# ...
  420.500   88.742    0.537    0.327    2.184
  420.750   87.774    0.526    0.336    2.098
  421.000   88.936    0.516    0.321    2.016
  421.250   90.097    0.511    0.308    2.033
  421.500   90.468    0.524    0.296    2.087
  421.750   89.683    0.514    0.283    2.163
  422.000   88.593    0.468    0.262    2.340
  422.250   85.130    0.449    0.229    2.466
  422.500   80.207    0.436    0.234    2.622
  422.750   76.257    0.424    0.242    2.789
  423.000   71.516    0.435    0.241    2.933
  423.250   67.627    0.427    0.214    3.040
  423.500   68.181    0.431    0.196    3.163
  423.750   73.481    0.429    0.218    3.262
  424.000   80.058    0.427    0.235    3.281
  424.250   86.210    0.426    0.243    3.294
  424.500   90.719    0.429    0.237    3.334
  424.750   94.192    0.434    0.220    3.360
  425.000   91.703    0.439    0.200    3.407
  425.250   85.320    0.445    0.189    3.479
  425.500   81.370    0.448    0.183    3.533
  425.750   78.880    0.406    0.180    3.589
  426.000   79.312    0.408    0.192    3.631
  426.250   81.326    0.426    0.228    3.687
  426.500   83.645    0.440    0.241    3.787
  426.750   83.528    0.443    0.240    3.839
  427.000   82.134    0.434    0.236    3.863
  427.250   82.505    0.426    0.232    3.830
  427.500   83.240    0.422    0.227    3.728
  427.750   84.586    0.421    0.226    3.676
  428.000   84.347    0.433    0.229    3.651
  428.250   83.744    0.449    0.235    3.654
  428.500   83.506    0.464    0.217    3.670
  428.750   83.086    0.473    0.205    3.699
  429.000   83.091    0.460    0.208    3.784
  429.250   81.819    0.424    0.210    3.915
  429.500   80.242    0.413    0.237    4.035
  429.750   82.561    0.420    0.251    4.206
  430.000   85.609    0.428    0.262    4.224
  430.250   88.171    0.425    0.243    4.119
  430.500   89.636    0.416    0.231    3.973
  430.750   91.285    0.420    0.223    3.881
  431.000   92.690    0.432    0.237    3.771
  431.250   93.365    0.441    0.230    3.718
  431.500   92.823    0.444    0.225    3.652
  431.750   89.786    0.444    0.232    3.608
  432.000   88.089    0.434    0.244    3.597
  432.250   88.094    0.429    0.237    3.600
  432.500   88.830    0.426    0.237    3.642
  432.750   89.992    0.427    0.232    3.699
  433.000   90.544    0.432    0.220    3.765
  433.250   90.733    0.440    0.207    3.780
  433.500   88.730    0.443    0.197    3.825
  433.750   88.189    0.426    0.188    3.834
  434.000   88.924    0.416    0.182    3.909
  434.250   90.573    0.429    0.207    3.969
  434.500   91.735    0.439    0.216    4.024
  434.750   92.471    0.421    0.225    4.057
  435.000   93.206    0.405    0.214    4.082
  435.250   94.429    0.397    0.205    4.107
  435.500   93.887    0.404    0.207    4.156
  435.750   88.659    0.410    0.201    4.213
  436.000   90.856    0.401    0.226    4.255
  436.250   93.053    0.408    0.217    4.289
  436.500   93.788    0.424    0.206    4.277
  436.750   88.256    0.442    0.230    4.209
  437.000   84.915    0.458    0.263    4.051
  437.250   84.251    0.451    0.242    3.670
  437.500   84.500    0.454    0.239    3.416
  437.750   85.115    0.475    0.271    3.026
  438.000   86.702    0.504    0.296    2.646
  438.250   89.082    0.518    0.310    2.288
  438.500   91.095    0.529    0.299    1.990
  438.750   92.865    0.550    0.299    1.846
  439.000   94.027    0.542    0.311    1.844
  439.250   93.971    0.518    0.310    1.901
  439.500   91.238    0.539    0.325    1.973
  439.750   87.654    0.537    0.332    2.111
  440.000   84.130    0.503    0.309    2.249
  440.250   79.511    0.486    0.287    2.432
  440.500   77.691    0.483    0.272    2.611
  440.750   77.514    0.475    0.264    2.772
  441.000   78.250    0.458    0.271    2.948
  441.250   81.481    0.448    0.280    3.090
  441.500   84.894    0.437    0.260    3.220
  441.750   82.162    0.429    0.248    3.344
  442.000   79.368    0.417    0.231    3.446
  442.250   77.244    0.402    0.202    3.552
  442.500   77.675    0.417    0.240    3.654
  442.750   77.985    0.430    0.288    3.746
  443.000   77.869    0.444    0.266    3.741
  443.250   77.632    0.443    0.253    3.675
  443.500   78.245    0.426    0.223    3.624
  443.750   81.111    0.422    0.250    3.573
  444.000   83.429    0.444    0.271    3.504
  444.250   84.104    0.464    0.306    3.348
  444.500   81.919    0.485    0.333    3.235
  444.750   80.769    0.504    0.324    3.183
  445.000   80.166    0.504    0.384    3.306
  445.250   80.779    0.488    0.341    3.375
  445.500   79.630    0.475    0.316    3.410
  445.750   79.878    0.462    0.300    3.349
  446.000   82.927    0.503    0.309    3.147
  446.250   81.471    0.532    0.400    2.947
  446.500   79.408    0.537    0.445    2.780
  446.750   84.038    0.530    0.354    2.686
  447.000   86.782    0.518    0.301    2.653
  447.250   88.493    0.522    0.309    2.630
  447.500   89.168    0.541    0.317    2.623
  447.750   88.930    0.553    0.299    2.654
  448.000   89.056    0.547    0.288    2.685
  448.250   89.914    0.517    0.272    2.737
  448.500   91.990    0.499    0.261    2.780
  448.750   93.944    0.489    0.281    2.807
  449.000   95.287    0.505    0.269    2.819
  449.250   96.144    0.497    0.274    2.796
  449.500   95.906    0.476    0.252    2.746
  449.750   96.581    0.467    0.223    2.663
  450.000  101.394    0.500    0.199    2.418
  450.250  103.530    0.528    0.259    2.352
  450.500  100.493    0.532    0.248    2.264
  450.750   99.220    0.535    0.231    2.278
  451.000   99.349    0.525    0.209    2.396
  451.250   99.840    0.499    0.259    2.549
  451.500   99.846    0.483    0.251    2.797
  451.750   97.478    0.472    0.235    3.174
  452.000   90.912    0.449    0.222    3.483
  452.250   84.710    0.404    0.239    3.975
  452.500   79.056    0.379    0.236    4.188
  452.750   72.977    0.380    0.222    4.546
  453.000   67.445    0.365    0.233    4.991
  453.250   63.617    0.347    0.247    5.181
  453.500   61.249    0.336    0.268    5.480
  453.750   59.308    0.324    0.277    5.743
  454.000   58.521    0.315    0.278    6.030
  454.250   57.251    0.307    0.267    6.533
  454.500   56.403    0.318    0.213    7.026
  454.750   58.052    0.297    0.189    7.242
  455.000   61.039    0.273    0.154    7.075
  455.250   63.236    0.305    0.192    6.455
  455.500   64.580    0.316    0.229    6.054
  455.750   65.376    0.312    0.243    6.512
  456.000   64.104    0.301    0.224    6.939
  456.250   64.171    0.295    0.186    6.642
  456.500   69.471    0.294    0.100    5.546
  456.750   73.919    0.335    0.079    4.605
  457.000   73.011    0.360    0.155    3.931
  457.250   65.288    0.389    0.210    3.222
  457.500   58.965    0.398    0.262    2.781
  457.750   54.346    0.360    0.297    2.542
  458.000   58.246    0.341    0.301    2.385
  458.250   65.798    0.352    0.300    2.266
  458.500   73.472    0.367    0.298    2.263
  458.750   79.075    0.375    0.288    2.457
  459.000   84.497    0.383    0.263    2.819
  459.250   89.676    0.377    0.259    3.004
  459.500   92.906    0.376    0.256    3.236
  459.750   97.293    0.376    0.227    3.480
  460.000  101.011    0.381    0.210    3.821
  460.250  104.668    0.383    0.198    4.011
  460.500  106.499    0.389    0.191    4.188
  460.750  106.383    0.400    0.201    4.397
  461.000  103.711    0.407    0.217    4.694
  461.250  101.830    0.386    0.233    4.964
  461.500  100.558    0.371    0.221    5.251
  461.750  100.016    0.377    0.206    5.659
  462.000   98.988    0.389    0.214    5.853
  462.250   97.167    0.399    0.200    5.911
  462.500   91.939    0.383    0.197    5.883
  462.750   85.190    0.355    0.169    6.041
  463.000   83.187    0.343    0.142    6.261
  463.250   86.723    0.326    0.111    6.429
  463.500   87.337    0.304    0.085    6.566
  463.750   90.628    0.284    0.097    6.607
