~VERSION INFORMATION
 VERS.                 2.0:   CWLS LOG ASCII STANDARD -VERSION 2.0
 WRAP.                  NO:   ONE LINE PER DEPTH STEP
~WELL INFORMATION BLOCK
#MNEM.UNIT           DATA                    DESCRIPTION OF MNEMONIC
#---------    -------------------            -------------------------------
# Generated from Intellog Unique Number	CW_82_90/WELL/3415
WELL.         CDN SUP SIMON                  : Well_name    - WELL
LOC .         00/03-34-088-20W4/0            : Location     - LOCATION
UWI .         00/03-34-088-20W4/0            : Uwi          - UNIQUE WELL ID
ENTR.         MAX                            : Entered      - ENTERED BY
SRVC.         SCHLUMBERGER                   : Scn          - SERVICE COMPANY
STRT.M        60.96                          : top_depth    - START DEPTH
STOP.M        237.71                         : bot_depth    - STOP DEPTH
STEP.M        0.25                           : increment    - STEP LENGTH
 NULL. -999.2500:NULL Value
~CURVE INFORMATION BLOCK
#MNEM UNIT       ERCB CURVE CODE    CURVE DESCRIPTION
#-----------   ------------------   ----------------------------------
DEPT.M        00 001 00 00         : DEPTH        - DEPTH
GR  .API      00 310 00 00         : GR           - GAMMA RAY
CALI.MM       00 280 01 00         : CAL          - CALIPER
DPHI.V/V      00 890 00 00         : PHID         - DENSITY POROSITY (SANDSTONE)
NPHI.V/V      00 330 00 00         : PHIN         - NEUTRON POROSITY (SANDSTONE)
ILD .OHMM     00 120 00 00         : RESD         - DEEP RESISTIVITY (DIL)
~PARAMETER INFORMATION
#MNEM.UNIT           DATA             DESCRIPTION OF MNEMONIC
#---------         -----------     ------------------------------
GL  .M        517.55               : gl           - GROUND LEVEL ELEVATION
EREF.M        521.513              : kb           - ELEVATION OF DEPTH REFERENCE
DATM.M        517.55               : datum        - DATUM ELEVATION
TDD .M        259.08               : tdd          - TOTAL DEPTH DRILLER
RUN .         ONE                  : Run          - RUN NUMBER
ENG .         BILL                 : Engineer     - RECORDING ENGINEER
WIT .         JIM                  : Witness      - WITNESSED BY
MUD .         GEL                  : Mud_type     - MUD TYPE
MATR.         SANDSTONE            : Logunit      - NEUTRON MATRIX
TMAX.C        24.4444              : BHT          - MAXIMUM RECORDED TEMPERATURE
BHTD.M        259.08               : BHTDEP       - MAXIMUM RECORDED TEMPERATURE
MATR.         1                    : LOGUNIT      - NEUTRON MATRIX
RMT .C        20                   : MDTP         - TEMPERATURE OF MUD
NEUT.         1                    : NEUTRON      - NEUTRON TYPE
RESI.         0                    : RESIST       - RESISTIVITY TYPE
RMC .OHMM     4.3                  : RMC          - RESISTIVITY OF MUD CAKE
RMF .OHMM     4.67                 : RMF          - RESISTIVITY OF MUD FILTRATE
SUFT.C        -20.5556             : SUFT         - SURFACE TEMPERATURE
~A  DEPTH       GR      CAL     PHID     PHIN     RESD
# ...
  170.460   94.925  223.884    0.235    0.457    6.293
  170.710   89.628  223.395    0.268    0.467    6.831
  170.960   81.679  222.405    0.270    0.474    7.900
  171.210   76.086  221.916    0.268    0.466    9.301
  171.460   73.736  221.428    0.284    0.466   11.353
  171.710   70.500  220.938    0.319    0.472   15.036
  171.960   64.025  220.947    0.322    0.458   16.171
  172.210   62.262  220.955    0.317    0.443   18.530
  172.460   61.972  220.964    0.314    0.423   21.045
  172.710   62.567  220.976    0.300    0.424   21.446
  172.960   63.456  220.983    0.295    0.434   21.460
  173.210   64.052  221.493    0.282    0.430   21.478
  173.460   64.352  221.501    0.271    0.432   21.493
  173.710   64.062  221.512    0.287    0.441   21.706
  173.960   63.773  221.521    0.314    0.448   22.319
  174.210   63.779  221.529    0.315    0.447   23.159
  174.460   63.489  221.539    0.279    0.433   24.028
  174.710   61.139  221.549    0.221    0.430   25.161
  174.960   60.849  221.557    0.149    0.376   25.871
  175.210   61.444  221.569    0.146    0.345   27.086
  175.460   62.923  222.074    0.199    0.392   28.105
  175.710   64.106  222.083    0.289    0.415   28.128
  175.960   64.998  222.093    0.295    0.409   27.397
  176.210   65.001  222.102    0.281    0.391   27.173
  176.460   64.418  222.611    0.251    0.379   27.940
  176.710   63.834  223.119    0.208    0.355   30.325
  176.960   63.840  223.628    0.129    0.303   33.826
  177.210   64.729  224.635    0.066    0.266   36.056
  177.460   66.798  225.142    0.019    0.249   36.744
  177.710   69.159  227.149    0.051    0.290   34.209
  177.960   76.530  229.153    0.077    0.346   29.898
  178.210   82.722  230.160    0.102    0.392   24.753
  178.460   89.799  230.668    0.123    0.426   20.868
  178.710   93.634  231.175    0.154    0.438   18.404
  178.960   96.882  231.685    0.227    0.437   16.676
  179.210   99.832  234.190    0.233    0.442   14.842
  179.460  102.195  237.190    0.219    0.446   13.695
  179.710  102.201  239.694    0.218    0.448   13.217
  179.960  100.143  242.199    0.214    0.448   12.992
  180.210   98.087  243.705    0.207    0.445   12.884
  180.460   98.976  241.720    0.206    0.440   12.894
  180.710   99.571  242.225    0.208    0.434   13.024
  180.960  103.702  243.733    0.207    0.423   13.150
  181.210  106.063  245.238    0.222    0.440   13.161
  181.460  106.364  246.745    0.227    0.442   13.170
  181.710  105.780  248.250    0.226    0.443   13.181
  181.960  105.196  248.260    0.224    0.445   13.432
  182.210  102.256  247.271    0.226    0.443   13.937
  182.460  100.199  244.786    0.238    0.437   14.592
  182.710   99.616  243.798    0.244    0.433   15.276
  182.960   93.866  241.038    0.261    0.420   15.857
  183.210   93.032  241.592    0.255    0.412   16.743
  183.460   91.903  242.641    0.237    0.411   17.521
  183.710   91.074  243.218    0.217    0.419   17.847
  183.960   89.065  243.272    0.183    0.405   17.855
  184.210   88.227  241.860    0.193    0.408   17.548
  184.460   90.025  240.942    0.210    0.415   16.788
  184.710   91.510  240.988    0.217    0.427   16.060
  184.960   93.595  240.555    0.229    0.432   15.640
  185.210   94.792  239.652    0.230    0.426   15.235
  185.460   94.550  239.698    0.223    0.431   14.970
  185.710   93.995  238.780    0.227    0.417   14.712
  185.960   94.618  237.361    0.241    0.416   14.587
  186.210   93.201  237.437    0.241    0.422   14.595
  186.460   90.901  236.997    0.233    0.430   14.603
  186.710   89.781  235.099    0.254    0.439   14.613
  186.960   89.817  234.659    0.274    0.451   14.750
  187.210   89.557  233.248    0.257    0.449   15.026
  187.460   89.607  231.327    0.240    0.437   15.033
  187.710   91.096  225.482    0.218    0.437   14.774
  187.960   92.880  225.535    0.198    0.435   13.882
  188.210   95.544  226.090    0.226    0.423   12.927
  188.460   97.916  226.166    0.238    0.417   12.257
  188.710   97.656  226.220    0.234    0.419   12.044
  188.960   97.114  224.808    0.235    0.427   11.626
  189.210   96.863  222.910    0.240    0.434   11.023
  189.460   94.568  220.003    0.251    0.442   10.451
  189.710   93.438  220.565    0.260    0.454    9.473
  189.960   94.644  221.120    0.255    0.476    6.217
  190.210   98.178  219.708    0.250    0.497    4.795
  190.460  104.047  220.749    0.252    0.532    3.974
  190.710  111.369  223.293    0.269    0.539    3.667
  190.960  110.536  223.840    0.238    0.522    3.769
  191.210  105.909  223.908    0.216    0.512    4.432
  191.460  100.699  223.977    0.209    0.474    5.451
  191.710   97.529  224.532    0.214    0.433    7.333
  191.960   94.947  225.087    0.220    0.415    9.518
  192.210   94.109  225.155    0.220    0.424   11.811
  192.460   93.280  223.744    0.210    0.427   13.889
  192.710   93.311  223.311    0.209    0.427   13.286
  192.960   94.231  225.354    0.202    0.428   12.153
  193.210   95.724  225.916    0.173    0.433   11.420
  193.460   97.796  224.983    0.210    0.442   11.122
  193.710  101.921  224.551    0.202    0.455   10.930
  193.960  105.746  224.126    0.207    0.467   11.133
  194.210  104.325  224.179    0.203    0.463   11.862
  194.460  100.281  220.801    0.199    0.458   12.412
  194.710   96.246  217.416    0.204    0.441   13.465
  194.960   94.242  215.487    0.208    0.414   14.216
  195.210   93.108  215.556    0.219    0.407   15.282
  195.460   92.565  215.633    0.214    0.409   17.181
  195.710   88.813  215.694    0.213    0.418   20.568
  195.960   84.186  215.747    0.209    0.400   24.186
  196.210   78.684  215.330    0.173    0.379   28.188
  196.460   71.148  215.877    0.126    0.340   32.555
  196.710   70.601  216.440    0.090    0.317   36.603
  196.960   68.019  216.508    0.094    0.317   39.352
  197.210   65.432  217.071    0.099    0.300   39.722
  197.460   64.006  217.132    0.090    0.314   40.105
  197.710   64.338  218.180    0.086    0.329   41.589
  197.960   64.957  219.236    0.093    0.336   42.365
  198.210   63.832  219.297    0.085    0.299   41.636
  198.460   63.285  218.371    0.077    0.279   40.918
  198.710   63.913  215.965    0.082    0.286   35.145
  198.960   65.694  216.033    0.091    0.309   30.189
  199.210   71.272  216.588    0.090    0.320   27.612
  199.460   78.302  216.163    0.085    0.321   25.031
  199.710   86.795  215.731    0.116    0.362   22.895
  199.960   89.171  215.792    0.156    0.422   20.944
  200.210   87.750  215.853    0.205    0.437   20.214
  200.460   86.334  215.922    0.239    0.433   19.512
  200.710   85.791  216.485    0.233    0.428   19.522
  200.960   86.114  217.039    0.223    0.424   19.532
  201.210   86.151  217.108    0.227    0.416   19.368
  201.460   83.864  217.655    0.253    0.410   19.206
  201.710   81.569  218.233    0.245    0.406   20.830
  201.960   80.726  218.780    0.230    0.413   24.059
  202.210   81.058  218.841    0.212    0.403   27.051
  202.460   77.884  218.902    0.184    0.385   29.081
  202.710   71.804  219.464    0.113    0.347   29.358
  202.960   70.092  220.019    0.079    0.371   29.112
  203.210   76.840  220.080    0.101    0.381   27.109
  203.460   80.665  219.663    0.137    0.383   24.353
  203.710   84.203  217.750    0.162    0.374   22.079
  203.960   84.530  216.824    0.161    0.359   21.501
  204.210   86.024  218.867    0.150    0.350   20.568
  204.460   88.983  220.409    0.128    0.367   19.854
  204.710   90.180  221.958    0.159    0.388   19.512
  204.960   89.638  222.999    0.160    0.409   18.500
  205.210   91.132  223.067    0.156    0.398   16.920
  205.460   94.378  221.162    0.153    0.415   15.756
  205.710   94.997  221.231    0.173    0.432   14.804
  205.960   94.163  222.287    0.182    0.448   14.036
  206.210   96.827  222.340    0.196    0.465   13.670
  206.460   97.733  221.915    0.210    0.471   13.435
  206.710   98.069  221.969    0.202    0.469   13.442
