~VERSION INFORMATION
 VERS.                 2.0:   CWLS LOG ASCII STANDARD -VERSION 2.0
 WRAP.                  NO:   ONE LINE PER DEPTH STEP
~WELL INFORMATION BLOCK
#MNEM.UNIT           DATA                    DESCRIPTION OF MNEMONIC
#---------    -------------------            -------------------------------
# Generated from Intellog Unique Number	CS_67_68/WELL/2167
WELL.         06-13-067-07W4                 : Well_name    - WELL
LOC .         00/06-13-067-07W4/0            : Location     - LOCATION
UWI .         00/06-13-067-07W4/0            : Uwi          - UNIQUE WELL ID
ENTR.         SP                             : Entered      - ENTERED BY
SRVC.         SCHLUMBERGER                   : Scn          - SERVICE COMPANY
STRT.M        330                            : top_depth    - START DEPTH
STOP.M        545                            : bot_depth    - STOP DEPTH
STEP.M        0.25                           : increment    - STEP LENGTH
 NULL. -999.2500:NULL Value
~CURVE INFORMATION BLOCK
#MNEM UNIT       ERCB CURVE CODE    CURVE DESCRIPTION
#-----------   ------------------   ----------------------------------
DEPT.M        00 001 00 00         : DEPTH        - DEPTH
ILD .OHMM     00 120 00 00         : RESD         - DEEP RESISTIVITY (DIL)
DPHI.V/V      00 890 00 00         : PHID         - DENSITY POROSITY (LIMESTONE)
NPHI.V/V      00 330 00 00         : PHIN         - NEUTRON POROSITY (LIMESTONE)
GR  .API      00 310 00 00         : GR           - GAMMA RAY
CALI.MM       00 280 01 00         : CAL          - CALIPER
~PARAMETER INFORMATION
#MNEM.UNIT           DATA             DESCRIPTION OF MNEMONIC
#---------         -----------     ------------------------------
GL  .M        648.63               : gl           - GROUND LEVEL ELEVATION
EREF.M        652.41               : kb           - ELEVATION OF DEPTH REFERENCE
DATM.M        652.41               : datum        - DATUM ELEVATION
TDD .M        553                  : tdd          - TOTAL DEPTH DRILLER
RUN .         ONE                  : Run          - RUN NUMBER
ENG .         BILL                 : Engineer     - RECORDING ENGINEER
WIT .         JIM                  : Witness      - WITNESSED BY
MUD .         GEL                  : Mud_type     - MUD TYPE
MATR.         LIMESTONE            : Logunit      - NEUTRON MATRIX
TMAX.C        21                   : BHT          - MAXIMUM RECORDED TEMPERATURE
BHTD.M        501                  : BHTDEP       - MAXIMUM RECORDED TEMPERATURE
MATR.         1                    : LOGUNIT      - NEUTRON MATRIX
RMT .C        25                   : MDTP         - TEMPERATURE OF MUD
NEUT.         1                    : NEUTRON      - NEUTRON TYPE
RESI.         0                    : RESIST       - RESISTIVITY TYPE
RMC .OHMM     0.25                 : RMC          - RESISTIVITY OF MUD CAKE
RMF .OHMM     0.25                 : RMF          - RESISTIVITY OF MUD FILTRATE
SUFT.C        15                   : SUFT         - SURFACE TEMPERATURE
~A  DEPTH     RESD     PHID     PHIN       GR      CAL
# ...
  512.500    3.852    0.215    0.400   99.404  162.877
  512.750    3.948    0.216    0.393   99.764  163.174
  513.000    4.023    0.220    0.382  100.430  163.472
  513.250    4.100    0.221    0.373  101.767  163.768
  513.500    4.131    0.209    0.381  103.529  164.064
  513.750    4.100    0.203    0.377  104.561  164.159
  514.000    4.070    0.199    0.367  105.227  163.947
  514.250    4.016    0.198    0.361  104.125  163.636
  514.500    3.926    0.206    0.361  101.256  163.017
  514.750    3.766    0.221    0.364   95.887  162.808
  515.000    3.626    0.234    0.368   92.470  162.191
  515.250    3.446    0.245    0.371   88.869  161.979
  515.500    3.159    0.256    0.374   85.390  162.073
  515.750    2.968    0.262    0.377   82.947  162.066
  516.000    3.007    0.255    0.375   84.101  162.262
  516.250    3.177    0.247    0.371   94.519  163.168
  516.500    3.369    0.230    0.362  103.779  166.106
  516.750    3.539    0.208    0.355  111.332  168.131
  517.000    3.662    0.192    0.374  117.362  169.139
  517.250    3.839    0.185    0.400  122.112  169.335
  517.500    4.010    0.209    0.422  118.754  165.670
  517.750    4.189    0.186    0.382  116.739  167.083
  518.000    4.359    0.152    0.370  119.111  169.616
  518.250    4.467    0.140    0.370  117.826  171.641
  518.500    4.544    0.140    0.367  116.054  172.953
  518.750    4.579    0.145    0.371  114.099  171.828
  519.000    4.588    0.148    0.377  111.901  168.874
  519.250    4.579    0.150    0.378  112.993  167.444
  519.500    4.571    0.170    0.396  114.390  167.435
  519.750    4.588    0.185    0.413  114.630  167.328
  520.000    4.615    0.184    0.420  110.419  167.319
  520.250    4.641    0.161    0.420  106.879  166.499
  520.500    4.676    0.121    0.419  104.193  164.967
  520.750    4.694    0.135    0.416  101.202  165.162
  521.000    4.703    0.148    0.403   99.064  165.663
  521.250    4.695    0.155    0.392  103.021  166.671
  521.500    4.677    0.158    0.394  107.710  167.883
  521.750    4.651    0.163    0.404  110.875  168.892
  522.000    4.616    0.166    0.411  113.857  169.900
  522.250    4.598    0.168    0.415  115.437  171.008
  522.500    4.581    0.165    0.415  114.640  171.510
  522.750    4.599    0.161    0.414  112.685  172.010
  523.000    4.634    0.158    0.411  108.962  172.205
  523.250    4.687    0.159    0.398  106.154  171.995
  523.500    4.759    0.160    0.383  106.515  171.987
  523.750    4.804    0.163    0.389  110.107  172.790
  524.000    4.831    0.162    0.403  113.211  173.699
  524.250    4.832    0.161    0.409  111.865  174.199
  524.500    4.823    0.160    0.401  108.447  174.191
  524.750    4.805    0.159    0.394  108.442  173.269
  525.000    4.787    0.159    0.392  108.621  171.839
  525.250    4.778    0.166    0.387  105.873  170.206
  525.500    4.733    0.180    0.378  100.626  168.166
  525.750    4.662    0.191    0.369   95.564  165.924
  526.000    4.372    0.186    0.358   92.267  163.783
  526.250    4.241    0.190    0.348   94.152  163.267
  526.500    4.162    0.199    0.366   95.306  163.563
  526.750    4.139    0.198    0.378   93.045  163.963
  527.000    4.115    0.187    0.371   91.517  164.159
  527.250    4.084    0.179    0.360   91.452  164.050
  527.500    4.008    0.185    0.349   90.838  164.042
  527.750    3.911    0.191    0.345   88.029  163.628
  528.000    3.823    0.197    0.343   88.147  163.416
  528.250    3.737    0.224    0.363   83.204  163.714
  528.500    3.572    0.252    0.394   79.239  165.230
  528.750    3.452    0.269    0.390   76.978  167.964
  529.000    3.349    0.197    0.365   80.814  169.279
  529.250    3.324    0.156    0.342   84.710  166.730
  529.500    3.324    0.167    0.352   89.277  165.200
  529.750    3.318    0.194    0.372   93.539  163.465
  530.000    3.306    0.207    0.370   88.171  162.746
  530.250    3.268    0.199    0.370   76.768  162.027
  530.500    3.232    0.220    0.373   67.926  161.612
  530.750    3.306    0.230    0.344   71.273  161.504
  531.000    3.573    0.217    0.312   81.509  161.598
  531.250    4.002    0.207    0.309   93.146  162.098
  531.500    4.301    0.160    0.310  103.259  164.021
  531.750    4.442    0.137    0.329  105.571  168.483
  532.000    4.493    0.171    0.344   95.326  168.577
  532.250    4.253    0.199    0.343   88.556  161.966
  532.500    3.906    0.229    0.336   84.650  161.451
  532.750    3.670    0.250    0.348   83.549  161.849
  533.000    3.507    0.256    0.348   84.459  161.943
  533.250    3.520    0.236    0.335   89.086  161.630
  533.500    3.547    0.215    0.325   93.105  161.622
  533.750    3.547    0.196    0.317   92.368  162.122
  534.000    3.534    0.199    0.317   88.524  162.522
  534.250    3.455    0.214    0.322   86.264  163.022
  534.500    3.258    0.231    0.338   85.284  163.421
  534.750    3.320    0.225    0.352   84.975  163.820
  535.000    3.435    0.215    0.357   86.616  164.422
  535.250    3.575    0.207    0.347   90.817  164.820
  535.500    3.777    0.198    0.338   94.348  165.016
  535.750    3.915    0.207    0.333   95.013  165.108
  536.000    4.183    0.203    0.340   90.986  165.305
  536.250    4.495    0.192    0.331   87.019  166.211
  536.500    4.876    0.178    0.317   88.173  167.626
  536.750    5.360    0.166    0.306  108.709  170.463
  537.000    5.673    0.149    0.332  118.518  173.300
  537.250    5.937    0.132    0.353  122.475  175.426
  537.500    6.074    0.117    0.376  122.226  176.129
  537.750    6.132    0.136    0.390  120.332  176.121
  538.000    6.132    0.151    0.398  121.364  176.621
  538.250    5.938    0.146    0.388  124.468  176.918
  538.500    5.153    0.178    0.410  118.003  176.809
  538.750    4.531    0.198    0.416  101.115  173.653
  539.000    4.241    0.227    0.415   89.468  165.416
  539.250    4.209    0.226    0.406   97.996  162.158
  539.500    4.233    0.181    0.397  103.478  162.759
  539.750    4.249    0.190    0.402  107.740  164.173
  540.000    4.217    0.215    0.388  102.310  164.877
  540.250    3.962    0.235    0.378   95.906  164.564
  540.500    3.550    0.255    0.369   92.061  163.135
  540.750    3.169    0.246    0.370   86.693  161.908
  541.000    2.916    0.229    0.370   81.629  160.986
  541.250    2.792    0.241    0.377   75.895  159.658
  541.500    2.658    0.256    0.385   74.306  158.127
  541.750    2.550    0.259    0.387   74.789  157.408
  542.000    2.460    0.256    0.380   73.139  157.094
  542.250    2.654    0.253    0.379   69.904  157.086
  542.500    3.249    0.263    0.386   67.156  157.181
  542.750    5.324    0.282    0.390   64.896  157.174
  543.000    7.570    0.188    0.385   63.002  157.165
  543.250   13.635    0.148    0.372   61.717  158.073
  543.500   20.441    0.011    0.341   60.982  159.487
  543.750   25.700    0.000    0.129   60.428  160.191
  544.000   31.290    0.000    0.106   59.815  160.691
  544.250   36.821    0.000    0.106   58.591  161.190
  544.500   40.170    0.000    0.122   46.762  161.285
  544.750   32.012    0.012    0.151   34.567  161.582
  545.000   29.014    0.018    0.167   28.284  161.778
