~VERSION INFORMATION
 VERS.                 2.0:   CWLS LOG ASCII STANDARD -VERSION 2.0
 WRAP.                  NO:   ONE LINE PER DEPTH STEP
~WELL INFORMATION BLOCK
#MNEM.UNIT           DATA                    DESCRIPTION OF MNEMONIC
#---------    -------------------            -------------------------------
# Generated from Intellog Unique Number	CX_WELLS/WELL/3294
WELL.         NEWBY                          : Well_name    - WELL
LOC .         00/09-32-084-05W4/0            : Location     - LOCATION
UWI .         00/09-32-084-05W400            : Uwi          - UNIQUE WELL ID
ENTR.         T                              : Entered      - ENTERED BY
SRVC.         SCHLUMBERGER                   : Scn          - SERVICE COMPANY
STRT.M        80                             : top_depth    - START DEPTH
STOP.M        280                            : bot_depth    - STOP DEPTH
STEP.M        0.25                           : increment    - STEP LENGTH
 NULL. -999.2500:NULL Value
~CURVE INFORMATION BLOCK
#MNEM UNIT       ERCB CURVE CODE    CURVE DESCRIPTION
#-----------   ------------------   ----------------------------------
DEPT.M        00 001 00 00         : DEPTH        - DEPTH
GR  .API      00 310 00 00         : GR           - GAMMA RAY
NPHI.V/V      00 330 00 00         : PHIN         - NEUTRON POROSITY (SANDSTONE)
DPHI.V/V      00 890 00 00         : PHID         - DENSITY POROSITY (SANDSTONE)
ILD .OHMM     00 120 00 00         : RESD         - DEEP RESISTIVITY (DIL)
~PARAMETER INFORMATION
#MNEM.UNIT           DATA             DESCRIPTION OF MNEMONIC
#---------         -----------     ------------------------------
GL  .M        454.8                : gl           - GROUND LEVEL ELEVATION
EREF.M        458.3                : kb           - ELEVATION OF DEPTH REFERENCE
DATM.M        458.3                : datum        - DATUM ELEVATION
TDD .M        294                  : tdd          - TOTAL DEPTH DRILLER
RUN .         ONE                  : Run          - RUN NUMBER
ENG .         BILL                 : Engineer     - RECORDING ENGINEER
WIT .         JIM                  : Witness      - WITNESSED BY
MUD .         GEL                  : Mud_type     - MUD TYPE
MATR.         SANDSTONE            : Logunit      - NEUTRON MATRIX
TMAX.C        26                   : BHT          - MAXIMUM RECORDED TEMPERATURE
BHTD.M        294                  : BHTDEP       - MAXIMUM RECORDED TEMPERATURE
MATR.         1                    : LOGUNIT      - NEUTRON MATRIX
RMT .C        16                   : MDTP         - TEMPERATURE OF MUD
NEUT.         1                    : NEUTRON      - NEUTRON TYPE
RESI.         4.8                  : RESIST       - RESISTIVITY TYPE
RMC .OHMM     4                    : RMC          - RESISTIVITY OF MUD CAKE
RMF .OHMM     3.5                  : RMF          - RESISTIVITY OF MUD FILTRATE
SUFT.C        4                    : SUFT         - SURFACE TEMPERATURE
~A  DEPTH       GR     PHIN     PHID     RESD
# ...
  254.000   50.453    0.327    0.233    2.288
  254.250   51.731    0.327    0.244    2.125
  254.500   53.009    0.327    0.266    1.936
  254.750   51.920    0.328    0.286    1.799
  255.000   49.056    0.330    0.298    1.672
  255.250   45.601    0.335    0.312    1.642
  255.500   42.737    0.345    0.327    1.584
  255.750   40.442    0.348    0.326    1.530
  256.000   36.986    0.350    0.320    1.502
  256.250   32.940    0.352    0.323    1.477
  256.500   27.118    0.353    0.328    1.425
  256.750   25.437    0.354    0.329    1.402
  257.000   24.396    0.351    0.324    1.379
  257.250   23.851    0.346    0.321    1.382
  257.500   23.378    0.343    0.324    1.358
  257.750   22.265    0.343    0.326    1.361
  258.000   21.176    0.344    0.323    1.339
  258.250   20.111    0.345    0.320    1.318
  258.500   19.614    0.345    0.325    1.319
  258.750   19.140    0.346    0.324    1.324
  259.000   19.187    0.347    0.317    1.326
  259.250   18.690    0.347    0.308    1.355
  259.500   18.216    0.347    0.306    1.357
  259.750   17.743    0.346    0.301    1.412
  260.000   17.222    0.345    0.290    1.681
  260.250   16.725    0.343    0.275    2.158
  260.500   17.411    0.342    0.262    2.518
  260.750   21.646    0.338    0.242    3.173
  261.000   33.005    0.333    0.214    3.703
  261.250   56.219    0.323    0.166    4.008
  261.500   72.902    0.307    0.135    3.650
  261.750   61.732    0.247    0.126    3.143
  262.000   51.769    0.208    0.126    2.862
  262.250   48.314    0.221    0.125    2.659
  262.500   47.864    0.244    0.145    2.518
  262.750   44.953    0.256    0.215    2.522
  263.000   36.741    0.272    0.230    2.528
  263.250   28.553    0.277    0.228    2.582
  263.500   23.915    0.272    0.223    2.638
  263.750   22.826    0.266    0.212    2.693
  264.000   22.920    0.254    0.196    2.649
  264.250   24.198    0.235    0.179    2.461
  264.500   26.682    0.240    0.185    2.200
  264.750   27.960    0.255    0.220    2.005
  265.000   28.054    0.263    0.248    1.897
  265.250   25.806    0.273    0.279    1.796
  265.500   22.918    0.277    0.279    1.700
  265.750   19.487    0.283    0.279    1.641
  266.000   18.942    0.292    0.277    1.583
  266.250   17.901    0.295    0.263    1.556
  266.500   18.019    0.296    0.256    1.531
  266.750   17.474    0.296    0.252    1.533
  267.000   18.207    0.294    0.255    1.536
  267.250   18.255    0.292    0.257    1.541
  267.500   19.556    0.292    0.251    1.573
  267.750   19.626    0.292    0.242    1.577
  268.000   20.336    0.293    0.242    1.580
  268.250   20.454    0.293    0.252    1.615
  268.500   20.548    0.292    0.254    1.618
  268.750   20.643    0.292    0.249    1.652
  269.000   20.713    0.283    0.238    1.656
  269.250   21.399    0.262    0.230    1.758
  269.500   22.701    0.262    0.215    1.939
  269.750   26.936    0.259    0.188    2.056
  270.000   47.760    0.255    0.167    2.181
  270.250   76.299    0.263    0.162    2.452
  270.500   87.065    0.276    0.162    2.916
  270.750   96.057    0.334    0.189    3.605
  271.000   97.335    0.403    0.242    4.289
  271.250   89.738    0.486    0.279    4.725
  271.500   78.569    0.518    0.337    4.922
  271.750   65.033    0.483    0.393    4.398
  272.000   56.253    0.464    0.365    3.936
  272.250   54.005    0.474    0.403    3.866
  272.500   57.625    0.502    0.435    3.730
  272.750   67.800    0.507    0.228    3.399
  273.000   75.585    0.509    0.197    3.099
  273.250   65.623    0.445    0.188    2.826
  273.500   60.392    0.373    0.194    2.673
  273.750   48.631    0.322    0.203    2.626
  274.000   41.650    0.283    0.203    2.486
  274.250   38.147    0.290    0.203    2.354
  274.500   34.101    0.299    0.213    2.229
  274.750   40.135    0.304    0.227    2.150
  275.000   39.046    0.308    0.249    2.114
  275.250   36.206    0.311    0.259    2.040
  275.500   34.525    0.311    0.263    2.005
  275.750   32.845    0.314    0.305    1.934
  276.000   31.164    0.316    0.305    1.866
  276.250   30.667    0.321    0.305    1.801
  276.500   31.353    0.328    0.308    1.738
  276.750   31.447    0.334    0.312    1.710
  277.000   30.927    0.338    0.307    1.713
  277.250   29.246    0.336    0.300    1.783
  277.500   30.524    0.327    0.289    1.892
  277.750   35.398    0.315    0.100    2.085
  278.000  108.945    0.266    0.078    2.481
  278.250  104.899    0.265    0.068    3.066
  278.500   99.668    0.261    0.056    3.861
  278.750   95.007    0.260    0.044    4.862
  279.000   87.410    0.258    0.030    6.245
  279.250   78.607    0.258    0.020    7.433
  279.500   68.052    0.259    0.015    8.038
  279.750   64.621    0.260    0.011    8.694
  280.000   64.100    0.260    0.011    9.220
