~VERSION INFORMATION
 VERS.                 2.0:   CWLS LOG ASCII STANDARD -VERSION 2.0
 WRAP.                  NO:   ONE LINE PER DEPTH STEP
~WELL INFORMATION BLOCK
#MNEM.UNIT           DATA                    DESCRIPTION OF MNEMONIC
#---------    -------------------            -------------------------------
# Generated from Intellog Unique Number	CS_73_76/WELL/4141
WELL.         BVI ET AL DUNCAN               : Well_name    - WELL
LOC .         00/03-30-074-10W4/0            : Location     - LOCATION
UWI .         00/03-30-074-10W4/0            : Uwi          - UNIQUE WELL ID
ENTR.         SP                             : Entered      - ENTERED BY
SRVC.         SCHLUMBERGER                   : Scn          - SERVICE COMPANY
STRT.M        304.8                          : top_depth    - START DEPTH
STOP.M        521.3                          : bot_depth    - STOP DEPTH
STEP.M        0.25                           : increment    - STEP LENGTH
 NULL. -999.2500:NULL Value
~CURVE INFORMATION BLOCK
#MNEM UNIT       ERCB CURVE CODE    CURVE DESCRIPTION
#-----------   ------------------   ----------------------------------
DEPT.M        00 001 00 00         : DEPTH        - DEPTH
GR  .API      00 310 00 00         : GR           - GAMMA RAY
DELT.US/F     00 520 00 00         : DELT         - SONIC TRAVEL TIME
ILD .OHMM     00 120 00 00         : RESD         - DEEP RESISTIVITY (DIL)
~PARAMETER INFORMATION
#MNEM.UNIT           DATA             DESCRIPTION OF MNEMONIC
#---------         -----------     ------------------------------
GL  .M        678.028              : gl           - GROUND LEVEL ELEVATION
EREF.M        681.533              : kb           - ELEVATION OF DEPTH REFERENCE
DATM.M        681.533              : datum        - DATUM ELEVATION
TDD .M        787.908              : tdd          - TOTAL DEPTH DRILLER
RUN .         ONE                  : Run          - RUN NUMBER
ENG .         BILL                 : Engineer     - RECORDING ENGINEER
WIT .         JIM                  : Witness      - WITNESSED BY
MUD .         GEL                  : Mud_type     - MUD TYPE
MATR.         SANDSTONE            : Logunit      - NEUTRON MATRIX
TMAX.C        26.6667              : BHT          - MAXIMUM RECORDED TEMPERATURE
BHTD.M        787.908              : BHTDEP       - MAXIMUM RECORDED TEMPERATURE
MATR.         1                    : LOGUNIT      - NEUTRON MATRIX
RMT .C        25                   : MDTP         - TEMPERATURE OF MUD
NEUT.         1                    : NEUTRON      - NEUTRON TYPE
RESI.         0                    : RESIST       - RESISTIVITY TYPE
RMC .OHMM     1.13                 : RMC          - RESISTIVITY OF MUD CAKE
RMF .OHMM     0.82                 : RMF          - RESISTIVITY OF MUD FILTRATE
SUFT.C        15                   : SUFT         - SURFACE TEMPERATURE
~A  DEPTH       GR     DELT     RESD
  304.800   77.777  517.767    2.886
  305.050   81.392  519.099    2.829
  305.300   81.389  483.902    2.826
  305.550   80.180  489.884    2.825
  305.800   77.766  493.872    2.823
  306.050   78.366  499.189    2.874
  306.300   82.583  505.170    2.982
  306.550   83.785  507.831    3.037
  306.800   84.385  478.611    3.151
  307.050   82.573  469.316    3.209
  307.300   78.953  469.321    3.330
  307.550   75.333  467.332    3.457
  307.800   75.329  466.672    3.520
  308.050   75.929  469.996    3.584
  308.300   76.530  477.305    3.719
  308.550   78.938  474.653    3.859
  308.800   80.744  470.008    4.005
  309.050   81.344  469.347    4.155
  309.300   81.944  473.337    4.154
  309.550   83.147  477.326    4.230
  309.800   84.350  479.985    4.226
  310.050   84.950  484.639    4.223
  310.300   83.139  485.306    4.062
  310.550   83.136  480.661    3.909
  310.800   82.530  476.680    3.690
  311.050   81.320  472.698    3.686
  311.300   81.921  472.702    3.685
  311.550   81.918  470.049    3.680
  311.800   79.503  464.076    3.679
  312.050   80.103  464.744    3.745
  312.300   78.895  468.068    3.814
  312.550   79.495  471.393    3.812
  312.800   81.300  469.405    3.880
  313.050   83.107  471.403    3.952
  313.300   84.912  472.734    3.949
  313.550   82.497  474.731    4.021
  313.800   81.288  474.734    3.943
  314.050   79.476  474.075    3.866
  314.300   78.870  472.749    3.720
  314.550   77.662  469.433    3.717
  314.800   76.454  468.108    3.644
  315.050   75.245  466.782    3.642
  315.300   78.257  463.465    3.779
  315.550   82.475  451.514    4.562
  315.800   84.280  444.212    5.831
  316.050   80.660  435.581    8.347
  316.300   71.613  430.272   10.469
  316.550   71.610  446.880   12.400
  316.800   73.415  439.578   13.368
  317.050   75.221  428.290   14.963
  317.300   77.027  422.983   15.234
  317.550   79.436  424.977   14.112
  317.800   81.242  431.623   13.073
  318.050   81.238  441.590   12.818
  318.300   78.221  437.608   13.554
  318.550   71.586  430.970   14.071
  318.800   66.760  421.011   16.045
  319.050   60.728  413.045   16.657
  319.300   53.490  413.050   18.645
  319.550   51.075  417.038   20.863
  319.800   48.660  423.019   22.068
  320.050   44.436  429.001   23.339
  320.300   42.022  434.982   23.321
  320.550   42.622  430.337   23.307
  320.800   44.427  373.885   22.852
  321.050   45.630  384.517   21.574
  321.300   49.244  399.132   19.603
  321.550   51.655  417.733   18.864
  321.800   55.871  431.020   17.809
  322.050   59.486  427.039   16.816
  322.300   63.101  421.730   15.575
  322.550   66.716  422.399   14.988
  322.800   70.330  424.394   14.417
  323.050   70.930  429.048   14.136
  323.300   72.133  429.716   14.127
  323.550   72.733  430.383   14.116
  323.800   73.936  431.716   14.105
  324.050   74.537  432.383   14.635
  324.300   74.533  431.060   14.905
  324.550   73.323  427.744   15.468
  324.800   72.116  426.418   15.751
  325.050   68.495  425.095   16.037
  325.300   66.080  424.434   17.284
  325.550   63.666  423.774   18.279
  325.800   61.855  424.441   18.610
  326.050   61.249  427.104   18.599
  326.300   61.849  428.435   18.588
  326.550   66.669  429.103   18.218
  326.800   69.680  429.106   17.866
  327.050   70.883  428.446   17.521
  327.300   72.087  428.450   16.535
  327.550   73.892  428.454   16.215
  327.800   75.698  428.458   15.899
  328.050   77.504  427.798   16.811
  328.300   78.707  427.800   17.452
  328.550   78.101  426.477   19.162
  328.800   74.481  425.152   19.889
  329.050   68.448  424.492   21.034
  329.300   63.622  425.161   22.241
  329.550   58.796  425.163   22.653
  329.800   53.969  421.182   20.591
  330.050   48.540  410.559   19.075
  330.300   52.758  390.637   18.008
  330.550   56.372  390.641   17.326
  330.800   56.369  403.928   17.643
  331.050   56.367  420.537   18.313
  331.300   54.554  427.848   20.495
  331.550   51.536  429.179   22.515
  331.800   50.328  429.847   24.262
  332.050   47.914  431.179   25.183
  332.300   47.308  432.512   25.163
  332.550   47.907  433.845   25.133
  332.800   49.713  434.512   25.598
  333.050   50.916  435.846   25.583
  333.300   51.517  435.848   26.046
  333.550   50.910  436.517   26.031
  333.800   49.098  436.521   26.000
  334.050   48.493  436.524   25.498
  334.300   47.887  435.864   25.478
  334.550   47.280  435.204   25.463
  334.800   47.279  434.543   25.433
  335.050   46.672  433.219   25.909
  335.300   47.272  432.559   25.883
  335.550   47.270  431.897   26.357
  335.800   47.870  430.574   26.336
  336.050   48.470  430.577   26.818
  336.300   49.070  429.916   26.802
  336.550   49.669  425.272   26.771
  336.800   50.872  419.298   26.755
  337.050   51.472  413.987   25.736
  337.300   51.469  406.021   25.726
  337.550   51.467  400.711   24.746
  337.800   52.066  400.715   24.259
  338.050   52.666  406.697   23.794
  338.300   53.267  413.342   22.884
  338.550   53.264  416.668   21.604
  338.800   53.261  413.351   19.642
  339.050   54.463  410.034   16.869
  339.300   55.064  410.037   13.947
  339.550   55.664  414.027   11.981
  339.800   58.072  418.016   10.097
  340.050   61.084  429.312    8.039
  340.300   69.522  432.635    6.281
  340.550   86.401  440.609    6.042
  340.800   90.618  426.000    5.924
  341.050   85.792  420.027    6.507
  341.300   86.995  423.351    7.148
  341.550   93.625  441.288    8.631
  341.800   91.813  438.635   10.033
  342.050   89.397  432.661   12.114
  342.300   86.379  435.322   13.819
  342.550   83.362  433.334   15.764
  342.800   80.949  431.345   16.990
  343.050   77.930  427.365   17.968
  343.300   76.722  424.047   17.614
  343.550   77.322  419.402   15.714
  343.800   78.525  436.674   13.243
  344.050   80.330  441.328   11.374
  344.300   80.931  446.645   10.339
  344.550   81.530  449.307    9.574
  344.800   81.528  446.656    9.391
  345.050   82.128  445.992    9.561
  345.300   80.316  443.339   10.306
  345.550   77.298  436.037   11.755
  345.800   74.281  428.071   13.412
  346.050   70.058  420.769   17.139
  346.300   64.026  421.438   21.088
  346.550   54.376  424.762   23.163
  346.800   45.329  435.393   24.037
  347.050   35.077  438.055   23.568
  347.300   31.456  439.385   22.246
  347.550   33.865  441.383   21.002
  347.800   36.274  442.051   20.206
  348.050   38.683  441.391   19.815
  348.300   41.694  441.393   19.800
  348.550   39.883  440.733   21.335
  348.800   35.056  441.401   24.338
  349.050   32.038  440.077   26.237
  349.300   29.021  439.417   27.747
  349.550   28.415  440.086   27.726
  349.800   30.823  440.089   26.670
  350.050   31.423  438.765   24.706
  350.300   30.215  437.440   23.324
  350.550   29.004  435.452   23.751
  350.800   28.399  434.790   26.088
  351.050   28.397  434.795   28.660
  351.300   28.393  435.463   29.184
  351.550   28.391  436.131   29.161
  351.800   30.799  436.133   26.011
  352.050   34.414  434.147   24.096
  352.300   38.631  433.484   21.090
  352.550   41.041  431.496   17.773
  352.800   56.111  429.507   15.264
  353.050   63.343  426.856   13.615
  353.300   70.576  424.865   13.350
  353.550   75.999  420.220   14.116
  353.800   75.392  412.254   14.928
  354.050   73.582  350.488   14.916
  354.300   69.960  311.970   14.348
  354.550   67.546  319.279   13.807
  354.800   64.529  331.903   13.538
  355.050   68.144  400.982   13.025
  355.300   71.154  418.254   12.531
  355.550   72.357  421.580   11.831
  355.800   74.162  421.584   11.382
  356.050   75.367  422.252   10.953
  356.300   76.569  424.912   10.338
  356.550   75.963  430.230   10.139
  356.800   76.563  433.555    9.752
  357.050   80.179  432.894    9.564
  357.300   81.382  431.570    9.200
  357.550   78.966  430.909    9.191
  357.800   77.154  431.578    9.187
  358.050   77.755  432.245    9.008
  358.300   77.148  432.249    8.666
  358.550   77.147  428.933    8.822
  358.800   76.540  427.607    9.158
