~VERSION INFORMATION
 VERS.                 2.0:   CWLS LOG ASCII STANDARD -VERSION 2.0
 WRAP.                  NO:   ONE LINE PER DEPTH STEP
~WELL INFORMATION BLOCK
#MNEM.UNIT           DATA                    DESCRIPTION OF MNEMONIC
#---------    -------------------            -------------------------------
# Generated from Intellog Unique Number	CC_88_90/WELL/1069
WELL.         COSEKA BCRIC MCKAY R           : Well_name    - WELL
LOC .         00/07-17-090-17W4/0            : Location     - LOCATION
UWI .         00/07-17-090-17W400            : Uwi          - UNIQUE WELL ID
ENTR.         RJA                            : Entered      - ENTERED BY
SRVC.         SCHLUMBERGER                   : Scn          - SERVICE COMPANY
STRT.M        90.000                         : top_depth    - START DEPTH
STOP.M        223.750                        : bot_depth    - STOP DEPTH
STEP.M        0.25                           : increment    - STEP LENGTH
 NULL. -999.2500:NULL Value
~CURVE INFORMATION BLOCK
#MNEM UNIT       ERCB CURVE CODE    CURVE DESCRIPTION
#-----------   ------------------   ----------------------------------
DEPT.M        00 001 00 00         : DEPTH        - DEPTH
GR  .API      00 310 00 00         : GR           - GAMMA RAY
DPHI.V/V      00 890 00 00         : PHID         - DENSITY POROSITY (SANDSTONE)
NPHI.V/V      00 330 00 00         : PHIN         - NEUTRON POROSITY (SANDSTONE)
ILD .OHMM     00 120 00 00         : RESD         - DEEP RESISTIVITY (DIL)
~PARAMETER INFORMATION
#MNEM.UNIT           DATA             DESCRIPTION OF MNEMONIC
#---------         -----------     ------------------------------
GL  .M        480.575              : gl           - GROUND LEVEL ELEVATION
EREF.M        483.475              : kb           - ELEVATION OF DEPTH REFERENCE
DATM.M        483.475              : datum        - DATUM ELEVATION
TDD .M        225                  : tdd          - TOTAL DEPTH DRILLER
RUN .         ONE                  : Run          - RUN NUMBER
ENG .         BILL                 : Engineer     - RECORDING ENGINEER
WIT .         JIM                  : Witness      - WITNESSED BY
MUD .         GEL                  : Mud_type     - MUD TYPE
MATR.         SANDSTONE            : Logunit      - NEUTRON MATRIX
TMAX.C        16.7                 : BHT          - MAXIMUM RECORDED TEMPERATURE
BHTD.M        225                  : BHTDEP       - MAXIMUM RECORDED TEMPERATURE
MATR.         1                    : LOGUNIT      - NEUTRON MATRIX
RMT .C        25                   : MDTP         - TEMPERATURE OF MUD
NEUT.         1                    : NEUTRON      - NEUTRON TYPE
RESI.         0                    : RESIST       - RESISTIVITY TYPE
RMC .OHMM     0.25                 : RMC          - RESISTIVITY OF MUD CAKE
RMF .OHMM     0.25                 : RMF          - RESISTIVITY OF MUD FILTRATE
SUFT.C        15                   : SUFT         - SURFACE TEMPERATURE
~A  DEPTH       GR     PHID     PHIN     RESD
# ...
  177.000  102.045    0.213    0.441    9.511
  177.250   98.950    0.222    0.419    9.839
  177.500   98.907    0.216    0.422   10.339
  177.750   97.196    0.209    0.418   10.350
  178.000   94.603    0.207    0.412   10.118
  178.250   93.569    0.200    0.431    9.859
  178.500   89.194    0.176    0.448    9.966
  178.750   78.014    0.141    0.445   12.628
  179.000   66.151    0.136    0.459   16.262
  179.250   46.917    0.204    0.471   20.908
  179.500   29.505    0.274    0.435   30.782
  179.750   25.220    0.296    0.381   52.470
  180.000   25.665    0.314    0.382   83.292
  180.250   25.935    0.310    0.381  102.550
  180.500   25.915    0.305    0.375  103.084
  180.750   24.853    0.312    0.380  104.054
  181.000   23.599    0.324    0.383  113.164
  181.250   23.572    0.329    0.375  122.035
  181.500   24.570    0.322    0.377  125.393
  181.750   26.070    0.306    0.375  123.615
  182.000   25.911    0.297    0.369  123.771
  182.250   24.946    0.299    0.370  128.551
  182.500   24.242    0.308    0.374  133.932
  182.750   24.449    0.313    0.374  136.736
  183.000   26.139    0.307    0.376  137.382
  183.250   28.038    0.316    0.387  134.156
  183.500   29.813    0.326    0.411  128.762
  183.750   31.493    0.321    0.426  114.768
  184.000   33.664    0.310    0.430   89.958
  184.250   36.515    0.305    0.426   62.532
  184.500   39.801    0.305    0.415   43.243
  184.750   44.040    0.302    0.429   34.802
  185.000   47.764    0.295    0.424   29.162
  185.250   52.709    0.272    0.424   24.539
  185.500   57.699    0.260    0.436   21.713
  185.750   58.618    0.271    0.433   19.830
  186.000   56.144    0.270    0.413   17.871
  186.250   57.147    0.258    0.413   15.861
  186.500   59.613    0.264    0.427   14.501
  186.750   61.134    0.257    0.418   14.591
  187.000   61.291    0.248    0.411   15.757
  187.250   60.520    0.262    0.423   16.955
  187.500   59.209    0.272    0.423   17.644
  187.750   57.938    0.276    0.450   17.620
  188.000   59.225    0.257    0.462   16.263
  188.250   63.443    0.216    0.442   12.638
  188.500   70.189    0.166    0.413    8.950
  188.750   78.913    0.140    0.405    6.915
  189.000   87.758    0.160    0.423    5.262
  189.250   94.249    0.191    0.443    4.490
  189.500   98.613    0.216    0.458    4.024
  189.750   99.023    0.235    0.464    3.744
  190.000   95.994    0.241    0.467    3.645
  190.250   95.313    0.239    0.469    3.591
  190.500   99.764    0.244    0.463    3.648
  190.750  101.285    0.239    0.482    4.064
  191.000  101.495    0.229    0.475    4.916
  191.250   98.772    0.225    0.440    6.431
  191.500   87.905    0.226    0.404    8.202
  191.750   75.721    0.222    0.392   10.013
  192.000   74.520    0.222    0.399   12.128
  192.250   73.723    0.232    0.396   13.982
  192.500   67.714    0.237    0.392   16.149
  192.750   60.602    0.250    0.402   19.432
  193.000   55.385    0.266    0.408   23.638
  193.250   51.650    0.227    0.399   27.867
  193.500   49.520    0.113    0.360   30.908
  193.750   49.800    0.055    0.250   30.895
  194.000   53.334    0.118    0.269   27.278
  194.250   56.355    0.172    0.360   25.020
  194.500   57.191    0.222    0.410   24.917
  194.750   56.645    0.283    0.420   24.765
  195.000   54.931    0.260    0.424   25.396
  195.250   52.932    0.238    0.428   27.848
  195.500   50.008    0.223    0.421   31.770
  195.750   47.364    0.241    0.426   35.698
  196.000   46.225    0.280    0.432   39.465
  196.250   46.912    0.300    0.426   40.857
  196.500   48.693    0.301    0.426   37.408
  196.750   48.931    0.308    0.437   34.465
  197.000   46.204    0.314    0.440   32.880
  197.250   43.255    0.313    0.426   32.510
  197.500   40.033    0.307    0.405   32.932
  197.750   36.355    0.302    0.385   33.639
  198.000   34.723    0.301    0.376   32.872
  198.250   34.318    0.292    0.381   26.582
  198.500   36.521    0.280    0.393   16.575
  198.750   42.048    0.269    0.395    8.845
  199.000   53.444    0.249    0.383    5.212
  199.250   68.499    0.231    0.380    3.838
  199.500   79.326    0.233    0.402    3.612
  199.750   85.196    0.245    0.431    3.627
  200.000   87.255    0.255    0.467    3.867
  200.250   85.292    0.246    0.495    4.212
  200.500   83.718    0.238    0.487    4.472
  200.750   85.767    0.240    0.456    4.605
  201.000   88.237    0.235    0.449    4.711
  201.250   89.323    0.234    0.463    4.889
  201.500   87.881    0.240    0.463    5.092
  201.750   82.839    0.243    0.466    5.727
  202.000   73.880    0.248    0.475    6.915
  202.250   62.088    0.258    0.475    9.717
  202.500   52.237    0.265    0.458   15.114
  202.750   52.812    0.274    0.426   20.981
  203.000   62.319    0.271    0.379   27.617
  203.250   67.077    0.259    0.363   27.568
  203.500   67.648    0.251    0.369   23.893
  203.750   69.035    0.246    0.358   23.021
  204.000   67.796    0.229    0.348   22.411
  204.250   67.958    0.218    0.350   22.614
  204.500   63.046    0.223    0.366   24.066
  204.750   57.673    0.243    0.368   26.471
  205.000   54.743    0.267    0.376   28.752
  205.250   54.690    0.277    0.400   29.367
  205.500   59.551    0.267    0.398   27.609
  205.750   65.011    0.267    0.386   24.538
  206.000   72.599    0.281    0.385   20.606
  206.250   78.836    0.256    0.381   18.269
  206.500   83.883    0.211    0.371   17.034
  206.750   87.835    0.194    0.366   15.782
  207.000   86.453    0.190    0.362   15.843
  207.250   81.901    0.191    0.362   16.605
  207.500   77.670    0.194    0.360   16.997
  207.750   72.819    0.180    0.351   18.166
  208.000   68.436    0.128    0.360   20.191
  208.250   67.387    0.046    0.362   21.135
  208.500   69.962   -0.000    0.316   19.561
  208.750   75.877    0.088    0.307   16.446
  209.000   87.094    0.197    0.333   13.943
  209.250   97.139    0.212    0.365   12.057
  209.500  102.993    0.183    0.389   10.969
  209.750  106.806    0.181    0.403   10.736
  210.000  109.411    0.180    0.418   10.476
  210.250  110.345    0.181    0.434   10.371
  210.500  106.975    0.173    0.406   10.290
  210.750  104.473    0.166    0.378   10.249
  211.000  104.308    0.165    0.388   10.338
  211.250  103.236    0.172    0.413   10.588
  211.500  101.451    0.183    0.414   11.106
  211.750  100.883    0.175    0.402   12.079
  212.000   95.951    0.168    0.403   13.167
  212.250   88.552    0.138    0.418   14.423
  212.500   80.797    0.097    0.396   15.474
  212.750   76.096    0.088    0.340   15.700
  213.000   79.087    0.133    0.328   15.032
  213.250   84.496    0.216    0.362   13.913
  213.500   89.280    0.233    0.412   13.113
  213.750   92.617    0.213    0.415   12.317
  214.000   94.921    0.195    0.387   11.793
  214.250   98.397    0.180    0.382   11.754
  214.500  104.511    0.177    0.393   11.548
  214.750  109.103    0.180    0.407   11.350
  215.000  107.406    0.189    0.412   11.544
  215.250  101.489    0.175    0.411   11.863
  215.500   97.137    0.165    0.415   12.030
  215.750   97.000    0.181    0.413   11.977
  216.000   98.061    0.191    0.396   11.652
  216.250   96.419    0.196    0.396   11.163
  216.500   91.853    0.179    0.396   10.736
  216.750   73.413    0.157    0.387   10.480
  217.000   58.166    0.155    0.390   10.448
  217.250   66.148    0.163    0.405   10.583
  217.500   82.300    0.163    0.403   10.739
  217.750   87.552    0.175    0.390   10.916
  218.000   87.916    0.182    0.392   11.074
  218.250   87.642    0.178    0.398   11.170
  218.500   87.275    0.173    0.394   11.187
  218.750   87.066    0.173    0.381   11.203
  219.000   86.771    0.173    0.356   11.302
  219.250   86.412    0.166    0.319   11.410
  219.500   86.271    0.164    0.313   11.564
  219.750   86.290    0.168    0.318   11.714
  220.000   86.296    0.176    0.317   11.279
  220.250   86.267    0.188    0.318   10.305
