~VERSION INFORMATION
 VERS.                 2.0:   CWLS LOG ASCII STANDARD -VERSION 2.0
 WRAP.                  NO:   ONE LINE PER DEPTH STEP
~WELL INFORMATION BLOCK
#MNEM.UNIT           DATA                    DESCRIPTION OF MNEMONIC
#---------    -------------------            -------------------------------
# Generated from Intellog Unique Number	CS_77_79/WELL/842
WELL.         DOME PETROLEUM LIMITED         : Well_name    - WELL
LOC .         00/02-25-077-10W4/0            : Location     - LOCATION
UWI .         00/02-25-077-10W4/0            : Uwi          - UNIQUE WELL ID
ENTR.         SP                             : Entered      - ENTERED BY
SRVC.         SCHLUMBERGER                   : Scn          - SERVICE COMPANY
STRT.M        190                            : top_depth    - START DEPTH
STOP.M        430                            : bot_depth    - STOP DEPTH
STEP.M        0.25                           : increment    - STEP LENGTH
 NULL. -999.2500:NULL Value
~CURVE INFORMATION BLOCK
#MNEM UNIT       ERCB CURVE CODE    CURVE DESCRIPTION
#-----------   ------------------   ----------------------------------
DEPT.M        00 001 00 00         : DEPTH        - DEPTH
GR  .API      00 310 00 00         : GR           - GAMMA RAY
DPHI.V/V      00 890 00 00         : PHID         - DENSITY POROSITY (LIMESTONE)
NPHI.V/V      00 330 00 00         : PHIN         - NEUTRON POROSITY (LIMESTONE)
ILD .OHMM     00 120 00 00         : RESD         - DEEP RESISTIVITY (DIL)
~PARAMETER INFORMATION
#MNEM.UNIT           DATA             DESCRIPTION OF MNEMONIC
#---------         -----------     ------------------------------
GL  .M        610.6                : gl           - GROUND LEVEL ELEVATION
EREF.M        614.26               : kb           - ELEVATION OF DEPTH REFERENCE
DATM.M        610.6                : datum        - DATUM ELEVATION
TDD .M        450.3                : tdd          - TOTAL DEPTH DRILLER
RUN .         ONE                  : Run          - RUN NUMBER
ENG .         BILL                 : Engineer     - RECORDING ENGINEER
WIT .         JIM                  : Witness      - WITNESSED BY
MUD .         GEL                  : Mud_type     - MUD TYPE
MATR.         LIMESTONE            : Logunit      - NEUTRON MATRIX
TMAX.C        22                   : BHT          - MAXIMUM RECORDED TEMPERATURE
BHTD.M        450.3                : BHTDEP       - MAXIMUM RECORDED TEMPERATURE
MATR.         1                    : LOGUNIT      - NEUTRON MATRIX
RMT .C        25                   : MDTP         - TEMPERATURE OF MUD
NEUT.         1                    : NEUTRON      - NEUTRON TYPE
RESI.         0                    : RESIST       - RESISTIVITY TYPE
RMC .OHMM     0.25                 : RMC          - RESISTIVITY OF MUD CAKE
RMF .OHMM     0.25                 : RMF          - RESISTIVITY OF MUD FILTRATE
SUFT.C        15                   : SUFT         - SURFACE TEMPERATURE
~A  DEPTH       GR     PHID     PHIN     RESD
# ...
  320.500   58.226    0.369    0.420    5.667
  320.750   57.030    0.359    0.412    5.665
  321.000   57.666    0.356    0.402    5.658
  321.250   58.302    0.353    0.402    5.653
  321.500   59.543    0.352    0.405    5.649
  321.750   59.565    0.353    0.413    5.645
  322.000   57.762    0.356    0.421    5.636
  322.250   57.788    0.357    0.425    5.633
  322.500   59.034    0.358    0.433    5.522
  322.750   60.267    0.358    0.438    5.515
  323.000   61.509    0.357    0.424    5.407
  323.250   61.533    0.357    0.415    5.402
  323.500   61.563    0.359    0.419    5.398
  323.750   62.194    0.365    0.425    5.394
  324.000   63.443    0.359    0.436    5.389
  324.250   64.070    0.359    0.440    5.385
  324.500   66.552    0.361    0.432    5.380
  324.750   67.181    0.359    0.430    5.374
  325.000   67.196    0.356    0.438    5.371
  325.250   66.605    0.355    0.439    5.468
  325.500   64.192    0.362    0.433    5.570
  325.750   62.994    0.372    0.421    5.563
  326.000   61.798    0.376    0.412    5.668
  326.250   63.650    0.377    0.412    5.771
  326.500   62.456    0.378    0.414    6.106
  326.750   59.434    0.374    0.387    6.975
  327.000   57.020    0.353    0.345    8.436
  327.250   56.432    0.096    0.246   10.805
  327.500   57.675    0.062    0.220   14.106
  327.750   57.696    0.068    0.240   17.725
  328.000   54.068    0.117    0.201   19.485
  328.250   51.646    0.146    0.202   18.734
  328.500   52.894    0.216    0.242   16.690
  328.750   55.968    0.322    0.279   15.160
  329.000   57.206    0.357    0.312   13.250
  329.250   58.456    0.347    0.367   11.360
  329.500   60.311    0.352    0.392    9.929
  329.750   61.547    0.355    0.409    8.679
  330.000   64.621    0.359    0.418    7.301
  330.250   62.206    0.358    0.426    6.260
  330.500   60.398    0.359    0.434    6.136
  330.750   61.033    0.367    0.436    5.898
  331.000   62.889    0.376    0.437    5.783
  331.250   64.749    0.378    0.419    5.780
  331.500   65.374    0.380    0.408    5.557
  331.750   64.181    0.377    0.409    5.446
  332.000   61.764    0.372    0.411    5.338
  332.250   59.957    0.368    0.413    5.541
  332.500   63.034    0.370    0.408    5.752
  332.750   63.053    0.365    0.403    5.972
  333.000   58.813    0.361    0.407    6.318
  333.250   56.397    0.357    0.421    6.558
  333.500   54.590    0.355    0.434    6.808
  333.750   54.001    0.355    0.438    7.067
  334.000   54.640    0.353    0.428    7.198
  334.250   55.280    0.352    0.416    7.192
  334.500   55.908    0.350    0.408    6.655
  334.750   56.548    0.348    0.406    6.402
  335.000   56.561    0.343    0.400    6.156
  335.250   55.976    0.341    0.400    6.035
  335.500   56.005    0.340    0.406    5.915
  335.750   55.413    0.343    0.409    5.910
  336.000   56.667    0.348    0.425    5.905
  336.250   57.290    0.350    0.440    5.897
  336.500   59.148    0.349    0.441    5.893
  336.750   60.395    0.348    0.435    5.888
  337.000   61.021    0.350    0.435    5.882
  337.250   59.834    0.355    0.436    5.877
  337.500   58.632    0.359    0.426    5.760
  337.750   59.274    0.361    0.415    5.646
  338.000   59.900    0.360    0.416    5.535
  338.250   60.530    0.354    0.420    5.424
  338.500   61.170    0.345    0.420    5.422
  338.750   63.017    0.344    0.424    5.416
  339.000   65.485    0.351    0.442    5.307
  339.250   65.504    0.361    0.431    5.305
  339.500   64.925    0.365    0.423    5.100
  339.750   64.341    0.361    0.423    4.999
  340.000   64.368    0.358    0.434    4.808
  340.250   64.994    0.356    0.445    4.714
  340.500   65.632    0.355    0.439    4.448
  340.750   66.271    0.353    0.430    4.360
  341.000   66.286    0.354    0.418    4.439
  341.250   65.703    0.363    0.411    4.696
  341.500   63.288    0.357    0.408    4.783
  341.750   59.036    0.349    0.428    4.779
  342.000   63.334    0.343    0.442    4.774
  342.250   65.803    0.338    0.440    4.679
  342.500   68.264    0.335    0.430    4.588
  342.750   69.500    0.347    0.426    4.497
  343.000   73.185    0.332    0.426    4.580
  343.250   76.253    0.310    0.430    4.664
  343.500   79.938    0.303    0.432    4.749
  343.750   82.400    0.288    0.438    4.836
  344.000   85.475    0.267    0.435    4.925
  344.250   86.714    0.293    0.430    5.017
  344.500   84.301    0.305    0.432    5.010
  344.750   77.620    0.318    0.442    5.007
  345.000   77.031    0.310    0.438    5.002
  345.250   75.836    0.288    0.426    5.094
  345.500   70.988    0.278    0.412    5.494
  345.750   66.740    0.264    0.411    5.813
  346.000   64.936    0.267    0.415    6.151
  346.250   65.581    0.290    0.423    6.147
  346.500   66.209    0.302    0.431    6.141
  346.750   66.835    0.300    0.440    6.019
  347.000   68.075    0.270    0.435    5.900
  347.250   65.664    0.247    0.400    6.005
  347.500   63.857    0.219    0.339    6.119
  347.750   60.830    0.167    0.351    6.231
  348.000   63.294    0.227    0.361    6.593
  348.250   66.974    0.267    0.368    6.713
  348.500   69.438    0.277    0.380    6.332
  348.750   70.686    0.283    0.397    6.091
  349.000   71.319    0.276    0.411    5.858
  349.250   73.790    0.270    0.414    5.743
  349.500   75.023    0.270    0.415    5.629
  349.750   75.655    0.268    0.413    5.731
  350.000   75.685    0.262    0.401    5.838
  350.250   75.096    0.249    0.397    6.059
  350.500   74.507    0.277    0.404    6.170
  350.750   75.142    0.283    0.414    6.530
  351.000   77.613    0.277    0.414    7.317
  351.250   78.857    0.266    0.410    6.903
  351.500   80.091    0.262    0.419    6.267
  351.750   81.957    0.259    0.436    5.582
  352.000   83.198    0.258    0.441    5.168
  352.250   83.822    0.263    0.445    4.784
  352.500   85.065    0.259    0.452    4.512
  352.750   88.146    0.253    0.449    4.509
  353.000   90.002    0.252    0.453    4.505
  353.250   91.235    0.249    0.461    4.676
  353.500   90.650    0.247    0.473    4.762
  353.750   88.846    0.242    0.475    4.851
  354.000   88.259    0.246    0.463    4.845
  354.250   87.061    0.243    0.446    4.750
  354.500   91.353    0.238    0.439    4.838
  354.750   95.037    0.234    0.443    5.218
  355.000   91.403    0.225    0.435    5.626
  355.250   92.646    0.210    0.428    5.620
  355.500   93.889    0.189    0.424    5.511
  355.750   95.751    0.213    0.431    5.100
  356.000   95.156    0.230    0.423    4.542
  356.250   94.573    0.237    0.421    4.286
  356.500   95.820    0.240    0.431    3.891
  356.750   96.454    0.252    0.463    3.673
  357.000   90.374    0.283    0.480    3.271
  357.250   86.128    0.294    0.495    2.971
  357.500   82.499    0.300    0.502    2.698
  357.750   81.306    0.295    0.504    2.403
  358.000   82.545    0.295    0.525    2.182
  358.250   85.624    0.299    0.540    2.099
  358.500   85.034    0.299    0.533    2.096
  358.750   83.227    0.291    0.529    2.135
  359.000   81.430    0.286    0.520    2.216
  359.250   81.449    0.283    0.515    2.301
  359.500   81.469    0.279    0.536    2.434
  359.750   90.032    0.270    0.555    2.527
  360.000   94.323    0.265    0.565    2.726
  360.250   94.954    0.253    0.544    2.940
  360.500   91.318    0.241    0.496    3.232
  360.750   91.353    0.226    0.470    3.834
  361.000   91.982    0.219    0.461    4.134
  361.250   93.224    0.204    0.447    4.460
  361.500   92.634    0.185    0.436    4.903
  361.750   89.002    0.168    0.413    5.286
  362.000   85.368    0.153    0.413    5.182
  362.250   84.168    0.169    0.429    4.982
  362.500   84.192    0.188    0.433    4.886
  362.750   88.490    0.202    0.424    4.437
  363.000   94.000    0.206    0.430    4.107
  363.250   97.678    0.211    0.440    3.800
  363.500   94.658    0.219    0.448    3.518
  363.750   94.074    0.223    0.457    3.449
