~VERSION INFORMATION
 VERS.                 2.0:   CWLS LOG ASCII STANDARD -VERSION 2.0
 WRAP.                  NO:   ONE LINE PER DEPTH STEP
~WELL INFORMATION BLOCK
#MNEM.UNIT           DATA                    DESCRIPTION OF MNEMONIC
#---------    -------------------            -------------------------------
# Generated from Intellog Unique Number	CS_77_79/WELL/838
WELL.         CANADIAN WORLDWIDE ENERGY      : Well_name    - WELL
LOC .         00/02-14-077-04W4/0            : Location     - LOCATION
UWI .         00/02-14-077-04W4/0            : Uwi          - UNIQUE WELL ID
ENTR.         SP                             : Entered      - ENTERED BY
SRVC.         SCHLUMBERGER                   : Scn          - SERVICE COMPANY
STRT.M        195                            : top_depth    - START DEPTH
STOP.M        470                            : bot_depth    - STOP DEPTH
STEP.M        0.25                           : increment    - STEP LENGTH
 NULL. -999.2500:NULL Value
~CURVE INFORMATION BLOCK
#MNEM UNIT       ERCB CURVE CODE    CURVE DESCRIPTION
#-----------   ------------------   ----------------------------------
DEPT.M        00 001 00 00         : DEPTH        - DEPTH
ILD .OHMM     00 120 00 00         : RESD         - DEEP RESISTIVITY (DIL)
DPHI.V/V      00 890 00 00         : PHID         - DENSITY POROSITY (LIMESTONE)
NPHI.V/V      00 330 00 00         : PHIN         - NEUTRON POROSITY (LIMESTONE)
GR  .API      00 310 00 00         : GR           - GAMMA RAY
~PARAMETER INFORMATION
#MNEM.UNIT           DATA             DESCRIPTION OF MNEMONIC
#---------         -----------     ------------------------------
GL  .M        572.1                : gl           - GROUND LEVEL ELEVATION
EREF.M        575.75               : kb           - ELEVATION OF DEPTH REFERENCE
DATM.M        572.1                : datum        - DATUM ELEVATION
TDD .M        471.9                : tdd          - TOTAL DEPTH DRILLER
RUN .         ONE                  : Run          - RUN NUMBER
ENG .         BILL                 : Engineer     - RECORDING ENGINEER
WIT .         JIM                  : Witness      - WITNESSED BY
MUD .         GEL                  : Mud_type     - MUD TYPE
MATR.         LIMESTONE            : Logunit      - NEUTRON MATRIX
TMAX.C        25                   : BHT          - MAXIMUM RECORDED TEMPERATURE
BHTD.M        471.9                : BHTDEP       - MAXIMUM RECORDED TEMPERATURE
MATR.         1                    : LOGUNIT      - NEUTRON MATRIX
RMT .C        25                   : MDTP         - TEMPERATURE OF MUD
NEUT.         1                    : NEUTRON      - NEUTRON TYPE
RESI.         0                    : RESIST       - RESISTIVITY TYPE
RMC .OHMM     0.25                 : RMC          - RESISTIVITY OF MUD CAKE
RMF .OHMM     0.25                 : RMF          - RESISTIVITY OF MUD FILTRATE
SUFT.C        15                   : SUFT         - SURFACE TEMPERATURE
~A  DEPTH     RESD     PHID     PHIN       GR
  195.000    2.528    0.291    0.572   97.713
  195.250    2.530    0.281    0.581   94.005
  195.500    2.532    0.275    0.591   94.661
  195.750    2.535    0.270    0.565   95.297
  196.000    2.537    0.263    0.514   96.578
  196.250    2.540    0.266    0.496   97.221
  196.500    2.591    0.281    0.491   95.383
  196.750    2.643    0.279    0.512   93.536
  197.000    2.747    0.274    0.538   94.803
  197.250    2.912    0.262    0.575   96.700
  197.500    2.970    0.271    0.561   97.968
  197.750    2.972    0.268    0.532   99.237
  198.000    2.974    0.262    0.482  101.129
  198.250    2.921    0.256    0.495  101.156
  198.500    2.869    0.256    0.492  101.174
  198.750    2.871    0.253    0.458  100.579
  199.000    2.875    0.236    0.453   98.734
  199.250    2.988    0.218    0.467   98.769
  199.500    2.990    0.199    0.484  100.659
  199.750    2.993    0.234    0.503  101.924
  200.000    2.997    0.237    0.518  105.058
  200.250    3.000    0.234    0.507  106.336
  200.500    3.059    0.239    0.497  106.353
  200.750    3.119    0.238    0.495  104.515
  201.000    3.243    0.229    0.496  100.802
  201.250    3.308    0.223    0.494  100.831
  201.500    3.375    0.228    0.507  108.326
  201.750    3.377    0.233    0.523  111.458
  202.000    3.446    0.233    0.523  110.859
  202.250    3.449    0.235    0.510  105.905
  202.500    3.386    0.242    0.520  102.201
  202.750    3.327    0.244    0.538   99.745
  203.000    3.330    0.242    0.549  101.002
  203.250    3.334    0.236    0.539  104.140
  203.500    3.336    0.234    0.527   99.814
  203.750    3.602    0.227    0.517   99.212
  204.000    3.890    0.224    0.496   99.234
  204.250    4.360    0.221    0.481   88.679
  204.500    5.273    0.221    0.406   56.342
  204.750    6.376    0.252    0.359   34.585
  205.000    7.286    0.283    0.348   35.856
  205.250    7.719    0.307    0.375   49.571
  205.500    6.768    0.311    0.414   68.268
  205.750    6.048    0.297    0.438  106.879
  206.000    5.404    0.258    0.466  104.417
  206.250    5.015    0.259    0.466   90.747
  206.500    5.414    0.272    0.444   70.234
  206.750    5.735    0.281    0.435   77.728
  207.000    6.192    0.200    0.421   81.488
  207.250    6.942    0.182    0.383   87.115
  207.500    7.785    0.202    0.366   90.879
  207.750    8.245    0.232    0.379   90.280
  208.000    8.255    0.252    0.397   88.437
  208.250    7.805    0.259    0.403   87.837
  208.500    7.245    0.247    0.396   89.730
  208.750    7.113    0.235    0.405   91.634
  209.000    7.123    0.225    0.422   91.647
  209.250    7.265    0.220    0.414   87.319
  209.500    7.408    0.225    0.396   86.716
  209.750    7.557    0.229    0.390   87.992
  210.000    7.855    0.222    0.406   88.633
  210.250    8.326    0.213    0.421   87.418
  210.500    8.819    0.221    0.422   89.320
  210.750    9.341    0.241    0.410   90.581
  211.000   10.473    0.260    0.418   92.472
  211.250   12.198    0.285    0.437   91.870
  211.500   12.919    0.302    0.423   81.938
  211.750   14.217    0.312    0.402   80.717
  212.000   14.501    0.317    0.390   83.863
  212.250   14.243    0.276    0.369   86.370
  212.500   13.988    0.243    0.360   90.128
  212.750   13.482    0.250    0.362   93.893
  213.000   13.501    0.259    0.360   95.163
  213.250   13.508    0.266    0.344   93.938
  213.500   13.776    0.271    0.346   89.611
  213.750   14.055    0.257    0.366   87.770
  214.000   14.606    0.244    0.378   85.307
  214.250   15.476    0.215    0.374   85.326
  214.500   16.708    0.244    0.375   87.218
  214.750   17.375    0.278    0.377   86.621
  215.000   18.060    0.297    0.374   86.026
  215.250   18.414    0.285    0.380   87.913
  215.500   18.432    0.289    0.383   84.830
  215.750   18.452    0.310    0.384   83.609
  216.000   18.127    0.300    0.400   89.234
  216.250   17.803    0.277    0.418   99.840
  216.500   17.481    0.243    0.419  105.468
  216.750   16.222    0.235    0.400  105.490
  217.000   15.342    0.257    0.393   98.669
  217.250   14.787    0.268    0.388   93.093
  217.500   14.520    0.269    0.381  101.834
  217.750   14.260    0.257    0.370  104.972
  218.000   14.825    0.245    0.350   98.770
  218.250   15.712    0.244    0.367   83.859
  218.500   16.332    0.256    0.359   65.837
  218.750   16.656    0.283    0.340   63.369
  219.000   16.991    0.282    0.331   70.252
  219.250   16.372    0.271    0.330   75.877
  219.500   14.909    0.267    0.367   82.121
  219.750   13.320    0.261    0.388   89.612
  220.000   12.127    0.276    0.403  102.707
  220.250   10.839    0.278    0.416  109.576
  220.500   10.057    0.270    0.430  105.243
  220.750    9.510    0.263    0.428   95.933
  221.000    8.826    0.257    0.426   92.224
  221.250    8.346    0.252    0.442   97.858
  221.500    7.893    0.235    0.454  100.990
  221.750    7.606    0.230    0.453  105.994
  222.000    7.758    0.248    0.450  112.240
  222.250    8.222    0.252    0.456  111.019
  222.500    8.874    0.252    0.432   97.974
  222.750   10.142    0.284    0.424   86.800
  223.000   11.808    0.302    0.406   83.091
  223.250   14.283    0.308    0.396   81.868
  223.500   15.715    0.310    0.395   83.144
  223.750   16.968    0.311    0.392   89.393
  224.000   17.304    0.329    0.386   94.390
  224.250   16.999    0.339    0.376   91.304
  224.500   16.379    0.340    0.396   89.468
  224.750   14.922    0.297    0.410   91.978
  225.000   14.105    0.217    0.409   90.142
  225.250   12.602    0.174    0.404   85.185
  225.500   10.845    0.135    0.400   82.098
  225.750    9.875    0.110    0.386   92.705
  226.000    9.160    0.150    0.381  103.305
  226.250    8.341    0.191    0.392  108.316
  226.500    7.455    0.172    0.414  108.966
  226.750    6.917    0.182    0.433  112.094
  227.000    6.421    0.183    0.462  114.612
  227.250    6.186    0.155    0.442  110.275
  227.500    5.634    0.126    0.446  119.013
  227.750    5.428    0.172    0.449  122.773
  228.000    5.038    0.202    0.453  122.797
  228.250    4.764    0.225    0.466  126.564
  228.500    4.505    0.236    0.492  126.585
  228.750    4.262    0.222    0.508  123.495
  229.000    4.107    0.214    0.487  120.411
  229.250    3.884    0.232    0.472  126.658
  229.500    3.742    0.246    0.507  130.416
  229.750    3.817    0.260    0.497  127.331
  230.000    4.200    0.261    0.481  125.488
  230.250    5.275    0.258    0.457  115.564
  230.500    6.884    0.244    0.426  111.225
  230.750    7.571    0.223    0.449  109.383
  231.000    8.985    0.261    0.493  103.806
  231.250   10.664    0.333    0.489   83.293
  231.500   12.898    0.361    0.459   70.250
  231.750   15.897    0.320    0.413   61.563
  232.000   18.511    0.288    0.398   58.475
  232.250   21.159    0.307    0.387   56.634
  232.500   21.985    0.320    0.387   55.422
  232.750   23.293    0.334    0.394   55.440
  233.000   23.316    0.343    0.394   58.578
  233.250   23.334    0.352    0.374   64.207
  233.500   22.501    0.337    0.375   67.348
  233.750   22.524    0.326    0.376   67.986
  234.000   22.123    0.320    0.373   68.641
  234.250   21.728    0.317    0.379   70.528
  234.500   21.337    0.322    0.383   74.282
  234.750   20.947    0.318    0.392   78.043
  235.000   20.576    0.312    0.393   80.555
  235.250   20.205    0.307    0.392   76.852
  235.500   20.233    0.310    0.401   77.506
  235.750   20.640    0.318    0.409   78.147
  236.000   20.659    0.317    0.401   78.166
  236.250   20.677    0.311    0.393   77.580
  236.500   21.092    0.308    0.385   77.597
  236.750   21.106    0.303    0.386   79.489
  237.000   21.532    0.314    0.400   82.623
  237.250   21.549    0.323    0.393   85.764
  237.500   21.573    0.319    0.394   86.410
  237.750   21.584    0.310    0.399   87.676
  238.000   22.020    0.304    0.390   91.436
  238.250   22.041    0.298    0.376   92.710
