~VERSION INFORMATION
 VERS.                 2.0:   CWLS LOG ASCII STANDARD -VERSION 2.0
 WRAP.                  NO:   ONE LINE PER DEPTH STEP
~WELL INFORMATION BLOCK
#MNEM.UNIT           DATA                    DESCRIPTION OF MNEMONIC
#---------    -------------------            -------------------------------
# Generated from Intellog Unique Number	CX_WELLS/WELL/2736
WELL.         THORNBURY                      : Well_name    - WELL
LOC .         00/07-26-080-12W4/0            : Location     - LOCATION
UWI .         00/07-26-080-12W4/0            : Uwi          - UNIQUE WELL ID
ENTR.         TIM                            : Entered      - ENTERED BY
SRVC.         SCHLUMBERGER                   : Scn          - SERVICE COMPANY
STRT.M        270                            : top_depth    - START DEPTH
STOP.M        500                            : bot_depth    - STOP DEPTH
STEP.M        0.25                           : increment    - STEP LENGTH
 NULL. -999.2500:NULL Value
~CURVE INFORMATION BLOCK
#MNEM UNIT       ERCB CURVE CODE    CURVE DESCRIPTION
#-----------   ------------------   ----------------------------------
DEPT.M        00 001 00 00         : DEPTH        - DEPTH
GR  .API      00 310 00 00         : GR           - GAMMA RAY
NPHI.V/V      00 330 00 00         : PHIN         - NEUTRON POROSITY (SANDSTONE)
DPHI.V/V      00 890 00 00         : PHID         - DENSITY POROSITY (SANDSTONE)
ILD .OHMM     00 120 00 00         : RESD         - DEEP RESISTIVITY (DLL)
~PARAMETER INFORMATION
#MNEM.UNIT           DATA             DESCRIPTION OF MNEMONIC
#---------         -----------     ------------------------------
GL  .M        698.9                : gl           - GROUND LEVEL ELEVATION
EREF.M        702.6                : kb           - ELEVATION OF DEPTH REFERENCE
DATM.M        702.6                : datum        - DATUM ELEVATION
TDD .M        513                  : tdd          - TOTAL DEPTH DRILLER
RUN .         ONE                  : Run          - RUN NUMBER
ENG .         BILL                 : Engineer     - RECORDING ENGINEER
WIT .         JIM                  : Witness      - WITNESSED BY
MUD .         GEL                  : Mud_type     - MUD TYPE
MATR.         SANDSTONE            : Logunit      - NEUTRON MATRIX
TMAX.C        26                   : BHT          - MAXIMUM RECORDED TEMPERATURE
BHTD.M        513                  : BHTDEP       - MAXIMUM RECORDED TEMPERATURE
MATR.         1                    : LOGUNIT      - NEUTRON MATRIX
RMT .C        14.4                 : MDTP         - TEMPERATURE OF MUD
NEUT.         1                    : NEUTRON      - NEUTRON TYPE
RESI.         3                    : RESIST       - RESISTIVITY TYPE
RMC .OHMM     2.6                  : RMC          - RESISTIVITY OF MUD CAKE
RMF .OHMM     3.2                  : RMF          - RESISTIVITY OF MUD FILTRATE
SUFT.C        4                    : SUFT         - SURFACE TEMPERATURE
~A  DEPTH       GR     PHIN     PHID     RESD
# ...
  444.000  117.975    0.376    0.220   12.451
  444.250  114.518    0.352    0.226   13.695
  444.500  107.547    0.338    0.235   14.786
  444.750   87.680    0.322    0.256   15.948
  445.000   85.994    0.313    0.261   18.891
  445.250   85.451    0.316    0.256   21.552
  445.500   83.750    0.320    0.246   22.830
  445.750   81.464    0.327    0.235   23.739
  446.000   77.436    0.333    0.239   24.232
  446.250   75.707    0.330    0.267   25.198
  446.500   72.250    0.326    0.275   26.215
  446.750   68.793    0.323    0.285   27.770
  447.000   65.921    0.326    0.280   29.417
  447.250   68.334    0.331    0.250   29.476
  447.500   71.889    0.334    0.224   27.938
  447.750   78.986    0.335    0.210   26.493
  448.000   85.497    0.343    0.198   25.098
  448.250   89.638    0.350    0.187   23.351
  448.500   98.492    0.358    0.206   22.132
  448.750  102.647    0.357    0.223   20.602
  449.000   91.564    0.330    0.265   21.019
  449.250   77.581    0.311    0.301   22.671
  449.500   79.979    0.319    0.315   27.343
  449.750   82.963    0.331    0.271   26.414
  450.000   86.519    0.348    0.254   24.588
  450.250   92.444    0.366    0.245   23.293
  450.500   94.843    0.370    0.234   21.274
  450.750   99.012    0.367    0.226   19.083
  451.000   98.483    0.369    0.213   17.755
  451.250   96.183    0.376    0.221   17.126
  451.500   92.140    0.382    0.236   16.240
  451.750   86.341    0.389    0.242   16.264
  452.000   84.668    0.397    0.232   16.014
  452.250   86.453    0.400    0.213   15.454
  452.500   92.950    0.398    0.191   15.193
  452.750   98.862    0.397    0.178   13.883
  453.000  101.860    0.405    0.173   13.391
  453.250  102.502    0.414    0.169   12.237
  453.500  100.815    0.411    0.168   11.815
  453.750   99.672    0.411    0.168   11.833
  454.000   98.557    0.417    0.165   11.863
  454.250   98.614    0.420    0.160   11.886
  454.500   98.684    0.420    0.155   11.916
  454.750   98.169    0.424    0.172   12.164
  455.000   98.211    0.424    0.183   12.182
  455.250   97.096    0.414    0.183   12.206
  455.500   95.981    0.404    0.179   12.237
  455.750   94.294    0.395    0.169   12.262
  456.000   93.765    0.399    0.163   12.286
  456.250   93.821    0.402    0.171   12.317
  456.500   94.463    0.406    0.177   12.560
  456.750   95.676    0.410    0.183   12.821
  457.000   99.274    0.408    0.188   13.588
  457.250  100.473    0.403    0.188   14.130
  457.500  101.701    0.400    0.187   14.430
  457.750  101.771    0.392    0.187   14.452
  458.000  101.813    0.381    0.187   14.474
  458.250  101.869    0.373    0.186   14.503
  458.500  101.925    0.377    0.183   14.804
  458.750  102.581    0.380    0.180   14.834
  459.000  103.209    0.382    0.175   15.157
  459.250  103.851    0.384    0.167   15.463
  459.500  102.150    0.385    0.160   15.487
  459.750   96.950    0.383    0.159   15.832
  460.000   94.650    0.379    0.168   15.856
  460.250   94.121    0.375    0.183   16.177
  460.500   92.434    0.370    0.197   16.529
  460.750   88.963    0.365    0.208   16.864
  461.000   85.506    0.357    0.205   17.205
  461.250   85.005    0.348    0.198   17.580
  461.500   84.448    0.343    0.193   17.927
  461.750   84.504    0.341    0.200   17.963
  462.000   85.745    0.342    0.208   17.999
  462.250   86.972    0.343    0.202   18.044
  462.500   87.614    0.342    0.197   18.081
  462.750   87.670    0.339    0.201   18.456
  463.000   87.141    0.334    0.232   19.191
  463.250   81.913    0.325    0.255   21.108
  463.500   76.114    0.310    0.267   21.927
  463.750   70.900    0.264    0.291   25.509
  464.000   69.200    0.243    0.312   29.087
  464.250   68.684    0.258    0.317   33.184
  464.500   67.555    0.265    0.313   37.162
  464.750   67.612    0.259    0.313   41.659
  465.000   66.497    0.245    0.314   43.319
  465.250   64.197    0.226    0.318   44.240
  465.500   56.055    0.222    0.323   45.113
  465.750   53.197    0.233    0.331   46.935
  466.000   55.010    0.256    0.323   47.885
  466.250   55.638    0.246    0.329   48.879
  466.500   55.694    0.237    0.339   49.893
  466.750   55.750    0.240    0.339   47.313
  467.000   58.149    0.256    0.330   43.998
  467.250   64.089    0.271    0.309   35.955
  467.500   68.815    0.283    0.294   31.627
  467.750   67.115    0.301    0.279   26.821
  468.000   64.271    0.336    0.275   23.616
  468.250   65.485    0.349    0.286   20.774
  468.500   68.469    0.357    0.285   18.624
  468.750   71.439    0.360    0.282   18.001
  469.000   70.338    0.362    0.278   18.365
  469.250   66.281    0.364    0.282   18.746
  469.500   61.667    0.365    0.288   19.126
  469.750   62.880    0.365    0.295   19.523
  470.000   66.464    0.365    0.297   19.203
  470.250   70.619    0.365    0.284   18.888
  470.500   72.460    0.373    0.285   17.920
  470.750   68.375    0.379    0.297   17.609
  471.000   61.404    0.385    0.304   17.320
  471.250   56.790    0.392    0.309   16.123
  471.500   53.333    0.390    0.315   15.850
  471.750   50.461    0.389    0.316   14.762
  472.000   47.576    0.387    0.317   14.246
  472.250   44.133    0.384    0.319   13.762
  472.500   42.418    0.382    0.321   13.776
  472.750   44.231    0.380    0.321   13.804
  473.000   48.972    0.383    0.314   14.354
  473.250   56.640    0.385    0.304   15.498
  473.500   63.151    0.388    0.300   17.347
  473.750   60.266    0.397    0.307   21.723
  474.000   57.408    0.404    0.309   27.189
  474.250   53.951    0.407    0.313   34.667
  474.500   52.822    0.406    0.313   48.518
  474.750   52.879    0.405    0.315   65.401
  475.000   47.079    0.405    0.315   74.649
  475.250   43.050    0.407    0.313   72.077
  475.500   46.034    0.408    0.310   68.384
  475.750   46.091    0.407    0.311   67.195
  476.000   44.390    0.405    0.312   68.590
  476.250   43.261    0.402    0.316   79.754
  476.500   41.589    0.398    0.317   92.642
  476.750   41.031    0.393    0.321  105.690
  477.000   39.916    0.393    0.326  129.920
  477.250   39.387    0.391    0.330  151.067
  477.500   37.701    0.390    0.335  169.177
  477.750   36.572    0.392    0.336  172.689
  478.000   35.457    0.398    0.331  169.943
  478.250   39.026    0.396    0.319  166.989
  478.500   52.564    0.390    0.313  155.367
  478.750   53.220    0.385    0.314  139.363
  479.000   55.033    0.381    0.309  129.664
  479.250   56.846    0.384    0.301  125.133
  479.500   56.902    0.392    0.308  127.730
  479.750   54.630    0.399    0.316  135.373
  480.000   53.487    0.403    0.323  143.402
  480.250   50.030    0.406    0.327  154.750
  480.500   42.488    0.404    0.330  167.078
  480.750   43.130    0.403    0.331  180.209
  481.000   43.172    0.403    0.334  198.206
  481.250   42.643    0.406    0.338  213.890
  481.500   41.542    0.410    0.340  222.302
  481.750   40.427    0.410    0.341  231.278
  482.000   39.883    0.412    0.343  227.373
  482.250   39.954    0.414    0.346  223.645
  482.500   39.996    0.415    0.347  211.973
  482.750   40.080    0.415    0.349  190.042
  483.000   40.122    0.415    0.350  161.164
  483.250   41.350    0.415    0.350  129.217
  483.500   43.734    0.415    0.348   96.247
  483.750   49.060    0.415    0.323   81.663
  484.000   52.644    0.416    0.323   77.400
  484.250   49.758    0.416    0.335   76.094
  484.500   45.144    0.417    0.346   77.673
  484.750   42.286    0.414    0.349   82.321
  485.000   41.729    0.408    0.352   85.602
  485.250   41.200    0.405    0.343   79.644
  485.500   41.841    0.401    0.336   71.404
  485.750   43.069    0.399    0.314   66.401
  486.000   46.053    0.399    0.291   57.394
  486.250   50.836    0.398    0.293   50.485
  486.500   50.864    0.397    0.306   45.239
  486.750   49.163    0.393    0.323   39.814
  487.000   45.135    0.389    0.335   35.039
  487.250   42.849    0.388    0.348   30.271
