~VERSION INFORMATION
 VERS.                 2.0:   CWLS LOG ASCII STANDARD -VERSION 2.0
 WRAP.                  NO:   ONE LINE PER DEPTH STEP
~WELL INFORMATION BLOCK
#MNEM.UNIT           DATA                    DESCRIPTION OF MNEMONIC
#---------    -------------------            -------------------------------
# Generated from Intellog Unique Number	CS_73_76/WELL/2180
WELL.         WAINOCO OIL AND GAS COMPAN     : Well_name    - WELL
LOC .         00/07-34-074-12W4/0            : Location     - LOCATION
UWI .         00/07-34-074-12W4/0            : Uwi          - UNIQUE WELL ID
ENTR.         SP                             : Entered      - ENTERED BY
SRVC.         SCHLUMBERGER                   : Scn          - SERVICE COMPANY
STRT.M        290                            : top_depth    - START DEPTH
STOP.M        520                            : bot_depth    - STOP DEPTH
STEP.M        0.25                           : increment    - STEP LENGTH
 NULL. -999.2500:NULL Value
~CURVE INFORMATION BLOCK
#MNEM UNIT       ERCB CURVE CODE    CURVE DESCRIPTION
#-----------   ------------------   ----------------------------------
DEPT.M        00 001 00 00         : DEPTH        - DEPTH
ILD .OHMM     00 120 00 00         : RESD         - DEEP RESISTIVITY (DIL)
DPHI.V/V      00 890 00 00         : PHID         - DENSITY POROSITY (LIMESTONE)
NPHI.V/V      00 330 00 00         : PHIN         - NEUTRON POROSITY (LIMESTONE)
GR  .API      00 310 00 00         : GR           - GAMMA RAY
~PARAMETER INFORMATION
#MNEM.UNIT           DATA             DESCRIPTION OF MNEMONIC
#---------         -----------     ------------------------------
GL  .M        661.49               : gl           - GROUND LEVEL ELEVATION
EREF.M        664.75               : kb           - ELEVATION OF DEPTH REFERENCE
DATM.M        661.49               : datum        - DATUM ELEVATION
TDD .M        530                  : tdd          - TOTAL DEPTH DRILLER
RUN .         ONE                  : Run          - RUN NUMBER
ENG .         BILL                 : Engineer     - RECORDING ENGINEER
WIT .         JIM                  : Witness      - WITNESSED BY
MUD .         GEL                  : Mud_type     - MUD TYPE
MATR.         LIMESTONE            : Logunit      - NEUTRON MATRIX
TMAX.C        22                   : BHT          - MAXIMUM RECORDED TEMPERATURE
BHTD.M        530                  : BHTDEP       - MAXIMUM RECORDED TEMPERATURE
MATR.         1                    : LOGUNIT      - NEUTRON MATRIX
RMT .C        25                   : MDTP         - TEMPERATURE OF MUD
NEUT.         1                    : NEUTRON      - NEUTRON TYPE
RESI.         0                    : RESIST       - RESISTIVITY TYPE
RMC .OHMM     0.25                 : RMC          - RESISTIVITY OF MUD CAKE
RMF .OHMM     0.25                 : RMF          - RESISTIVITY OF MUD FILTRATE
SUFT.C        15                   : SUFT         - SURFACE TEMPERATURE
~A  DEPTH     RESD     PHID     PHIN       GR
# ...
  464.000    1.480    0.187    0.476  113.284
  464.250    1.538    0.195    0.478  113.894
  464.500    1.629    0.205    0.482  115.114
  464.750    1.725    0.217    0.483  112.660
  465.000    1.693    0.227    0.482  108.981
  465.250    1.541    0.220    0.478  107.143
  465.500    1.325    0.214    0.492  103.464
  465.750    1.184    0.203    0.495  102.235
  466.000    1.098    0.199    0.494  104.067
  466.250    1.078    0.204    0.492  105.900
  466.500    1.120    0.210    0.500  107.732
  466.750    1.164    0.214    0.500  108.952
  467.000    1.518    0.215    0.504  107.724
  467.250    1.980    0.206    0.503  103.433
  467.500    2.305    0.188    0.492  101.593
  467.750    2.735    0.172    0.489   99.139
  468.000    3.370    0.161    0.492   97.911
  468.250    3.637    0.155    0.486   94.846
  468.500    3.999    0.165    0.479   97.290
  468.750    4.316    0.189    0.470  103.406
  469.000    4.659    0.199    0.463  106.464
  469.250    4.934    0.210    0.460  109.522
  469.500    5.324    0.221    0.454  111.966
  469.750    5.638    0.215    0.443  112.572
  470.000    6.202    0.215    0.428  113.181
  470.250    6.444    0.223    0.409  113.175
  470.500    6.956    0.198    0.403  113.785
  470.750    7.227    0.182    0.397  114.393
  471.000    7.654    0.177    0.392  115.612
  471.250    7.804    0.183    0.390  116.219
  471.500    7.959    0.191    0.390  116.828
  471.750    8.270    0.203    0.389  119.274
  472.000    8.927    0.216    0.384  119.268
  472.250    9.274    0.237    0.379  112.530
  472.500   10.595    0.246    0.369  102.118
  472.750   11.651    0.248    0.358   88.031
  473.000   14.357    0.248    0.349   83.742
  473.250   17.033    0.244    0.341   79.452
  473.500   19.090    0.235    0.335   77.612
  473.750   20.217    0.231    0.331   77.606
  474.000   20.228    0.235    0.328   78.827
  474.250   19.489    0.251    0.327   81.884
  474.500   19.137    0.265    0.337   85.551
  474.750   19.512    0.278    0.340   85.548
  475.000   20.276    0.298    0.342   88.415
  475.250   21.070    0.293    0.331   84.146
  475.500   21.482    0.286    0.329   81.707
  475.750   22.327    0.283    0.328   78.659
  476.000   22.335    0.279    0.329   73.171
  476.250   21.932    0.272    0.338   68.902
  476.500   21.941    0.258    0.345   75.000
  476.750   21.138    0.246    0.353   79.268
  477.000   19.988    0.233    0.347   84.756
  477.250   19.254    0.222    0.339   87.805
  477.500   17.859    0.213    0.332   92.683
  477.750   16.883    0.231    0.328   95.122
  478.000   16.576    0.245    0.326   92.683
  478.250   17.556    0.256    0.324   87.195
  478.500   18.944    0.265    0.327   81.098
  478.750   22.055    0.258    0.337   76.829
  479.000   24.255    0.249    0.351   73.171
  479.250   26.680    0.243    0.354   81.707
  479.500   27.202    0.235    0.351   84.146
  479.750   24.304    0.224    0.346   84.756
  480.000   22.972    0.217    0.343   82.927
  480.250   19.756    0.219    0.346   82.927
  480.500   16.054    0.210    0.360   90.244
  480.750   14.609    0.194    0.378  100.610
  481.000   12.803    0.209    0.396  110.976
  481.250   10.804    0.232    0.415  114.024
  481.500    8.614    0.252    0.398  102.439
  481.750    7.991    0.268    0.377   87.805
  482.000    8.463    0.276    0.364   76.219
  482.250   10.040    0.265    0.348   64.024
  482.500   12.371    0.258    0.335   70.732
  482.750   15.241    0.258    0.333   73.781
  483.000   19.137    0.279    0.334   79.268
  483.250   20.654    0.295    0.336   82.317
  483.500   22.290    0.311    0.346   76.829
  483.750   28.527    0.325    0.354   72.561
  484.000   37.912    0.331    0.350   71.951
  484.250   51.342    0.328    0.345   73.781
  484.500   80.900    0.315    0.341   75.000
  484.750   92.417    0.311    0.339   78.049
  485.000   94.235    0.308    0.341   77.439
  485.250   94.286    0.303    0.347   75.000
  485.500   87.466    0.299    0.357   74.390
  485.750   76.666    0.306    0.367   72.561
  486.000   65.930    0.306    0.369   76.219
  486.250   58.876    0.294    0.365   79.878
  486.500   43.528    0.283    0.362   82.927
  486.750   36.726    0.276    0.360   84.146
  487.000   31.585    0.274    0.366   85.976
  487.250   25.669    0.275    0.368   88.415
  487.500   22.497    0.276    0.371   91.463
  487.750   20.090    0.264    0.374   92.683
  488.000   17.609    0.255    0.371   95.732
  488.250   15.434    0.239    0.368   96.341
  488.500   13.274    0.218    0.364   97.561
  488.750   12.311    0.190    0.363  100.610
  489.000   10.790    0.171    0.362  102.439
  489.250    9.637    0.168    0.363  105.488
  489.500    9.109    0.169    0.371  109.756
  489.750    8.612    0.170    0.378  110.976
  490.000    8.297    0.174    0.382  114.024
  490.250    8.147    0.177    0.382  116.463
  490.500    7.997    0.184    0.389  115.854
  490.750    7.707    0.191    0.386  116.463
  491.000    7.709    0.203    0.379  115.244
  491.250    7.713    0.212    0.370  114.024
  491.500    8.016    0.218    0.367  113.415
  491.750    8.490    0.219    0.357  115.244
  492.000    8.655    0.213    0.348  110.366
  492.250    9.341    0.203    0.342  107.317
  492.500   10.274    0.179    0.338  102.439
  492.750   11.089    0.176    0.335   96.951
  493.000   11.743    0.197    0.337   90.854
  493.250   11.973    0.207    0.344   88.415
  493.500   11.319    0.220    0.360   95.732
  493.750    9.198    0.226    0.401  101.220
  494.000    7.617    0.251    0.432  115.244
  494.250    6.803    0.266    0.461  128.049
  494.500    6.192    0.241    0.471  130.488
  494.750    5.854    0.223    0.453  130.488
  495.000    5.747    0.201    0.437  131.098
  495.250    5.750    0.181    0.412  127.439
  495.500    5.754    0.162    0.405  125.610
  495.750    5.867    0.150    0.392  124.390
  496.000    5.983    0.150    0.392  123.171
  496.250    6.218    0.154    0.394  123.171
  496.500    6.339    0.161    0.394  120.732
  496.750    6.463    0.161    0.390  119.512
  497.000    6.717    0.159    0.379  118.293
  497.250    7.249    0.161    0.368  118.902
  497.500    8.765    0.157    0.360  118.293
  497.750    9.638    0.179    0.355  109.756
  498.000   11.010    0.199    0.352   98.781
  498.250   12.340    0.213    0.350   91.463
  498.500   14.366    0.230    0.350   87.195
  498.750   16.105    0.246    0.353   87.195
  499.000   17.380    0.251    0.354   85.366
  499.250   18.403    0.256    0.354   84.756
  499.500   20.245    0.267    0.356   78.049
  499.750   21.438    0.272    0.359   73.171
  500.000   24.742    0.280    0.356   73.171
  500.250   26.184    0.288    0.353   73.781
  500.500   28.237    0.291    0.349   72.561
  500.750   29.882    0.297    0.347   70.122
  501.000   30.451    0.304    0.345   65.854
  501.250   30.451    0.301    0.353   61.585
  501.500   28.775    0.295    0.360   62.195
  501.750   27.191    0.292    0.362   63.415
  502.000   24.742    0.283    0.354   67.073
  502.250   23.380    0.271    0.345   70.122
  502.500   20.877    0.271    0.337   72.561
  502.750   20.104    0.271    0.334   77.439
  503.000   20.104    0.264    0.332   79.268
  503.250   19.728    0.259    0.346   81.707
  503.500   20.104    0.269    0.356   82.927
  503.750   20.104    0.268    0.360   78.049
  504.000   19.728    0.280    0.367   72.561
  504.250   17.951    0.300    0.364   64.024
  504.500   15.436    0.307    0.359   59.146
  504.750   12.542    0.316    0.357   54.878
  505.000   10.191    0.325    0.356   54.268
  505.250    9.099    0.323    0.356   55.488
  505.500    8.438    0.316    0.361   57.317
  505.750    7.678    0.311    0.365   58.537
  506.000    6.987    0.309    0.366   54.878
  506.250    6.357    0.296    0.361   54.878
  506.500    6.122    0.290    0.356   55.488
  506.750    5.895    0.286    0.351   57.317
  507.000    5.785    0.279    0.345   62.195
  507.250    5.677    0.260    0.343   65.854
