~VERSION INFORMATION
 VERS.                 2.0:   CWLS LOG ASCII STANDARD -VERSION 2.0
 WRAP.                  NO:   ONE LINE PER DEPTH STEP
~WELL INFORMATION BLOCK
#MNEM.UNIT           DATA                    DESCRIPTION OF MNEMONIC
#---------    -------------------            -------------------------------
# Generated from Intellog Unique Number	CS_73_76/WELL/2392
WELL.         07-26-076-12W4                 : Well_name    - WELL
LOC .         00/07-26-076-12W4/0            : Location     - LOCATION
UWI .         00/07-26-076-12W4/0            : Uwi          - UNIQUE WELL ID
ENTR.         SP                             : Entered      - ENTERED BY
SRVC.         SCHLUMBERGER                   : Scn          - SERVICE COMPANY
STRT.M        283.464                        : top_depth    - START DEPTH
STOP.M        523.964                        : bot_depth    - STOP DEPTH
STEP.M        0.25                           : increment    - STEP LENGTH
 NULL. -999.2500:NULL Value
~CURVE INFORMATION BLOCK
#MNEM UNIT       ERCB CURVE CODE    CURVE DESCRIPTION
#-----------   ------------------   ----------------------------------
DEPT.M        00 001 00 00         : DEPTH        - DEPTH
GR  .API      00 310 00 00         : GR           - GAMMA RAY
DPHI.V/V      00 890 00 00         : PHID         - DENSITY POROSITY (SANDSTONE)
NPHI.V/V      00 330 00 00         : PHIN         - NEUTRON POROSITY (SANDSTONE)
ILD .OHMM     00 120 00 00         : RESD         - DEEP RESISTIVITY (DIL)
~PARAMETER INFORMATION
#MNEM.UNIT           DATA             DESCRIPTION OF MNEMONIC
#---------         -----------     ------------------------------
GL  .M        669.95               : gl           - GROUND LEVEL ELEVATION
EREF.M        672.998              : kb           - ELEVATION OF DEPTH REFERENCE
DATM.M        669.95               : datum        - DATUM ELEVATION
TDD .M        528.523              : tdd          - TOTAL DEPTH DRILLER
RUN .         ONE                  : Run          - RUN NUMBER
ENG .         BILL                 : Engineer     - RECORDING ENGINEER
WIT .         JIM                  : Witness      - WITNESSED BY
MUD .         GEL                  : Mud_type     - MUD TYPE
MATR.         SANDSTONE            : Logunit      - NEUTRON MATRIX
TMAX.C        35                   : BHT          - MAXIMUM RECORDED TEMPERATURE
BHTD.M        528.523              : BHTDEP       - MAXIMUM RECORDED TEMPERATURE
MATR.         1                    : LOGUNIT      - NEUTRON MATRIX
RMT .C        25                   : MDTP         - TEMPERATURE OF MUD
NEUT.         1                    : NEUTRON      - NEUTRON TYPE
RESI.         0                    : RESIST       - RESISTIVITY TYPE
RMC .OHMM     0.25                 : RMC          - RESISTIVITY OF MUD CAKE
RMF .OHMM     0.25                 : RMF          - RESISTIVITY OF MUD FILTRATE
SUFT.C        15                   : SUFT         - SURFACE TEMPERATURE
~A  DEPTH       GR     PHID     PHIN     RESD
# ...
  370.464  104.396    0.233    0.585    4.737
  370.714  101.969    0.237    0.567    5.026
  370.964  101.840    0.262    0.541    5.213
  371.214  103.811    0.235    0.559    5.122
  371.464  105.982    0.217    0.551    5.049
  371.714  108.960    0.208    0.573    4.735
  371.964  102.906    0.216    0.581    4.404
  372.214  104.551    0.241    0.572    4.017
  372.464  108.351    0.233    0.562    3.734
  372.714  110.515    0.232    0.584    3.573
  372.964  109.200    0.236    0.594    3.516
  373.214  104.507    0.233    0.601    3.513
  373.464   99.116    0.247    0.623    3.688
  373.714   95.442    0.284    0.629    3.979
  373.964   91.764    0.305    0.638    4.498
  374.214   90.084    0.326    0.602    4.726
  374.464   93.758    0.328    0.550    4.707
  374.714  100.930    0.298    0.503    4.385
  374.964  106.507    0.252    0.520    3.728
  375.214  110.708    0.298    0.538    3.321
  375.464  113.335    0.299    0.555    3.013
  375.714  114.321    0.272    0.566    2.775
  375.964  117.166    0.239    0.583    2.712
  376.214  118.933    0.244    0.637    2.681
  376.464  119.617    0.250    0.641    2.656
  376.714  119.686    0.255    0.643    2.566
  376.964  118.490    0.261    0.652    2.520
  377.214  116.495    0.266    0.666    2.415
  377.464  115.973    0.247    0.663    2.326
  377.714  115.667    0.261    0.663    2.459
  377.964  115.246    0.279    0.692    2.666
  378.214  111.080    0.280    0.696    3.083
  378.464  104.393    0.273    0.657    3.866
  378.714   97.367    0.275    0.537    4.583
  378.964   92.345    0.265    0.523    5.240
  379.214   89.117    0.280    0.525    5.828
  379.464   87.510    0.306    0.532    6.245
  379.714   92.031    0.317    0.526    6.562
  379.964   94.849    0.325    0.513    6.735
  380.214   91.519    0.318    0.501    6.711
  380.464   90.265    0.315    0.514    6.856
  380.714   90.680    0.310    0.521    6.840
  380.964   92.876    0.300    0.516    6.821
  381.214   91.552    0.281    0.518    6.970
  381.464   92.360    0.282    0.518    6.954
  381.714   92.053    0.278    0.533    7.039
  381.964   89.192    0.273    0.541    7.064
  382.214   85.755    0.268    0.529    7.198
  382.464   84.709    0.246    0.504    7.182
  382.714   84.570    0.238    0.491    7.341
  382.964   85.600    0.258    0.489    7.315
  383.214   87.043    0.281    0.502    7.469
  383.464   89.968    0.277    0.511    7.453
  383.714   92.247    0.280    0.504    7.454
  383.964   95.653    0.292    0.498    7.183
  384.214   96.500    0.305    0.502    7.039
  384.464   97.457    0.276    0.500    6.916
  384.714   99.632    0.256    0.516    6.777
  384.964  103.027    0.249    0.525    6.657
  385.214  106.037    0.257    0.538    6.669
  385.464  106.874    0.249    0.529    6.524
  385.714  101.517    0.246    0.525    6.413
  385.964   98.117    0.261    0.516    6.342
  386.214   96.442    0.269    0.507    6.290
  386.464   98.579    0.253    0.501    6.189
  386.714  100.344    0.236    0.498    6.040
  386.964  100.537    0.238    0.498    6.039
  387.214  101.350    0.258    0.497    5.919
  387.464  104.133    0.252    0.509    6.052
  387.714  105.378    0.262    0.521    6.038
  387.964  107.068    0.263    0.538    6.036
  388.214  106.051    0.250    0.551    6.040
  388.464  102.969    0.238    0.528    5.923
  388.714  102.616    0.227    0.517    5.920
  388.964  102.692    0.258    0.515    5.922
  389.214  100.539    0.248    0.512    5.723
  389.464  101.978    0.242    0.496    5.586
  389.714  104.205    0.236    0.489    5.587
  389.964  101.638    0.248    0.507    5.596
  390.214   98.079    0.248    0.514    5.514
  390.464   97.568    0.228    0.516    5.578
  390.714   98.721    0.231    0.516    5.578
  390.964   99.995    0.240    0.513    5.574
  391.214   99.180    0.248    0.490    5.571
  391.464   97.417    0.255    0.480    5.566
  391.714   95.044    0.283    0.480    5.547
  391.964   90.743    0.306    0.495    5.365
  392.214   92.923    0.343    0.572    5.311
  392.464   95.375    0.328    0.563    5.129
  392.714   97.098    0.274    0.536    4.903
  392.964   98.148    0.284    0.518    4.644
  393.214   96.785    0.290    0.534    4.100
  393.464   97.412    0.270    0.552    3.709
  393.714   95.915    0.307    0.596    3.309
  393.964   96.021    0.303    0.613    2.904
  394.214   94.310    0.331    0.623    2.501
  394.464   95.408    0.336    0.629    2.167
  394.714   99.090    0.331    0.627    2.020
  394.964   92.049    0.324    0.630    2.015
  395.214   90.085    0.348    0.632    2.124
  395.464   92.764    0.360    0.633    2.407
  395.714   93.718    0.291    0.654    2.627
  395.964   91.584    0.256    0.518    2.996
  396.214   89.080    0.241    0.507    3.317
  396.464   89.059    0.250    0.515    3.786
  396.714   94.803    0.251    0.520    4.123
  396.964   90.251    0.256    0.524    4.432
  397.214   86.455    0.231    0.508    4.694
  397.464   83.860    0.209    0.515    4.927
  397.714   85.466    0.205    0.537    5.201
  397.964   81.332    0.244    0.498    5.423
  398.214   73.270    0.234    0.466    5.487
  398.464   69.539    0.235    0.481    5.599
  398.714   65.685    0.282    0.480    5.589
  398.964   65.696    0.323    0.482    5.501
  399.214   66.630    0.331    0.484    5.381
  399.464   67.594    0.332    0.465    5.270
  399.714   68.578    0.326    0.452    5.354
  399.964   69.705    0.314    0.440    5.338
  400.214   72.400    0.325    0.454    5.173
  400.464   72.826    0.326    0.465    5.125
  400.714   69.828    0.319    0.474    4.876
  400.964   68.049    0.317    0.483    4.890
  401.214   68.518    0.331    0.495    4.891
  401.464   70.727    0.337    0.503    4.903
  401.714   71.594    0.342    0.507    5.051
  401.964   71.614    0.347    0.499    5.320
  402.214   71.620    0.343    0.489    5.345
  402.464   71.589    0.333    0.474    5.343
  402.714   71.230    0.330    0.472    5.342
  402.964   72.296    0.333    0.479    5.344
  403.214   73.188    0.326    0.489    5.436
  403.464   73.860    0.310    0.494    5.395
  403.714   72.752    0.325    0.495    5.328
  403.964   73.123    0.332    0.492    5.219
  404.214   74.135    0.331    0.492    5.200
  404.464   75.079    0.332    0.507    5.132
  404.714   74.366    0.328    0.519    5.022
  404.964   72.446    0.322    0.519    5.014
  405.214   69.766    0.319    0.510    4.934
  405.464   69.672    0.318    0.503    4.937
  405.714   69.573    0.315    0.500    4.943
  405.964   67.130    0.312    0.493    5.010
  406.214   63.872    0.299    0.483    5.257
  406.464   62.365    0.287    0.471    5.520
  406.714   62.485    0.269    0.396    5.992
  406.964   61.806    0.210    0.271    6.545
  407.214   60.586    0.111    0.240    8.344
  407.464   58.863    0.084    0.217    9.909
  407.714   56.602    0.079    0.202   11.917
  407.964   55.201    0.076    0.193   13.621
  408.214   53.689    0.060    0.192   14.472
  408.464   55.303    0.052    0.217   15.803
  408.714   57.849    0.070    0.256   12.306
  408.964   60.947    0.093    0.315    9.437
  409.214   64.223    0.128    0.370    7.556
  409.464   67.362    0.253    0.440    6.664
  409.714   68.576    0.294    0.469    5.780
  409.964   68.260    0.300    0.470    5.256
  410.214   66.173    0.311    0.472    5.038
  410.464   65.995    0.321    0.478    5.290
  410.714   70.511    0.331    0.480    5.537
  410.964   72.176    0.333    0.476    5.834
  411.214   71.921    0.334    0.474    5.876
  411.464   67.857    0.324    0.470    5.963
  411.714   66.054    0.318    0.473    5.901
  411.964   69.700    0.316    0.480    5.837
  412.214   73.160    0.321    0.480    5.731
  412.464   73.564    0.331    0.472    5.690
  412.714   71.150    0.331    0.484    5.630
  412.964   71.615    0.325    0.481    5.615
  413.214   70.061    0.297    0.465    5.761
  413.464   65.141    0.270    0.377    6.044
  413.714   63.728    0.117    0.287    6.624
