~VERSION INFORMATION
 VERS.                 2.0:   CWLS LOG ASCII STANDARD -VERSION 2.0
 WRAP.                  NO:   ONE LINE PER DEPTH STEP
~WELL INFORMATION BLOCK
#MNEM.UNIT           DATA                    DESCRIPTION OF MNEMONIC
#---------    -------------------            -------------------------------
# Generated from Intellog Unique Number	CS_67_68/WELL/2161
WELL.         BVX et al TWEEDIE              : Well_name    - WELL
LOC .         00/03-06-067-11W4/0            : Location     - LOCATION
UWI .         00/03-06-067-11W4/0            : Uwi          - UNIQUE WELL ID
ENTR.         SP                             : Entered      - ENTERED BY
SRVC.         SCHLUMBERGER                   : Scn          - SERVICE COMPANY
STRT.M        365                            : top_depth    - START DEPTH
STOP.M        564                            : bot_depth    - STOP DEPTH
STEP.M        0.25                           : increment    - STEP LENGTH
 NULL. -999.2500:NULL Value
~CURVE INFORMATION BLOCK
#MNEM UNIT       ERCB CURVE CODE    CURVE DESCRIPTION
#-----------   ------------------   ----------------------------------
DEPT.M        00 001 00 00         : DEPTH        - DEPTH
ILD .OHMM     00 120 00 00         : RESD         - DEEP RESISTIVITY (DIL)
DPHI.V/V      00 890 00 00         : PHID         - DENSITY POROSITY (LIMESTONE)
NPHI.V/V      00 330 00 00         : PHIN         - NEUTRON POROSITY (LIMESTONE)
GR  .API      00 310 00 00         : GR           - GAMMA RAY
CALI.MM       00 280 01 00         : CAL          - CALIPER
~PARAMETER INFORMATION
#MNEM.UNIT           DATA             DESCRIPTION OF MNEMONIC
#---------         -----------     ------------------------------
GL  .M        643.48               : gl           - GROUND LEVEL ELEVATION
EREF.M        647.88               : kb           - ELEVATION OF DEPTH REFERENCE
DATM.M        647.88               : datum        - DATUM ELEVATION
TDD .M        563.2                : tdd          - TOTAL DEPTH DRILLER
RUN .         ONE                  : Run          - RUN NUMBER
ENG .         BILL                 : Engineer     - RECORDING ENGINEER
WIT .         JIM                  : Witness      - WITNESSED BY
MUD .         GEL                  : Mud_type     - MUD TYPE
MATR.         LIMESTONE            : Logunit      - NEUTRON MATRIX
TMAX.C        30                   : BHT          - MAXIMUM RECORDED TEMPERATURE
BHTD.M        562                  : BHTDEP       - MAXIMUM RECORDED TEMPERATURE
MATR.         1                    : LOGUNIT      - NEUTRON MATRIX
RMT .C        25                   : MDTP         - TEMPERATURE OF MUD
NEUT.         1                    : NEUTRON      - NEUTRON TYPE
RESI.         0                    : RESIST       - RESISTIVITY TYPE
RMC .OHMM     0.25                 : RMC          - RESISTIVITY OF MUD CAKE
RMF .OHMM     0.25                 : RMF          - RESISTIVITY OF MUD FILTRATE
SUFT.C        15                   : SUFT         - SURFACE TEMPERATURE
~A  DEPTH     RESD     PHID     PHIN       GR      CAL
# ...
  474.500    2.651    0.227    0.383   87.084  145.999
  474.750    2.469    0.246    0.361   77.854  147.342
  475.000    2.191    0.259    0.328   68.868  148.880
  475.250    1.943    0.284    0.314   59.700  151.234
  475.500    1.773    0.307    0.305   59.348  152.975
  475.750    1.686    0.311    0.319   63.130  148.944
  476.000    1.624    0.324    0.337   65.392  145.518
  476.250    1.632    0.322    0.374   69.480  142.904
  476.500    1.641    0.298    0.412   72.349  140.696
  476.750    1.659    0.283    0.434   70.051  140.012
  477.000    1.675    0.295    0.439   64.409  142.258
  477.250    1.675    0.307    0.405   60.287  144.712
  477.500    1.687    0.321    0.396   60.544  145.139
  477.750    1.754    0.304    0.380   62.562  144.755
  478.000    1.848    0.286    0.368   62.150  144.168
  478.250    1.958    0.272    0.358   61.006  143.685
  478.500    2.051    0.253    0.353   60.472  144.210
  478.750    2.129    0.239    0.356   61.824  144.737
  479.000    2.140    0.231    0.343   64.267  142.529
  479.250    2.112    0.250    0.331   66.712  137.788
  479.500    2.057    0.263    0.347   68.487  133.147
  479.750    2.026    0.271    0.364   68.926  129.519
  480.000    2.015    0.271    0.372   72.346  131.266
  480.250    2.022    0.275    0.374   74.910  133.109
  480.500    2.083    0.280    0.364   78.267  136.069
  480.750    2.170    0.289    0.366   81.989  140.246
  481.000    2.290    0.289    0.368   86.988  144.427
  481.250    2.459    0.267    0.384   84.811  146.774
  481.500    2.704    0.249    0.377   78.501  148.720
  481.750    3.163    0.216    0.323   73.891  150.361
  482.000    3.651    0.178    0.232   71.108  152.512
  482.250    4.417    0.142    0.201   69.236  155.067
  482.500    7.191    0.030    0.168   68.032  156.810
  482.750    8.682    0.014    0.154   67.011  158.557
  483.000    9.147    0.007    0.149   67.267  159.385
  483.250    8.146    0.071    0.191   77.981  159.407
  483.500    6.807    0.133    0.279   86.142  158.616
  483.750    5.807    0.170    0.320   91.808  158.132
  484.000    5.019    0.182    0.343   92.430  157.747
  484.250    4.545    0.172    0.341   91.043  157.260
  484.500    4.435    0.165    0.333   94.460  156.980
  484.750    4.385    0.168    0.326   96.055  156.292
  485.000    4.368    0.182    0.322   99.532  155.805
  485.250    4.318    0.192    0.328  103.924  156.336
  485.500    4.262    0.186    0.332  103.632  156.961
  485.750    4.206    0.179    0.333  100.726  158.099
  486.000    4.119    0.169    0.348   93.323  159.334
  486.250    4.096    0.163    0.366   88.956  161.891
  486.500    4.118    0.179    0.367   86.840  162.720
  486.750    4.179    0.186    0.306   83.813  161.018
  487.000    4.234    0.180    0.270   78.780  157.898
  487.250    4.209    0.127    0.253   77.089  155.389
  487.500    4.069    0.150    0.256   91.087  156.524
  487.750    3.986    0.178    0.297   97.726  157.860
  488.000    3.933    0.202    0.365  102.543  157.580
  488.250    3.838    0.189    0.359  106.325  156.788
  488.500    3.852    0.174    0.341  110.290  156.403
  488.750    3.859    0.161    0.341  109.938  156.628
  489.000    3.865    0.163    0.345  103.019  156.953
  489.250    3.894    0.169    0.340   92.695  154.745
  489.500    3.871    0.172    0.341   96.295  151.927
  489.750    3.849    0.175    0.356  110.354  149.110
  490.000    3.813    0.184    0.373  110.247  147.410
  490.250    3.741    0.197    0.381  107.703  147.633
  490.500    3.671    0.206    0.384   99.994  149.681
  490.750    3.678    0.186    0.368   91.130  152.441
  491.000    3.739    0.151    0.360   85.912  154.286
  491.250    3.774    0.119    0.355   90.913  155.828
  491.500    3.773    0.146    0.351   99.862  156.355
  491.750    3.766    0.169    0.348  106.077  156.070
  492.000    3.744    0.188    0.340  111.562  155.383
  492.250    3.716    0.196    0.331  116.743  154.795
  492.500    3.674    0.200    0.322  114.568  155.425
  492.750    3.558    0.206    0.314  111.782  156.965
  493.000    3.339    0.206    0.335  106.748  158.609
  493.250    3.057    0.209    0.347  112.172  159.847
  493.500    2.816    0.216    0.372  118.995  159.974
  493.750    2.588    0.227    0.385  113.657  159.889
  494.000    2.370    0.219    0.393  108.380  159.808
  494.250    2.208    0.208    0.383  113.320  158.615
  494.500    2.060    0.203    0.373  111.141  158.429
  494.750    1.915    0.196    0.375  106.960  157.844
  495.000    1.824    0.214    0.397  103.505  158.067
  495.250    1.737    0.232    0.417  104.917  158.191
  495.500    1.701    0.230    0.414  106.571  157.704
  495.750    1.806    0.220    0.396  108.225  159.650
  496.000    1.938    0.213    0.391  109.393  162.611
  496.250    2.073    0.207    0.408  107.523  161.925
  496.500    2.217    0.201    0.391  106.135  159.416
  496.750    2.366    0.198    0.365  110.589  157.609
  497.000    2.460    0.200    0.346  113.639  156.208
  497.250    2.548    0.195    0.326  113.773  155.521
  497.500    2.563    0.188    0.343  106.672  161.825
  497.750    2.625    0.190    0.359   98.477  166.510
  498.000    2.792    0.190    0.366  102.441  168.455
  498.250    3.019    0.178    0.374  105.555  168.880
  498.500    3.283    0.154    0.362  102.405  169.005
  498.750    3.491    0.108    0.349  100.413  167.811
  499.000    3.678    0.082    0.340  104.620  166.715
  499.250    3.803    0.097    0.329  109.254  166.329
  499.500    3.831    0.131    0.324  109.813  166.149
  499.750    3.823    0.159    0.341  104.962  166.069
  500.000    3.752    0.178    0.344  101.448  164.772
  500.250    3.737    0.178    0.333   94.896  162.665
  500.500    3.800    0.164    0.328   89.314  160.355
  500.750    3.785    0.143    0.332   87.744  159.161
  501.000    4.249    0.130    0.341   88.426  158.777
  501.250    4.519    0.110    0.321   88.985  158.091
  501.500    4.518    0.122    0.301   90.823  157.401
  501.750    4.352    0.147    0.286   93.025  156.610
  502.000    4.114    0.172    0.291   93.766  155.518
  502.250    3.977    0.181    0.325   89.948  155.639
  502.500    3.917    0.177    0.342   93.853  156.370
  502.750    3.939    0.170    0.360   97.392  158.215
  503.000    3.960    0.164    0.347  101.540  160.567
  503.250    3.989    0.161    0.335  100.823  162.006
  503.500    3.996    0.158    0.349   96.519  162.535
  503.750    3.966    0.157    0.365   92.638  162.048
  504.000    3.863    0.156    0.366   90.645  160.448
  504.250    3.763    0.194    0.380   90.354  158.141
  504.500    3.638    0.194    0.387   99.671  155.933
  504.750    3.761    0.195    0.393  105.945  154.736
  505.000    4.294    0.183    0.326  104.500  153.235
  505.250    4.767    0.169    0.242  102.201  157.919
  505.500    5.766    0.146    0.213   70.778  160.270
  505.750    6.377    0.093    0.192   62.642  160.190
  506.000    6.871    0.060    0.178   55.176  158.390
  506.250    7.225    0.028    0.176   54.155  156.183
  506.500    6.716    0.017    0.236   65.416  154.581
  506.750    5.561    0.104    0.298   86.528  153.080
  507.000    4.842    0.142    0.328  103.931  153.101
  507.250    4.200    0.173    0.350  109.233  154.849
  507.500    4.053    0.196    0.351  107.422  156.388
  507.750    4.091    0.200    0.338  103.847  158.132
  508.000    4.261    0.194    0.327   97.597  159.671
  508.250    4.481    0.206    0.331  100.649  161.113
  508.500    4.642    0.200    0.323  102.426  161.843
  508.750    4.800    0.195    0.314  103.594  162.268
  509.000    4.817    0.182    0.306  100.566  162.492
  509.250    4.736    0.170    0.296  104.959  162.310
  509.500    4.674    0.156    0.286  103.631  161.927
  509.750    4.673    0.138    0.285   90.632  161.848
  510.000    4.716    0.113    0.291   89.977  163.184
  510.250    4.769    0.174    0.316   96.253  165.334
  510.500    4.680    0.178    0.353   94.989  166.672
  510.750    4.113    0.184    0.352   93.057  167.605
