~VERSION INFORMATION
 VERS.                 2.0:   CWLS LOG ASCII STANDARD -VERSION 2.0
 WRAP.                  NO:   ONE LINE PER DEPTH STEP
~WELL INFORMATION BLOCK
#MNEM.UNIT           DATA                    DESCRIPTION OF MNEMONIC
#---------    -------------------            -------------------------------
# Generated from Intellog Unique Number	CS_69_70/WELL/714
NULL.         -999.25                        : NULL_VALUE
WELL.         ET AL TWEEDIE                  : Well_name    - WELL              
LOC .         00/06-05-070-13W4/0            : Location     - LOCATION          
UWI .         00/06-05-070-13W4/0            : Uwi          - UNIQUE WELL ID    
ENTR.         SP                             : Entered      - ENTERED BY        
SRVC.         SCHLUMBERGER                   : Scn          - SERVICE COMPANY   
STRT.M        275                            : top_depth    - START DEPTH       
STOP.M        520                            : bot_depth    - STOP DEPTH        
STEP.M        0.25                           : increment    - STEP LENGTH       
~CURVE INFORMATION BLOCK
#MNEM UNIT       ERCB CURVE CODE    CURVE DESCRIPTION
#-----------   ------------------   ----------------------------------
DEPT.M        00 001 00 00         : DEPTH        - DEPTH                       
ILD .OHMM     00 120 00 00         : RESD         - DEEP RESISTIVITY (DIL)      
DPHI.V/V      00 890 00 00         : PHID         - DENSITY POROSITY (LIMESTONE)
NPHI.V/V      00 330 00 00         : PHIN         - NEUTRON POROSITY (LIMESTONE)
GR  .API      00 310 00 00         : GR           - GAMMA RAY                   
~PARAMETER INFORMATION       
#MNEM.UNIT           DATA             DESCRIPTION OF MNEMONIC
#---------         -----------     ------------------------------
GL  .M        577.2                : gl           - GROUND LEVEL ELEVATION      
EREF.M        581.1                : kb           - ELEVATION OF DEPTH REFERENCE
DATM.M        577.2                : datum        - DATUM ELEVATION             
TDD .M        528                  : tdd          - TOTAL DEPTH DRILLER         
RUN .         ONE                  : Run          - RUN NUMBER                  
ENG .         BILL                 : Engineer     - RECORDING ENGINEER          
WIT .         JIM                  : Witness      - WITNESSED BY                
MUD .         GEL                  : Mud_type     - MUD TYPE                    
MATR.         LIMESTONE            : Logunit      - NEUTRON MATRIX              
TMAX.C        23                   : BHT          - MAXIMUM RECORDED TEMPERATURE
BHTD.M        528                  : BHTDEP       - MAXIMUM RECORDED TEMPERATURE
MATR.         1                    : LOGUNIT      - NEUTRON MATRIX              
RMT .C        25                   : MDTP         - TEMPERATURE OF MUD          
NEUT.         1                    : NEUTRON      - NEUTRON TYPE                
RESI.         0                    : RESIST       - RESISTIVITY TYPE            
RMC .OHMM     0.25                 : RMC          - RESISTIVITY OF MUD CAKE     
RMF .OHMM     0.25                 : RMF          - RESISTIVITY OF MUD FILTRATE 
SUFT.C        15                   : SUFT         - SURFACE TEMPERATURE         
~A  DEPTH     RESD     PHID     PHIN       GR
  275.000    2.590    0.235    0.418   93.287
  275.250    2.506    0.250    0.438   89.577
  275.500    2.433    0.261    0.459   86.947
  275.750    2.398    0.269    0.476   88.693
  276.000    2.404    0.273    0.469   93.977
  276.250    2.460    0.270    0.471  100.040
  276.500    2.564    0.264    0.450  101.008
  276.750    2.633    0.259    0.439   98.078
  277.000    2.674    0.249    0.431   96.705
  277.250    2.705    0.239    0.416   96.234
  277.500    2.707    0.244    0.401   95.583
  277.750    2.653    0.251    0.422   94.810
  278.000    2.581    0.256    0.448   93.918
  278.250    2.525    0.248    0.451   94.226
  278.500    2.512    0.259    0.426   94.473
  278.750    2.551    0.273    0.410   92.922
  279.000    2.581    0.265    0.397   89.693
  279.250    2.493    0.245    0.383   87.182
  279.500    2.394    0.219    0.376   83.412
  279.750    2.449    0.285    0.439   82.581
  280.000    2.563    0.322    0.442   88.644
  280.250    2.778    0.348    0.452   90.510
  280.500    2.884    0.359    0.488   83.083
  280.750    2.897    0.363    0.462   74.039
  281.000    2.808    0.320    0.438   65.232
  281.250    2.707    0.300    0.371   56.726
  281.500    2.565    0.320    0.349   49.121
  281.750    2.423    0.326    0.337   43.733
  282.000    2.344    0.310    0.330   39.963
  282.250    2.293    0.298    0.329   38.052
  282.500    2.342    0.294    0.331   42.916
  282.750    2.459    0.290    0.339   49.638
  283.000    2.736    0.276    0.346   55.702
  283.250    2.944    0.261    0.348   62.603
  283.500    3.263    0.249    0.347   71.844
  283.750    3.537    0.248    0.346   79.765
  284.000    3.735    0.251    0.344   82.470
  284.250    3.900    0.254    0.348   84.397
  284.500    4.005    0.251    0.355   87.642
  284.750    4.121    0.249    0.356   90.827
  285.000    4.177    0.241    0.355   92.514
  285.250    4.187    0.225    0.359   92.161
  285.500    4.150    0.208    0.361   91.750
  285.750    4.098    0.202    0.361   96.913
  286.000    4.062    0.224    0.361  103.575
  286.250    4.034    0.253    0.369  106.340
  286.500    3.999    0.264    0.375  102.512
  286.750    4.038    0.258    0.367  101.319
  287.000    4.070    0.243    0.357   98.330
  287.250    4.027    0.257    0.360   93.900
  287.500    3.933    0.272    0.365   90.311
  287.750    3.728    0.284    0.361   88.640
  288.000    3.607    0.291    0.366   87.988
  288.250    3.535    0.294    0.370   80.981
  288.500    3.504    0.297    0.365   76.612
  288.750    3.513    0.287    0.359   79.198
  289.000    3.469    0.282    0.355   83.163
  289.250    3.406    0.274    0.351   78.014
  289.500    3.358    0.271    0.348   72.627
  289.750    3.435    0.275    0.350   71.555
  290.000    3.587    0.266    0.354   77.198
  290.250    3.719    0.260    0.358   80.802
  290.500    3.819    0.244    0.351   81.051
  290.750    3.958    0.236    0.346   84.237
  291.000    4.195    0.232    0.344   86.102
  291.250    4.349    0.222    0.347   87.488
  291.500    4.351    0.223    0.356   87.016
  291.750    4.155    0.236    0.351   89.602
  292.000    3.809    0.259    0.348   91.528
  292.250    3.517    0.279    0.382   90.037
  292.500    3.200    0.296    0.425   91.483
  292.750    2.874    0.323    0.449   94.129
  293.000    2.576    0.335    0.462   96.894
  293.250    2.292    0.347    0.479   99.300
  293.500    2.185    0.348    0.497   96.190
  293.750    2.261    0.332    0.441   89.303
  294.000    2.487    0.321    0.397   83.555
  294.250    2.641    0.316    0.386   77.928
  294.500    2.815    0.326    0.381   77.035
  294.750    2.951    0.323    0.377   80.041
  295.000    3.081    0.309    0.372   80.709
  295.250    3.212    0.298    0.369   80.537
  295.500    3.311    0.285    0.371   81.143
  295.750    3.400    0.283    0.372   83.728
  296.000    3.433    0.286    0.370   82.718
  296.250    3.467    0.285    0.376   79.487
  296.500    3.495    0.269    0.365   74.819
  296.750    3.509    0.257    0.357   70.630
  297.000    3.524    0.251    0.354   67.220
  297.250    3.559    0.251    0.362   62.850
  297.500    3.601    0.253    0.365   69.273
  297.750    3.677    0.260    0.358   79.773
  298.000    3.727    0.249    0.361   86.375
  298.250    3.750    0.248    0.365   90.340
  298.500    3.780    0.252    0.361   93.885
  298.750    3.803    0.254    0.363   97.309
  299.000    3.826    0.256    0.370   98.636
  299.250    3.814    0.225    0.380   99.243
  299.500    3.711    0.206    0.391  100.390
  299.750    3.557    0.196    0.401  102.196
  300.000    3.340    0.185    0.409  104.302
  300.250    3.166    0.195    0.383  105.689
  300.500    3.052    0.192    0.388  105.996
  300.750    3.031    0.191    0.407  108.882
  301.000    3.177    0.191    0.421  111.347
  301.250    3.393    0.203    0.414  113.394
  301.500    3.603    0.217    0.393  113.882
  301.750    3.804    0.224    0.391  113.650
  302.000    3.973    0.229    0.375  114.856
  302.250    4.065    0.243    0.364  110.486
  302.500    3.867    0.260    0.357  103.360
  302.750    3.519    0.281    0.352   95.513
  303.000    3.311    0.300    0.356   86.588
  303.250    3.185    0.317    0.362   79.881
  303.500    3.087    0.325    0.366   80.128
  303.750    3.026    0.314    0.369   81.634
  304.000    3.045    0.304    0.363   81.163
  304.250    3.109    0.297    0.358   79.611
  304.500    3.199    0.279    0.360   86.634
  304.750    3.298    0.264    0.366   94.675
  305.000    3.374    0.247    0.367   98.040
  305.250    3.407    0.239    0.364   99.606
  305.500    3.396    0.241    0.359   95.717
  305.750    3.335    0.255    0.360   90.928
  306.000    3.221    0.275    0.371   85.780
  306.250    3.047    0.301    0.386   78.653
  306.500    2.921    0.316    0.391   69.968
  306.750    2.831    0.327    0.393   66.018
  307.000    2.827    0.320    0.390   68.484
  307.250    2.866    0.313    0.386   70.650
  307.500    2.954    0.307    0.377   73.056
  307.750    3.073    0.299    0.370   78.759
  308.000    3.276    0.289    0.366   87.340
  308.250    3.446    0.243    0.363   95.022
  308.500    3.680    0.237    0.357   97.727
  308.750    3.851    0.238    0.358   97.375
  309.000    3.947    0.234    0.350   92.707
  309.250    4.038    0.233    0.346   90.736
  309.500    4.101    0.234    0.347   92.122
  309.750    4.118    0.224    0.358   94.948
  310.000    4.128    0.228    0.362   97.772
  310.250    4.107    0.241    0.378   99.399
  310.500    4.048    0.258    0.393   98.869
  310.750    3.895    0.275    0.392   97.197
  311.000    3.825    0.290    0.375   94.626
  311.250    3.701    0.302    0.378   91.096
  311.500    3.580    0.314    0.389   90.265
  311.750    3.451    0.325    0.386   92.670
  312.000    3.308    0.327    0.380   96.455
  312.250    3.225    0.321    0.381   98.561
  312.500    3.202    0.310    0.395   98.628
  312.750    3.246    0.298    0.401   95.639
  313.000    3.266    0.292    0.403   91.989
  313.250    3.231    0.297    0.402   88.819
  313.500    3.109    0.309    0.393   88.767
  313.750    2.969    0.311    0.382   88.655
  314.000    2.814    0.309    0.369   86.025
  314.250    2.758    0.321    0.363   82.135
  314.500    2.749    0.331    0.369   78.066
  314.750    2.797    0.343    0.379   74.656
  315.000    2.873    0.358    0.378   71.906
  315.250    2.978    0.340    0.372   70.594
  315.500    3.092    0.321    0.373   72.341
  315.750    3.253    0.305    0.367   74.387
  316.000    3.403    0.291    0.367   76.853
  316.250    3.567    0.279    0.360   78.899
  316.500    3.691    0.272    0.354   79.865
  316.750    3.776    0.263    0.351   80.533
  317.000    3.835    0.255    0.350   80.180
  317.250    3.794    0.275    0.350   78.989
  317.500    3.719    0.302    0.350   75.400
  317.750    3.625    0.319    0.357   71.930
  318.000    3.507    0.334    0.361   68.820
  318.250    3.393    0.341    0.365   67.689
