~VERSION INFORMATION
 VERS.                 2.0:   CWLS LOG ASCII STANDARD -VERSION 2.0
 WRAP.                  NO:   ONE LINE PER DEPTH STEP
~WELL INFORMATION BLOCK
#MNEM.UNIT           DATA                    DESCRIPTION OF MNEMONIC
#---------    -------------------            -------------------------------
# Generated from Intellog Unique Number	CS_77_79/WELL/838
WELL.         CANADIAN WORLDWIDE ENERGY      : Well_name    - WELL
LOC .         00/02-14-077-04W4/0            : Location     - LOCATION
UWI .         00/02-14-077-04W4/0            : Uwi          - UNIQUE WELL ID
ENTR.         SP                             : Entered      - ENTERED BY
SRVC.         SCHLUMBERGER                   : Scn          - SERVICE COMPANY
STRT.M        195                            : top_depth    - START DEPTH
STOP.M        470                            : bot_depth    - STOP DEPTH
STEP.M        0.25                           : increment    - STEP LENGTH
 NULL. -999.2500:NULL Value
~CURVE INFORMATION BLOCK
#MNEM UNIT       ERCB CURVE CODE    CURVE DESCRIPTION
#-----------   ------------------   ----------------------------------
DEPT.M        00 001 00 00         : DEPTH        - DEPTH
ILD .OHMM     00 120 00 00         : RESD         - DEEP RESISTIVITY (DIL)
DPHI.V/V      00 890 00 00         : PHID         - DENSITY POROSITY (LIMESTONE)
NPHI.V/V      00 330 00 00         : PHIN         - NEUTRON POROSITY (LIMESTONE)
GR  .API      00 310 00 00         : GR           - GAMMA RAY
~PARAMETER INFORMATION
#MNEM.UNIT           DATA             DESCRIPTION OF MNEMONIC
#---------         -----------     ------------------------------
GL  .M        572.1                : gl           - GROUND LEVEL ELEVATION
EREF.M        575.75               : kb           - ELEVATION OF DEPTH REFERENCE
DATM.M        572.1                : datum        - DATUM ELEVATION
TDD .M        471.9                : tdd          - TOTAL DEPTH DRILLER
RUN .         ONE                  : Run          - RUN NUMBER
ENG .         BILL                 : Engineer     - RECORDING ENGINEER
WIT .         JIM                  : Witness      - WITNESSED BY
MUD .         GEL                  : Mud_type     - MUD TYPE
MATR.         LIMESTONE            : Logunit      - NEUTRON MATRIX
TMAX.C        25                   : BHT          - MAXIMUM RECORDED TEMPERATURE
BHTD.M        471.9                : BHTDEP       - MAXIMUM RECORDED TEMPERATURE
MATR.         1                    : LOGUNIT      - NEUTRON MATRIX
RMT .C        25                   : MDTP         - TEMPERATURE OF MUD
NEUT.         1                    : NEUTRON      - NEUTRON TYPE
RESI.         0                    : RESIST       - RESISTIVITY TYPE
RMC .OHMM     0.25                 : RMC          - RESISTIVITY OF MUD CAKE
RMF .OHMM     0.25                 : RMF          - RESISTIVITY OF MUD FILTRATE
SUFT.C        15                   : SUFT         - SURFACE TEMPERATURE
~A  DEPTH     RESD     PHID     PHIN       GR
# ...
  369.000    5.385    0.270    0.387   63.476
  369.250    5.288    0.265    0.392   71.596
  369.500    5.001    0.260    0.389   77.218
  369.750    4.643    0.267    0.381   67.290
  370.000    4.390    0.281    0.367   54.241
  370.250    4.231    0.291    0.346   43.067
  370.500    4.077    0.298    0.330   38.109
  370.750    4.004    0.292    0.326   46.848
  371.000    3.933    0.281    0.323   69.283
  371.250    3.936    0.267    0.319   84.864
  371.500    3.940    0.255    0.314   95.467
  371.750    3.870    0.242    0.309   79.942
  372.000    3.874    0.250    0.309   69.380
  372.250    3.879    0.278    0.311   47.000
  372.500    3.736    0.289    0.316   40.801
  372.750    3.811    0.288    0.320   33.984
  373.000    3.816    0.296    0.320   30.269
  373.250    3.821    0.293    0.315   39.639
  373.500    3.824    0.276    0.304   48.369
  373.750    3.827    0.255    0.297   73.287
  374.000    3.830    0.255    0.300   78.297
  374.250    3.760    0.275    0.307   67.738
  374.500    3.626    0.303    0.316   39.755
  374.750    3.560    0.313    0.319   31.689
  375.000    3.496    0.302    0.319   28.602
  375.250    3.433    0.293    0.320   30.505
  375.500    3.374    0.290    0.320   32.398
  375.750    3.313    0.290    0.322   34.283
  376.000    3.315    0.297    0.322   36.172
  376.250    3.318    0.304    0.323   36.823
  376.500    3.323    0.324    0.328   36.223
  376.750    3.325    0.334    0.329   36.874
  377.000    3.328    0.304    0.330   34.407
  377.250    3.269    0.309    0.334   28.215
  377.500    3.272    0.315    0.336   26.991
  377.750    3.274    0.316    0.325   28.263
  378.000    3.341    0.306    0.315   30.171
  378.250    3.344    0.295    0.319   31.434
  378.500    3.346    0.293    0.323   32.065
  378.750    3.349    0.306    0.326   30.846
  379.000    3.416    0.318    0.325   29.003
  379.250    3.420    0.323    0.323   30.274
  379.500    3.359    0.309    0.323   33.412
  379.750    3.362    0.304    0.326   35.308
  380.000    3.365    0.305    0.327   37.201
  380.250    3.433    0.297    0.322   35.973
  380.500    3.436    0.287    0.317   32.890
  380.750    3.438    0.286    0.313   27.937
  381.000    3.441    0.291    0.307   27.336
  381.250    3.446    0.288    0.306   32.964
  381.500    3.448    0.286    0.306   41.702
  381.750    3.451    0.285    0.309   44.215
  382.000    3.454    0.293    0.309   41.750
  382.250    3.459    0.302    0.309   40.532
  382.500    3.462    0.313    0.310   38.689
  382.750    3.465    0.318    0.314   33.738
  383.000    3.468    0.320    0.320   31.274
  383.250    3.471    0.324    0.324   29.434
  383.500    3.408    0.324    0.329   27.587
  383.750    3.412    0.322    0.332   26.994
  384.000    3.352    0.322    0.336   29.505
  384.250    3.355    0.326    0.338   37.622
  384.500    3.357    0.326    0.340   35.155
  384.750    3.359    0.316    0.336   32.073
  385.000    3.365    0.300    0.323   28.981
  385.250    3.367    0.278    0.314   30.890
  385.500    3.369    0.293    0.313   32.156
  385.750    3.309    0.307    0.336   34.040
  386.000    3.251    0.311    0.337   36.557
  386.250    3.254    0.306    0.337   39.072
  386.500    3.196    0.302    0.345   40.355
  386.750    3.199    0.302    0.351   40.371
  387.000    3.142    0.305    0.350   40.385
  387.250    3.086    0.311    0.343   39.788
  387.500    3.088    0.315    0.341   40.434
  387.750    3.091    0.318    0.339   37.970
  388.000    3.093    0.319    0.325   32.396
  388.250    3.040    0.325    0.326   33.042
  388.500    2.986    0.335    0.347   38.048
  388.750    2.988    0.336    0.355   38.704
  389.000    2.990    0.335    0.360   37.473
  389.250    2.992    0.335    0.364   33.770
  389.500    2.940    0.334    0.350   35.656
  389.750    2.887    0.334    0.337   42.528
  390.000    2.891    0.333    0.331   52.510
  390.250    2.839    0.336    0.341   55.646
  390.500    2.841    0.346    0.349   50.076
  390.750    2.843    0.347    0.351   48.227
  391.000    2.793    0.343    0.346   43.286
  391.250    2.795    0.341    0.342   41.441
  391.500    2.798    0.344    0.353   39.589
  391.750    2.800    0.347    0.360   34.022
  392.000    2.856    0.348    0.371   32.172
  392.250    2.858    0.345    0.369   32.826
  392.500    2.863    0.342    0.359   34.100
  392.750    2.865    0.338    0.353   35.360
  393.000    2.867    0.337    0.354   39.745
  393.250    2.924    0.336    0.355   41.637
  393.500    2.927    0.336    0.352   39.795
  393.750    2.986    0.331    0.343   40.443
  394.000    2.988    0.330    0.335   43.582
  394.250    3.048    0.328    0.329   42.357
  394.500    2.994    0.331    0.319   39.901
  394.750    2.996    0.333    0.335   39.294
  395.000    2.999    0.328    0.337   38.708
  395.250    2.946    0.329    0.343   38.099
  395.500    3.005    0.327    0.345   37.505
  395.750    3.008    0.321    0.345   35.662
  396.000    3.011    0.316    0.345   35.063
  396.250    3.014    0.326    0.348   35.711
  396.500    3.074    0.330    0.351   40.094
  396.750    3.076    0.326    0.351   46.339
  397.000    3.198    0.307    0.354   58.812
  397.250    3.201    0.293    0.341   63.816
  397.500    3.329    0.281    0.333   53.887
  397.750    3.332    0.275    0.329   42.088
  398.000    3.399    0.275    0.321   38.380
  398.250    3.339    0.280    0.317   36.538
  398.500    3.280    0.349    0.354   35.934
  398.750    3.282    0.377    0.369   39.699
  399.000    3.163    0.381    0.382   45.322
  399.250    3.164    0.369    0.385   40.992
  399.500    3.108    0.338    0.370   33.550
  399.750    3.052    0.338    0.351   31.714
  400.000    2.727    0.338    0.342   28.635
  400.250    2.889    0.339    0.338   28.029
  400.500    3.118    0.341    0.337   29.925
  400.750    3.630    0.327    0.336   37.410
  401.000    4.474    0.270    0.328   49.880
  401.250    5.016    0.224    0.321   69.820
  401.500    5.415    0.133    0.326   81.666
  401.750    5.628    0.157    0.336   81.068
  402.000    5.852    0.206    0.369   87.937
  402.250    5.855    0.200    0.375  101.647
  402.500    5.643    0.184    0.375  106.647
  402.750    5.439    0.170    0.374  109.160
  403.000    5.340    0.161    0.370  104.206
  403.250    5.050    0.185    0.377   98.623
  403.500    4.865    0.215    0.390  101.758
  403.750    4.689    0.231    0.386   99.289
  404.000    4.604    0.226    0.368   86.865
  404.250    4.787    0.234    0.360   76.306
  404.500    4.881    0.219    0.365   92.511
  404.750    5.073    0.203    0.363  108.093
  405.000    5.375    0.172    0.368  109.363
  405.250    5.379    0.189    0.371  103.158
  405.500    5.282    0.216    0.372   94.466
  405.750    5.288    0.205    0.367   89.520
  406.000    5.393    0.192    0.356   96.378
  406.250    5.501    0.179    0.350  104.491
  406.500    5.609    0.187    0.366  100.156
  406.750    5.723    0.199    0.375   95.200
  407.000    5.835    0.211    0.373   93.981
  407.250    5.953    0.204    0.368   98.979
  407.500    5.956    0.189    0.367   99.001
  407.750    5.962    0.183    0.367  100.898
  408.000    5.966    0.185    0.376  103.403
  408.250    5.970    0.185    0.383  107.780
  408.500    5.862    0.189    0.385  102.829
  408.750    5.545    0.197    0.384   96.622
  409.000    5.548    0.208    0.373   86.688
  409.250    5.450    0.219    0.359   87.331
  409.500    5.454    0.201    0.353  112.876
  409.750    5.669    0.185    0.367  117.249
  410.000    5.780    0.170    0.385  116.658
  410.250    6.125    0.155    0.385  115.428
  410.500    6.015    0.145    0.372  111.716
  410.750    5.905    0.149    0.365  101.784
  411.000    5.693    0.161    0.363   98.069
  411.250    5.485    0.176    0.366  103.690
  411.500    5.385    0.178    0.370  114.918
  411.750    4.904    0.172    0.379  119.917
  412.000    4.636    0.179    0.393  114.339
  412.250    4.221    0.199    0.393   86.353
