~VERSION INFORMATION
 VERS.                 2.0:   CWLS LOG ASCII STANDARD -VERSION 2.0
 WRAP.                  NO:   ONE LINE PER DEPTH STEP
~WELL INFORMATION BLOCK
#MNEM.UNIT           DATA                    DESCRIPTION OF MNEMONIC
#---------    -------------------            -------------------------------
# Generated from Intellog Unique Number	CS_69_70/WELL/689
WELL.         AEC PRIMROSE                   : Well_name    - WELL
LOC .         00/05-04-069-04W4/0            : Location     - LOCATION
UWI .         00/05-04-069-04W4/0            : Uwi          - UNIQUE WELL ID
ENTR.         SP                             : Entered      - ENTERED BY
SRVC.         SCHLUMBERGER                   : Scn          - SERVICE COMPANY
STRT.M        350                            : top_depth    - START DEPTH
STOP.M        615                            : bot_depth    - STOP DEPTH
STEP.M        0.25                           : increment    - STEP LENGTH
 NULL. -999.2500:NULL Value
~CURVE INFORMATION BLOCK
#MNEM UNIT       ERCB CURVE CODE    CURVE DESCRIPTION
#-----------   ------------------   ----------------------------------
DEPT.M        00 001 00 00         : DEPTH        - DEPTH
ILD .OHMM     00 120 00 00         : RESD         - DEEP RESISTIVITY (DIL)
DPHI.V/V      00 890 00 00         : PHID         - DENSITY POROSITY (LIMESTONE)
NPHI.V/V      00 330 00 00         : PHIN         - NEUTRON POROSITY (LIMESTONE)
GR  .API      00 310 00 00         : GR           - GAMMA RAY
~PARAMETER INFORMATION
#MNEM.UNIT           DATA             DESCRIPTION OF MNEMONIC
#---------         -----------     ------------------------------
GL  .M        724.4                : gl           - GROUND LEVEL ELEVATION
EREF.M        728.1                : kb           - ELEVATION OF DEPTH REFERENCE
DATM.M        724.4                : datum        - DATUM ELEVATION
TDD .M        625                  : tdd          - TOTAL DEPTH DRILLER
RUN .         ONE                  : Run          - RUN NUMBER
ENG .         BILL                 : Engineer     - RECORDING ENGINEER
WIT .         JIM                  : Witness      - WITNESSED BY
MUD .         GEL                  : Mud_type     - MUD TYPE
MATR.         LIMESTONE            : Logunit      - NEUTRON MATRIX
TMAX.C        23                   : BHT          - MAXIMUM RECORDED TEMPERATURE
BHTD.M        625                  : BHTDEP       - MAXIMUM RECORDED TEMPERATURE
MATR.         1                    : LOGUNIT      - NEUTRON MATRIX
RMT .C        25                   : MDTP         - TEMPERATURE OF MUD
NEUT.         1                    : NEUTRON      - NEUTRON TYPE
RESI.         0                    : RESIST       - RESISTIVITY TYPE
RMC .OHMM     0.25                 : RMC          - RESISTIVITY OF MUD CAKE
RMF .OHMM     0.25                 : RMF          - RESISTIVITY OF MUD FILTRATE
SUFT.C        15                   : SUFT         - SURFACE TEMPERATURE
~A  DEPTH     RESD     PHID     PHIN       GR
  350.000    2.733    0.272    0.514   94.173
  350.250    2.712    0.275    0.532   95.214
  350.500    2.666    0.272    0.545   96.684
  350.750    2.625    0.273    0.550   96.508
  351.000    2.615    0.274    0.564   93.590
  351.250    2.575    0.273    0.561   91.828
  351.500    2.555    0.279    0.537   90.859
  351.750    2.584    0.290    0.525   97.691
  352.000    2.623    0.282    0.524  100.564
  352.250    2.642    0.272    0.531  100.143
  352.500    2.641    0.279    0.533   96.431
  352.750    2.641    0.283    0.525   93.817
  353.000    2.621    0.292    0.531   94.128
  353.250    2.552    0.306    0.547  101.937
  353.500    2.480    0.306    0.557  103.041
  353.750    2.452    0.296    0.576  102.864
  354.000    2.470    0.287    0.546  100.310
  354.250    2.512    0.279    0.537   98.123
  354.500    2.564    0.290    0.545   98.494
  354.750    2.534    0.298    0.563  103.682
  355.000    2.477    0.302    0.611  103.811
  355.250    2.417    0.313    0.596  100.344
  355.500    2.380    0.323    0.585   98.581
  355.750    2.384    0.309    0.570  100.660
  356.000    2.438    0.292    0.557  102.314
  356.250    2.494    0.282    0.539  102.319
  356.500    2.516    0.269    0.521  101.106
  356.750    2.521    0.258    0.545   97.944
  357.000    2.534    0.278    0.537   96.426
  357.250    2.534    0.292    0.546   97.286
  357.500    2.533    0.284    0.554   97.415
  357.750    2.542    0.275    0.547   97.238
  358.000    2.556    0.271    0.551   98.403
  358.250    2.570    0.274    0.563   97.068
  358.500    2.570    0.289    0.579   93.479
  358.750    2.550    0.297    0.607   91.778
  359.000    2.535    0.275    0.590   94.224
  359.250    2.525    0.260    0.570   94.595
  359.500    2.529    0.249    0.560   94.175
  359.750    2.553    0.244    0.515   92.780
  360.000    2.596    0.252    0.504   94.431
  360.250    2.620    0.263    0.515   96.388
  360.500    2.634    0.246    0.527   94.993
  360.750    2.669    0.230    0.540   95.671
  361.000    2.719    0.229    0.549   99.517
  361.250    2.765    0.246    0.570  100.437
  361.500    2.822    0.247    0.584   99.104
  361.750    2.880    0.242    0.553   97.646
  362.000    2.913    0.258    0.566   96.373
  362.250    2.956    0.266    0.540  101.074
  362.500    3.012    0.247    0.539  102.420
  362.750    3.074    0.236    0.538   98.709
  363.000    3.126    0.240    0.517   96.826
  363.250    3.155    0.251    0.511   97.930
  363.500    3.208    0.242    0.521   99.461
  363.750    3.256    0.226    0.514  100.685
  364.000    3.299    0.219    0.526  102.459
  364.250    3.355    0.234    0.540  104.416
  364.500    3.398    0.241    0.553  104.118
  364.750    3.443    0.224    0.536  100.103
  365.000    3.488    0.216    0.516   96.025
  365.250    3.580    0.217    0.505   94.386
  365.500    3.654    0.210    0.495   94.758
  365.750    3.702    0.218    0.487   96.045
  366.000    3.722    0.230    0.494   95.868
  366.250    3.728    0.244    0.512   96.362
  366.500    3.728    0.242    0.520   98.198
  366.750    3.678    0.236    0.528   99.910
  367.000    3.555    0.239    0.547  101.196
  367.250    3.272    0.242    0.560  100.289
  367.500    3.144    0.244    0.556   98.161
  367.750    3.062    0.245    0.560   95.913
  368.000    3.032    0.244    0.541   99.333
  368.250    3.032    0.238    0.530  101.412
  368.500    3.043    0.237    0.537  102.638
  368.750    3.059    0.240    0.553  103.436
  369.000    3.082    0.236    0.540  104.601
  369.250    3.099    0.237    0.522  103.022
  369.500    3.169    0.241    0.498   98.335
  369.750    3.271    0.238    0.465   93.527
  370.000    3.364    0.251    0.485   97.190
  370.250    3.434    0.256    0.517  114.447
  370.500    3.440    0.259    0.514  122.437
  370.750    3.445    0.250    0.500  113.118
  371.000    3.425    0.242    0.509  104.226
  371.250    3.399    0.235    0.527   99.965
  371.500    3.347    0.234    0.540   96.864
  371.750    3.284    0.230    0.549   96.382
  372.000    3.253    0.200    0.573   96.267
  372.250    3.314    0.174    0.542   91.763
  372.500    3.802    0.137    0.464   90.733
  372.750    4.667    0.242    0.415   88.180
  373.000    6.474    0.307    0.282   79.227
  373.250    9.795    0.383    0.223   62.592
  373.500   14.110    0.399    0.174   50.835
  373.750   17.386    0.406    0.159   44.137
  374.000   20.786    0.391    0.225   51.215
  374.250   22.963    0.327    0.279   58.170
  374.500   12.219    0.260    0.329   64.210
  374.750   10.177    0.224    0.360   69.275
  375.000   10.137    0.235    0.364   70.501
  375.250   10.969    0.257    0.333   66.058
  375.500   11.959    0.279    0.309   63.139
  375.750   13.013    0.306    0.288   60.585
  376.000   14.676    0.311    0.274   60.226
  376.250   16.615    0.325    0.262   60.964
  376.500   18.012    0.348    0.251   60.056
  376.750   19.308    0.367    0.234   57.380
  377.000   19.707    0.308    0.240   54.218
  377.250   19.228    0.283    0.257   58.917
  377.500   17.695    0.239    0.274   65.385
  377.750   15.982    0.279    0.275   67.891
  378.000   15.044    0.304    0.277   66.068
  378.250   14.733    0.320    0.283   61.870
  378.500   15.038    0.305    0.284   59.682
  378.750   15.671    0.332    0.271   58.103
  379.000   16.392    0.357    0.262   54.391
  379.250   16.985    0.376    0.251   50.192
  379.500   17.143    0.378    0.238   45.810
  379.750   16.599    0.351    0.303   43.805
  380.000   14.248    0.321    0.331   51.980
  380.250   12.116    0.306    0.339   56.008
  380.500   10.558    0.315    0.347   57.112
  380.750    9.644    0.329    0.354   52.852
  381.000    8.809    0.337    0.352   50.908
  381.250    8.434    0.317    0.352   53.901
  381.500    8.075    0.301    0.351   60.308
  381.750    7.892    0.276    0.366   65.312
  382.000    7.788    0.250    0.377   68.976
  382.250    7.656    0.231    0.370   71.847
  382.500    7.596    0.218    0.362   72.463
  382.750    7.623    0.212    0.361   71.739
  383.000    7.694    0.241    0.395   72.659
  383.250    7.780    0.251    0.411   76.445
  383.500    7.926    0.233    0.409   79.682
  383.750    8.000    0.220    0.411   77.677
  384.000    8.089    0.227    0.423   73.661
  384.250    8.179    0.241    0.409   71.838
  384.500    8.380    0.235    0.392   71.784
  384.750    8.489    0.221    0.378   75.265
  385.000    8.440    0.212    0.394   78.258
  385.250    8.172    0.213    0.412   80.337
  385.500    7.854    0.215    0.427   83.086
  385.750    7.634    0.214    0.415   82.727
  386.000    7.350    0.217    0.406   78.466
  386.250    7.090    0.221    0.420   85.605
  386.500    6.674    0.208    0.446   95.486
  386.750    6.354    0.199    0.462   99.698
  387.000    5.837    0.197    0.480  102.021
  387.250    5.332    0.237    0.477  100.564
  387.500    5.000    0.281    0.460   94.658
  387.750    5.094    0.292    0.446   79.975
  388.000    5.767    0.278    0.443   68.522
  388.250    6.652    0.290    0.459   57.923
  388.500    7.091    0.311    0.471   45.008
  388.750    7.375    0.320    0.410   37.700
  389.000    7.443    0.327    0.386   42.766
  389.250    7.442    0.324    0.402   46.125
  389.500    7.413    0.313    0.400   47.898
  389.750    7.341    0.298    0.407   47.844
  390.000    7.313    0.275    0.425   54.007
  390.250    7.311    0.284    0.441   56.451
  390.500    7.406    0.294    0.456   51.521
  390.750    7.560    0.306    0.436   45.554
  391.000    7.760    0.315    0.413   41.964
  391.250    8.011    0.313    0.404   41.970
  391.500    8.364    0.244    0.404   44.232
  391.750    8.965    0.188    0.397   44.849
  392.000    9.665    0.138    0.441   45.342
  392.250    9.865    0.236    0.453   43.704
  392.500    9.643    0.323    0.426   42.856
  392.750    8.975    0.325    0.412   42.314
  393.000    8.642    0.319    0.399   41.528
  393.250    8.305    0.314    0.402   40.316
