~VERSION INFORMATION
 VERS.                 2.0:   CWLS LOG ASCII STANDARD -VERSION 2.0
 WRAP.                  NO:   ONE LINE PER DEPTH STEP
~WELL INFORMATION BLOCK
#MNEM.UNIT           DATA                    DESCRIPTION OF MNEMONIC
#---------    -------------------            -------------------------------
# Generated from Intellog Unique Number	CS_71_72/WELL/833
WELL.         BOW VALLEY INDUSTRIES          : Well_name    - WELL
LOC .         00/07-35-071-17W4/2            : Location     - LOCATION
UWI .         00/07-35-071-17W4/2            : Uwi          - UNIQUE WELL ID
ENTR.         SP                             : Entered      - ENTERED BY
SRVC.         SCHLUMBERGER                   : Scn          - SERVICE COMPANY
STRT.M        274.32                         : top_depth    - START DEPTH
STOP.M        446.07                         : bot_depth    - STOP DEPTH
STEP.M        0.25                           : increment    - STEP LENGTH
 NULL. -999.2500:NULL Value
~CURVE INFORMATION BLOCK
#MNEM UNIT       ERCB CURVE CODE    CURVE DESCRIPTION
#-----------   ------------------   ----------------------------------
DEPT.M        00 001 00 00         : DEPTH        - DEPTH
GR  .API      00 310 00 00         : GR           - GAMMA RAY
DPHI.V/V      00 890 00 00         : PHID         - DENSITY POROSITY (SANDSTONE)
NPHI.V/V      00 330 00 00         : PHIN         - NEUTRON POROSITY (SANDSTONE)
ILD .OHMM     00 120 00 00         : RESD         - DEEP RESISTIVITY (DIL)
~PARAMETER INFORMATION
#MNEM.UNIT           DATA             DESCRIPTION OF MNEMONIC
#---------         -----------     ------------------------------
GL  .M        583.387              : gl           - GROUND LEVEL ELEVATION
EREF.M        586.435              : kb           - ELEVATION OF DEPTH REFERENCE
DATM.M        583.387              : datum        - DATUM ELEVATION
TDD .M        452.628              : tdd          - TOTAL DEPTH DRILLER
RUN .         ONE                  : Run          - RUN NUMBER
ENG .         BILL                 : Engineer     - RECORDING ENGINEER
WIT .         JIM                  : Witness      - WITNESSED BY
MUD .         GEL                  : Mud_type     - MUD TYPE
MATR.         SANDSTONE            : Logunit      - NEUTRON MATRIX
TMAX.C        25.5556              : BHT          - MAXIMUM RECORDED TEMPERATURE
BHTD.M        452.628              : BHTDEP       - MAXIMUM RECORDED TEMPERATURE
MATR.         1                    : LOGUNIT      - NEUTRON MATRIX
RMT .C        25                   : MDTP         - TEMPERATURE OF MUD
NEUT.         1                    : NEUTRON      - NEUTRON TYPE
RESI.         0                    : RESIST       - RESISTIVITY TYPE
RMC .OHMM     0.25                 : RMC          - RESISTIVITY OF MUD CAKE
RMF .OHMM     0.25                 : RMF          - RESISTIVITY OF MUD FILTRATE
SUFT.C        15                   : SUFT         - SURFACE TEMPERATURE
~A  DEPTH       GR     PHID     PHIN     RESD
# ...
  361.320   50.989    0.303    0.464    3.937
  361.570   54.768    0.313    0.475    3.908
  361.820   57.780    0.316    0.483    4.121
  362.070   59.675    0.314    0.498    4.032
  362.320   61.847    0.307    0.513    3.895
  362.570   65.440    0.305    0.528    3.732
  362.820   68.845    0.307    0.520    3.538
  363.070   72.775    0.296    0.504    3.363
  363.320   75.863    0.286    0.507    3.211
  363.570   77.162    0.276    0.515    3.107
  363.820   79.094    0.262    0.529    3.067
  364.070   81.019    0.249    0.541    3.101
  364.320   82.780    0.242    0.561    3.251
  364.570   84.100    0.238    0.597    3.490
  364.820   84.053    0.245    0.630    3.766
  365.070   82.582    0.280    0.637    3.980
  365.320   77.542    0.316    0.623    4.150
  365.570   73.872    0.330    0.608    4.308
  365.820   67.033    0.343    0.583    4.384
  366.070   60.950    0.344    0.553    4.352
  366.320   57.963    0.336    0.535    4.288
  366.570   57.232    0.331    0.518    4.246
  366.820   58.577    0.325    0.511    4.251
  367.070   60.680    0.326    0.504    4.297
  367.320   61.816    0.329    0.501    4.348
  367.570   63.369    0.330    0.507    4.414
  367.820   64.535    0.334    0.504    4.474
  368.070   63.094    0.332    0.493    4.513
  368.320   61.302    0.325    0.492    4.531
  368.570   60.204    0.318    0.501    4.439
  368.820   59.962    0.317    0.506    4.396
  369.070   60.130    0.313    0.519    4.502
  369.320   60.559    0.308    0.538    4.617
  369.570   61.306    0.309    0.553    4.881
  369.820   61.913    0.319    0.521    5.231
  370.070   62.636    0.322    0.490    5.929
  370.320   62.842    0.301    0.482    7.025
  370.570   62.633    0.279    0.460    8.186
  370.820   61.284    0.250    0.425    8.783
  371.070   60.389    0.215    0.367    7.795
  371.320   62.664    0.162    0.330    6.395
  371.570   60.740    0.119    0.272    5.341
  371.820   58.148    0.078    0.258    4.788
  372.070   55.396    0.129    0.280    4.478
  372.320   57.765    0.172    0.318    4.466
  372.570   60.791    0.230    0.390    4.571
  372.820   63.444    0.271    0.454    4.643
  373.070   64.446    0.295    0.523    4.788
  373.320   64.114    0.306    0.556    4.861
  373.570   64.466    0.300    0.574    4.865
  373.820   65.256    0.294    0.584    4.818
  374.070   66.882    0.293    0.597    4.757
  374.320   67.691    0.295    0.578    4.754
  374.570   69.137    0.295    0.550    4.814
  374.820   69.438    0.291    0.541    4.953
  375.070   69.135    0.288    0.561    5.129
  375.320   69.099    0.286    0.581    5.226
  375.570   70.020    0.286    0.599    5.207
  375.820   71.376    0.297    0.615    5.143
  376.070   71.997    0.308    0.628    5.026
  376.320   68.410    0.315    0.629    4.880
  376.570   65.297    0.320    0.638    4.703
  376.820   61.866    0.326    0.657    4.473
  377.070   61.018    0.330    0.589    4.317
  377.320   62.586    0.316    0.555    4.188
  377.570   63.516    0.307    0.535    4.168
  377.820   62.651    0.300    0.519    4.187
  378.070   61.059    0.293    0.516    4.223
  378.320   60.551    0.298    0.525    4.265
  378.570   61.551    0.305    0.529    4.329
  378.820   63.527    0.297    0.534    4.365
  379.070   64.816    0.290    0.504    4.361
  379.320   67.741    0.291    0.505    4.354
  379.570   68.630    0.296    0.499    4.335
  379.820   71.670    0.298    0.511    4.336
  380.070   72.815    0.301    0.526    4.369
  380.320   73.345    0.293    0.540    4.410
  380.570   71.908    0.291    0.530    4.422
  380.820   71.219    0.297    0.522    4.342
  381.070   71.021    0.297    0.510    4.371
  381.320   70.929    0.293    0.507    4.414
  381.570   69.792    0.290    0.508    4.481
  381.820   69.259    0.293    0.517    4.533
  382.070   70.153    0.288    0.524    4.612
  382.320   71.005    0.281    0.527    4.682
  382.570   72.077    0.274    0.525    4.784
  382.820   72.085    0.268    0.506    5.166
  383.070   71.992    0.266    0.490    5.904
  383.320   71.351    0.262    0.480    6.922
  383.570   70.302    0.243    0.465    8.010
  383.820   69.022    0.216    0.440    8.614
  384.070   66.951    0.188    0.393    8.053
  384.320   64.155    0.135    0.345    6.810
  384.570   60.643    0.094    0.317    5.783
  384.820   59.094    0.085    0.297    5.209
  385.070   60.121    0.126    0.394    4.636
  385.320   62.803    0.207    0.467    4.524
  385.570   66.620    0.252    0.508    4.398
  385.820   70.394    0.275    0.531    4.199
  386.070   71.970    0.282    0.533    3.893
  386.320   73.024    0.272    0.536    3.511
  386.570   74.123    0.265    0.544    2.934
  386.820   75.541    0.262    0.554    2.577
  387.070   77.061    0.271    0.538    2.375
  387.320   80.645    0.263    0.530    2.336
  387.570   85.387    0.248    0.544    2.445
  387.820   87.858    0.233    0.616    2.665
  388.070   91.426    0.225    0.644    3.021
  388.320   92.808    0.239    0.680    3.337
  388.570   92.928    0.240    0.642    3.771
  388.820   92.111    0.226    0.636    4.156
  389.070   92.089    0.222    0.631    4.508
  389.320   93.022    0.214    0.620    4.747
  389.570   93.857    0.207    0.588    4.863
  389.820   93.290    0.203    0.552    4.833
  390.070   91.896    0.213    0.529    4.765
  390.320   90.759    0.209    0.511    4.678
  390.570   90.463    0.205    0.505    4.613
  390.820   90.225    0.206    0.505    4.576
  391.070   89.977    0.212    0.514    4.564
  391.320   89.636    0.221    0.516    4.567
  391.570   88.789    0.217    0.510    4.572
  391.820   87.873    0.205    0.504    4.616
  392.070   87.669    0.200    0.496    4.665
  392.320   88.220    0.202    0.501    4.730
  392.570   88.671    0.202    0.504    4.780
  392.820   88.346    0.205    0.498    4.813
  393.070   86.653    0.211    0.500    4.836
  393.320   86.513    0.208    0.506    4.848
  393.570   86.728    0.216    0.512    4.845
  393.820   87.623    0.225    0.508    4.818
  394.070   88.480    0.230    0.506    4.769
  394.320   88.999    0.221    0.518    4.714
  394.570   86.444    0.217    0.543    4.619
  394.820   85.622    0.226    0.559    4.588
  395.070   86.205    0.231    0.565    4.571
  395.320   86.226    0.234    0.573    4.563
  395.570   84.706    0.242    0.576    4.605
  395.820   82.119    0.241    0.557    4.656
  396.070   80.656    0.232    0.536    4.722
  396.320   81.390    0.245    0.519    4.973
  396.570   82.162    0.253    0.502    5.186
  396.820   80.561    0.260    0.478    5.633
  397.070   77.331    0.252    0.457    6.504
  397.320   74.888    0.243    0.442    7.188
  397.570   72.559    0.231    0.390    7.852
  397.820   69.063    0.195    0.337    8.012
  398.070   67.113    0.122    0.305    7.240
  398.320   68.293    0.125    0.311    5.736
  398.570   71.408    0.170    0.366    4.978
  398.820   73.967    0.202    0.425    4.600
  399.070   75.257    0.228    0.449    4.393
  399.320   75.306    0.257    0.468    4.239
  399.570   73.035    0.266    0.467    4.219
  399.820   70.595    0.266    0.476    4.209
  400.070   69.985    0.269    0.483    4.270
  400.320   70.221    0.263    0.478    4.284
  400.570   70.890    0.261    0.480    4.503
  400.820   70.929    0.261    0.490    5.021
  401.070   69.819    0.259    0.462    5.914
  401.320   70.487    0.248    0.424    6.670
  401.570   69.633    0.238    0.388    7.303
  401.820   68.086    0.212    0.343    7.483
  402.070   66.475    0.145    0.301    7.210
  402.320   64.307    0.107    0.274    6.242
  402.570   63.226    0.113    0.299    5.303
  402.820   67.186    0.167    0.359    4.620
  403.070   70.183    0.198    0.394    4.510
  403.320   71.044    0.242    0.423    4.475
  403.570   70.416    0.262    0.490    4.499
  403.820   69.936    0.253    0.479    4.539
  404.070   69.291    0.247    0.475    4.561
  404.320   69.278    0.245    0.479    4.617
  404.570   70.415    0.244    0.480    4.793
