~VERSION INFORMATION
 VERS.                 2.0:   CWLS LOG ASCII STANDARD -VERSION 2.0
 WRAP.                  NO:   ONE LINE PER DEPTH STEP
~WELL INFORMATION BLOCK
#MNEM.UNIT           DATA                    DESCRIPTION OF MNEMONIC
#---------    -------------------            -------------------------------
# Generated from Intellog Unique Number	CS_73_76/WELL/774
WELL.         BOW VALLEY INDUSTRIES LTD.     : Well_name    - WELL
LOC .         00/07-33-073-16W4/0            : Location     - LOCATION
UWI .         00/07-33-073-16W4/0            : Uwi          - UNIQUE WELL ID
ENTR.         SP                             : Entered      - ENTERED BY
SRVC.         SCHLUMBERGER                   : Scn          - SERVICE COMPANY
STRT.M        245                            : top_depth    - START DEPTH
STOP.M        461                            : bot_depth    - STOP DEPTH
STEP.M        0.25                           : increment    - STEP LENGTH
 NULL. -999.2500:NULL Value
~CURVE INFORMATION BLOCK
#MNEM UNIT       ERCB CURVE CODE    CURVE DESCRIPTION
#-----------   ------------------   ----------------------------------
DEPT.M        00 001 00 00         : DEPTH        - DEPTH
ILD .OHMM     00 120 00 00         : RESD         - DEEP RESISTIVITY (DIL)
DPHI.V/V      00 890 00 00         : PHID         - DENSITY POROSITY (LIMESTONE)
NPHI.V/V      00 330 00 00         : PHIN         - NEUTRON POROSITY (LIMESTONE)
GR  .API      00 310 00 00         : GR           - GAMMA RAY
~PARAMETER INFORMATION
#MNEM.UNIT           DATA             DESCRIPTION OF MNEMONIC
#---------         -----------     ------------------------------
GL  .M        586.26               : gl           - GROUND LEVEL ELEVATION
EREF.M        589.81               : kb           - ELEVATION OF DEPTH REFERENCE
DATM.M        586.26               : datum        - DATUM ELEVATION
TDD .M        463                  : tdd          - TOTAL DEPTH DRILLER
RUN .         ONE                  : Run          - RUN NUMBER
ENG .         BILL                 : Engineer     - RECORDING ENGINEER
WIT .         JIM                  : Witness      - WITNESSED BY
MUD .         GEL                  : Mud_type     - MUD TYPE
MATR.         LIMESTONE            : Logunit      - NEUTRON MATRIX
TMAX.C        23                   : BHT          - MAXIMUM RECORDED TEMPERATURE
BHTD.M        463                  : BHTDEP       - MAXIMUM RECORDED TEMPERATURE
MATR.         1                    : LOGUNIT      - NEUTRON MATRIX
RMT .C        25                   : MDTP         - TEMPERATURE OF MUD
NEUT.         1                    : NEUTRON      - NEUTRON TYPE
RESI.         0                    : RESIST       - RESISTIVITY TYPE
RMC .OHMM     0.25                 : RMC          - RESISTIVITY OF MUD CAKE
RMF .OHMM     0.25                 : RMF          - RESISTIVITY OF MUD FILTRATE
SUFT.C        15                   : SUFT         - SURFACE TEMPERATURE
~A  DEPTH     RESD     PHID     PHIN       GR
# ...
  375.500    7.210    0.166    0.447   54.164
  375.750    7.348    0.071    0.388   49.901
  376.000    8.227    0.058    0.300   46.857
  376.250    9.211    0.124    0.227   48.691
  376.500    9.931    0.245    0.250   59.675
  376.750   10.508    0.274    0.408   63.338
  377.000   11.121    0.312    0.424   60.294
  377.250   10.318    0.330    0.419   58.471
  377.500    8.717    0.334    0.414   59.087
  377.750    7.645    0.337    0.423   58.484
  378.000    6.962    0.331    0.430   57.878
  378.250    6.708    0.321    0.441   56.056
  378.500    6.709    0.314    0.448   57.281
  378.750    6.711    0.320    0.458   60.336
  379.000    6.713    0.325    0.462   62.170
  379.250    6.715    0.329    0.463   62.174
  379.500    6.716    0.338    0.456   60.963
  379.750    6.718    0.337    0.451   61.575
  380.000    6.720    0.332    0.443   64.020
  380.250    6.722    0.329    0.438   65.246
  380.500    6.724    0.327    0.449   63.423
  380.750    6.725    0.329    0.452   61.600
  381.000    6.728    0.332    0.452   61.604
  381.250    6.729    0.339    0.436   62.832
  381.500    6.730    0.342    0.429   63.445
  381.750    6.732    0.342    0.419   61.622
  382.000    6.734    0.335    0.424   60.408
  382.250    6.610    0.334    0.425   61.023
  382.500    6.612    0.340    0.421   61.638
  382.750    6.491    0.339    0.421   63.475
  383.000    6.493    0.332    0.428   65.309
  383.250    6.494    0.330    0.436   66.533
  383.500    6.496    0.338    0.425   66.539
  383.750    6.498    0.340    0.417   65.936
  384.000    6.500    0.338    0.406   66.550
  384.250    6.380    0.334    0.435   66.555
  384.500    6.382    0.340    0.449   64.733
  384.750    6.384    0.335    0.460   66.568
  385.000    6.385    0.329    0.447   67.183
  385.250    6.387    0.327    0.437   67.190
  385.500    6.270    0.325    0.421   67.193
  385.750    6.272    0.318    0.416   66.590
  386.000    6.273    0.319    0.423   64.156
  386.250    6.275    0.325    0.436   62.332
  386.500    6.276    0.328    0.436   65.389
  386.750    6.278    0.324    0.441   66.613
  387.000    6.280    0.325    0.444   66.619
  387.250    6.165    0.320    0.439   66.623
  387.500    6.167    0.323    0.433   69.068
  387.750    6.167    0.305    0.451   80.659
  388.000    6.054    0.287    0.459   92.252
  388.250    6.056    0.274    0.470   97.134
  388.500    6.057    0.254    0.482   99.579
  388.750    6.059    0.246    0.462   99.585
  389.000    6.061    0.241    0.440  102.030
  389.250    6.062    0.244    0.428   99.597
  389.500    6.064    0.252    0.444   95.333
  389.750    5.953    0.260    0.462   94.119
  390.000    5.954    0.257    0.449   96.566
  390.250    5.956    0.260    0.427   97.180
  390.500    5.957    0.273    0.454   96.576
  390.750    5.959    0.282    0.473   94.753
  391.000    5.961    0.284    0.484   94.757
  391.250    5.962    0.274    0.453   92.324
  391.500    6.076    0.269    0.451   89.891
  391.750    6.078    0.270    0.451   87.457
  392.000    6.195    0.269    0.460   86.853
  392.250    6.314    0.274    0.481   86.249
  392.500    6.436    0.261    0.497   88.083
  392.750    6.437    0.255    0.488   90.528
  393.000    6.560    0.246    0.451   92.364
  393.250    6.562    0.243    0.430   92.980
  393.500    6.689    0.247    0.428   92.984
  393.750    6.690    0.248    0.433   92.989
  394.000    6.819    0.250    0.439   91.167
  394.250    6.821    0.259    0.443   93.002
  394.500    6.823    0.276    0.452   93.007
  394.750    6.697    0.268    0.459   93.013
  395.000    6.452    0.256    0.459   93.629
  395.250    6.216    0.260    0.462   96.684
  395.500    5.878    0.261    0.467   98.517
  395.750    5.662    0.254    0.462  103.402
  396.000    5.455    0.249    0.468  105.845
  396.250    5.157    0.245    0.462  106.461
  396.500    4.968    0.242    0.447  101.588
  396.750    5.064    0.238    0.429   89.400
  397.000    5.359    0.240    0.414   76.599
  397.250    5.778    0.251    0.405   72.337
  397.500    6.231    0.281    0.416   70.513
  397.750    6.845    0.289    0.420   71.739
  398.000    7.244    0.286    0.431   74.183
  398.250    7.523    0.273    0.439   79.677
  398.500    7.524    0.258    0.442   85.171
  398.750    7.114    0.238    0.453   89.444
  399.000    6.479    0.240    0.473   93.109
  399.250    6.126    0.243    0.480   85.798
  399.500    5.792    0.239    0.444   77.876
  399.750    6.245    0.167    0.453   68.124
  400.000    6.991    0.071    0.458   60.203
  400.250    8.438    0.009    0.253   55.941
  400.500   10.376    0.000    0.221   60.215
  400.750   11.398    0.028    0.219   67.539
  401.000   14.282    0.075    0.243   73.032
  401.250   16.915    0.134    0.319   78.525
  401.500   19.662    0.121    0.326   82.189
  401.750   21.200    0.109    0.287   86.464
  402.000   16.929    0.147    0.332   88.908
  402.250   14.848    0.184    0.395   87.694
  402.500   12.781    0.186    0.392   83.430
  402.750   11.639    0.181    0.363   91.368
  403.000   10.800    0.190    0.372   95.031
  403.250    9.653    0.195    0.383   98.085
  403.500    9.299    0.188    0.399   99.307
  403.750    9.128    0.191    0.408   96.874
  404.000    9.131    0.189    0.415   94.440
  404.250    9.306    0.185    0.439   93.227
  404.500    9.666    0.180    0.424   93.232
  404.750    9.667    0.178    0.408   95.677
  405.000   10.040    0.187    0.403  100.562
  405.250   10.043    0.191    0.405  101.176
  405.500   10.236    0.172    0.409   94.475
  405.750   10.432    0.153    0.410   91.431
  406.000   10.240    0.140    0.411   94.485
  406.250   10.053    0.154    0.413  101.200
  406.500    9.869    0.164    0.418  104.253
  406.750    9.509    0.175    0.426  105.479
  407.000    9.334    0.181    0.441  106.703
  407.250    9.335    0.189    0.440  103.660
  407.500    9.165    0.191    0.441  101.838
  407.750    9.167    0.185    0.429  101.843
  408.000    9.344    0.174    0.408  104.290
  408.250    9.345    0.168    0.395  106.736
  408.500    9.525    0.158    0.388  109.180
  408.750    9.708    0.179    0.395  111.013
  409.000    9.711    0.191    0.400  111.627
  409.250    9.713    0.209    0.391  111.022
  409.500    9.715    0.207    0.386  109.199
  409.750    9.537    0.190    0.386  105.546
  410.000    9.188    0.181    0.389  101.893
  410.250    9.019    0.190    0.390   98.241
  410.500    8.690    0.193    0.394   95.197
  410.750    8.372    0.161    0.393   90.934
  411.000    8.374    0.150    0.376   86.671
  411.250    8.375    0.142    0.371   84.848
  411.500    8.378    0.143    0.392   92.171
  411.750    8.539    0.163    0.403   97.055
  412.000    8.541    0.175    0.410  100.110
  412.250    7.778    0.185    0.404  100.118
  412.500    6.096    0.202    0.399  100.122
  412.750    5.346    0.224    0.445  100.125
  413.000    4.602    0.250    0.466  103.180
  413.250    3.539    0.261    0.494  101.967
  413.500    3.104    0.262    0.510  105.021
  413.750    2.881    0.242    0.521  106.246
  414.000    2.724    0.237    0.504  106.252
  414.250    2.674    0.234    0.496  105.649
  414.500    2.674    0.226    0.499  105.043
  414.750    2.725    0.223    0.507  105.050
  415.000    2.995    0.226    0.519  105.665
  415.250    3.481    0.226    0.524  103.232
  415.500    4.046    0.203    0.455   98.359
  415.750    4.792    0.178    0.429   93.486
  416.000    6.234    0.111    0.380   87.394
  416.250    7.245    0.085    0.340   89.838
  416.500    8.265    0.148    0.356   94.112
  416.750    8.267    0.171    0.369   97.776
  417.000    8.115    0.180    0.398   95.345
  417.250    7.966    0.104    0.422   92.300
  417.500    8.274    0.057    0.341   86.817
  417.750    8.755    0.037    0.309   85.604
  418.000    9.619    0.073    0.322   90.489
  418.250    9.622    0.127    0.357   97.204
  418.500    7.127    0.170    0.371   99.035
  418.750    5.380    0.171    0.383  103.919
