~VERSION INFORMATION
 VERS.                 2.0:   CWLS LOG ASCII STANDARD -VERSION 2.0
 WRAP.                  NO:   ONE LINE PER DEPTH STEP
~WELL INFORMATION BLOCK
#MNEM.UNIT           DATA                    DESCRIPTION OF MNEMONIC
#---------    -------------------            -------------------------------
# Generated from Intellog Unique Number	CS_73_76/WELL/2000
WELL.         BOW VALLEY INDUSTRIES LTD.     : Well_name    - WELL
LOC .         00/06-36-075-15W4/0            : Location     - LOCATION
UWI .         00/06-36-075-15W4/0            : Uwi          - UNIQUE WELL ID
ENTR.         SP                             : Entered      - ENTERED BY
SRVC.         SCHLUMBERGER                   : Scn          - SERVICE COMPANY
STRT.M        353.568                        : top_depth    - START DEPTH
STOP.M        548.318                        : bot_depth    - STOP DEPTH
STEP.M        0.25                           : increment    - STEP LENGTH
 NULL. -999.2500:NULL Value
~CURVE INFORMATION BLOCK
#MNEM UNIT       ERCB CURVE CODE    CURVE DESCRIPTION
#-----------   ------------------   ----------------------------------
DEPT.M        00 001 00 00         : DEPTH        - DEPTH
GR  .API      00 310 00 00         : GR           - GAMMA RAY
DPHI.V/V      00 890 00 00         : PHID         - DENSITY POROSITY (SANDSTONE)
NPHI.V/V      00 330 00 00         : PHIN         - NEUTRON POROSITY (SANDSTONE)
ILD .OHMM     00 120 00 00         : RESD         - DEEP RESISTIVITY (DIL)
~PARAMETER INFORMATION
#MNEM.UNIT           DATA             DESCRIPTION OF MNEMONIC
#---------         -----------     ------------------------------
GL  .M        729.082              : gl           - GROUND LEVEL ELEVATION
EREF.M        732.13               : kb           - ELEVATION OF DEPTH REFERENCE
DATM.M        729.082              : datum        - DATUM ELEVATION
TDD .M        558.394              : tdd          - TOTAL DEPTH DRILLER
RUN .         ONE                  : Run          - RUN NUMBER
ENG .         BILL                 : Engineer     - RECORDING ENGINEER
WIT .         JIM                  : Witness      - WITNESSED BY
MUD .         GEL                  : Mud_type     - MUD TYPE
MATR.         SANDSTONE            : Logunit      - NEUTRON MATRIX
TMAX.C        60                   : BHT          - MAXIMUM RECORDED TEMPERATURE
BHTD.M        558.394              : BHTDEP       - MAXIMUM RECORDED TEMPERATURE
MATR.         1                    : LOGUNIT      - NEUTRON MATRIX
RMT .C        25                   : MDTP         - TEMPERATURE OF MUD
NEUT.         1                    : NEUTRON      - NEUTRON TYPE
RESI.         0                    : RESIST       - RESISTIVITY TYPE
RMC .OHMM     0.25                 : RMC          - RESISTIVITY OF MUD CAKE
RMF .OHMM     0.25                 : RMF          - RESISTIVITY OF MUD FILTRATE
SUFT.C        15                   : SUFT         - SURFACE TEMPERATURE
~A  DEPTH       GR     PHID     PHIN     RESD
# ...
  397.068   53.722    0.319    0.422   10.244
  397.318   50.441    0.313    0.418   10.249
  397.568   50.603    0.317    0.418   10.249
  397.818   53.130    0.324    0.419   10.249
  398.068   55.249    0.326    0.418   10.249
  398.318   56.834    0.329    0.422   10.250
  398.568   57.661    0.325    0.427   10.252
  398.818   58.196    0.323    0.431   10.240
  399.068   58.255    0.314    0.433   10.459
  399.318   57.439    0.307    0.430   10.444
  399.568   55.444    0.314    0.427   10.425
  399.818   53.380    0.321    0.428   10.655
  400.068   53.595    0.325    0.429   10.636
  400.318   57.567    0.328    0.426   10.635
  400.568   59.837    0.329    0.423   10.635
  400.818   61.183    0.325    0.419   10.635
  401.068   59.806    0.326    0.413   10.635
  401.318   57.864    0.322    0.413   10.636
  401.568   55.320    0.327    0.413   10.633
  401.818   52.588    0.329    0.415   10.517
  402.068   52.265    0.321    0.413   10.445
  402.318   52.191    0.307    0.408   10.440
  402.568   52.854    0.314    0.405   10.440
  402.818   52.702    0.331    0.413   10.439
  403.068   51.065    0.338    0.421   10.457
  403.318   52.364    0.343    0.435   10.229
  403.568   54.678    0.332    0.431   10.249
  403.818   56.267    0.326    0.425   10.250
  404.068   56.152    0.321    0.419   10.250
  404.318   55.776    0.327    0.418   10.249
  404.568   55.261    0.333    0.420   10.126
  404.818   53.918    0.332    0.424   10.067
  405.068   52.885    0.322    0.430   10.061
  405.318   51.856    0.320    0.435   10.056
  405.568   50.761    0.324    0.440   10.032
  405.818   49.760    0.329    0.441    9.871
  406.068   49.739    0.340    0.431    9.876
  406.318   50.460    0.338    0.432    9.876
  406.568   51.488    0.347    0.435    9.896
  406.818   51.795    0.353    0.440    9.693
  407.068   52.173    0.361    0.436    9.515
  407.318   52.779    0.358    0.435    9.518
  407.568   52.574    0.349    0.434    9.469
  407.818   52.151    0.345    0.428    9.344
  408.068   52.837    0.351    0.429    9.344
  408.318   54.148    0.355    0.446    9.346
  408.568   56.181    0.354    0.453    9.342
  408.818   56.667    0.362    0.466    9.256
  409.068   55.614    0.365    0.472    9.178
  409.318   54.569    0.361    0.474    9.173
  409.568   54.263    0.353    0.469    9.158
  409.818   53.920    0.360    0.458    9.353
  410.068   53.477    0.366    0.448    9.343
  410.318   52.280    0.364    0.442    9.356
  410.568   50.910    0.356    0.439    9.347
  410.818   49.300    0.350    0.436    9.917
  411.068   48.449    0.347    0.434    9.870
  411.318   49.068    0.346    0.433   10.052
  411.568   49.816    0.342    0.433   10.057
  411.818   49.078    0.339    0.435   10.062
  412.068   48.644    0.338    0.439   10.062
  412.318   46.456    0.340    0.442   10.063
  412.568   44.251    0.343    0.436   10.066
  412.818   43.198    0.349    0.436    9.914
  413.068   43.995    0.354    0.447    9.883
  413.318   44.935    0.358    0.455    9.878
  413.568   44.910    0.351    0.459    9.879
  413.818   44.916    0.339    0.453    9.894
  414.068   44.907    0.332    0.450    9.697
  414.318   44.516    0.337    0.448    9.900
  414.568   44.193    0.342    0.446    9.901
  414.818   43.703    0.348    0.442   10.404
  415.068   44.013    0.341    0.441   10.736
  415.318   44.262    0.337    0.444   11.078
  415.568   44.808    0.337    0.440   11.230
  415.818   45.075    0.335    0.433   11.474
  416.068   46.095    0.332    0.429   11.450
  416.318   45.998    0.334    0.429   11.473
  416.568   46.712    0.336    0.429   11.231
  416.818   46.651    0.334    0.428   11.032
  417.068   45.653    0.330    0.433   10.800
  417.318   44.663    0.329    0.437   11.046
  417.568   44.239    0.324    0.441   11.223
  417.818   45.202    0.323    0.444   11.464
  418.068   46.163    0.330    0.438   11.450
  418.318   47.178    0.332    0.436   11.461
  418.568   47.300    0.335    0.446   11.112
  418.818   45.825    0.339    0.450   11.015
  419.068   44.747    0.338    0.449   10.843
  419.318   45.636    0.345    0.443   10.630
  419.568   47.276    0.348    0.437   10.435
  419.818   47.365    0.348    0.438   10.320
  420.068   46.995    0.336    0.450   10.000
  420.318   47.182    0.329    0.455    9.701
  420.568   48.546    0.334    0.459    9.507
  420.818   49.839    0.335    0.462    9.511
  421.068   51.298    0.344    0.463    9.677
  421.318   51.996    0.350    0.463    9.976
  421.568   51.969    0.346    0.463   10.283
  421.818   51.387    0.349    0.464   10.596
  422.068   52.229    0.344    0.466   10.831
  422.318   53.945    0.336    0.473   11.046
  422.568   56.403    0.328    0.485   11.026
  422.818   60.324    0.314    0.496   10.958
  423.068   62.057    0.316    0.503   10.832
  423.318   62.296    0.318    0.494   10.599
  423.568   61.352    0.320    0.485   10.853
  423.818   61.999    0.320    0.474   10.831
  424.068   61.961    0.321    0.472   10.710
  424.318   62.776    0.327    0.473   10.612
  424.568   63.218    0.328    0.471   10.265
  424.818   63.252    0.324    0.466   10.272
  425.068   62.518    0.323    0.459   10.049
  425.318   61.099    0.326    0.464   10.065
  425.568   59.275    0.328    0.464   10.079
  425.818   59.024    0.329    0.465    9.871
  426.068   58.685    0.329    0.468    9.881
  426.318   56.967    0.330    0.470    9.878
  426.568   56.033    0.333    0.468    9.878
  426.818   55.869    0.338    0.476    9.878
  427.068   58.207    0.334    0.483    9.880
  427.318   60.090    0.334    0.479    9.871
  427.568   60.858    0.333    0.482   10.172
  427.818   60.060    0.329    0.484   10.501
  428.068   59.048    0.324    0.485   11.174
  428.318   58.993    0.324    0.477   11.945
  428.568   58.979    0.327    0.466   13.079
  428.818   58.914    0.330    0.456   13.447
  429.068   59.643    0.328    0.446   13.782
  429.318   59.576    0.321    0.441   13.762
  429.568   59.822    0.311    0.442   12.399
  429.818   58.744    0.310    0.455   11.392
  430.068   58.354    0.327    0.461   10.473
  430.318   58.602    0.327    0.473    9.834
  430.568   60.352    0.325    0.483    9.439
  430.818   60.737    0.322    0.493    9.177
  431.068   60.782    0.331    0.503    9.004
  431.318   60.058    0.338    0.503    8.827
  431.568   58.075    0.334    0.499    8.858
  431.818   57.140    0.333    0.499    8.663
  432.068   57.171    0.339    0.498    8.679
  432.318   57.707    0.346    0.495    8.689
  432.568   58.420    0.351    0.489    8.788
  432.818   57.720    0.346    0.485    9.006
  433.068   57.084    0.340    0.484    9.008
  433.318   57.093    0.343    0.482    9.006
  433.568   57.628    0.338    0.480    9.006
  433.818   59.558    0.331    0.480    9.006
  434.068   61.437    0.330    0.481    9.006
  434.318   62.314    0.334    0.468    9.006
  434.568   64.025    0.337    0.462    9.007
  434.818   64.189    0.331    0.465    9.007
  435.068   63.191    0.324    0.481    8.989
  435.318   62.351    0.325    0.496    9.177
  435.568   63.060    0.332    0.502    9.348
  435.818   64.077    0.328    0.509    9.452
  436.068   64.183    0.328    0.506    9.767
  436.318   64.769    0.331    0.493    9.874
  436.568   66.424    0.327    0.481   10.084
  436.818   67.489    0.318    0.481   10.102
  437.068   68.358    0.312    0.481   10.254
  437.318   69.011    0.309    0.475   10.252
  437.568   68.887    0.309    0.480   10.256
  437.818   68.292    0.309    0.485   10.089
  438.068   69.222    0.312    0.486   10.001
  438.318   70.185    0.315    0.483    9.683
  438.568   71.223    0.311    0.480    9.371
  438.818   71.508    0.307    0.478    9.249
  439.068   71.910    0.308    0.478    8.677
  439.318   71.976    0.310    0.481    8.113
  439.568   71.256    0.316    0.487    7.457
  439.818   71.281    0.319    0.489    6.844
  440.068   72.019    0.321    0.485    6.512
  440.318   75.971    0.309    0.479    6.184
