~VERSION INFORMATION
 VERS.                 2.0:   CWLS LOG ASCII STANDARD -VERSION 2.0
 WRAP.                  NO:   ONE LINE PER DEPTH STEP
~WELL INFORMATION BLOCK
#MNEM.UNIT           DATA                    DESCRIPTION OF MNEMONIC
#---------    -------------------            -------------------------------
# Generated from Intellog Unique Number	CX_WELLS/WELL/2820
WELL.         BANKENO THORNBURY              : Well_name    - WELL
LOC .         00/09-18-081-12W4/0            : Location     - LOCATION
UWI .         00/09-18-081-12W400            : Uwi          - UNIQUE WELL ID
ENTR.         T                              : Entered      - ENTERED BY
SRVC.         SCHLUMBERGER                   : Scn          - SERVICE COMPANY
STRT.M        400                            : top_depth    - START DEPTH
STOP.M        535                            : bot_depth    - STOP DEPTH
STEP.M        0.25                           : increment    - STEP LENGTH
 NULL. -999.2500:NULL Value
~CURVE INFORMATION BLOCK
#MNEM UNIT       ERCB CURVE CODE    CURVE DESCRIPTION
#-----------   ------------------   ----------------------------------
DEPT.M        00 001 00 00         : DEPTH        - DEPTH
GR  .API      00 310 00 00         : GR           - GAMMA RAY
NPHI.V/V      00 330 00 00         : PHIN         - NEUTRON POROSITY (SANDSTONE)
DPHI.V/V      00 890 00 00         : PHID         - DENSITY POROSITY (SANDSTONE)
ILD .OHMM     00 120 00 00         : RESD         - DEEP RESISTIVITY (OTHER)
~PARAMETER INFORMATION
#MNEM.UNIT           DATA             DESCRIPTION OF MNEMONIC
#---------         -----------     ------------------------------
GL  .M        726.2                : gl           - GROUND LEVEL ELEVATION
EREF.M        729.9                : kb           - ELEVATION OF DEPTH REFERENCE
DATM.M        729.9                : datum        - DATUM ELEVATION
TDD .M        642                  : tdd          - TOTAL DEPTH DRILLER
RUN .         ONE                  : Run          - RUN NUMBER
ENG .         BILL                 : Engineer     - RECORDING ENGINEER
WIT .         JIM                  : Witness      - WITNESSED BY
MUD .         GEL                  : Mud_type     - MUD TYPE
MATR.         SANDSTONE            : Logunit      - NEUTRON MATRIX
TMAX.C        17                   : BHT          - MAXIMUM RECORDED TEMPERATURE
BHTD.M        642                  : BHTDEP       - MAXIMUM RECORDED TEMPERATURE
MATR.         1                    : LOGUNIT      - NEUTRON MATRIX
RMT .C        17                   : MDTP         - TEMPERATURE OF MUD
NEUT.         1                    : NEUTRON      - NEUTRON TYPE
RESI.         0.4                  : RESIST       - RESISTIVITY TYPE
RMC .OHMM     2.33                 : RMC          - RESISTIVITY OF MUD CAKE
RMF .OHMM     2.33                 : RMF          - RESISTIVITY OF MUD FILTRATE
SUFT.C        4                    : SUFT         - SURFACE TEMPERATURE
~A  DEPTH       GR     PHIN     PHID     RESD
  400.000  101.111    0.560    0.274    2.588
  400.250   99.302    0.554    0.280    2.634
  400.500   96.901    0.548    0.291    2.778
  400.750   93.318    0.541    0.303    3.148
  401.000   87.370    0.532    0.306    3.381
  401.250   84.951    0.518    0.310    3.900
  401.500   84.915    0.504    0.306    4.580
  401.750   84.879    0.495    0.300    4.832
  402.000   84.261    0.489    0.294    5.188
  402.250   81.860    0.482    0.294    5.473
  402.500   79.441    0.474    0.295    5.771
  402.750   78.832    0.466    0.297    5.978
  403.000   77.013    0.463    0.300    6.083
  403.250   76.395    0.466    0.301    6.080
  403.500   78.133    0.471    0.297    5.861
  403.750   81.644    0.476    0.289    5.552
  404.000   85.137    0.478    0.280    5.259
  404.250   86.283    0.482    0.272    4.719
  404.500   86.265    0.489    0.268    4.086
  404.750   86.820    0.500    0.295    2.750
  405.000   86.775    0.514    0.303    2.559
  405.250   86.740    0.545    0.308    2.256
  405.500   87.295    0.543    0.310    1.988
  405.750   87.259    0.533    0.308    1.917
  406.000   87.232    0.527    0.300    2.133
  406.250   87.769    0.525    0.277    2.333
  406.500   87.742    0.524    0.271    2.644
  406.750   87.087    0.534    0.265    3.050
  407.000   86.487    0.553    0.270    3.850
  407.250   84.678    0.550    0.283    4.772
  407.500   83.459    0.526    0.294    5.605
  407.750   79.858    0.482    0.292    6.128
  408.000   78.058    0.462    0.284    6.581
  408.250   76.257    0.448    0.281    7.066
  408.500   72.674    0.441    0.281    7.452
  408.750   71.437    0.436    0.283    7.720
  409.000   72.575    0.445    0.284    7.716
  409.250   72.557    0.460    0.285    7.710
  409.500   73.085    0.461    0.286    7.570
  409.750   73.649    0.449    0.288    7.299
  410.000   73.622    0.444    0.288    6.911
  410.250   74.177    0.443    0.287    6.785
  410.500   74.732    0.441    0.283    6.662
  410.750   74.705    0.441    0.280    6.538
  411.000   74.669    0.438    0.278    6.536
  411.250   75.224    0.436    0.277    6.415
  411.500   75.779    0.434    0.276    6.297
  411.750   76.335    0.434    0.274    6.182
  412.000   76.881    0.435    0.270    5.961
  412.250   77.445    0.442    0.265    5.645
  412.500   78.000    0.453    0.259    5.346
  412.750   78.546    0.463    0.251    5.248
  413.000   78.519    0.470    0.250    5.061
  413.250   79.066    0.458    0.252    5.149
  413.500   79.621    0.450    0.254    5.630
  413.750   77.811    0.455    0.253    6.379
  414.000   71.863    0.472    0.239    8.345
  414.250   61.777    0.449    0.203    9.457
  414.500   57.602    0.436    0.127    9.283
  414.750   55.202    0.219    0.053    8.183
  415.000   62.851    0.217    0.063    6.959
  415.250   75.821    0.246    0.089    6.133
  415.500   78.150    0.257    0.251    5.808
  415.750   79.296    0.454    0.263    5.702
  416.000   79.852    0.457    0.256    5.698
  416.250   81.580    0.456    0.252    5.594
  416.500   82.735    0.451    0.251    5.591
  416.750   84.473    0.448    0.247    5.588
  417.000   86.802    0.456    0.241    5.585
  417.250   89.130    0.465    0.239    5.582
  417.500   90.868    0.478    0.238    5.579
  417.750   93.779    0.480    0.238    5.574
  418.000   92.561    0.479    0.239    5.573
  418.250   89.569    0.474    0.239    5.568
  418.500   86.585    0.467    0.239    5.467
  418.750   82.411    0.462    0.238    5.366
  419.000   83.549    0.459    0.237    5.174
  419.250   85.286    0.456    0.242    4.989
  419.500   86.432    0.461    0.243    4.558
  419.750   86.978    0.466    0.249    4.165
  420.000   87.552    0.472    0.255    4.089
  420.250   88.089    0.461    0.262    4.551
  420.500   87.480    0.452    0.271    5.157
  420.750   83.879    0.454    0.277    5.843
  421.000   80.895    0.454    0.285    6.162
  421.250   74.948    0.445    0.267    6.160
  421.500   71.947    0.417    0.256    6.268
  421.750   74.266    0.406    0.239    6.263
  422.000   76.022    0.435    0.238    6.261
  422.250   78.933    0.443    0.252    6.257
  422.500   80.670    0.451    0.256    6.254
  422.750   82.999    0.449    0.256    6.138
  423.000   83.554    0.442    0.256    6.136
  423.250   85.883    0.437    0.256    6.023
  423.500   87.621    0.434    0.256    6.019
  423.750   87.585    0.430    0.258    6.016
  424.000   86.957    0.426    0.258    5.905
  424.250   86.921    0.423    0.258    5.903
  424.500   87.476    0.423    0.258    5.794
  424.750   88.032    0.422    0.258    5.586
  425.000   87.996    0.419    0.254    5.290
  425.250   87.969    0.420    0.253    5.010
  425.500   86.741    0.429    0.253    4.831
  425.750   85.523    0.439    0.256    4.336
  426.000   86.078    0.458    0.258    3.822
  426.250   86.633    0.470    0.260    3.555
  426.500   86.597    0.484    0.258    3.552
  426.750   87.743    0.503    0.255    3.551
  427.000   88.890    0.517    0.250    3.744
  427.250   87.080    0.508    0.250    3.950
  427.500   84.070    0.495    0.254    4.240
  427.750   83.461    0.479    0.258    4.394
  428.000   82.834    0.459    0.264    4.634
  428.250   83.389    0.452    0.272    4.887
  428.500   85.126    0.443    0.282    4.885
  428.750   87.446    0.437    0.269    4.971
  429.000   89.193    0.444    0.259    4.968
  429.250   89.739    0.463    0.252    4.965
  429.500   90.303    0.457    0.246    4.873
  429.750   90.849    0.451    0.244    4.871
  430.000   90.804    0.456    0.242    4.956
  430.250   90.186    0.464    0.245    5.043
  430.500   89.568    0.469    0.251    5.319
  430.750   88.913    0.478    0.257    5.413
  431.000   88.895    0.473    0.261    5.709
  431.250   88.859    0.478    0.263    6.021
  431.500   88.805    0.482    0.257    6.466
  431.750   88.787    0.438    0.253    7.593
  432.000   88.742    0.396    0.243    7.726
  432.250   89.306    0.386    0.227    7.863
  432.500   90.453    0.384    0.201    8.002
  432.750   91.599    0.390    0.188    7.714
  433.000   92.746    0.396    0.179    7.439
  433.250   94.483    0.406    0.203    7.043
  433.500   96.221    0.414    0.211    6.915
  433.750   96.776    0.426    0.219    6.668
  434.000   95.557    0.436    0.229    6.429
  434.250   93.739    0.437    0.236    6.088
  434.500   93.112    0.434    0.240    5.975
  434.750   93.076    0.434    0.238    5.973
  435.000   90.084    0.440    0.234    5.970
  435.250   86.500    0.447    0.222    6.074
  435.500   82.917    0.454    0.211    6.294
  435.750   79.925    0.460    0.196    6.758
  436.000   78.107    0.319    0.154    7.127
  436.250   77.488    0.319    0.141    7.123
  436.500   76.852    0.350    0.144    7.119
  436.750   75.634    0.364    0.195    6.990
  437.000   74.998    0.397    0.219    6.618
  437.250   74.388    0.421    0.235    6.615
  437.500   74.934    0.435    0.263    6.377
  437.750   77.263    0.436    0.279    6.375
  438.000   78.419    0.437    0.279    6.257
  438.250   81.912    0.440    0.274    6.032
  438.500   83.076    0.446    0.270    6.030
  438.750   87.169    0.453    0.259    6.027
  439.000   88.316    0.457    0.249    6.023
  439.250   88.271    0.436    0.244    6.020
  439.500   87.661    0.422    0.243    6.017
  439.750   87.016    0.420    0.244    6.013
  440.000   86.398    0.422    0.245    6.119
  440.250   86.353    0.421    0.248    6.337
  440.500   86.326    0.415    0.249    6.335
  440.750   85.699    0.411    0.249    6.445
  441.000   85.072    0.408    0.250    6.442
  441.250   84.444    0.410    0.254    6.555
  441.500   83.226    0.415    0.258    6.551
  441.750   81.416    0.425    0.261    6.548
  442.000   80.780    0.437    0.265    6.428
  442.250   80.744    0.444    0.268    6.424
  442.500   81.299    0.447    0.269    6.306
  442.750   81.263    0.449    0.274    6.303
  443.000   81.236    0.456    0.279    6.300
  443.250   81.191    0.460    0.282    6.295
