~VERSION INFORMATION
 VERS.                 2.0:   CWLS LOG ASCII STANDARD -VERSION 2.0
 WRAP.                  NO:   ONE LINE PER DEPTH STEP
~WELL INFORMATION BLOCK
#MNEM.UNIT           DATA                    DESCRIPTION OF MNEMONIC
#---------    -------------------            -------------------------------
# Generated from Intellog Unique Number	CS_73_76/WELL/2811
WELL.         ESSO RESOURCES CANADA LTD.     : Well_name    - WELL
LOC .         00/06-32-075-04W4/0            : Location     - LOCATION
UWI .         00/06-32-075-04W4/0            : Uwi          - UNIQUE WELL ID
ENTR.         JOETTE                         : Entered      - ENTERED BY
SRVC.         COMPUTALOG                     : Scn          - SERVICE COMPANY
DATE.         05/22/92                       : Date         - LOG DATE
STRT.M        200                            : top_depth    - START DEPTH
STOP.M        450                            : bot_depth    - STOP DEPTH
STEP.M        0.25                           : increment    - STEP LENGTH
 NULL. -999.2500:NULL Value
~CURVE INFORMATION BLOCK
#MNEM UNIT       ERCB CURVE CODE    CURVE DESCRIPTION
#-----------   ------------------   ----------------------------------
DEPT.M        00 001 00 00         : DEPTH        - DEPTH
ILD .OHMM     00 120 00 00         : RESD         - DEEP RESISTIVITY (DIL)
RHOB.KG/M3    00 350 00 00         : DENS         - BULK DENSITY
NPHI.V/V      00 330 00 00         : PHIN         - NEUTRON POROSITY (SANDSTONE)
GR  .API      00 310 00 00         : GR           - GAMMA RAY
~PARAMETER INFORMATION
#MNEM.UNIT           DATA             DESCRIPTION OF MNEMONIC
#---------         -----------     ------------------------------
GL  .M        598.7                : gl           - GROUND LEVEL ELEVATION
EREF.M        602.4                : kb           - ELEVATION OF DEPTH REFERENCE
DATM.M        602.4                : datum        - DATUM ELEVATION
TDD .M        456.6                : tdd          - TOTAL DEPTH DRILLER
RUN .         ONE                  : Run          - RUN NUMBER
ENG .         BILL                 : Engineer     - RECORDING ENGINEER
WIT .         JIM                  : Witness      - WITNESSED BY
MUD .         GEL                  : Mud_type     - MUD TYPE
MATR.         SANDSTONE            : Logunit      - NEUTRON MATRIX
TMAX.C        32                   : BHT          - MAXIMUM RECORDED TEMPERATURE
BHTD.M        456.6                : BHTDEP       - MAXIMUM RECORDED TEMPERATURE
MATR.         1                    : LOGUNIT      - NEUTRON MATRIX
RMT .C        19.7                 : MDTP         - TEMPERATURE OF MUD
NEUT.         1                    : NEUTRON      - NEUTRON TYPE
RESI.         0                    : RESIST       - RESISTIVITY TYPE
RMC .OHMM     6.4                  : RMC          - RESISTIVITY OF MUD CAKE
RMF .OHMM     4.2                  : RMF          - RESISTIVITY OF MUD FILTRATE
SUFT.C        5                    : SUFT         - SURFACE TEMPERATURE
~A  DEPTH     RESD     DENS     PHIN       GR
# ...
  243.500   24.146 2104.950    0.491   78.176
  243.750   24.160 2105.060    0.503   77.758
  244.000   23.296 2127.300    0.472   77.339
  244.250   22.463 2317.910    0.430   73.137
  244.500   21.256 2386.310    0.412   65.179
  244.750   19.023 2392.480    0.376   57.220
  245.000   17.990 2464.830    0.370   54.917
  245.250   15.497 2372.890    0.385   61.096
  245.500   14.391 2252.900    0.402   68.701
  245.750   14.417 2223.080    0.402   68.282
  246.000   14.425 2251.330    0.412   72.576
  246.250   13.150 2277.570    0.406   72.642
  246.500   12.676 2275.790    0.398   70.325
  246.750   11.775 2257.980    0.387   68.022
  247.000   11.351 2224.150    0.382   69.488
  247.250   11.583 2248.400    0.385   71.910
  247.500   12.502 2258.620    0.390   72.905
  247.750   12.992 2250.880    0.391   70.117
  248.000   13.505 2245.040    0.393   68.756
  248.250   14.043 2201.200    0.402   67.866
  248.500   14.598 2211.430    0.411   67.918
  248.750   14.892 2229.660    0.405   68.442
  249.000   15.485 2211.860    0.406   68.508
  249.250   16.097 2188.100    0.418   64.778
  249.500   16.733 2180.250    0.429   61.545
  249.750   17.395 2164.390    0.427   62.069
  250.000   18.419 2158.650    0.420   62.121
  250.250   20.264 2160.870    0.413   61.231
  250.500   22.702 2163.080    0.404   59.857
  250.750   26.925 2175.310    0.403   49.071
  251.000   31.925 2141.430    0.407   34.502
  251.250   37.874 2099.600    0.417   28.900
  251.500   40.094 2071.780    0.424   27.067
  251.750   40.903 2078.060    0.421   26.190
  252.000   40.974 2070.310    0.416   30.471
  252.250   40.235 2060.410    0.425   37.592
  252.500   34.013 2086.660    0.445   50.382
  252.750   28.754 2179.030    0.461   82.034
  253.000   19.405 2225.360    0.477   92.938
  253.250   14.378 2263.670    0.492   98.659
  253.500   12.155 2259.880    0.505   95.399
  253.750    9.899 2252.090    0.500   95.936
  254.000    9.365 2260.310    0.499   99.301
  254.250    8.867 2240.500    0.499   98.411
  254.500    8.709 2222.700    0.504   99.406
  254.750    8.395 2220.910    0.512   98.503
  255.000    8.410 2229.130    0.533   92.901
  255.250    8.417 2219.340    0.573   91.068
  255.500    8.747 2215.550    0.574   92.535
  255.750    9.093 2219.770    0.562   91.658
  256.000   10.004 2215.980    0.536   92.182
  256.250   11.211 2194.160    0.509   92.234
  256.500   12.560 2174.300    0.475   90.389
  256.750   17.001 2152.490    0.467   85.258
  257.000   17.667 2140.690    0.459   86.724
  257.250   18.018 2148.910    0.469   88.204
  257.500   17.384 2143.180    0.501   84.944
  257.750   16.440 2135.380    0.495   82.169
  258.000   14.709 2141.550    0.487   84.107
  258.250   15.001 2165.850    0.492   88.872
  258.500   15.018 2184.080    0.504   89.867
  258.750   12.941 2206.380    0.502   82.380
  259.000   12.474 2190.520    0.480   73.937
  259.250   13.979 2120.600    0.468   56.069
  259.500   21.570 2068.800    0.456   47.168
  259.750   25.099 2090.990    0.456   51.933
  260.000   29.759 2107.280    0.459   55.782
  260.250   24.229 2127.520    0.449   58.178
  260.500   20.107 2145.750    0.449   63.885
  260.750   18.320 2194.190    0.462   72.433
  261.000   13.325 2198.300    0.467   73.900
  261.250   11.478 2212.580    0.469   71.596
  261.500   12.158 2208.740    0.473   67.879
  261.750   18.062 2134.810    0.497   61.818
  262.000   22.658 2096.980    0.515   59.488
  262.250   27.383 2111.210    0.502   59.541
  262.500   26.904 2111.430    0.493   63.861
  262.750   24.985 2099.680    0.489   63.429
  263.000   24.548 2099.900    0.488   63.979
  263.250   27.519 2108.120    0.472   66.375
  263.500   26.033 2132.370    0.458   69.713
  263.750   20.414 2152.600    0.451   74.963
  264.000   17.918 2174.850    0.443   76.429
  264.250   16.335 2185.130    0.442   78.379
  264.500   16.354 2189.350    0.463   81.718
  264.750   14.627 2193.620    0.490   79.414
  265.000   12.596 2181.770    0.514   74.283
  265.250   11.483 2161.960    0.498   65.382
  265.500   12.629 2148.100    0.477   66.377
  265.750   14.691 2138.360    0.457   70.200
  266.000   17.754 2158.600    0.481   73.080
  266.250   18.112 2186.840    0.492   73.617
  266.500   16.502 2209.090    0.458   68.944
  266.750   13.950 2191.280    0.450   63.813
  267.000   13.205 2291.780    0.423   57.739
  267.250   15.652 2323.980    0.417   53.066
  267.500   20.392 2392.380    0.415   51.234
  267.750   24.645 2258.270    0.435   52.726
  268.000   26.592 2204.420    0.475   51.339
  268.250   29.809 2250.690    0.503   48.106
  268.500   29.844 2172.810    0.490   51.457
  268.750   27.191 2146.940    0.471   57.165
  269.000   22.559 2163.180    0.457   60.516
  269.250   19.432 2155.380    0.461   57.741
  269.500   18.388 2131.620    0.452   52.610
  269.750   21.802 2139.790    0.453   46.536
  270.000   25.377 2130.000    0.450   46.602
  270.250   28.439 2110.190    0.434   48.998
  270.500   26.919 2094.440    0.425   49.050
  270.750   25.473 2106.660    0.416   48.161
  271.000   28.547 2086.800    0.432   52.454
  271.250   31.396 2099.030    0.454   49.679
  271.500   32.627 2139.350    0.451   47.847
  271.750   34.560 2139.560    0.447   47.900
  272.000   35.946 2101.680    0.452   46.067
  272.250   35.977 2039.820    0.455   45.191
  272.500   34.055 2044.040    0.456   46.644
  272.750   31.607 2058.270    0.451   50.951
  273.000   27.226 2056.540    0.451   53.831
  273.250   27.775 2042.680    0.474   56.711
  273.500   32.328 2042.890    0.482   59.604
  273.750   36.230 2089.220    0.456   59.172
  274.000   40.625 2121.470    0.441   53.099
  274.250   42.230 2119.740    0.423   42.784
  274.500   43.057 2109.890    0.429   34.341
  274.750   43.938 2094.080    0.433   33.451
  275.000   43.182 2090.290    0.452   33.975
  275.250   42.403 2090.510    0.467   33.098
  275.500   40.898 2086.720    0.434   31.253
  275.750   40.183 2074.920    0.409   30.363
  276.000   40.230 2079.140    0.415   32.785
  276.250   40.277 2091.370    0.423   35.207
  276.500   41.101 2075.560    0.426   33.833
  276.750   41.149 2073.770    0.415   32.471
  277.000   41.185 2073.990    0.415   33.480
  277.250   42.015 2076.210    0.409   33.532
  277.500   43.675 2094.500    0.403   32.642
  277.750   43.739 2108.730    0.398   32.224
  278.000   43.790 2106.940    0.397   33.219
  278.250   44.673 2099.200    0.406   35.627
  278.500   43.905 2099.410    0.410   37.565
  278.750   42.310 2099.630    0.413   38.560
  279.000   40.037 2095.840    0.415   38.613
  279.250   40.083 2087.990    0.407   38.194
  279.500   41.691 2088.210    0.397   38.260
  279.750   42.520 2110.500    0.389   38.312
  280.000   42.594 2098.700    0.403   38.365
  280.250   42.631 2092.850    0.428   38.404
  280.500   42.693 2107.140    0.452   38.941
  280.750   41.923 2111.410    0.437   40.408
  281.000   41.190 2101.560    0.393   41.403
  281.250   42.020 2075.750    0.399   40.526
  281.500   39.023 2061.890    0.415   37.725
  281.750   35.575 2054.100    0.444   34.492
  282.000   39.114 2110.430    0.418   32.660
  282.250   44.678 2126.720    0.390   33.184
  282.500   45.566 2144.960    0.394   35.108
  282.750   43.949 2145.170    0.406   40.357
  283.000   43.193 2117.350    0.422   44.651
  283.250   43.218 2073.460    0.453   49.416
  283.500   41.685 2041.640    0.465   53.265
  283.750   40.194 2035.900    0.466   50.477
  284.000   35.949 2042.230    0.472   47.218
  284.250   32.153 2044.340    0.481   46.341
  284.500   30.435 2044.500    0.488   48.750
  284.750   30.461 2044.820    0.492   52.585
  285.000   29.929 2044.980    0.490   53.581
  285.250   29.406 2043.250    0.490   52.691
  285.500   28.901 2043.350    0.490   53.214
  285.750   28.395 2043.620    0.495   54.196
  286.000   28.428 2049.840    0.500   53.791
  286.250   26.901 2062.130    0.509   52.430
  286.500   23.166 2062.290    0.509   51.540
  286.750   21.514 2054.490    0.500   51.592
