~VERSION INFORMATION
 VERS.                 2.0:   CWLS LOG ASCII STANDARD -VERSION 2.0
 WRAP.                  NO:   ONE LINE PER DEPTH STEP
~WELL INFORMATION BLOCK
#MNEM.UNIT           DATA                    DESCRIPTION OF MNEMONIC
#---------    -------------------            -------------------------------
# Generated from Intellog Unique Number	CX_WELLS/WELL/3000
WELL.         BRENDA ET AL DIVIDE            : Well_name    - WELL
LOC .         00/03-18-082-12W4/0            : Location     - LOCATION
UWI .         00/03-18-082-12W400            : Uwi          - UNIQUE WELL ID
ENTR.         T                              : Entered      - ENTERED BY
SRVC.         SCHLUMBERGER                   : Scn          - SERVICE COMPANY
STRT.M        225                            : top_depth    - START DEPTH
STOP.M        465                            : bot_depth    - STOP DEPTH
STEP.M        0.25                           : increment    - STEP LENGTH
 NULL. -999.2500:NULL Value
~CURVE INFORMATION BLOCK
#MNEM UNIT       ERCB CURVE CODE    CURVE DESCRIPTION
#-----------   ------------------   ----------------------------------
DEPT.M        00 001 00 00         : DEPTH        - DEPTH
GR  .API      00 310 00 00         : GR           - GAMMA RAY
NPHI.V/V      00 330 00 00         : PHIN         - NEUTRON POROSITY (SANDSTONE)
DPHI.V/V      00 890 00 00         : PHID         - DENSITY POROSITY (SANDSTONE)
ILD .OHMM     00 120 00 00         : RESD         - DEEP RESISTIVITY (OTHER)
~PARAMETER INFORMATION
#MNEM.UNIT           DATA             DESCRIPTION OF MNEMONIC
#---------         -----------     ------------------------------
GL  .M        677.8                : gl           - GROUND LEVEL ELEVATION
EREF.M        681.2                : kb           - ELEVATION OF DEPTH REFERENCE
DATM.M        681.2                : datum        - DATUM ELEVATION
TDD .M        474                  : tdd          - TOTAL DEPTH DRILLER
RUN .         ONE                  : Run          - RUN NUMBER
ENG .         BILL                 : Engineer     - RECORDING ENGINEER
WIT .         JIM                  : Witness      - WITNESSED BY
MUD .         GEL                  : Mud_type     - MUD TYPE
MATR.         SANDSTONE            : Logunit      - NEUTRON MATRIX
TMAX.C        21.1111              : BHT          - MAXIMUM RECORDED TEMPERATURE
BHTD.M        474                  : BHTDEP       - MAXIMUM RECORDED TEMPERATURE
MATR.         1                    : LOGUNIT      - NEUTRON MATRIX
RMT .C        22                   : MDTP         - TEMPERATURE OF MUD
NEUT.         1                    : NEUTRON      - NEUTRON TYPE
RESI.         3.8                  : RESIST       - RESISTIVITY TYPE
RMC .OHMM     4.68                 : RMC          - RESISTIVITY OF MUD CAKE
RMF .OHMM     4.68                 : RMF          - RESISTIVITY OF MUD FILTRATE
SUFT.C        4                    : SUFT         - SURFACE TEMPERATURE
~A  DEPTH       GR     PHIN     PHID     RESD
# ...
  312.000   56.917    0.452    0.352   16.429
  312.250   57.510    0.464    0.355   16.440
  312.500   58.103    0.473    0.356   16.452
  312.750   58.696    0.474    0.358   16.458
  313.000   58.696    0.474    0.360   16.465
  313.250   58.696    0.473    0.358   16.477
  313.500   58.696    0.467    0.356   16.483
  313.750   58.696    0.454    0.354   16.191
  314.000   58.103    0.439    0.352   16.200
  314.250   57.510    0.445    0.352   15.904
  314.500   57.510    0.464    0.354   15.915
  314.750   57.510    0.464    0.355   15.924
  315.000   57.510    0.456    0.356   15.933
  315.250   57.510    0.442    0.356   15.944
  315.500   57.510    0.445    0.355   15.950
  315.750   57.510    0.462    0.354   15.961
  316.000   58.103    0.460    0.349   15.968
  316.250   58.103    0.445    0.345   15.977
  316.500   58.103    0.439    0.343   15.985
  316.750   58.103    0.448    0.339   15.698
  317.000   58.696    0.444    0.333   15.706
  317.250   58.696    0.433    0.327   15.426
  317.500   59.881    0.437    0.316   15.150
  317.750   61.660    0.445    0.314   14.877
  318.000   64.032    0.456    0.327   14.611
  318.250   65.810    0.452    0.331   14.617
  318.500   64.624    0.444    0.325   14.624
  318.750   63.439    0.435    0.320   14.908
  319.000   62.253    0.426    0.317   14.918
  319.250   62.253    0.432    0.317   14.650
  319.500   63.439    0.443    0.325   13.857
  319.750   64.032    0.455    0.332   13.108
  320.000   64.032    0.461    0.335   12.874
  320.250   64.624    0.460    0.331   12.640
  320.500   67.589    0.453    0.326   12.415
  320.750   69.960    0.446    0.316   12.189
  321.000   72.925    0.450    0.300   11.108
  321.250   77.075    0.463    0.293   10.311
  321.500   72.925    0.487    0.291    9.222
  321.750   71.146    0.479    0.282    8.563
  322.000   74.111    0.453    0.278    8.406
  322.250   75.296    0.450    0.260    8.257
  322.500   78.261    0.449    0.247    8.106
  322.750   77.668    0.439    0.258    8.114
  323.000   77.075    0.440    0.282    8.270
  323.250   74.704    0.467    0.287    9.086
  323.500   71.739    0.469    0.292    9.983
  323.750   68.775    0.453    0.293   10.567
  324.000   65.217    0.427    0.299   10.572
  324.250   64.624    0.421    0.304    9.999
  324.500   64.624    0.416    0.309    8.776
  324.750   65.810    0.411    0.312    8.782
  325.000   66.996    0.420    0.314    9.833
  325.250   68.182    0.434    0.314   10.603
  325.500   68.775    0.451    0.312   10.221
  325.750   68.775    0.468    0.310   10.034
  326.000   67.589    0.473    0.309    9.316
  326.250   65.810    0.446    0.311    8.811
  326.500   64.032    0.434    0.317    8.030
  326.750   66.996    0.422    0.310    7.594
  327.000   71.739    0.423    0.296    7.319
  327.250   77.668    0.456    0.276    8.043
  327.500   81.225    0.488    0.263    8.673
  327.750   75.889    0.510    0.297    9.529
  328.000   69.368    0.516    0.329   10.470
  328.250   64.032    0.480    0.355   11.081
  328.500   61.067    0.467    0.369   11.727
  328.750   59.881    0.456    0.367   12.183
  329.000   59.881    0.440    0.349   12.418
  329.250   61.067    0.429    0.352   12.660
  329.500   63.439    0.435    0.364   12.434
  329.750   65.217    0.441    0.371   11.985
  330.000   65.217    0.440    0.364   11.768
  330.250   65.217    0.438    0.356   11.776
  330.500   65.217    0.438    0.348   11.782
  330.750   66.403    0.439    0.348   11.787
  331.000   66.996    0.442    0.351   11.794
  331.250   66.996    0.446    0.353   11.800
  331.500   66.403    0.444    0.353   11.808
  331.750   65.810    0.438    0.352   11.815
  332.000   65.217    0.433    0.350   12.045
  332.250   65.217    0.442    0.346   12.749
  332.500   64.624    0.454    0.338   12.997
  332.750   58.696    0.462    0.326   11.407
  333.000   55.731    0.399    0.182    8.620
  333.250   59.881    0.192    0.123    7.707
  333.500   72.332    0.215    0.032    5.404
  333.750   88.340    0.253    0.124    4.655
  334.000   96.640    0.377    0.233    3.203
  334.250  103.162    0.456    0.273    2.811
  334.500  110.277    0.515    0.246    2.377
  334.750  114.427    0.501    0.250    2.126
  335.000  113.834    0.517    0.251    2.087
  335.250  112.648    0.535    0.251    2.088
  335.500  110.277    0.542    0.253    2.169
  335.750  108.498    0.553    0.259    2.569
  336.000  106.719    0.581    0.263    3.738
  336.250  103.162    0.599    0.268    4.184
  336.500   99.605    0.568    0.270    4.954
  336.750   96.047    0.552    0.278    5.977
  337.000   94.269    0.549    0.289    7.080
  337.250   90.712    0.541    0.298    7.218
  337.500   85.968    0.519    0.312    7.222
  337.750   83.004    0.498    0.293    7.226
  338.000   82.411    0.483    0.284    7.095
  338.250   85.376    0.475    0.274    6.969
  338.500   92.490    0.466    0.269    6.842
  338.750   94.862    0.474    0.266    6.473
  339.000   90.712    0.486    0.266    6.121
  339.250   87.154    0.478    0.270    5.474
  339.500   84.783    0.475    0.281    4.988
  339.750   82.411    0.472    0.293    3.432
  340.000   84.190    0.464    0.303    3.309
  340.250   88.340    0.453    0.272    2.904
  340.500   92.490    0.481    0.252    2.696
  340.750   93.676    0.528    0.254    2.800
  341.000   89.526    0.551    0.257    3.077
  341.250   85.968    0.516    0.260    3.317
  341.500   82.411    0.498    0.269    4.003
  341.750   79.447    0.469    0.271    4.829
  342.000   77.075    0.458    0.281    6.164
  342.250   75.889    0.446    0.287    7.299
  342.500   72.332    0.436    0.296    8.973
  342.750   71.146    0.437    0.302    9.859
  343.000   68.775    0.445    0.310   10.050
  343.250   66.996    0.452    0.318   10.057
  343.500   64.032    0.454    0.325   10.061
  343.750   64.032    0.454    0.325   10.068
  344.000   63.439    0.454    0.322   10.459
  344.250   63.439    0.451    0.317   11.280
  344.500   62.846    0.447    0.314   11.936
  344.750   60.474    0.437    0.313   12.871
  345.000   57.510    0.439    0.312   13.368
  345.250   55.138    0.442    0.289   13.377
  345.500   53.360    0.434    0.246   13.134
  345.750   52.174    0.202    0.037   12.659
  346.000   52.174    0.216    0.007   11.977
  346.250   56.917    0.332    0.063   11.542
  346.500   61.067    0.430    0.237   10.919
  346.750   65.810    0.459    0.275   10.523
  347.000   68.182    0.453    0.271    9.772
  347.250   71.146    0.449    0.290    9.593
  347.500   71.739    0.441    0.308    9.246
  347.750   72.925    0.437    0.306    8.747
  348.000   72.925    0.435    0.298    8.429
  348.250   72.925    0.434    0.290    7.976
  348.500   72.925    0.442    0.284    7.832
  348.750   72.332    0.457    0.281    7.690
  349.000   72.332    0.463    0.278    7.275
  349.250   72.332    0.455    0.272    7.143
  349.500   72.925    0.450    0.266    6.759
  349.750   73.518    0.456    0.261    6.635
  350.000   73.518    0.463    0.260    6.395
  350.250   74.704    0.467    0.266    6.280
  350.500   75.889    0.477    0.271    6.053
  350.750   76.482    0.472    0.278    5.944
  351.000   77.075    0.466    0.283    5.946
  351.250   77.075    0.459    0.290    5.950
  351.500   77.668    0.454    0.285    5.845
  351.750   78.854    0.444    0.278    5.847
  352.000   79.447    0.453    0.284    5.850
  352.250   81.225    0.481    0.290    5.964
  352.500   84.783    0.489    0.295    5.967
  352.750   88.933    0.496    0.289    6.083
  353.000   83.004    0.502    0.287    6.201
  353.250   80.632    0.491    0.289    6.322
  353.500   82.411    0.467    0.295    6.567
  353.750   85.376    0.442    0.296    6.951
  354.000   86.561    0.467    0.290    7.220
  354.250   86.561    0.476    0.262    8.238
  354.500   86.561    0.477    0.256    8.716
  354.750   86.561    0.441    0.252    9.576
  355.000   80.040    0.419    0.250   11.341
  355.250   69.960    0.391    0.246   10.334
