~VERSION INFORMATION
 VERS.                 2.0:   CWLS LOG ASCII STANDARD -VERSION 2.0
 WRAP.                  NO:   ONE LINE PER DEPTH STEP
~WELL INFORMATION BLOCK
#MNEM.UNIT           DATA                    DESCRIPTION OF MNEMONIC
#---------    -------------------            -------------------------------
# Generated from Intellog Unique Number	CS_67_68/WELL/2401
WELL.         BVI ET AL TOUCHWOOD            : Well_name    - WELL
LOC .         00/09-31-067-10W4/0            : Location     - LOCATION
UWI .         00/09-31-067-10W4/0            : Uwi          - UNIQUE WELL ID
ENTR.         C                              : Entered      - ENTERED BY
SRVC.         SCHLUMBERGER                   : Scn          - SERVICE COMPANY
STRT.M        350                            : top_depth    - START DEPTH
STOP.M        575                            : bot_depth    - STOP DEPTH
STEP.M        0.25                           : increment    - STEP LENGTH
 NULL. -999.2500:NULL Value
~CURVE INFORMATION BLOCK
#MNEM UNIT       ERCB CURVE CODE    CURVE DESCRIPTION
#-----------   ------------------   ----------------------------------
DEPT.M        00 001 00 00         : DEPTH        - DEPTH
ILD .OHMM     00 120 00 00         : RESD         - DEEP RESISTIVITY (DIL)
DPHI.V/V      00 890 00 00         : PHID         - DENSITY POROSITY (SANDSTONE)
NPHI.V/V      00 330 00 00         : PHIN         - NEUTRON POROSITY (SANDSTONE)
CALI.MM       00 280 01 00         : CAL          - CALIPER
GR  .API      00 310 00 00         : GR           - GAMMA RAY
~PARAMETER INFORMATION
#MNEM.UNIT           DATA             DESCRIPTION OF MNEMONIC
#---------         -----------     ------------------------------
GL  .M        653                  : gl           - GROUND LEVEL ELEVATION
EREF.M        657.15               : kb           - ELEVATION OF DEPTH REFERENCE
DATM.M        657.15               : datum        - DATUM ELEVATION
TDD .M        686                  : tdd          - TOTAL DEPTH DRILLER
RUN .         ONE                  : Run          - RUN NUMBER
ENG .         BILL                 : Engineer     - RECORDING ENGINEER
WIT .         JIM                  : Witness      - WITNESSED BY
MUD .         GEL                  : Mud_type     - MUD TYPE
MATR.         SANDSTONE            : Logunit      - NEUTRON MATRIX
TMAX.C        28                   : BHT          - MAXIMUM RECORDED TEMPERATURE
BHTD.M        586                  : BHTDEP       - MAXIMUM RECORDED TEMPERATURE
RMT .C        22                   : MDTP         - TEMPERATURE OF MUD
MUDD.KG/M     1130                 : MWT          - MUD DENSITY
NEUT.         1                    : NEUTRON      - NEUTRON TYPE
RESI.         0                    : RESIST       - RESISTIVITY TYPE
RM  .OHMM     4.3                  : RM           - RESISTIVITY OF MUD
RMC .OHMM     2.7                  : RMC          - RESISTIVITY OF MUD CAKE
RMF .OHMM     3.7                  : RMF          - RESISTIVITY OF MUD FILTRATE
SUFT.C        4                    : SUFT         - SURFACE TEMPERATURE
~A  DEPTH     RESD     PHID     PHIN      CAL       GR
# ...
  459.500    3.053    0.254    0.391  158.461   80.062
  459.750    3.053    0.232    0.392  157.419   75.185
  460.000    3.111    0.211    0.393  157.391   71.520
  460.250    3.170    0.212    0.392  157.362   71.503
  460.500    3.291    0.217    0.386  158.347   71.486
  460.750    3.353    0.222    0.392  158.318   70.248
  461.000    3.482    0.226    0.410  155.242   69.015
  461.250    3.683    0.232    0.423  153.180   65.962
  461.500    3.753    0.242    0.412  152.152   60.469
  461.750    3.753    0.253    0.397  151.110   58.020
  462.000    3.753    0.273    0.386  150.068   58.003
  462.250    3.753    0.283    0.378  150.039   56.162
  462.500    3.753    0.291    0.367  150.010   53.105
  462.750    3.614    0.310    0.365  149.975   50.656
  463.000    3.416    0.316    0.369  149.939   49.422
  463.250    3.228    0.319    0.378  149.924   53.057
  463.500    3.168    0.317    0.395  149.888   58.512
  463.750    3.109    0.309    0.404  149.860   60.323
  464.000    2.938    0.306    0.415  149.824   58.481
  464.250    2.830    0.311    0.418  149.809   55.420
  464.500    2.725    0.314    0.393  149.781   54.799
  464.750    2.624    0.318    0.389  149.730   65.117
  465.000    2.527    0.321    0.387  150.722   66.924
  465.250    2.527    0.324    0.384  150.708   62.039
  465.500    2.527    0.320    0.382  151.692   58.986
  465.750    2.527    0.315    0.378  152.670   57.753
  466.000    2.624    0.306    0.378  152.641   67.463
  466.250    2.673    0.304    0.387  151.606   67.446
  466.500    2.724    0.306    0.394  151.577   66.821
  466.750    2.776    0.306    0.395  151.556   71.059
  467.000    2.776    0.302    0.395  150.514   68.610
  467.250    2.828    0.297    0.395  150.478   64.333
  467.500    2.828    0.293    0.396  150.449   65.536
  467.750    2.881    0.289    0.396  150.428   67.343
  468.000    2.881    0.281    0.397  150.399   66.713
  468.250    2.936    0.274    0.397  151.376   64.868
  468.500    2.991    0.270    0.397  153.367   64.251
  468.750    3.048    0.232    0.397  154.366   61.194
  469.000    3.106    0.188    0.386  156.356   52.048
  469.250    3.225    0.137    0.215  158.347   50.824
  469.500    3.476    0.053    0.195  158.326   46.547
  469.750    3.965    0.080    0.201  159.303   48.358
  470.000    4.275    0.088    0.208  159.289   52.596
  470.250    4.876    0.069    0.208  160.266   61.090
  470.500    5.458    0.079    0.205  160.244   67.157
  470.750    6.225    0.120    0.261  160.208   71.999
  471.000    7.513    0.227    0.315  160.187   72.594
  471.250    8.897    0.240    0.355  160.158   73.185
  471.500    9.774    0.193    0.351  158.103   73.776
  471.750    9.591    0.173    0.330  157.054   65.855
  472.000    7.371    0.177    0.323  157.032   65.230
  472.250    6.223    0.188    0.329  155.983   70.076
  472.500    5.665    0.196    0.341  155.947   70.663
  472.750    5.354    0.197    0.350  156.939   62.138
  473.000    5.559    0.196    0.351  156.917   60.905
  473.250    5.993    0.191    0.357  156.896   72.439
  473.500    6.340    0.187    0.377  157.880   73.638
  473.750    6.106    0.195    0.374  159.871   74.229
  474.000    5.771    0.203    0.370  159.842   76.639
  474.250    5.454    0.206    0.367  159.813   76.626
  474.500    5.352    0.200    0.364  159.778   69.917
  474.750    5.252    0.195    0.365  159.763   70.512
  475.000    5.154    0.197    0.370  159.727   71.702
  475.250    5.154    0.205    0.371  159.691   72.905
  475.500    5.252    0.213    0.374  159.677   76.531
  475.750    5.453    0.223    0.376  158.635   78.347
  476.000    5.452    0.226    0.379  158.599   81.373
  476.250    5.452    0.220    0.380  158.578   81.356
  476.500    5.350    0.212    0.374  158.542   69.175
  476.750    5.251    0.200    0.364  158.520   68.550
  477.000    5.153    0.198    0.367  158.484   70.965
  477.250    5.152    0.209    0.383  157.435   73.983
  477.500    5.152    0.219    0.395  157.421   75.798
  477.750    5.056    0.220    0.391  157.385   80.037
  478.000    5.056    0.225    0.385  157.349   85.491
  478.250    4.961    0.227    0.383  157.334   74.531
  478.500    4.869    0.226    0.394  158.319   72.689
  478.750    4.778    0.221    0.403  158.283   72.668
  479.000    4.689    0.215    0.404  160.281   75.695
  479.250    4.601    0.215    0.402  162.279   79.929
  479.500    4.515    0.220    0.403  162.257   82.348
  479.750    4.348    0.224    0.405  163.249   84.155
  480.000    4.348    0.227    0.414  163.220   85.961
  480.250    4.188    0.234    0.431  164.198   88.376
  480.500    4.109    0.240    0.465  165.182   90.791
  480.750    3.884    0.248    0.478  166.167   94.417
  481.000    3.811    0.253    0.469  165.125   95.620
  481.250    3.671    0.255    0.455  163.069   96.819
  481.500    3.469    0.254    0.451  159.994   94.365
  481.750    3.158    0.250    0.450  158.966   91.920
  482.000    3.041    0.240    0.445  156.904   91.295
  482.250    2.716    0.243    0.444  154.855   92.490
  482.500    2.520    0.249    0.468  156.853   93.692
  482.750    2.426    0.283    0.495  158.851   93.675
  483.000    2.251    0.283    0.478  161.862   90.623
  483.250    2.127    0.278    0.463  162.847   85.742
  483.500    1.973    0.270    0.485  164.845   83.900
  483.750    1.865    0.261    0.505  165.829   85.707
  484.000    1.762    0.246    0.453  165.793   86.906
  484.250    1.697    0.233    0.419  165.764   86.889
  484.500    1.604    0.227    0.416  164.722   87.479
  484.750    1.665    0.232    0.426  162.674   88.061
  485.000    1.762    0.237    0.466  160.619   88.053
  485.250    1.864    0.237    0.451  157.536   85.604
  485.500    1.935    0.239    0.436  156.509   81.331
  485.750    2.087    0.228    0.408  155.459   77.058
  486.000    2.126    0.194    0.384  154.425   69.137
  486.250    2.249    0.144    0.374  153.368   64.256
  486.500    2.380    0.133    0.381  153.347   67.279
  486.750    2.518    0.148    0.388  153.325   74.557
  487.000    2.565    0.171    0.393  153.304   75.148
  487.250    2.714    0.192    0.383  153.268   70.267
  487.500    2.871    0.201    0.372  153.246   70.857
  487.750    3.038    0.209    0.367  154.223   73.880
  488.000    3.214    0.205    0.375  155.201   77.506
  488.250    3.337    0.198    0.383  155.186   76.881
  488.500    3.400    0.205    0.386  156.164   76.868
  488.750    3.530    0.208    0.377  157.141   79.278
  489.000    3.597    0.213    0.372  157.127   78.657
  489.250    3.665    0.215    0.377  158.111   73.169
  489.500    3.735    0.215    0.385  158.068   65.248
  489.750    3.805    0.194    0.382  159.060   59.755
  490.000    3.951    0.146    0.362  159.038   59.737
  490.250    4.026    0.121    0.331  158.995   63.980
  490.500    4.180    0.164    0.326  158.974   70.646
  490.750    4.259    0.183    0.333  157.932   68.805
  491.000    4.340    0.200    0.353  157.910   74.268
  491.250    4.340    0.208    0.378  156.861   83.978
  491.500    4.339    0.196    0.383  155.826   86.393
  491.750    4.339    0.177    0.386  153.757   77.256
  492.000    4.258    0.166    0.374  151.709   69.335
  492.250    4.179    0.158    0.375  150.674   82.086
  492.500    4.101    0.165    0.385  149.625   83.284
  492.750    4.024    0.177    0.389  149.603   75.364
  493.000    4.024    0.193    0.381  149.560   72.306
  493.250    4.024    0.209    0.373  149.546   84.448
  493.500    4.024    0.208    0.366  149.517   87.471
  493.750    4.023    0.197    0.376  149.488   83.198
  494.000    4.023    0.186    0.378  149.452   75.885
  494.250    4.023    0.177    0.365  149.438   67.965
  494.500    4.023    0.158    0.348  149.409   62.476
  494.750    4.023    0.146    0.333  149.380   56.987
  495.000    4.023    0.181    0.319  150.351   63.657
  495.250    4.022    0.212    0.332  150.336   71.543
  495.500    4.022    0.233    0.367  150.293   76.385
  495.750    4.022    0.232    0.380  150.272   72.721
