~VERSION INFORMATION
 VERS.                 2.0:   CWLS LOG ASCII STANDARD -VERSION 2.0
 WRAP.                  NO:   ONE LINE PER DEPTH STEP
~WELL INFORMATION BLOCK
#MNEM.UNIT           DATA                    DESCRIPTION OF MNEMONIC
#---------    -------------------            -------------------------------
# Generated from Intellog Unique Number	CW_73_75/WELL/549
WELL.         AMOCO 59 MARTEN HILLS 06-21    : Well_name    - WELL
LOC .         00/06-21-075-25W4/0            : Location     - LOCATION
UWI .         00/06-21-075-25W4/0            : Uwi          - UNIQUE WELL ID
ENTR.         JAYE                           : Entered      - ENTERED BY
SRVC.         SCHLUMBERGER                   : Scn          - SERVICE COMPANY
DATE.         27 JAN 75                      : Date         - LOG DATE
STRT.M        445.008                        : top_depth    - START DEPTH
STOP.M        647.508                        : bot_depth    - STOP DEPTH
STEP.M        0.25                           : increment    - STEP LENGTH
 NULL. -999.2500:NULL Value
~CURVE INFORMATION BLOCK
#MNEM UNIT       ERCB CURVE CODE    CURVE DESCRIPTION
#-----------   ------------------   ----------------------------------
DEPT.M        00 001 00 00         : DEPTH        - DEPTH
ILD .OHMM     00 120 00 00         : RESD         - DEEP RESISTIVITY (DIL)
NPHI.V/V      00 330 00 00         : PHIN         - NEUTRON POROSITY (SANDSTONE)
DPHI.V/V      00 890 00 00         : PHID         - DENSITY POROSITY (SANDSTONE)
GR  .API      00 310 00 00         : GR           - GAMMA RAY
CALI.MM       00 280 01 00         : CAL          - CALIPER
~PARAMETER INFORMATION
#MNEM.UNIT           DATA             DESCRIPTION OF MNEMONIC
#---------         -----------     ------------------------------
GL  .M        724.51               : gl           - GROUND LEVEL ELEVATION
EREF.M        728.624              : kb           - ELEVATION OF DEPTH REFERENCE
DATM.M        724.51               : datum        - DATUM ELEVATION
TDD .M        647.7                : tdd          - TOTAL DEPTH DRILLER
RUN .         ONE                  : Run          - RUN NUMBER
MATR.         SANDSTONE            : Logunit      - NEUTRON MATRIX
TMAX.C        27.7778              : BHT          - MAXIMUM RECORDED TEMPERATURE
BHTD.M        648.005              : BHTDEP       - MAXIMUM RECORDED TEMPERATURE
RMT .C        17.2222              : MDTP         - TEMPERATURE OF MUD
MUDD.KG/M     0                    : MWT          - MUD DENSITY
NEUT.         1                    : NEUTRON      - NEUTRON TYPE
RESI.         0                    : RESIST       - RESISTIVITY TYPE
RM  .OHMM     4.33                 : RM           - RESISTIVITY OF MUD
RMC .OHMM     0                    : RMC          - RESISTIVITY OF MUD CAKE
RMF .OHMM     5.22                 : RMF          - RESISTIVITY OF MUD FILTRATE
SUFT.C        -17.7778             : SUFT         - SURFACE TEMPERATURE
~A  DEPTH     RESD     PHIN     PHID       GR      CAL
  445.008    2.287    0.521    0.192  103.978  238.319
  445.258    2.295    0.548    0.206  104.396  238.722
  445.508    2.325    0.566    0.217  104.212  239.328
  445.758    2.351    0.548    0.228  103.303  239.017
  446.008    2.425    0.525    0.216  103.420  238.703
  446.258    2.497    0.519    0.226  103.779  238.493
  446.508    2.502    0.532    0.218  104.198  238.282
  446.758    2.443    0.529    0.203  104.435  237.971
  447.008    2.398    0.502    0.193  104.010  237.249
  447.258    2.338    0.514    0.210  103.705  236.528
  447.508    2.312    0.570    0.217  102.253  236.012
  447.758    2.350    0.560    0.212  100.079  235.495
  448.008    2.474    0.530    0.220   98.447  234.876
  448.258    2.737    0.506    0.206   94.342  233.951
  448.508    3.011    0.489    0.207   87.583  232.923
  448.758    3.228    0.480    0.215   77.628  230.978
  449.008    3.461    0.466    0.222   69.362  226.376
  449.258    3.603    0.447    0.219   66.644  223.306
  449.508    3.342    0.479    0.240   72.069  224.320
  449.758    3.000    0.486    0.236   78.941  226.052
  450.008    2.727    0.490    0.217   81.712  227.884
  450.258    2.497    0.500    0.224   85.447  226.753
  450.508    2.257    0.519    0.224   87.555  225.523
  450.758    2.094    0.536    0.213   87.672  224.598
  451.008    1.974    0.543    0.248   85.557  225.306
  451.258    2.040    0.549    0.267   81.151  226.525
  451.508    2.923    0.560    0.255   76.142  227.133
  451.758    4.641    0.577    0.270   69.865  227.330
  452.008    5.999    0.560    0.306   62.986  225.180
  452.258    8.270    0.475    0.305   56.107  219.966
  452.508    9.472    0.485    0.298   53.208  219.143
  452.758    9.772    0.478    0.303   53.265  219.136
  453.008    9.300    0.467    0.308   53.503  219.027
  453.258    8.579    0.476    0.309   53.800  218.715
  453.508    8.270    0.460    0.312   54.159  217.892
  453.758    8.239    0.448    0.314   53.070  215.129
  454.008    8.721    0.450    0.316   51.137  211.037
  454.258    9.541    0.454    0.319   49.263  209.296
  454.508   10.534    0.460    0.300   49.440  209.902
  454.758   11.069    0.440    0.279   49.799  211.632
  455.008   11.567    0.412    0.248   49.493  212.851
  455.258   11.890    0.381    0.199   50.697  214.582
  455.508   11.652    0.345    0.177   52.985  217.946
  455.758   10.887    0.436    0.176   56.057  221.208
  456.008   10.342    0.455    0.268   57.441  223.755
  456.258    9.628    0.439    0.328   57.317  221.400
  456.508    8.720    0.443    0.341   56.589  222.109
  456.758    7.854    0.452    0.338   57.249  224.453
  457.008    7.406    0.446    0.334   59.115  226.898
  457.258    6.958    0.436    0.325   59.051  226.790
  457.508    6.757    0.458    0.315   57.902  225.456
  457.758    6.598    0.476    0.302   55.486  222.692
  458.008    6.395    0.487    0.290   53.854  220.643
  458.258    6.176    0.490    0.285   53.790  221.659
  458.508    6.064    0.487    0.273   56.199  224.308
  458.758    6.008    0.482    0.293   58.487  226.548
  459.008    6.008    0.479    0.288   58.001  225.828
  459.258    6.052    0.468    0.281   56.791  222.145
  459.508    6.255    0.467    0.305   54.797  218.871
  459.758    6.489    0.476    0.316   54.492  215.492
  460.008    6.731    0.474    0.313   55.574  216.510
  460.258    6.831    0.466    0.307   56.716  216.198
  460.508    6.818    0.458    0.315   56.411  213.638
  460.758    6.670    0.469    0.298   54.719  211.590
  461.008    6.489    0.480    0.296   53.510  210.256
  461.258    6.359    0.476    0.305   57.667  211.883
  461.508    6.301    0.463    0.313   60.378  214.125
  461.758    6.243    0.445    0.304   60.374  216.467
  462.008    6.243    0.455    0.294   64.713  217.380
  462.258    6.266    0.459    0.304   63.262  217.886
  462.508    6.277    0.452    0.319   58.614  218.901
  462.758    6.289    0.460    0.316   55.535  219.201
  463.008    6.417    0.462    0.308   57.462  219.093
  463.258    6.681    0.466    0.305   58.423  219.495
  463.508    7.020    0.472    0.310   57.695  219.489
  463.758    7.458    0.456    0.285   54.737  219.176
  464.008    7.982    0.386    0.234   48.220  219.069
  464.258    8.100    0.333    0.183   44.296  218.858
  464.508    7.808    0.385    0.151   45.498  218.138
  464.758    6.956    0.413    0.265   47.726  217.315
  465.008    6.334    0.451    0.289   50.557  216.593
  465.258    5.664    0.460    0.305   55.982  216.587
  465.508    5.196    0.462    0.316   59.597  216.683
  465.758    4.775    0.469    0.307   62.609  216.882
  466.008    4.578    0.464    0.309   63.691  217.487
  466.258    4.446    0.462    0.308   64.532  218.095
  466.508    4.333    0.467    0.274   64.166  219.008
  466.758    4.278    0.445    0.250   63.680  219.615
  467.008    4.215    0.423    0.224   64.159  220.119
  467.258    4.223    0.454    0.217   66.146  220.316
  467.508    4.325    0.480    0.273   67.530  220.107
  467.758    4.478    0.471    0.283   66.500  219.692
  468.008    4.749    0.448    0.275   64.507  218.971
  468.258    5.224    0.431    0.282   60.342  217.945
  468.508    5.694    0.415    0.294   54.548  217.224
  468.758    6.049    0.423    0.309   50.926  217.218
  469.008    6.105    0.430    0.336   51.345  216.599
  469.258    5.983    0.437    0.319   53.753  216.184
  469.508    5.853    0.451    0.296   57.368  215.464
  469.758    5.746    0.462    0.290   61.647  215.355
  470.008    5.694    0.455    0.280   65.323  214.839
  470.258    5.662    0.436    0.265   70.506  215.241
  470.508    5.662    0.443    0.274   77.619  217.276
  470.758    5.683    0.428    0.260   82.501  219.110
  471.008    5.725    0.432    0.242   82.497  221.350
  471.258    5.809    0.440    0.240   72.723  223.387
  471.508    5.938    0.434    0.245   64.216  223.688
  471.758    6.115    0.416    0.235   54.683  218.984
  472.008    6.149    0.397    0.265   52.568  212.339
  472.258    6.081    0.398    0.284   59.923  209.065
  472.508    5.949    0.416    0.274   64.081  207.220
  472.758    5.852    0.428    0.275   63.715  206.194
  473.008    5.809    0.431    0.283   62.204  204.757
  473.258    5.841    0.426    0.287   59.486  204.036
  473.508    5.884    0.434    0.291   54.658  205.256
  473.758    5.916    0.422    0.296   54.172  208.620
  474.008    5.808    0.409    0.290   61.346  209.738
  474.258    5.734    0.422    0.281   68.398  206.463
  474.508    5.734    0.427    0.295   73.582  201.760
  474.758    5.862    0.432    0.291   77.378  202.161
  475.008    6.047    0.439    0.266   75.625  207.364
  475.258    6.227    0.411    0.244   71.942  212.158
  475.508    6.273    0.376    0.227   71.275  214.501
  475.758    6.204    0.394    0.202   74.710  211.533
  476.008    6.125    0.438    0.247   80.979  203.357
  476.258    5.926    0.459    0.269   83.568  203.351
  476.508    5.660    0.472    0.274   80.851  205.796
  476.758    5.416    0.462    0.288   76.022  203.135
  477.008    4.924    0.452    0.298   73.425  202.618
  477.258    4.228    0.442    0.282   76.859  207.923
  477.508    3.611    0.470    0.270   81.621  213.943
  477.758    2.962    0.502    0.257   92.654  219.144
  478.008    2.544    0.522    0.236  100.129  221.182
  478.258    2.416    0.534    0.241  103.141  223.116
  478.508    2.368    0.527    0.230  102.233  224.233
  478.758    2.351    0.528    0.220  105.667  224.022
  479.008    2.346    0.549    0.239  108.981  224.017
  479.258    2.368    0.560    0.226  106.927  224.725
  479.508    2.452    0.553    0.214  108.732  225.639
  479.758    2.595    0.546    0.218  109.271  226.448
  480.008    2.860    0.543    0.255  106.313  226.443
  480.258    3.181    0.530    0.261  103.173  226.336
  480.508    3.532    0.497    0.244   99.430  225.103
  480.758    4.053    0.487    0.232   97.074  223.974
  481.008    4.418    0.487    0.233  101.594  223.253
  481.258    4.450    0.478    0.234  105.933  222.022
