~VERSION INFORMATION
 VERS.                 2.0:   CWLS LOG ASCII STANDARD -VERSION 2.0
 WRAP.                  NO:   ONE LINE PER DEPTH STEP
~WELL INFORMATION BLOCK
#MNEM.UNIT           DATA                    DESCRIPTION OF MNEMONIC
#---------    -------------------            -------------------------------
# Generated from Intellog Unique Number	CS_71_72/WELL/840
WELL.         MAYNARD ET AL TWEEDIE          : Well_name    - WELL
LOC .         00/09-13-072-12W4/0            : Location     - LOCATION
UWI .         00/09-13-072-12W4/0            : Uwi          - UNIQUE WELL ID
ENTR.         SP                             : Entered      - ENTERED BY
SRVC.         SCHLUMBERGER                   : Scn          - SERVICE COMPANY
STRT.M        290                            : top_depth    - START DEPTH
STOP.M        525                            : bot_depth    - STOP DEPTH
STEP.M        0.25                           : increment    - STEP LENGTH
 NULL. -999.2500:NULL Value
~CURVE INFORMATION BLOCK
#MNEM UNIT       ERCB CURVE CODE    CURVE DESCRIPTION
#-----------   ------------------   ----------------------------------
DEPT.M        00 001 00 00         : DEPTH        - DEPTH
GR  .API      00 310 00 00         : GR           - GAMMA RAY
NPHI.V/V      00 330 00 00         : PHIN         - NEUTRON POROSITY (LIMESTONE)
DPHI.V/V      00 890 00 00         : PHID         - DENSITY POROSITY (LIMESTONE)
ILD .OHMM     00 120 00 00         : RESD         - DEEP RESISTIVITY (DIL)
~PARAMETER INFORMATION
#MNEM.UNIT           DATA             DESCRIPTION OF MNEMONIC
#---------         -----------     ------------------------------
GL  .M        639.4                : gl           - GROUND LEVEL ELEVATION
EREF.M        642.75               : kb           - ELEVATION OF DEPTH REFERENCE
DATM.M        639.4                : datum        - DATUM ELEVATION
TDD .M        540                  : tdd          - TOTAL DEPTH DRILLER
RUN .         ONE                  : Run          - RUN NUMBER
ENG .         BILL                 : Engineer     - RECORDING ENGINEER
WIT .         JIM                  : Witness      - WITNESSED BY
MUD .         GEL                  : Mud_type     - MUD TYPE
MATR.         LIMESTONE            : Logunit      - NEUTRON MATRIX
TMAX.C        10                   : BHT          - MAXIMUM RECORDED TEMPERATURE
BHTD.M        540                  : BHTDEP       - MAXIMUM RECORDED TEMPERATURE
MATR.         1                    : LOGUNIT      - NEUTRON MATRIX
RMT .C        25                   : MDTP         - TEMPERATURE OF MUD
NEUT.         1                    : NEUTRON      - NEUTRON TYPE
RESI.         0                    : RESIST       - RESISTIVITY TYPE
RMC .OHMM     0.25                 : RMC          - RESISTIVITY OF MUD CAKE
RMF .OHMM     0.25                 : RMF          - RESISTIVITY OF MUD FILTRATE
SUFT.C        15                   : SUFT         - SURFACE TEMPERATURE
~A  DEPTH       GR     PHIN     PHID     RESD
  290.000  117.479    0.532    0.287    2.811
  290.250  116.887    0.538    0.293    2.652
  290.500  114.499    0.534    0.303    2.572
  290.750  112.708    0.535    0.308    2.573
  291.000  111.520    0.548    0.306    2.493
  291.250  112.139    0.555    0.299    2.494
  291.500  110.949    0.572    0.294    2.494
  291.750  107.355    0.578    0.292    2.495
  292.000  106.766    0.590    0.299    2.496
  292.250  109.193    0.560    0.303    2.416
  292.500  110.422    0.550    0.304    2.417
  292.750  112.242    0.554    0.309    2.417
  293.000  111.052    0.557    0.315    2.418
  293.250  108.667    0.556    0.315    2.338
  293.500  109.883    0.550    0.313    2.339
  293.750  109.299    0.555    0.315    2.340
  294.000  110.518    0.550    0.308    2.341
  294.250  107.524    0.554    0.305    2.341
  294.500  104.529    0.556    0.299    2.422
  294.750  103.342    0.544    0.293    2.583
  295.000  103.961    0.538    0.272    2.664
  295.250  105.785    0.540    0.261    2.745
  295.500  103.394    0.547    0.282    2.826
  295.750  104.616    0.555    0.291    2.827
  296.000  106.439    0.542    0.300    2.747
  296.250  110.074    0.525    0.307    2.748
  296.500  114.307    0.519    0.302    2.829
  296.750  117.938    0.517    0.298    2.830
  297.000  112.532    0.522    0.284    2.830
  297.250  107.128    0.506    0.273    2.911
  297.500  103.533    0.508    0.263    2.912
  297.750  102.947    0.518    0.255    2.993
  298.000  103.564    0.525    0.266    2.994
  298.250  108.410    0.536    0.270    2.914
  298.500  112.039    0.551    0.275    2.914
  298.750  114.459    0.559    0.269    2.835
  299.000  117.491    0.561    0.269    2.836
  299.250  119.312    0.549    0.281    2.756
  299.500  116.921    0.542    0.290    2.757
  299.750  118.750    0.544    0.297    2.677
  300.000  118.771    0.553    0.286    2.838
  300.250  118.782    0.556    0.273    2.999
  300.500  117.595    0.544    0.264    3.161
  300.750  114.600    0.536    0.269    3.724
  301.000  111.003    0.530    0.227    3.805
  301.250  108.005    0.510    0.221    3.886
  301.500  105.009    0.499    0.215    3.806
  301.750  109.854    0.490    0.219    3.726
  302.000  114.088    0.507    0.241    3.647
  302.250  115.905    0.510    0.253    3.487
  302.500  118.333    0.510    0.245    3.407
  302.750  118.952    0.520    0.242    3.167
  303.000  118.975    0.538    0.244    3.007
  303.250  118.383    0.550    0.257    2.928
  303.500  118.406    0.564    0.267    2.848
  303.750  118.422    0.563    0.272    2.848
  304.000  117.233    0.545    0.276    2.849
  304.250  114.840    0.545    0.266    3.010
  304.500  115.464    0.547    0.265    3.091
  304.750  115.476    0.538    0.268    3.172
  305.000  119.108    0.523    0.259    3.173
  305.250  121.536    0.509    0.251    3.335
  305.500  116.734    0.504    0.265    3.335
  305.750  113.135    0.507    0.265    3.335
  306.000  110.140    0.517    0.273    3.336
  306.250  109.553    0.527    0.272    3.257
  306.500  110.778    0.526    0.263    3.257
  306.750  112.599    0.525    0.255    3.338
  307.000  114.424    0.524    0.256    3.580
  307.250  112.639    0.507    0.262    3.741
  307.500  109.036    0.479    0.241    4.224
  307.750  102.428    0.455    0.216    4.867
  308.000   98.232    0.419    0.210    5.350
  308.250   95.233    0.406    0.249    6.234
  308.500   96.459    0.407    0.280    6.877
  308.750  101.297    0.407    0.292    7.360
  309.000  104.932    0.408    0.300    7.521
  309.250  105.542    0.419    0.296    7.682
  309.500  107.972    0.423    0.303    7.683
  309.750  106.180    0.421    0.311    7.523
  310.000  103.791    0.417    0.283    7.524
  310.250  103.213    0.403    0.275    7.444
  310.500  102.621    0.390    0.269    7.525
  310.750  102.635    0.382    0.269    7.686
  311.000  102.652    0.385    0.278    7.767
  311.250  100.864    0.387    0.265    7.929
  311.500   99.070    0.403    0.283    8.010
  311.750   97.284    0.415    0.310    8.171
  312.000   96.695    0.428    0.322    8.172
  312.250   94.303    0.435    0.330    8.172
  312.500   94.326    0.431    0.336    8.012
  312.750   93.734    0.415    0.293    7.772
  313.000   95.569    0.419    0.271    7.612
  313.250   96.787    0.424    0.274    7.292
  313.500   96.200    0.427    0.268    7.212
  313.750   95.611    0.434    0.271    7.212
  314.000   98.043    0.445    0.273    7.133
  314.250  103.481    0.440    0.265    7.053
  314.500  108.915    0.436    0.253    6.974
  314.750  113.150    0.432    0.244    6.894
  315.000  116.783    0.431    0.245    6.734
  315.250  114.993    0.436    0.255    6.654
  315.500  111.998    0.446    0.257    6.414
  315.750  113.219    0.450    0.248    6.334
  316.000  116.859    0.452    0.246    6.174
  316.250  118.072    0.442    0.260    6.095
  316.500  120.498    0.436    0.286    6.336
  316.750  112.692    0.424    0.299    6.819
  317.000  108.488    0.415    0.313    6.980
  317.250  104.888    0.401    0.311    7.383
  317.500  100.689    0.391    0.311    7.624
  317.750   95.283    0.378    0.326    7.785
  318.000   86.264    0.367    0.334    7.786
  318.250   73.632    0.362    0.333    7.546
  318.500   60.398    0.367    0.332    7.225
  318.750   52.583    0.373    0.330    7.145
  319.000   51.392    0.383    0.327    6.985
  319.250   60.457    0.388    0.347    6.665
  319.500   62.877    0.393    0.356    6.585
  319.750   61.688    0.400    0.347    6.506
  320.000   61.705    0.397    0.342    6.426
  320.250   63.533    0.392    0.339    6.426
  320.500   64.751    0.386    0.347    6.427
  320.750   59.948    0.381    0.349    6.428
  321.000   58.157    0.397    0.346    6.428
  321.250   68.417    0.411    0.337    6.429
  321.500   82.288    0.429    0.314    6.349
  321.750   89.535    0.441    0.302    6.912
  322.000   90.758    0.462    0.347    7.234
  322.250   88.966    0.481    0.382    7.797
  322.500   76.336    0.533    0.517    8.360
  322.750   68.521    0.577    0.576    8.602
  323.000   68.538    0.560    0.553    9.084
  323.250   82.411    0.508    0.488    9.085
  323.500   95.682    0.455    0.428    8.845
  323.750  101.120    0.430    0.338    8.685
  324.000  101.737    0.429    0.338    8.525
  324.250   97.537    0.433    0.344    8.445
  324.500   93.945    0.436    0.330    8.286
  324.750   92.760    0.437    0.316    8.286
  325.000   92.169    0.445    0.304    8.287
  325.250   92.792    0.450    0.284    8.287
  325.500   92.201    0.456    0.270    8.288
  325.750   89.809    0.456    0.270    8.289
  326.000   87.417    0.454    0.291    8.289
  326.250   87.441    0.449    0.300    8.290
  326.500   88.056    0.446    0.302    8.371
  326.750   90.484    0.445    0.303    8.452
  327.000   93.517    0.443    0.297    8.453
  327.250   95.339    0.443    0.295    8.293
  327.500   96.559    0.449    0.300    8.052
  327.750   98.988    0.460    0.305    7.571
  328.000  101.412    0.473    0.289    6.688
  328.250  110.466    0.476    0.283    6.207
  328.500  123.133    0.484    0.278    5.565
  328.750  130.377    0.490    0.261    5.164
  329.000  135.816    0.497    0.249    4.522
  329.250  134.028    0.506    0.229    4.282
  329.500  131.633    0.514    0.218    4.363
  329.750  131.049    0.511    0.208    4.604
  330.000  135.886    0.497    0.225    5.168
  330.250  140.725    0.494    0.238    5.731
  330.500  141.344    0.476    0.252    6.133
  330.750  140.756    0.464    0.264    6.695
  331.000  132.343    0.451    0.284    7.500
  331.250  126.339    0.433    0.296    7.982
  331.500  122.137    0.425    0.306    8.545
  331.750  117.335    0.424    0.314    8.787
  332.000  113.133    0.423    0.323    8.627
  332.250  106.527    0.420    0.332    8.547
  332.500  101.724    0.425    0.344    8.226
  332.750   98.121    0.440    0.351    7.906
  333.000   96.334    0.444    0.351    7.505
  333.250   99.364    0.449    0.348    7.184
