~VERSION INFORMATION
 VERS.                 2.0:   CWLS LOG ASCII STANDARD -VERSION 2.0
 WRAP.                  NO:   ONE LINE PER DEPTH STEP
~WELL INFORMATION BLOCK
#MNEM.UNIT           DATA                    DESCRIPTION OF MNEMONIC
#---------    -------------------            -------------------------------
# Generated from Intellog Unique Number	CS_77_79/WELL/880
WELL.         CWWE HARDY                     : Well_name    - WELL
LOC .         00/06-22-078-04W4/0            : Location     - LOCATION
UWI .         00/06-22-078-04W4/0            : Uwi          - UNIQUE WELL ID
ENTR.         JHS                            : Entered      - ENTERED BY
SRVC.         SCHLUMBERGER                   : Scn          - SERVICE COMPANY
STRT.M        140                            : top_depth    - START DEPTH
STOP.M        400                            : bot_depth    - STOP DEPTH
STEP.M        0.25                           : increment    - STEP LENGTH
 NULL. -999.2500:NULL Value
~CURVE INFORMATION BLOCK
#MNEM UNIT       ERCB CURVE CODE    CURVE DESCRIPTION
#-----------   ------------------   ----------------------------------
DEPT.M        00 001 00 00         : DEPTH        - DEPTH
DPHI.V/V      00 890 00 00         : PHID         - DENSITY POROSITY (LIMESTONE)
NPHI.V/V      00 330 00 00         : PHIN         - NEUTRON POROSITY (LIMESTONE)
GR  .API      00 310 00 00         : GR           - GAMMA RAY
ILD .OHMM     00 120 00 00         : RESD         - DEEP RESISTIVITY (DIL)
RHOB.KG/M3    00 350 00 00         : DENS         - BULK DENSITY
~PARAMETER INFORMATION
#MNEM.UNIT           DATA             DESCRIPTION OF MNEMONIC
#---------         -----------     ------------------------------
GL  .M        554.5                : gl           - GROUND LEVEL ELEVATION
EREF.M        558.4                : kb           - ELEVATION OF DEPTH REFERENCE
DATM.M        558.4                : datum        - DATUM ELEVATION
TDD .M        410                  : tdd          - TOTAL DEPTH DRILLER
RUN .         ONE                  : Run          - RUN NUMBER
ENG .         BILL                 : Engineer     - RECORDING ENGINEER
WIT .         JIM                  : Witness      - WITNESSED BY
MUD .         GEL                  : Mud_type     - MUD TYPE
MATR.         LIMESTONE            : Logunit      - NEUTRON MATRIX
TMAX.C        26                   : BHT          - MAXIMUM RECORDED TEMPERATURE
BHTD.M        410                  : BHTDEP       - MAXIMUM RECORDED TEMPERATURE
MATR.         1                    : LOGUNIT      - NEUTRON MATRIX
RMT .C        25                   : MDTP         - TEMPERATURE OF MUD
NEUT.         1                    : NEUTRON      - NEUTRON TYPE
RESI.         0                    : RESIST       - RESISTIVITY TYPE
RMC .OHMM     0.25                 : RMC          - RESISTIVITY OF MUD CAKE
RMF .OHMM     0.25                 : RMF          - RESISTIVITY OF MUD FILTRATE
SUFT.C        15                   : SUFT         - SURFACE TEMPERATURE
~A  DEPTH     PHID     PHIN       GR     RESD     DENS
# ...
  286.000    0.287    0.377   85.722    6.987 2218.980
  286.250    0.277    0.366   77.578    7.534 2235.920
  286.500    0.190    0.354   68.806    7.973 2385.860
  286.750    0.173    0.346   69.450    8.280 2413.370
  287.000    0.217    0.347   77.629    8.280 2339.540
  287.250    0.283    0.439   80.782    7.973 2225.630
  287.500    0.271    0.439   86.444    7.678 2246.780
  287.750    0.251    0.430   93.361    6.987 2280.610
  288.000    0.230    0.424   90.874    6.728 2316.560
  288.250    0.219    0.424   95.275    6.479 2335.610
  288.500    0.207    0.421  102.827    6.479 2356.800
  288.750    0.203    0.416  102.840    6.479 2363.180
  289.000    0.213    0.411   94.696    6.856 2346.370
  289.250    0.220    0.413   92.831    7.394 2333.760
  289.500    0.221    0.419   94.101    7.678 2331.710
  289.750    0.222    0.422   94.114    7.678 2329.660
  290.000    0.226    0.416   90.991    7.534 2323.370
  290.250    0.233    0.405   96.029    7.255 2310.760
  290.500    0.230    0.410   98.555    6.987 2317.150
  290.750    0.225    0.409   97.317    6.987 2325.670
  291.000    0.226    0.391   93.568    6.987 2323.600
  291.250    0.242    0.365   92.326    7.394 2296.220
  291.500    0.279    0.358   92.341    7.534 2232.960
  291.750    0.257    0.362   95.501    7.678 2271.000
  292.000    0.233    0.397   96.141    7.534 2311.170
  292.250    0.229    0.408   94.899    7.394 2317.570
  292.500    0.302    0.401   91.776    7.394 2193.080
  292.750    0.295    0.405   88.027    7.394 2205.810
  293.000    0.271    0.416   85.536    7.255 2245.970
  293.250    0.258    0.428   86.803    6.856 2269.260
  293.500    0.260    0.438   93.095    6.357 2265.100
  293.750    0.275    0.428   98.759    5.785 2239.830
  294.000    0.284    0.426  100.032    5.166 2225.110
  294.250    0.350    0.440   92.516    4.526 2111.160
  294.500    0.372    0.466   90.020    3.678 2073.230
  294.750    0.353    0.475   90.037    2.988 2107.060
  295.000    0.335    0.478   90.052    2.383 2136.680
  295.250    0.324    0.524   89.439    2.209 2155.730
  295.500    0.338    0.551   85.692    2.127 2132.570
  295.750    0.389    0.524   84.455    2.127 2043.980
  296.000    0.386    0.508   85.096    2.127 2050.360
  296.250    0.361    0.497   86.366    2.127 2092.640
  296.500    0.323    0.500   89.517    2.168 2158.150
  296.750    0.310    0.504   91.421    2.209 2179.320
  297.000    0.310    0.507   90.806    2.383 2179.370
  297.250    0.298    0.481   91.449    2.521 2200.540
  297.500    0.269    0.447   92.092    2.668 2249.160
  297.750    0.247    0.409   90.854    3.103 2287.210
  298.000    0.230    0.405   93.377    3.475 2316.830
  298.250    0.229    0.422   95.902    3.748 2319.010
  298.500    0.231    0.411   92.782    4.277 2314.830
  298.750    0.231    0.390   89.659    4.612 2314.890
  299.000    0.222    0.373   88.418    4.974 2329.730
  299.250    0.215    0.372   86.550    5.466 2342.460
  299.500    0.217    0.383   89.079    5.571 2338.290
  299.750    0.240    0.404   93.488    5.677 2300.360
  300.000    0.223    0.429  103.742    5.894 2329.190
  300.250    0.226    0.417  103.104    5.568 2322.790
  300.500    0.225    0.413   96.215    4.608 2324.860
  300.750    0.217    0.422   93.700    4.191 2339.630
  301.000    0.220    0.410   94.934    3.959 2333.230
  301.250    0.220    0.417   98.672    3.739 2333.180
  301.500    0.213    0.416  102.408    3.668 2345.820
  301.750    0.217    0.418  103.643    3.598 2339.430
  302.000    0.222    0.431  103.006    3.463 2330.920
  302.250    0.222    0.439   99.865    3.333 2330.870
  302.500    0.223    0.444   99.851    3.270 2328.710
  302.750    0.224    0.457  100.464    3.207 2326.550
  303.000    0.228    0.466   97.949    3.206 2320.160
  303.250    0.242    0.461   96.686    3.205 2296.840
  303.500    0.255    0.443   94.795    3.390 2273.530
  303.750    0.263    0.426   95.404    3.794 2260.780
  304.000    0.257    0.407   96.017    4.090 2271.320
  304.250    0.243    0.391   96.003    4.666 2294.540
  304.500    0.231    0.393   96.616    5.223 2315.650
  304.750    0.227    0.412   97.228    5.525 2321.940
  305.000    0.227    0.425   94.087    5.629 2321.900
  305.250    0.226    0.379   88.450    5.842 2323.970
  305.500    0.210    0.346   79.686    6.065 2351.420
  305.750    0.048    0.325   66.549    6.789 2628.490
  306.000    0.080    0.315   75.284    7.599 2573.440
  306.250    0.168    0.322   84.019    8.191 2423.200
  306.500    0.246    0.341   87.756    8.345 2289.880
  306.750    0.270    0.342   83.365    8.031 2247.520
  307.000    0.289    0.320   78.351    7.879 2215.750
  307.250    0.305    0.298   75.213    7.728 2188.200
  307.500    0.331    0.285   75.200    8.488 2143.730
  307.750    0.350    0.280   77.060    9.151 2111.950
  308.000    0.320    0.288   77.670    9.864 2162.670
  308.250    0.297    0.305   77.658    9.860 2202.820
  308.500    0.276    0.330   79.518    8.969 2238.730
  308.750    0.269    0.362   88.879    7.709 2249.260
  309.000    0.272    0.430   98.240    6.380 2244.970
  309.250    0.277    0.450   94.476    4.805 2236.480
  309.500    0.291    0.401   85.088    3.977 2213.150
  309.750    0.299    0.362   77.573    3.901 2198.300
  310.000    0.307    0.310   71.934    4.205 2185.560
  310.250    0.314    0.296   73.794    5.076 2172.820
  310.500    0.313    0.302   81.906    6.128 2174.890
  310.750    0.293    0.320   95.017    6.991 2208.690
  311.000    0.268    0.346  103.752    7.536 2250.950
  311.250    0.239    0.362  105.614    7.391 2301.670
  311.500    0.223    0.374  104.974    6.981 2329.120
  311.750    0.200    0.359  108.709    6.719 2367.160
  312.000    0.189    0.358  108.070    6.469 2386.140
  312.250    0.192    0.371  111.179    6.226 2381.860
  312.500    0.199    0.380  113.041    6.107 2369.120
  312.750    0.196    0.381  112.403    6.104 2375.430
  313.000    0.182    0.396  111.764    5.988 2398.640
  313.250    0.173    0.405  109.874    6.099 2413.390
  313.500    0.175    0.380  106.109    6.213 2411.240
  313.750    0.180    0.362  103.599    6.329 2402.730
  314.000    0.185    0.349  101.083    6.447 2394.220
  314.250    0.191    0.352   99.820    6.692 2383.600
  314.500    0.198    0.360  101.057    6.689 2370.860
  314.750    0.200    0.349  104.790    6.685 2368.700
  315.000    0.191    0.341  108.526    6.684 2383.460
  315.250    0.182    0.343  111.639    6.555 2398.220
  315.500    0.180    0.362  112.250    6.430 2402.400
  315.750    0.180    0.384  105.986    6.308 2402.350
  316.000    0.177    0.373  101.596    6.187 2406.540
  316.250    0.180    0.369  100.333    6.069 2402.260
  316.500    0.184    0.403  102.818    6.066 2395.850
  316.750    0.186    0.405  101.553    6.178 2391.580
  317.000    0.186    0.382  100.916    6.177 2391.530
  317.250    0.186    0.364  101.524    6.291 2391.490
  317.500    0.188    0.356  100.259    6.289 2389.320
  317.750    0.184    0.369   98.995    6.405 2395.620
  318.000    0.183    0.368   97.111    6.404 2397.700
  318.250    0.181    0.326   94.594    6.522 2399.750
  318.500    0.181    0.324   93.955    6.520 2399.720
  318.750    0.186    0.351   91.442    6.517 2391.210
  319.000    0.194    0.350   88.305    6.514 2378.470
  319.250    0.201    0.334   84.541    6.511 2365.720
  319.500    0.208    0.328   80.777    6.387 2355.110
  319.750    0.214    0.321   82.637    6.384 2344.480
  320.000    0.213    0.320   81.375    6.262 2346.550
  320.250    0.213    0.326   76.985    6.028 2346.500
  320.500    0.222    0.331   75.097    5.802 2329.530
  320.750    0.226    0.328   82.579    5.481 2323.130
  321.000    0.218    0.324   80.692    5.079 2337.900
  321.250    0.234    0.328   70.679    4.890 2310.350
  321.500    0.261    0.349   67.541    4.618 2263.760
  321.750    0.246    0.348   72.526    4.446 2289.100
  322.000    0.230    0.320   76.885    4.279 2316.560
  322.250    0.221    0.312   79.372    4.197 2331.310
