~VERSION INFORMATION
 VERS.                 2.0:   CWLS LOG ASCII STANDARD -VERSION 2.0
 WRAP.                  NO:   ONE LINE PER DEPTH STEP
~WELL INFORMATION BLOCK
#MNEM.UNIT           DATA                    DESCRIPTION OF MNEMONIC
#---------    -------------------            -------------------------------
# Generated from Intellog Unique Number	CS_69_70/WELL/833
NULL.         -999.25                        : NULL_VALUE
WELL.         GULF CANADA LIMITED            : Well_name    - WELL              
LOC .         00/07-17-070-15W4/0            : Location     - LOCATION          
UWI .         00/07-17-070-15W4/0            : Uwi          - UNIQUE WELL ID    
ENTR.         SP                             : Entered      - ENTERED BY        
SRVC.         SCHLUMBERGER                   : Scn          - SERVICE COMPANY   
STRT.M        245                            : top_depth    - START DEPTH       
STOP.M        509                            : bot_depth    - STOP DEPTH        
STEP.M        0.25                           : increment    - STEP LENGTH       
~CURVE INFORMATION BLOCK
#MNEM UNIT       ERCB CURVE CODE    CURVE DESCRIPTION
#-----------   ------------------   ----------------------------------
DEPT.M        00 001 00 00         : DEPTH        - DEPTH                       
GR  .API      00 310 00 00         : GR           - GAMMA RAY                   
NPHI.V/V      00 330 00 00         : PHIN         - NEUTRON POROSITY (LIMESTONE)
DPHI.V/V      00 890 00 00         : PHID         - DENSITY POROSITY (LIMESTONE)
ILD .OHMM     00 120 00 00         : RESD         - DEEP RESISTIVITY (DIL)      
~PARAMETER INFORMATION       
#MNEM.UNIT           DATA             DESCRIPTION OF MNEMONIC
#---------         -----------     ------------------------------
GL  .M        567.89               : gl           - GROUND LEVEL ELEVATION      
EREF.M        572.24               : kb           - ELEVATION OF DEPTH REFERENCE
DATM.M        567.89               : datum        - DATUM ELEVATION             
TDD .M        519                  : tdd          - TOTAL DEPTH DRILLER         
RUN .         ONE                  : Run          - RUN NUMBER                  
ENG .         BILL                 : Engineer     - RECORDING ENGINEER          
WIT .         JIM                  : Witness      - WITNESSED BY                
MUD .         GEL                  : Mud_type     - MUD TYPE                    
MATR.         LIMESTONE            : Logunit      - NEUTRON MATRIX              
TMAX.C        25.5                 : BHT          - MAXIMUM RECORDED TEMPERATURE
BHTD.M        519                  : BHTDEP       - MAXIMUM RECORDED TEMPERATURE
MATR.         1                    : LOGUNIT      - NEUTRON MATRIX              
RMT .C        25                   : MDTP         - TEMPERATURE OF MUD          
NEUT.         1                    : NEUTRON      - NEUTRON TYPE                
RESI.         0                    : RESIST       - RESISTIVITY TYPE            
RMC .OHMM     0.25                 : RMC          - RESISTIVITY OF MUD CAKE     
RMF .OHMM     0.25                 : RMF          - RESISTIVITY OF MUD FILTRATE 
SUFT.C        15                   : SUFT         - SURFACE TEMPERATURE         
~A  DEPTH       GR     PHIN     PHID     RESD
  245.000  116.783    0.600    0.202    3.286
  245.250  115.819    0.458    0.206    3.348
  245.500  115.158    0.449    0.195    3.417
  245.750  117.159    0.447    0.196    3.443
  246.000  118.979    0.441    0.201    3.430
  246.250  118.136    0.431    0.206    3.392
  246.500  116.506    0.443    0.211    3.355
  246.750  118.870    0.456    0.213    3.299
  247.000  118.572    0.474    0.212    3.239
  247.250  119.423    0.484    0.214    3.173
  247.500  123.118    0.483    0.211    3.069
  247.750  122.941    0.455    0.205    3.002
  248.000  121.190    0.449    0.203    2.991
  248.250  121.436    0.454    0.206    3.019
  248.500  123.196    0.460    0.214    3.192
  248.750  118.601    0.469    0.224    3.458
  249.000  103.720    0.463    0.233    3.887
  249.250   83.877    0.409    0.238    4.387
  249.500   68.633    0.267    0.253    4.691
  249.750   56.596    0.295    0.264    4.691
  250.000   71.304    0.339    0.257    4.283
  250.250   78.327    0.383    0.252    3.859
  250.500   84.322    0.396    0.242    3.478
  250.750   88.077    0.410    0.231    3.302
  251.000   89.352    0.417    0.223    3.193
  251.250   88.449    0.401    0.221    3.217
  251.500   86.940    0.387    0.225    3.265
  251.750   85.734    0.390    0.226    3.302
  252.000   77.509    0.391    0.223    3.346
  252.250   74.367    0.378    0.219    3.358
  252.500   78.304    0.379    0.207    3.327
  252.750   84.360    0.389    0.206    3.278
  253.000   82.427    0.400    0.223    3.194
  253.250   78.317    0.396    0.232    3.153
  253.500   75.900    0.386    0.244    3.177
  253.750   79.596    0.383    0.254    3.130
  254.000   84.078    0.393    0.249    3.072
  254.250   86.139    0.404    0.237    3.027
  254.500   89.169    0.392    0.234    3.005
  254.750   98.190    0.402    0.228    2.983
  255.000  101.582    0.416    0.220    2.977
  255.250  102.676    0.429    0.224    3.017
  255.500  102.740    0.409    0.231    3.073
  255.750   95.362    0.403    0.219    3.114
  256.000   87.984    0.415    0.208    3.125
  256.250   78.125    0.429    0.213    3.131
  256.500   69.900    0.417    0.232    3.091
  256.750   68.694    0.409    0.242    3.051
  257.000   75.657    0.403    0.239    2.978
  257.250   81.531    0.399    0.229    2.897
  257.500   87.828    0.424    0.217    2.801
  257.750   93.278    0.459    0.209    2.755
  258.000   97.699    0.487    0.202    2.689
  258.250  100.729    0.498    0.209    2.660
  258.500   97.828    0.455    0.216    2.630
  258.750   92.629    0.428    0.222    2.616
  259.000   94.751    0.425    0.222    2.621
  259.250   86.586    0.429    0.227    2.640
  259.500   73.218    0.433    0.235    2.675
  259.750   66.385    0.420    0.241    2.746
  260.000   64.937    0.378    0.245    2.803
  260.250   65.848    0.371    0.250    2.882
  260.500   74.990    0.382    0.240    2.925
  260.750   80.682    0.410    0.236    2.936
  261.000   85.224    0.442    0.245    2.909
  261.250   81.597    0.440    0.256    2.861
  261.500   87.108    0.456    0.253    2.809
  261.750   89.291    0.469    0.248    2.747
  262.000   91.231    0.462    0.248    2.657
  262.250   97.105    0.449    0.240    2.588
  262.500  102.434    0.444    0.234    2.541
  262.750  105.887    0.437    0.226    2.536
  263.000  106.617    0.424    0.219    2.513
  263.250  105.170    0.428    0.210    2.508
  263.500  105.840    0.453    0.204    2.504
  263.750  106.449    0.477    0.215    2.504
  264.000  104.396    0.491    0.223    2.509
  264.250  102.887    0.490    0.223    2.523
  264.500  101.802    0.493    0.220    2.532
  264.750  100.233    0.494    0.222    2.547
  265.000   98.543    0.497    0.232    2.570
  265.250   99.516    0.499    0.244    2.590
  265.500  100.972    0.496    0.230    2.624
  265.750  101.399    0.482    0.223    2.663
  266.000   99.831    0.471    0.221    2.713
  266.250   97.474    0.456    0.214    2.769
  266.500   98.871    0.446    0.210    2.790
  266.750  102.989    0.448    0.220    2.806
  267.000  104.869    0.455    0.230    2.790
  267.250  102.695    0.461    0.227    2.780
  267.500   98.888    0.470    0.223    2.750
  267.750   98.589    0.476    0.220    2.714
  268.000   99.682    0.473    0.218    2.694
  268.250  100.594    0.470    0.216    2.674
  268.500  100.478    0.488    0.215    2.679
  268.750   99.574    0.501    0.214    2.684
  269.000   97.460    0.498    0.218    2.690
  269.250   95.468    0.496    0.225    2.700
  269.500   94.080    0.496    0.221    2.715
  269.750   94.084    0.479    0.217    2.705
  270.000   95.299    0.473    0.220    2.700
  270.250   96.392    0.488    0.214    2.660
  270.500   97.849    0.506    0.210    2.621
  270.750   98.155    0.523    0.214    2.559
  271.000   98.401    0.531    0.242    2.475
  271.250   98.043    0.528    0.250    2.393
  271.500   96.534    0.529    0.243    2.306
  271.750   94.602    0.532    0.251    2.251
  272.000   95.877    0.534    0.259    2.206
  272.250   95.820    0.538    0.258    2.181
  272.500   98.064    0.544    0.254    2.165
  272.750  100.186    0.543    0.257    2.177
  273.000  102.005    0.530    0.260    2.202
  273.250  103.038    0.526    0.251    2.227
  273.500  103.890    0.553    0.245    2.235
  273.750  104.075    0.518    0.240    2.239
  274.000  103.050    0.524    0.240    2.244
  274.250  101.058    0.546    0.245    2.235
  274.500  100.941    0.561    0.252    2.211
  274.750  101.732    0.574    0.261    2.190
  275.000   99.558    0.590    0.264    2.182
  275.250   97.747    0.507    0.260    2.190
  275.500   96.359    0.495    0.249    2.223
  275.750   95.093    0.490    0.241    2.278
  276.000   96.126    0.513    0.237    2.342
  276.250   97.582    0.544    0.240    2.422
  276.500   99.160    0.565    0.236    2.472
  276.750  100.072    0.520    0.231    2.491
  277.000  100.198    0.485    0.230    2.505
  277.250   95.783    0.461    0.224    2.510
  277.500   94.820    0.466    0.197    2.487
  277.750   94.400    0.490    0.172    2.450
  278.000   94.647    0.522    0.193    2.432
  278.250   95.679    0.511    0.222    2.437
  278.500   97.438    0.500    0.222    2.450
  278.750  100.772    0.485    0.217    2.464
  279.000  103.558    0.474    0.210    2.478
  279.250  106.346    0.494    0.205    2.506
  279.500  100.964    0.506    0.200    2.558
  279.750   99.033    0.487    0.193    2.630
  280.000   98.674    0.479    0.189    2.700
  280.250  101.401    0.482    0.192    2.833
  280.500  102.737    0.466    0.198    2.985
  280.750  100.501    0.440    0.176    3.145
  281.000   96.754    0.427    0.160    3.240
  281.250   93.915    0.414    0.170    3.282
  281.500   96.702    0.417    0.198    3.252
  281.750   98.400    0.430    0.203    3.133
  282.000   96.226    0.439    0.193    2.991
  282.250   93.931    0.455    0.187    2.866
  282.500   95.388    0.476    0.205    2.777
  282.750   97.328    0.492    0.219    2.696
  283.000   99.208    0.515    0.218    2.617
  283.250   98.244    0.528    0.215    2.578
  283.500   96.554    0.467    0.219    2.579
  283.750   97.466    0.442    0.215    2.612
  284.000   98.983    0.435    0.209    2.657
  284.250   98.805    0.434    0.201    2.707
  284.500  101.291    0.446    0.191    2.737
  284.750  102.807    0.452    0.196    2.747
  285.000  101.843    0.459    0.202    2.702
  285.250  100.396    0.474    0.206    2.667
  285.500  101.247    0.488    0.197    2.638
  285.750   99.920    0.481    0.191    2.623
  286.000   96.233    0.468    0.234    2.633
  286.250  100.413    0.460    0.245    2.683
  286.500  101.324    0.460    0.226    2.728
  286.750   94.975    0.469    0.212    2.779
  287.000   90.865    0.445    0.206    2.790
  287.250   89.779    0.422    0.209    2.779
  287.500   91.599    0.431    0.199    2.780
  287.750   92.693    0.444    0.191    2.869
  288.000   93.362    0.446    0.193    3.011
  288.250   93.487    0.438    0.180    3.214
