~VERSION INFORMATION
 VERS.                 2.0:   CWLS LOG ASCII STANDARD -VERSION 2.0
 WRAP.                  NO:   ONE LINE PER DEPTH STEP
~WELL INFORMATION BLOCK
#MNEM.UNIT           DATA                    DESCRIPTION OF MNEMONIC
#---------    -------------------            -------------------------------
# Generated from Intellog Unique Number	CW_70_72/WELL/3301
NULL.         -999.25                        : NULL_VALUE
WELL.         CALSTAN SOBC MITSUE            : Well_name    - WELL              
LOC .         04-12-072-05W5                 : Location     - LOCATION          
UWI .         00/04-12-072-05W5/0            : Uwi          - UNIQUE WELL ID    
ENTR.         CAMPBELL                       : Entered      - ENTERED BY        
SRVC.         SCHLUMBERGER                   : Scn          - SERVICE COMPANY   
DATE.         21 OCT 1964                    : Date         - LOG DATE          
STRT.M        585.216                        : top_depth    - START DEPTH       
STOP.M        731.466                        : bot_depth    - STOP DEPTH        
STEP.M        0.25                           : increment    - STEP LENGTH       
~CURVE INFORMATION BLOCK
#MNEM UNIT       ERCB CURVE CODE    CURVE DESCRIPTION
#-----------   ------------------   ----------------------------------
DEPT.M        00 001 00 00         : DEPTH        - DEPTH                       
ILD .OHMM     00 120 00 00         : RESD         - DEEP RESISTIVITY (DIL)      
DELT.US/F     00 520 00 00         : DELT         - SONIC TRAVEL TIME           
GR  .API      00 310 00 00         : GR           - GAMMA RAY                   
~PARAMETER INFORMATION       
#MNEM.UNIT           DATA             DESCRIPTION OF MNEMONIC
#---------         -----------     ------------------------------
GL  .M        689.762              : gl           - GROUND LEVEL ELEVATION      
EREF.M        693.115              : kb           - ELEVATION OF DEPTH REFERENCE
DATM.M        693.115              : datum        - DATUM ELEVATION             
TDD .M        1806.24              : tdd          - TOTAL DEPTH DRILLER         
RUN .         ONE                  : Run          - RUN NUMBER                  
ENG .         MCKEOWN              : Engineer     - RECORDING ENGINEER          
WIT .         BROWN                : Witness      - WITNESSED BY                
MUD .         GEL                  : Mud_type     - MUD TYPE                    
MATR.         SANDSTONE            : Logunit      - NEUTRON MATRIX              
TMAX.C        48.8889              : BHT          - MAXIMUM RECORDED TEMPERATURE
BHTD.M        1806.24              : BHTDEP       - MAXIMUM RECORDED TEMPERATURE
RMT .C        12.2222              : MDTP         - TEMPERATURE OF MUD          
MUDD.KG/M     9800                 : MWT          - MUD DENSITY                 
NEUT.         1                    : NEUTRON      - NEUTRON TYPE                
RESI.         0                    : RESIST       - RESISTIVITY TYPE            
RM  .OHMM     1.55                 : RM           - RESISTIVITY OF MUD          
RMC .OHMM     1.32                 : RMC          - RESISTIVITY OF MUD CAKE     
RMF .OHMM     0.65                 : RMF          - RESISTIVITY OF MUD FILTRATE 
SUFT.C        10                   : SUFT         - SURFACE TEMPERATURE         
~A  DEPTH     RESD     DELT       GR
# ...
  639.466    3.745  358.029   59.669
  639.716    3.738  354.141   58.001
  639.966    3.782  359.646   56.332
  640.216    3.826  361.264   54.902
  640.466    3.919  362.235   54.903
  640.716    4.111  362.881   56.336
  640.966    4.205  363.852   57.053
  641.216    4.296  364.822   57.292
  641.466    4.341  365.793   58.248
  641.716    4.341  366.440   59.203
  641.966    4.378  366.762   59.443
  642.216    4.372  366.761   58.728
  642.466    4.365  364.493   56.821
  642.716    4.259  365.464   55.868
  642.966    4.302  367.406   55.631
  643.216    4.296  367.728   55.871
  643.466    4.241  366.756   56.826
  643.716    4.185  365.783   57.304
  643.966    4.127  370.964   56.351
  644.216    4.072  374.525   57.784
  644.466    4.016  373.553   59.217
  644.716    4.009  370.637   60.172
  644.966    3.953  366.749   60.412
  645.216    3.847  359.947   60.413
  645.466    3.740  363.508   60.414
  645.716    3.686  360.592   60.654
  645.966    3.630  362.858   60.656
  646.216    3.573  363.505   60.418
  646.466    3.614  364.475   59.227
  646.716    3.660  362.207   59.943
  646.966    3.702  359.939   62.092
  647.216    3.747  358.966   64.240
  647.466    3.790  356.050   64.480
  647.716    3.834  356.373   64.004
  647.966    3.828  357.991   62.812
  648.216    3.871  357.666   61.382
  648.466    3.864  358.637   60.667
  648.716    3.856  358.312   61.623
  648.966    3.901  353.776   59.000
  649.216    4.044  349.889   56.854
  649.466    4.337  354.098   58.048
  649.716    4.530  351.830   59.958
  649.966    4.722  351.829   60.436
  650.216    4.915  349.884   57.814
  650.466    5.406  328.508   56.860
  650.716    5.749  204.462   54.953
  650.966    5.942  323.971   54.715
  651.216    6.035  343.726   54.240
  651.466    6.178  329.799   53.525
  651.716    6.421  225.186   52.334
  651.966    6.614  228.099   53.766
  652.216    5.960  228.098   56.869
  652.466    4.510  281.213   63.073
  652.716    3.954  321.049   65.460
  652.966    3.749  336.270   64.268
  653.216    3.593  351.491   65.462
  653.466    3.438  352.461   64.032
  653.716    3.431  361.529   60.932
  653.966    3.574  345.658   58.786
  654.216    3.766  350.838   56.401
  654.466    3.909  356.667   55.925
  654.716    3.953  356.666   57.597
  654.966    3.897  344.681   55.212
  655.216    3.891  327.515   52.589
  655.466    3.885  333.991   54.737
  655.716    3.879  350.184   59.033
  655.966    3.674  341.438   63.090
  656.216    3.318  358.926   66.192
  656.466    3.061  349.209   66.194
  656.716    3.007  362.163   64.286
  656.966    2.900  280.545   64.049
  657.216    2.944  249.452   65.243
  657.466    2.986  243.621   67.630
  657.716    2.981  330.743   70.494
  657.966    2.925  363.453   71.688
  658.216    2.719  360.213   71.928
  658.466    2.613  359.241   70.975
  658.716    2.707  362.154   69.068
  658.966    2.900  356.971   67.876
  659.216    3.142  346.606   68.116
  659.466    3.285  354.702   69.548
  659.716    2.930  366.036   71.220
  659.966    2.624  363.768   71.937
  660.216    2.519  371.864   72.415
  660.466    2.364  379.960   72.655
  660.716    2.206  382.874   72.895
  660.966    2.150  361.497   72.419
  661.216    2.145  354.694   72.181
  661.466    2.138  370.239   68.127
  661.716    2.132  353.072   66.697
  661.966    2.126  353.071   65.505
  662.216    2.369  355.337   64.075
  662.466    2.611  344.972   62.168
  662.716    2.853  353.392   64.316
  662.966    3.196  352.419   65.033
  663.216    3.338  352.094   63.841
  663.466    3.381  357.275   62.650
  663.716    3.325  352.092   62.173
  663.966    3.169  355.977   64.799
  664.216    3.113  367.636   65.993
  664.466    3.108  347.878   65.040
  664.716    3.151  335.570   64.087
  664.966    2.896  351.115   62.895
  665.216    2.591  380.586   60.750
  665.466    2.236  434.996   59.081
  665.716    2.079  444.388   58.605
  665.966    2.023  404.226   59.560
  666.216    2.267  325.199   59.562
  666.466    2.608  306.737   59.563
  666.716    3.049  362.443   59.802
  666.966    3.343  368.919   60.281
  667.216    3.834  372.805   60.759
  667.466    4.176  373.451   58.852
  667.716    4.370  377.984   57.899
  667.966    4.311  379.603   58.377
  668.216    4.256  380.573   59.571
  668.466    4.101  386.402   61.004
  668.716    3.796  375.389   60.290
  668.966    3.442  376.036   59.575
  669.216    3.135  372.796   60.530
  669.466    2.880  361.135   61.725
  669.716    2.674  349.151   62.919
  669.966    2.468  351.093   63.158
  670.216    2.363  355.950   62.682
  670.466    2.257  353.358   61.491
  670.716    2.300  350.442   61.969
  670.966    2.344  339.429   62.925
  671.216    2.386  348.820   62.926
  671.466    2.431  357.564   63.404
  671.716    2.425  362.745   64.837
  671.966    2.468  361.124   66.270
  672.216    2.512  360.475   65.317
  672.466    2.604  360.798   63.170
  672.716    2.896  360.149   60.309
  672.966    3.288  360.796   58.879
  673.216    3.582  361.118   57.687
  673.466    4.123  361.118   56.495
  673.716    4.863  363.060   55.542
  673.966    5.405  362.735   53.873
  674.216    5.498  362.086   51.489
  674.466    5.542  364.028   48.866
  674.716    5.535  360.464   48.629
  674.966    5.529  364.997   51.493
  675.216    5.523  367.263   52.926
  675.466    5.516  366.938   52.927
  675.716    5.509  364.994   52.928
  675.966    5.603  363.697   53.645
  676.216    5.697  363.372   54.362
  676.466    5.739  362.076   55.079
  676.716    5.781  361.427   54.126
  676.966    5.777  361.102   53.889
  677.216    5.670  361.749   53.174
  677.466    5.663  361.100   51.266
  677.716    5.658  358.832   50.313
  677.966    5.651  356.239   51.030
  678.216    5.644  353.647   52.940
  678.466    5.689  354.942   53.657
  678.716    5.632  354.617   53.420
  678.966    5.576  353.644   52.228
  679.216    5.470  354.938   51.275
  679.466    5.413  356.233   50.561
  679.716    5.357  357.527   51.039
  679.966    5.251  357.526   51.279
  680.216    5.146  359.144   51.518
  680.466    5.088  359.143   51.520
  680.716    5.034  362.057   51.521
  680.966    5.028  361.408   51.284
  681.216    4.922  360.759   50.808
  681.466    4.615  362.702   50.809
  681.716    4.310  364.967   50.810
  681.966    3.856  367.557   51.050
  682.216    3.451  369.824   51.767
  682.466    3.296  369.822   51.052
  682.716    3.139  369.821   51.054
  682.966    3.033  370.792   51.055
  683.216    3.028  373.058   50.102
  683.466    3.121  373.704   50.819
  683.716    3.065  373.703   52.490
  683.966    3.009  369.816   53.923
  684.216    2.852  370.462   54.401
  684.466    2.844  371.109   54.163
  684.716    2.890  369.488   53.449
  684.966    2.934  369.163   52.496
  685.216    3.027  368.839   52.259
  685.466    3.069  368.513   52.737
  685.716    3.063  368.836   53.215
  685.966    3.007  370.455   53.694
  686.216    2.900  374.340   55.127
  686.466    2.894  374.987   54.651
  686.716    2.888  373.690   53.459
  686.966    2.982  377.900   53.222
  687.216    3.175  380.166   53.462
  687.466    3.119  373.039   53.701
  687.716    3.012  373.038   55.134
  687.966    2.956  373.684   55.373
  688.216    2.949  379.837   54.182
  688.466    2.943  386.314   52.274
  688.716    3.036  376.596   50.129
  688.966    3.130  370.441   50.368
  689.216    3.273  362.344   51.801
  689.466    3.365  352.626   52.518
  689.716    3.409  360.074   52.281
  689.966    3.403  364.283   53.236
  690.216    3.446  365.254   54.192
  690.466    3.440  368.492   55.624
  690.716    3.384  365.252   56.102
  690.966    3.278  370.109   57.297
  691.216    3.072  373.670   56.344
  691.466    3.016  379.823   55.391
  691.716    3.010  387.595   55.153
  691.966    3.052  389.213   54.916
  692.216    3.047  380.467   54.202
  692.466    3.040  373.989   53.487
  692.716    2.985  372.692   53.965
  692.966    2.979  375.930   54.682
  693.216    2.972  379.815   54.684
  693.466    3.066  375.280   54.923
