~VERSION INFORMATION
 VERS.                 2.0:   CWLS LOG ASCII STANDARD -VERSION 2.0
 WRAP.                  NO:   ONE LINE PER DEPTH STEP
~WELL INFORMATION BLOCK
#MNEM.UNIT           DATA                    DESCRIPTION OF MNEMONIC
#---------    -------------------            -------------------------------
# Generated from Intellog Unique Number	CS_71_72/WELL/843
WELL.         AEC IPIATIK NOVEMBER           : Well_name    - WELL
LOC .         00/09-14-071-06W4/0            : Location     - LOCATION
UWI .         00/09-14-071-06W4/0            : Uwi          - UNIQUE WELL ID
ENTR.         SP                             : Entered      - ENTERED BY
SRVC.         SCHLUMBERGER                   : Scn          - SERVICE COMPANY
STRT.M        305                            : top_depth    - START DEPTH
STOP.M        525                            : bot_depth    - STOP DEPTH
STEP.M        0.25                           : increment    - STEP LENGTH
 NULL. -999.2500:NULL Value
~CURVE INFORMATION BLOCK
#MNEM UNIT       ERCB CURVE CODE    CURVE DESCRIPTION
#-----------   ------------------   ----------------------------------
DEPT.M        00 001 00 00         : DEPTH        - DEPTH
ILD .OHMM     00 120 00 00         : RESD         - DEEP RESISTIVITY (DIL)
DPHI.V/V      00 890 00 00         : PHID         - DENSITY POROSITY (LIMESTONE)
NPHI.V/V      00 330 00 00         : PHIN         - NEUTRON POROSITY (LIMESTONE)
GR  .API      00 310 00 00         : GR           - GAMMA RAY
~PARAMETER INFORMATION
#MNEM.UNIT           DATA             DESCRIPTION OF MNEMONIC
#---------         -----------     ------------------------------
GL  .M        672.05               : gl           - GROUND LEVEL ELEVATION
EREF.M        676.32               : kb           - ELEVATION OF DEPTH REFERENCE
DATM.M        672.05               : datum        - DATUM ELEVATION
TDD .M        566.79               : tdd          - TOTAL DEPTH DRILLER
RUN .         ONE                  : Run          - RUN NUMBER
ENG .         BILL                 : Engineer     - RECORDING ENGINEER
WIT .         JIM                  : Witness      - WITNESSED BY
MUD .         GEL                  : Mud_type     - MUD TYPE
MATR.         LIMESTONE            : Logunit      - NEUTRON MATRIX
TMAX.C        27                   : BHT          - MAXIMUM RECORDED TEMPERATURE
BHTD.M        566.79               : BHTDEP       - MAXIMUM RECORDED TEMPERATURE
MATR.         1                    : LOGUNIT      - NEUTRON MATRIX
RMT .C        25                   : MDTP         - TEMPERATURE OF MUD
NEUT.         1                    : NEUTRON      - NEUTRON TYPE
RESI.         0                    : RESIST       - RESISTIVITY TYPE
RMC .OHMM     0.25                 : RMC          - RESISTIVITY OF MUD CAKE
RMF .OHMM     0.25                 : RMF          - RESISTIVITY OF MUD FILTRATE
SUFT.C        15                   : SUFT         - SURFACE TEMPERATURE
~A  DEPTH     RESD     PHID     PHIN       GR
# ...
  348.500    6.374    0.238    0.489  105.289
  348.750    6.190    0.225    0.486   99.924
  349.000    6.068    0.213    0.483   93.656
  349.250    6.071    0.227    0.480   90.597
  349.500    6.120    0.217    0.476   89.224
  349.750    6.158    0.207    0.487   88.528
  350.000    6.174    0.201    0.511   91.458
  350.250    6.211    0.201    0.505   94.933
  350.500    6.356    0.217    0.486   97.563
  350.750    6.563    0.223    0.477   97.099
  351.000    7.036    0.209    0.480   93.070
  351.250    7.542    0.207    0.489   89.707
  351.500    8.255    0.228    0.473   87.379
  351.750    8.588    0.262    0.462   86.547
  352.000    8.903    0.271    0.452   84.093
  352.250    9.041    0.261    0.447   82.905
  352.500    9.097    0.255    0.445   83.171
  352.750    9.136    0.251    0.447   84.830
  353.000    9.209    0.247    0.443   82.198
  353.250    9.388    0.236    0.435   81.068
  353.500    9.516    0.219    0.440   80.248
  353.750    8.987    0.202    0.447   81.547
  354.000    8.146    0.184    0.449   84.232
  354.250    7.707    0.219    0.454   84.868
  354.500    7.611    0.236    0.464   83.071
  354.750    8.375    0.248    0.471   77.347
  355.000    9.782    0.269    0.482   72.708
  355.250   11.839    0.281    0.461   68.496
  355.500   13.623    0.244    0.439   65.555
  355.750   15.854    0.029    0.385   63.402
  356.000   19.915    0.009    0.231   61.013
  356.250   24.647    0.007    0.194   59.699
  356.500   25.407    0.096    0.201   58.452
  356.750   21.493    0.132    0.288   54.480
  357.000   17.581    0.169    0.379   64.012
  357.250   14.625    0.215    0.415   67.974
  357.500   12.581    0.270    0.450   68.724
  357.750   11.404    0.278    0.463   68.874
  358.000   10.729    0.268    0.457   68.290
  358.250   10.303    0.264    0.462   67.534
  358.500   10.118    0.292    0.466   66.889
  358.750   10.030    0.310    0.452   65.219
  359.000    9.833    0.303    0.447   63.184
  359.250    9.727    0.290    0.438   63.880
  359.500    9.661    0.281    0.435   65.781
  359.750    9.776    0.294    0.455   67.268
  360.000    9.853    0.311    0.469   67.287
  360.250   10.011    0.294    0.476   66.702
  360.500   10.031    0.284    0.475   65.578
  360.750    9.888    0.280    0.469   66.701
  361.000    9.286    0.262    0.471   68.599
  361.250    8.495    0.257    0.476   70.076
  361.500    8.436    0.279    0.461   69.615
  361.750    8.664    0.296    0.445   67.221
  362.000    8.866    0.280    0.438   64.647
  362.250    9.003    0.272    0.433   63.637
  362.500    9.212    0.286    0.444   62.641
  362.750    9.426    0.308    0.454   63.143
  363.000    9.718    0.323    0.436   66.196
  363.250    9.849    0.320    0.427   69.126
  363.500   10.003    0.314    0.425   68.062
  363.750   10.065    0.313    0.431   65.004
  364.000   10.109    0.314    0.437   63.270
  364.250   10.116    0.315    0.445   64.020
  364.500   10.122    0.311    0.442   66.770
  364.750   10.091    0.303    0.434   67.523
  365.000   10.093    0.297    0.430   67.248
  365.250   10.046    0.288    0.428   66.549
  365.500   10.013    0.300    0.429   66.327
  365.750    9.978    0.292    0.427   66.716
  366.000    9.931    0.278    0.425   68.317
  366.250    9.844    0.276    0.432   70.526
  366.500    9.809    0.270    0.451   72.915
  366.750    9.708    0.262    0.457   74.934
  367.000    9.676    0.257    0.449   76.170
  367.250    9.626    0.280    0.444   75.769
  367.500    9.650    0.303    0.440   71.859
  367.750    9.673    0.295    0.435   70.673
  368.000    9.643    0.281    0.432   75.849
  368.250    9.647    0.271    0.439   80.653
  368.500    9.458    0.266    0.455   84.555
  368.750    9.255    0.262    0.461   86.758
  369.000    9.188    0.238    0.448   86.421
  369.250    9.091    0.241    0.441   81.483
  369.500    9.047    0.262    0.439   74.183
  369.750    9.172    0.290    0.446   67.306
  370.000    9.492    0.308    0.455   61.094
  370.250    9.564    0.325    0.457   58.819
  370.500    9.971    0.334    0.457   58.787
  370.750   10.300    0.326    0.460   59.842
  371.000   10.500    0.316    0.469   62.047
  371.250   10.543    0.310    0.471   62.733
  371.500   10.450    0.312    0.471   61.066
  371.750   10.494    0.329    0.464   58.488
  372.000   10.501    0.337    0.456   57.242
  372.250   10.447    0.329    0.459   58.601
  372.500   10.395    0.321    0.460   61.167
  372.750   10.305    0.318    0.463   61.928
  373.000   10.178    0.324    0.462   61.400
  373.250   10.032    0.317    0.455   60.637
  373.500    9.869    0.318    0.446   61.270
  373.750    9.302    0.320    0.442   62.034
  374.000    8.431    0.310    0.448   62.350
  374.250    7.902    0.302    0.458   62.372
  374.500    7.449    0.304    0.468   62.098
  374.750    7.315    0.297    0.477   61.822
  375.000    7.185    0.288    0.479   60.757
  375.250    7.135    0.285    0.476   57.402
  375.500    7.168    0.293    0.475   55.663
  375.750    7.196    0.279    0.475   52.665
  376.000    7.363    0.292    0.472   50.926
  376.250    7.718    0.306    0.452   48.650
  376.500    8.338    0.315    0.422   46.681
  376.750    8.545    0.322    0.411   45.435
  377.000    8.960    0.328    0.422   48.006
  377.250    9.065    0.318    0.435   51.786
  377.500    9.052    0.308    0.445   54.771
  377.750    8.841    0.297    0.454   57.342
  378.000    8.491    0.303    0.461   59.182
  378.250    7.974    0.314    0.454   62.174
  378.500    7.685    0.309    0.455   66.075
  378.750    7.352    0.296    0.471   70.098
  379.000    6.956    0.282    0.463   73.943
  379.250    6.667    0.266    0.439   75.662
  379.500    6.536    0.255    0.428   76.227
  379.750    6.551    0.249    0.425   74.436
  380.000    6.616    0.251    0.441   70.834
  380.250    6.833    0.272    0.472   68.132
  380.500    7.178    0.287    0.489   65.190
  380.750    7.426    0.288    0.495   61.044
  381.000    8.008    0.287    0.491   58.157
  381.250    8.160    0.300    0.441   54.608
  381.500    8.798    0.276    0.406   53.485
  381.750    9.222    0.241    0.367   55.750
  382.000    9.705    0.192    0.396   58.257
  382.250    9.929    0.251    0.424   59.978
  382.500    9.824    0.285    0.445   60.244
  382.750    9.329    0.293    0.462   60.935
  383.000    8.777    0.293    0.469   62.418
  383.250    8.289    0.298    0.459   63.651
  383.500    7.843    0.302    0.452   64.950
  383.750    7.490    0.286    0.451   66.006
  384.000    7.382    0.277    0.465   66.273
  384.250    7.263    0.280    0.473   65.266
  384.500    7.213    0.274    0.463   64.263
  384.750    7.163    0.263    0.470   66.351
  385.000    7.074    0.272    0.482   67.461
  385.250    6.960    0.282    0.481   68.458
  385.500    6.886    0.278    0.473   69.755
  385.750    6.713    0.268    0.478   71.541
  386.000    6.593    0.270    0.488   74.844
  386.250    6.415    0.277    0.491   76.612
  386.500    6.149    0.280    0.490   82.106
  386.750    5.937    0.273    0.489   83.331
  387.000    5.628    0.244    0.489   84.440
  387.250    5.304    0.227    0.482   83.799
  387.500    5.029    0.215    0.467   81.821
  387.750    4.920    0.222    0.457   81.424
  388.000    4.851    0.216    0.450   82.424
  388.250    4.826    0.218    0.448   83.846
  388.500    4.828    0.207    0.467   83.983
  388.750    4.876    0.202    0.477   82.624
  389.000    4.951    0.219    0.465   81.248
  389.250    5.048    0.234    0.459   82.120
  389.500    5.108    0.233    0.455   84.331
  389.750    5.101    0.219    0.450   86.113
  390.000    5.075    0.233    0.464   87.768
  390.250    5.049    0.245    0.472   88.702
  390.500    4.968    0.254    0.481   87.461
  390.750    4.924    0.240    0.501   85.603
  391.000    4.881    0.220    0.507   86.899
  391.250    4.894    0.224    0.511   88.440
  391.500    4.905    0.224    0.492   88.831
  391.750    5.001    0.218    0.477   88.129
