~VERSION INFORMATION
 VERS.                 2.0:   CWLS LOG ASCII STANDARD -VERSION 2.0
 WRAP.                  NO:   ONE LINE PER DEPTH STEP
~WELL INFORMATION BLOCK
#MNEM.UNIT           DATA                    DESCRIPTION OF MNEMONIC
#---------    -------------------            -------------------------------
# Generated from Intellog Unique Number	CW_73_75/WELL/3492
WELL.         SUNLITE CANPLAC MCMILLAN       : Well_name    - WELL
LOC .         00/06-22-075-19W4/0            : Location     - LOCATION
UWI .         00/06-22-075-19W4/0            : Uwi          - UNIQUE WELL ID
ENTR.         JOE                            : Entered      - ENTERED BY
SRVC.         SCHLUMBERGER                   : Scn          - SERVICE COMPANY
DATE.         2 MAR 78                       : Date         - LOG DATE
STRT.M        405.384                        : top_depth    - START DEPTH
STOP.M        490.634                        : bot_depth    - STOP DEPTH
STEP.M        0.25                           : increment    - STEP LENGTH
 NULL. -999.2500:NULL Value
~CURVE INFORMATION BLOCK
#MNEM UNIT       ERCB CURVE CODE    CURVE DESCRIPTION
#-----------   ------------------   ----------------------------------
DEPT.M        00 001 00 00         : DEPTH        - DEPTH
CALI.IN       00 280 01 00         : CAL          - CALIPER
GR  .API      00 310 00 00         : GR           - GAMMA RAY
DELT.US/F     00 520 00 00         : DELT         - SONIC TRAVEL TIME
ILD .OHMM     00 120 00 00         : RESD         - DEEP RESISTIVITY (DIL)
~PARAMETER INFORMATION
#MNEM.UNIT           DATA             DESCRIPTION OF MNEMONIC
#---------         -----------     ------------------------------
GL  .M        600.151              : gl           - GROUND LEVEL ELEVATION
EREF.M        603.099              : kb           - ELEVATION OF DEPTH REFERENCE
DATM.M        603.099              : datum        - DATUM ELEVATION
TDD .M        509.016              : tdd          - TOTAL DEPTH DRILLER
RUN .         ONE                  : Run          - RUN NUMBER
ENG .         VERRAIRES            : Engineer     - RECORDING ENGINEER
WIT .         BRINKMAN             : Witness      - WITNESSED BY
BASE.         EDM                  : Branch       - HOME BASE OF LOGGING UNIT
MUD .         GEL CHEM             : Mud_type     - MUD TYPE
MATR.         SANDSTONE            : Logunit      - NEUTRON MATRIX
TMAX.F        73                   : BHT          - MAXIMUM RECORDED TEMPERATURE
BHTD.F        1669                 : BHTDEP       - MAXIMUM RECORDED TEMPERATURE
RMT .F        73                   : MDTP         - TEMPERATURE OF MUD
MUDD.LB/G     9.2                  : MWT          - MUD DENSITY
NEUT.         1                    : NEUTRON      - NEUTRON TYPE
RESI.         0                    : RESIST       - RESISTIVITY TYPE
RM  .OHMM     3.9                  : RM           - RESISTIVITY OF MUD
RMC .OHMM     0                    : RMC          - RESISTIVITY OF MUD CAKE
RMF .OHMM     4.56                 : RMF          - RESISTIVITY OF MUD FILTRATE
SUFT.F        5                    : SUFT         - SURFACE TEMPERATURE
~A  DEPTH      CAL       GR     DELT     RESD
  405.384    6.847   80.217  391.756    6.470
  405.634    6.886   81.669  397.184    6.248
  405.884    6.868   83.126  399.729    5.986
  406.134    6.830   83.427  400.672    5.836
  406.384    6.792   83.438  401.622    5.691
  406.634    6.678   83.162  401.283    5.648
  406.884    6.602   82.022  399.990    5.707
  407.134    6.526   78.282  395.495    6.306
  407.384    6.469   71.947  379.475    7.417
  407.634    6.412   66.188  351.932    8.802
  407.884    6.393   63.318  335.274    9.640
  408.134    6.394   63.039  291.725    9.744
  408.384    6.395   52.379  283.709    9.248
  408.634    6.377   47.772  319.225    8.247
  408.884    6.358   45.769  380.667    7.487
  409.134    6.340   45.778  414.903    6.797
  409.384    6.322   46.947  420.007    6.170
  409.634    6.322   47.534  421.273    5.754
  409.884    6.323   48.413  420.939    5.611
  410.134    6.324   49.003  420.284    5.618
  410.384    6.325   49.305  418.031    5.626
  410.634    6.326   49.605  392.408    5.626
  410.884    6.346   49.619  356.543    5.698
  411.134    6.347   49.631  413.185    5.755
  411.384    6.347   49.642  416.692    5.815
  411.634    6.329   50.231  419.557    5.877
  411.884    6.311   51.689  422.742    5.885
  412.134    6.292   52.276  424.011    6.001
  412.384    6.293   52.291  421.112    6.174
  412.634    6.256   53.747  417.578    6.642
  412.884    6.257   54.047  414.361    7.271
  413.134    6.238   54.059  412.427    8.553
  413.384    6.219   54.936  395.448   10.149
  413.634    6.259   55.527  356.702   12.264
  413.884    6.337   54.673  293.948   12.501
  414.134    6.415   52.958  256.803   11.867
  414.384    6.415   52.103  254.225   10.492
  414.634    6.378   52.980  255.173    9.440
  414.884    6.282   52.993  262.841    8.492
  415.134    6.225   53.005  340.288    7.506
  415.384    6.188   54.171  389.569    6.756
  415.634    6.208   55.050  407.479    6.585
  415.884    6.228   55.063  410.342    6.364
  416.134    6.286   57.672  412.252    6.260
  416.384    6.345   61.436  408.076    6.215
  416.634    6.404   67.795  387.574    6.215
  416.884    6.443   76.465  378.278    6.183
  417.134    6.482   77.053  377.622    6.077
  417.384    6.560   77.355  379.529    5.927
  417.634    6.599   78.810  382.072    5.779
  417.884    6.754   82.574  383.981    5.584
  418.134    6.851   86.626  392.608    5.209
  418.384    6.871   87.794  398.035    4.942
  418.634    6.795   87.229  402.821    4.610
  418.884    6.796   85.799  406.328    4.416
  419.134    6.816   85.234  410.474    4.343
  419.384    6.836   85.536  413.661    4.311
  419.634    6.818   84.972  414.927    4.396
  419.884    6.780   82.676  411.711    4.771
  420.134    6.723   81.823  396.331    5.133
  420.384    6.666   81.545  391.516    5.572
  420.634    6.609   79.542  391.180    5.781
  420.884    6.591   78.109  387.646    6.164
  421.134    6.573   77.546  380.905    6.456
  421.384    6.535   77.267  382.813    6.524
  421.634    6.535   77.571  386.318    6.534
  421.884    6.537   77.870  386.947    6.484
  422.134    6.499   78.460  386.609    6.439
  422.384    6.500   78.763  386.275    6.334
  422.634    6.501   78.485  385.621    6.176
  422.884    6.482   77.631  384.325    6.131
  423.134    6.464   78.223  382.711    6.141
  423.384    6.445   78.812  381.095    6.141
  423.634    6.427   76.516  377.240    6.161
  423.884    6.428   71.624  377.226    6.392
  424.134    6.429   69.616  380.088    6.634
  424.384    6.430   70.783  380.076    6.765
  424.634    6.430   75.126  378.780    6.837
  424.884    6.431   76.002  375.245    6.848
  425.134    6.432   74.860  369.790    6.920
  425.384    6.432   72.275  355.050    6.991
  425.634    6.434   70.268  356.954    7.321
  425.884    6.435   73.165  361.425    7.599
  426.134    6.435   80.103  373.892    7.543
  426.384    6.475   83.581  375.799    7.354
  426.634    6.476   82.148  377.062    7.354
  426.884    6.496   84.470  377.688    7.123
  427.134    6.516   87.945  377.995    6.941
  427.384    6.517   86.226  378.621    6.828
  427.634    6.537   84.795  379.566    6.840
  427.884    6.537   84.233  381.471    6.789
  428.134    6.538   84.532  384.978    6.801
  428.384    6.539   85.124  387.845    6.801
  428.634    6.559   86.578  385.909    6.762
  428.884    6.599   88.900  383.334    6.708
  429.134    6.676   90.644  383.319    6.708
  429.384    6.773   90.079  390.347    6.615
  429.634    6.832   89.515  404.096    6.445
  429.884    6.756   89.530  392.558    6.286
  430.134    6.583   89.250  383.582    6.296
  430.384    6.546   88.686  381.325    6.362
  430.634    6.585   88.988  389.634    6.486
  430.884    6.452   89.287  382.896    6.673
  431.134    6.587   89.877  375.201    6.803
  431.384    6.761   92.197  381.267    6.875
  431.634    6.743   93.653  391.175    6.893
  431.884    6.551   89.914  382.518    6.959
  432.134    6.475   87.042  364.897    7.029
  432.384    6.456   85.326  356.241    7.029
  432.634    6.438   84.471  358.784    7.243
  432.884    6.420   82.466  357.489    7.792
  433.134    6.401   80.169  353.315    8.159
  433.384    6.402   77.006  347.858    8.544
  433.634    6.403   71.249  339.202    9.029
  433.884    6.404   65.490  313.580    9.714
  434.134    6.424   60.308  238.982   11.025
  434.384    6.444   54.839  214.320   12.966
  434.634    6.464   62.066  251.758   13.703
  434.884    6.484   75.061  326.644   13.363
  435.134    6.504   78.538  341.675   13.363
  435.384    6.524   75.376  310.931   13.163
  435.634    6.487   73.080  297.151   12.056
  435.884    6.468   76.554  324.665   11.144
  436.134    6.488   82.915  344.817   10.878
  436.384    6.527   86.679  361.447   10.314
  436.634    6.548   88.711  371.036    9.616
  436.884    6.548   89.591  375.502    8.734
  437.134    6.549   89.314  366.846    8.144
  437.384    6.531   88.175  362.986    7.867
  437.634    6.532   88.187  366.496    7.535
  437.884    6.552   89.064  373.202    7.535
  438.134    6.553   89.365  377.030    7.563
  438.384    6.553   89.089  378.611    7.570
  438.634    6.535   88.236  377.318    7.719
  438.884    6.498   87.093  374.102    7.801
  439.134    6.479   88.839  371.209    7.811
  439.384    6.461   90.869  371.194    7.811
  439.634    6.462   91.748  375.337    7.906
  439.884    6.462   91.471  372.445    7.989
  440.134    6.521   89.754  369.548    8.002
  440.384    6.541   88.900  370.175    7.804
  440.634    6.522   87.757  369.199    7.804
  440.884    6.523   84.885  355.741    7.690
  441.134    6.543   80.569  348.362    7.430
  441.384    6.564   80.871  363.074    7.376
  441.634    6.564   82.614  372.663    7.454
  441.884    6.546   83.493  379.369    7.530
  442.134    6.547   83.216  384.156    7.676
  442.384    6.548   82.365  394.385    7.622
  442.634    6.625   82.087  411.016    7.044
  442.884    7.049   82.389  436.607    5.900
  443.134    7.339   83.269  456.439    4.769
  443.384    7.320   83.281  469.869    3.820
  443.634    7.244   81.850  469.213    2.980
  443.884    7.322   78.111  461.197    2.409
  444.134    7.477   78.412  457.657    2.266
  444.384    7.593   79.582  459.885    2.190
  444.634    7.498   80.458  454.110    2.193
  444.884    7.075   81.047  420.805    2.360
  445.134    6.711   81.349  390.382    2.877
  445.384    6.865   79.629  378.205    3.122
  445.634    6.655   77.049  371.467    3.874
  445.884    6.925   77.348  378.175    4.764
  446.134    6.887   78.515  380.720    5.704
  446.384    6.484   77.950  326.610    6.248
  446.634    6.716   76.232  317.952    6.841
  446.884    6.851   78.262  367.552    7.359
  447.134    6.698   80.295  392.825    7.436
  447.384    6.641   79.153  380.648    7.123
  447.634    6.584   74.549  362.387    6.824
  447.884    6.547   69.656  331.963    6.652
  448.134    6.548   63.035  319.464    6.609
  448.384    6.548   64.199  361.062    6.438
  448.634    6.530   69.695  387.295    6.113
