~VERSION INFORMATION
 VERS.                 2.0:   CWLS LOG ASCII STANDARD -VERSION 2.0
 WRAP.                  NO:   ONE LINE PER DEPTH STEP
~WELL INFORMATION BLOCK
#MNEM.UNIT           DATA                    DESCRIPTION OF MNEMONIC
#---------    -------------------            -------------------------------
# Generated from Intellog Unique Number	CC_80_83/WELL/2300
NULL.         -999.25                        : NULL_VALUE
WELL.         NOVALTA NEWBY                  : Well_name    - WELL
LOC .         07-24-082-05W4                 : Location     - LOCATION          
UWI .         00/07-24-082-05W4/0            : Uwi          - UNIQUE WELL ID    
ENTR.         DW                             : Entered      - ENTERED BY        
SRVC.         COMPUTALOG                     : Scn          - SERVICE COMPANY   
DATE.         22 JAN 83                      : Date         - LOG DATE
STRT.M        90                             : top_depth    - START DEPTH       
STOP.M        270.001                        : bot_depth    - STOP DEPTH        
STEP.M        0.3                            : increment    - STEP LENGTH       
~CURVE INFORMATION BLOCK
#MNEM UNIT       ERCB CURVE CODE    CURVE DESCRIPTION
#-----------   ------------------   ----------------------------------
DEPT.M        00 001 00 00         : DEPTH        - DEPTH                       
DPHI.V/V      00 890 00 00         : PHID         - DENSITY POROSITY (LIMESTONE)
NPHI.V/V      00 330 00 00         : PHIN         - NEUTRON POROSITY (LIMESTONE)
GR  .API      00 310 00 00         : GR           - GAMMA RAY                   
ILD .OHMM     00 120 00 00         : RESD         - DEEP RESISTIVITY (DIL)      
~PARAMETER INFORMATION       
#MNEM.UNIT           DATA             DESCRIPTION OF MNEMONIC
#---------         -----------     ------------------------------
GL  .M        459.76               : gl           - GROUND LEVEL ELEVATION      
EREF.M        462.76               : kb           - ELEVATION OF DEPTH REFERENCE
DATM.M        462.76               : datum        - DATUM ELEVATION             
TDD .M        273                  : tdd          - TOTAL DEPTH DRILLER         
RUN .         ONE                  : Run          - RUN NUMBER                  
ENG .         BILL                 : Engineer     - RECORDING ENGINEER          
WIT .         JIM                  : Witness      - WITNESSED BY                
MUD .         GEL                  : Mud_type     - MUD TYPE                    
MATR.         LIMESTONE            : Logunit      - NEUTRON MATRIX              
TMAX.C        23                   : BHT          - MAXIMUM RECORDED TEMPERATURE
BHTD.M        273                  : BHTDEP       - MAXIMUM RECORDED TEMPERATURE
MATR.         1                    : LOGUNIT      - NEUTRON MATRIX              
RMT .C        25                   : MDTP         - TEMPERATURE OF MUD          
NEUT.         1                    : NEUTRON      - NEUTRON TYPE                
RESI.         0                    : RESIST       - RESISTIVITY TYPE            
RMC .OHMM     0.25                 : RMC          - RESISTIVITY OF MUD CAKE     
RMF .OHMM     0.25                 : RMF          - RESISTIVITY OF MUD FILTRATE 
SUFT.C        15                   : SUFT         - SURFACE TEMPERATURE         
~A  DEPTH     PHID     PHIN       GR     RESD
   90.000    0.192    0.383   68.075   15.730
   90.300    0.147    0.371   63.677   15.152
   90.600    0.219    0.410   72.500   13.283
   90.900    0.238    0.421   82.581   12.092
   91.200    0.232    0.429   89.516   11.007
   91.500    0.238    0.436   90.152    9.467
   91.800    0.255    0.450   92.050    8.145
   92.100    0.250    0.458   92.689    7.845
   92.400    0.235    0.456   91.438    7.998
   92.700    0.228    0.472   84.520    8.466
   93.000    0.243    0.480   74.456    9.486
   93.300    0.272    0.388   62.503   11.461
   93.600    0.337    0.369   51.809   13.332
   93.900    0.350    0.372   51.819   18.039
   94.200    0.345    0.385   56.233   21.387
   94.500    0.352    0.385   68.204   23.072
   94.800    0.353    0.374   76.396   23.521
   95.100    0.341    0.372   68.220   23.090
   95.400    0.310    0.401   58.155   22.243
   95.700    0.306    0.405   51.870   21.026
   96.000    0.311    0.384   48.730   19.879
   96.300    0.308    0.405   44.960   19.512
   96.600    0.321    0.438   47.490   19.520
   96.900    0.330    0.428   48.754   19.900
   97.200    0.333    0.394   48.763   21.065
   97.500    0.337    0.369   44.366   22.302
   97.800    0.337    0.361   47.522   22.737
   98.100    0.332    0.422   58.234   22.320
   98.400    0.314    0.434   59.500   20.703
   98.700    0.315    0.399   52.585   18.847
   99.000    0.319    0.392   51.962   17.816
   99.300    0.323    0.401   55.749   16.843
   99.600    0.328    0.427   58.275   16.533
   99.900    0.309    0.424   60.174   16.854
  100.200    0.307    0.406   59.551   17.181
  100.500    0.323    0.415   55.782   17.849
  100.800    0.328    0.413   53.902   17.856
  101.100    0.318    0.400   53.282   17.864
  101.400    0.315    0.413   53.922   17.535
  101.700    0.311    0.429   54.562   16.576
  102.000    0.310    0.411   55.827   15.671
  102.300    0.333    0.423   59.611   14.536
  102.600    0.368    0.445   63.399   14.002
  102.900    0.364    0.444   62.147   14.008
  103.200    0.342    0.424   52.711   14.281
  103.500    0.340    0.369   48.942   14.835
  103.800    0.331    0.406   60.283   14.563
  104.100    0.315    0.493   64.069   14.029
  104.400    0.315    0.444   60.302   14.034
  104.700    0.332    0.434   57.161   14.307
  105.000    0.339    0.456   57.169   15.146
  105.300    0.339    0.417   55.920   15.152
  105.600    0.339    0.402   59.076   15.158
  105.900    0.343    0.415   61.603   15.746
  106.200    0.333    0.419   60.981   15.752
  106.500    0.327    0.427   67.285   14.613
  106.800    0.258    0.463   71.700   13.814
  107.100    0.231    0.460   63.525   13.561
  107.400    0.279    0.442   66.681   13.063
  107.700    0.300    0.420   74.874   12.117
  108.000    0.293    0.474   96.288    8.156
  108.300    0.256    0.510  107.000    5.920
  108.600    0.240    0.504  110.784    4.462
  108.900    0.263    0.497  112.054    3.766
  109.200    0.264    0.490  110.801    3.560
  109.500    0.246    0.497  106.402    3.562
  109.800    0.239    0.525  103.267    3.497
  110.100    0.269    0.530  104.532    3.498
  110.400    0.270    0.478  107.059    3.434
  110.700    0.250    0.473  109.585    3.371
  111.000    0.228    0.515  109.594    3.436
  111.300    0.228    0.547  105.824    3.637
  111.600    0.241    0.505   94.501    4.479
  111.900    0.249    0.451   84.437    5.411
  112.200    0.252    0.445   80.668    5.949
  112.500    0.240    0.491   86.342    5.840
  112.800    0.186    0.523   95.793    5.217
  113.100    0.217    0.551  100.840    4.403
  113.400    0.234    0.528   97.070    3.788
  113.700    0.241    0.531  104.004    3.513
  114.000    0.261    0.537  108.419    3.321
  114.300    0.259    0.510  109.687    3.140
  114.600    0.266    0.504  100.252    3.025
  114.900    0.279    0.517   90.817    2.969
  115.200    0.288    0.549   83.271    3.143
  115.500    0.302    0.517   71.318    3.589
  115.800    0.298    0.470   62.512    4.765
  116.100    0.252    0.432   53.078   11.356
  116.400    0.200    0.401   41.755   16.885
  116.700    0.220    0.402   44.282   20.402
  117.000    0.317    0.406   47.438   20.797
  117.300    0.346    0.409   49.334   18.233
  117.600    0.352    0.406   49.973   16.287
  117.900    0.351    0.410   50.612   15.687
  118.200    0.344    0.393   50.619   14.829
  118.500    0.335    0.385   50.630   15.117
  118.800    0.337    0.418   50.636   16.006
  119.100    0.343    0.433   51.275   16.945
  119.400    0.341    0.423   51.913   17.272
  119.700    0.338    0.407   51.290   17.944
  120.000    0.342    0.415   48.783   17.954
  120.300    0.341    0.445   48.791   17.958
  120.600    0.337    0.419   51.317   17.963
  120.900    0.344    0.410   50.695   17.971
  121.200    0.346    0.407   51.336   18.321
  121.500    0.334    0.406   52.606   18.329
  121.800    0.332    0.419   52.610   18.685
  122.100    0.334    0.411   49.471   19.048
  122.400    0.341    0.394   48.221   19.416
  122.700    0.344    0.391   48.857   19.061
  123.000    0.345    0.405   51.386   19.072
  123.300    0.344    0.417   53.284   18.721
  123.600    0.336    0.421   53.920   18.377
  123.900    0.329    0.422   52.042   17.702
  124.200    0.327    0.451   50.791   16.735
  124.500    0.332    0.439   50.168   16.739
  124.800    0.338    0.424   50.179   17.066
  125.100    0.347    0.443   49.560   17.396
  125.400    0.353    0.425   50.196   18.416
  125.700    0.354    0.420   56.497   19.498
  126.000    0.350    0.431   65.950   20.644
  126.300    0.342    0.415   67.217   21.042
  126.600    0.309    0.415   56.524   20.272
  126.900    0.307    0.459   52.124   18.107
  127.200    0.392    0.467   48.988   14.998
  127.500    0.382    0.441   50.883   15.878
  127.800    0.345    0.412   55.928   13.918
  128.100    0.339    0.425   54.047   12.911
  128.400    0.339    0.434   54.056   13.928
  128.700    0.330    0.429   57.844   15.902
  129.000    0.324    0.420   59.111   17.817
  129.300    0.315    0.418   59.120   17.825
  129.600    0.312    0.404   59.758   17.829
  129.900    0.322    0.407   61.024   17.176
  130.200    0.328    0.439   58.514   16.861
  130.500    0.326    0.414   56.636   16.552
  130.800    0.326    0.393   59.791   16.561
  131.100    0.338    0.398   62.950   16.879
  131.400    0.342    0.406   62.958   17.207
  131.700    0.347    0.431   62.338   17.216
  132.000    0.345    0.431   61.713   17.220
  132.300    0.349    0.416   58.574   17.228
  132.600    0.342    0.419   56.066   17.232
  132.900    0.337    0.420   56.075   17.567
  133.200    0.337    0.389   57.342   17.250
  133.500    0.337    0.431   57.349   16.932
  133.800    0.342    0.462   55.471   16.621
  134.100    0.329    0.431   52.960   16.625
  134.400    0.329    0.431   49.191   17.276
  134.700    0.341    0.433   47.940   17.281
  135.000    0.341    0.411   52.356   17.285
  135.300    0.345    0.422   55.511   16.971
  135.600    0.356    0.449   56.779   16.657
  135.900    0.356    0.452   56.159   16.353
  136.200    0.348    0.435   56.801   16.053
  136.500    0.330    0.423   57.436   15.761
  136.800    0.331    0.416   58.706   15.765
  137.100    0.337    0.416   59.340   15.774
  137.400    0.326    0.417   61.238   15.482
  137.700    0.314    0.430   61.247   14.917
  138.000    0.306    0.465   56.846   14.641
  138.300    0.322    0.459   53.078   14.645
  138.600    0.333    0.437   55.606   14.380
  138.900    0.336    0.423   60.020   14.657
  139.201    0.336    0.405   58.140   15.229
  139.501    0.339    0.404   55.632   15.232
  139.801    0.359    0.454   58.159   15.241
  140.101    0.364    0.433   60.685   15.245
  140.401    0.338    0.422   63.212   15.249
  140.701    0.333    0.432   65.110   15.547
  141.001    0.336    0.426   63.858   15.554
  141.301    0.326    0.424   61.978   15.558
  141.601    0.326    0.434   64.504   15.565
  141.901    0.328    0.440   62.624   15.569
