~VERSION INFORMATION
 VERS.                 2.0:   CWLS LOG ASCII STANDARD -VERSION 2.0
 WRAP.                  NO:   ONE LINE PER DEPTH STEP
~WELL INFORMATION BLOCK
#MNEM.UNIT           DATA                    DESCRIPTION OF MNEMONIC
#---------    -------------------            -------------------------------
# Generated from Intellog Unique Number	CW_73_75/WELL/554
WELL.         GULF POC DROWNED 06-26         : Well_name    - WELL
LOC .         00/06-26-075-21W4/0            : Location     - LOCATION
UWI .         00/06-26-075-21W4/0            : Uwi          - UNIQUE WELL ID
ENTR.         JAYE                           : Entered      - ENTERED BY
SRVC.         SCHLUMBERGER                   : Scn          - SERVICE COMPANY
DATE.         2 MAR 78                       : Date         - LOG DATE
STRT.M        393.192                        : top_depth    - START DEPTH
STOP.M        594.442                        : bot_depth    - STOP DEPTH
STEP.M        0.25                           : increment    - STEP LENGTH
 NULL. -999.2500:NULL Value
~CURVE INFORMATION BLOCK
#MNEM UNIT       ERCB CURVE CODE    CURVE DESCRIPTION
#-----------   ------------------   ----------------------------------
DEPT.M        00 001 00 00         : DEPTH        - DEPTH
ILD .OHMM     00 120 00 00         : RESD         - DEEP RESISTIVITY (DIL)
NPHI.V/V      00 330 00 00         : PHIN         - NEUTRON POROSITY (SANDSTONE)
DPHI.V/V      00 890 00 00         : PHID         - DENSITY POROSITY (SANDSTONE)
GR  .API      00 310 00 00         : GR           - GAMMA RAY
CALI.MM       00 280 01 00         : CAL          - CALIPER
~PARAMETER INFORMATION
#MNEM.UNIT           DATA             DESCRIPTION OF MNEMONIC
#---------         -----------     ------------------------------
GL  .M        698.297              : gl           - GROUND LEVEL ELEVATION
EREF.M        702.412              : kb           - ELEVATION OF DEPTH REFERENCE
DATM.M        698.297              : datum        - DATUM ELEVATION
TDD .M        595.884              : tdd          - TOTAL DEPTH DRILLER
RUN .         ONE                  : Run          - RUN NUMBER
ENG .         VERRAIRES            : Engineer     - RECORDING ENGINEER
WIT .         BRINKMAN             : Witness      - WITNESSED BY
BASE.         EDM                  : Branch       - HOME BASE OF LOGGING UNIT
MUD .         GEL CHEM             : Mud_type     - MUD TYPE
MATR.         SANDSTONE            : Logunit      - NEUTRON MATRIX
TMAX.C        28.3333              : BHT          - MAXIMUM RECORDED TEMPERATURE
BHTD.M        590.702              : BHTDEP       - MAXIMUM RECORDED TEMPERATURE
RMT .C        15.5556              : MDTP         - TEMPERATURE OF MUD
MUDD.KG/M     1104                 : MWT          - MUD DENSITY
NEUT.         1                    : NEUTRON      - NEUTRON TYPE
RESI.         0                    : RESIST       - RESISTIVITY TYPE
RM  .OHMM     3.39                 : RM           - RESISTIVITY OF MUD
RMC .OHMM     0                    : RMC          - RESISTIVITY OF MUD CAKE
RMF .OHMM     4.56                 : RMF          - RESISTIVITY OF MUD FILTRATE
SUFT.C        -17.7778             : SUFT         - SURFACE TEMPERATURE
~A  DEPTH     RESD     PHIN     PHID       GR      CAL
# ...
  502.692    4.497    0.445    0.228   96.480  161.171
  502.942    2.737    0.439    0.221   93.968  161.827
  503.192    1.768    0.440    0.214   92.072  161.962
  503.442    1.579    0.447    0.222   91.659  161.993
  503.692    1.611    0.437    0.235   91.059  161.503
  503.942    1.865    0.442    0.239   89.042  160.593
  504.192    2.291    0.453    0.241   87.576  159.057
  504.442    3.185    0.456    0.239   85.126  158.041
  504.692    4.831    0.451    0.244   84.465  157.338
  504.942    6.354    0.443    0.230   86.643  156.954
  505.192    6.401    0.438    0.213   92.032  157.405
  505.442    6.191    0.429    0.221   95.384  157.748
  505.692    6.043    0.436    0.221   96.204  158.297
  505.942    5.844    0.460    0.198   94.493  158.957
  506.192    5.621    0.437    0.212   93.833  159.824
  506.442    5.477    0.429    0.212   95.210  160.798
  506.692    5.317    0.426    0.204   99.364  161.454
  506.942    5.228    0.428    0.215   98.086  162.215
  507.192    5.113    0.453    0.217   95.573  163.400
  507.442    5.047    0.461    0.210   95.282  164.263
  507.692    5.010    0.469    0.201   96.969  165.128
  507.942    4.747    0.486    0.198   99.639  165.585
  508.192    4.193    0.500    0.210  100.398  165.925
  508.442    3.595    0.499    0.220   99.492  166.376
  508.692    3.089    0.481    0.222  100.560  166.512
  508.942    2.663    0.476    0.206  101.996  166.433
  509.192    2.455    0.470    0.209   99.483  166.572
  509.442    2.051    0.459    0.214  100.365  166.499
  509.692    1.897    0.450    0.202  105.014  166.316
  509.942    2.032    0.452    0.193  104.724  165.828
  510.192    2.604    0.457    0.194  101.840  165.438
  510.442    4.053    0.463    0.194  101.303  164.739
  510.692    5.461    0.475    0.207  102.187  164.140
  510.942    6.035    0.475    0.220  100.598  163.647
  511.192    5.400    0.462    0.219   98.209  163.369
  511.442    5.005    0.476    0.214   94.400  163.082
  511.692    4.331    0.482    0.204   92.320  162.702
  511.942    4.189    0.470    0.226   94.065  162.521
  512.192    4.379    0.465    0.243   97.172  162.339
  512.442    4.804    0.480    0.233  101.449  161.959
  512.692    5.802    0.468    0.222  105.170  161.880
  512.942    6.341    0.452    0.221  102.657  161.701
  513.192    6.411    0.462    0.214   98.849  161.735
  513.442    6.435    0.461    0.199   97.261  161.759
  513.692    6.411    0.442    0.209   98.637  161.790
  513.942    6.375    0.442    0.216  103.717  161.824
  514.192    6.362    0.446    0.207  102.378  161.858
  514.442    6.350    0.451    0.194   98.198  161.788
  514.692    6.326    0.459    0.195   95.811  161.924
  514.942    6.303    0.467    0.215   96.075  162.057
  515.192    6.337    0.442    0.215   99.363  162.294
  515.442    6.372    0.423    0.210   99.937  162.534
  515.692    6.407    0.425    0.199   96.560  162.987
  515.942    6.478    0.434    0.187   95.652  163.117
  516.192    6.490    0.450    0.211   99.683  163.143
  516.442    6.526    0.455    0.201  102.356  162.864
  516.692    6.537    0.452    0.199   99.349  162.685
  516.942    6.537    0.443    0.205   96.466  162.505
  517.192    6.512    0.438    0.196   98.398  162.541
  517.442    6.512    0.435    0.210   98.417  162.672
  517.692    6.511    0.441    0.206   96.705  163.330
  517.942    6.547    0.442    0.205   96.417  164.931
  518.192    6.559    0.429    0.187   99.953  165.693
  518.442    6.559    0.414    0.204  101.700  166.455
  518.692    6.510    0.419    0.210  102.520  167.110
  518.942    6.473    0.433    0.186   97.846  168.712
  519.192    6.284    0.449    0.195   95.457  168.634
  519.442    6.010    0.455    0.207   97.574  166.993
  519.692    5.813    0.458    0.214   99.814  165.248
  519.942    5.653    0.461    0.198   98.599  163.924
  520.192    5.570    0.468    0.214   94.419  163.011
  520.442    5.855    0.483    0.226   87.892  161.893
  520.692    7.271    0.493    0.158   75.689  160.770
  520.942    9.833    0.473    0.134   68.916  159.860
  521.192   11.680    0.245    0.028   61.156  159.264
  521.442   14.776    0.205    0.014   57.222  159.921
  521.692   18.282    0.223    0.062   60.451  161.314
  521.942   19.254    0.284    0.143   68.185  161.661
  522.192   17.101    0.403    0.223   73.884  160.121
  522.442   15.473    0.443    0.242   78.038  157.537
  522.692   14.881    0.415    0.212   76.883  157.988
  522.942   15.672    0.379    0.191   75.236  159.694
  523.192   17.352    0.361    0.164   73.709  161.082
  523.442   17.544    0.362    0.155   71.073  162.259
  523.692   15.815    0.352    0.182   72.820  163.126
  523.942   12.804    0.362    0.191   77.900  163.155
  524.192   10.064    0.434    0.203   80.326  161.933
  524.442    8.424    0.459    0.273   79.726  159.350
  524.692    7.130    0.448    0.276   79.992  156.350
  524.942    6.002    0.432    0.269   83.590  154.917
  525.192    5.400    0.434    0.254   87.065  155.578
  525.442    5.127    0.438    0.255   89.924  156.444
  525.692    4.986    0.434    0.262   91.115  157.624
  525.942    4.885    0.453    0.260   91.008  159.534
  526.192    4.822    0.476    0.255   88.126  162.286
  526.442    4.760    0.502    0.260   84.317  163.886
  526.692    4.759    0.514    0.283   81.865  164.755
  526.942    4.733    0.526    0.291   81.944  164.887
  527.192    4.706    0.496    0.279   83.445  165.339
  527.442    4.671    0.489    0.263   85.687  165.363
  527.692    4.611    0.489    0.247   87.926  165.503
  527.942    4.593    0.503    0.261   90.477  164.909
  528.192    4.576    0.480    0.270   89.629  164.833
  528.442    4.534    0.461    0.258   88.907  165.490
  528.692    4.542    0.451    0.255   88.368  166.042
  528.942    4.592    0.460    0.260   88.324  166.598
  529.192    4.609    0.471    0.256   89.393  164.957
  529.442    4.617    0.480    0.249   93.485  164.776
  529.692    4.651    0.477    0.239  102.824  164.703
  529.942    4.747    0.467    0.225  107.225  164.421
  530.192    4.889    0.472    0.239  102.613  164.560
  530.442    5.111    0.466    0.235   95.780  165.225
  530.692    5.313    0.456    0.228   92.218  165.663
  530.942    5.503    0.451    0.230   90.323  166.217
  531.192    5.647    0.442    0.237   90.467  167.082
  531.442    5.795    0.446    0.233   91.102  167.638
  531.692    5.871    0.451    0.217   92.599  167.664
  531.942    5.969    0.456    0.210   94.287  168.012
  532.192    5.980    0.455    0.203   95.290  168.255
  532.442    6.001    0.452    0.212   96.851  168.287
  532.692    6.012    0.448    0.204   95.697  168.309
  532.942    6.079    0.449    0.206   94.481  168.242
  533.192    6.124    0.437    0.209   94.374  168.375
  533.442    6.169    0.428    0.203   90.626  168.406
  533.692    6.354    0.425    0.192   86.139  168.436
  533.942    6.842    0.416    0.180   79.860  168.050
  534.192    8.068    0.394    0.165   72.285  167.246
  534.442   11.134    0.347    0.143   63.784  166.538
  534.692   14.617    0.192    0.109   54.666  165.426
  534.942   19.657    0.190    0.006   50.178  165.033
  535.192   24.142    0.205    0.018   57.171  164.438
  535.442   21.442    0.237    0.055   63.551  164.050
  535.692   18.183    0.279    0.079   70.295  163.771
  535.942   14.424    0.340    0.105   75.252  163.484
  536.192   11.171    0.406    0.181   80.023  162.679
  536.442    9.061    0.445    0.210   86.899  161.455
  536.692    7.798    0.444    0.224   89.258  160.023
  536.942    7.056    0.429    0.229   91.626  158.379
  537.192    6.900    0.417    0.223   93.000  157.575
  537.442    6.811    0.412    0.218   93.448  157.712
  537.692    6.760    0.411    0.217   91.801  160.877
  537.942    6.735    0.415    0.206   93.732  163.628
  538.192    6.747    0.413    0.197   96.096  164.910
  538.442    6.822    0.414    0.185   93.089  165.882
  538.692    6.872    0.433    0.180   91.380  166.332
  538.942    7.013    0.438    0.186   94.237  166.779
