~VERSION INFORMATION
 VERS.                 2.0:   CWLS LOG ASCII STANDARD -VERSION 2.0
 WRAP.                  NO:   ONE LINE PER DEPTH STEP
~WELL INFORMATION BLOCK
#MNEM.UNIT           DATA                    DESCRIPTION OF MNEMONIC
#---------    -------------------            -------------------------------
# Generated from Intellog Unique Number	CS_73_76/WELL/2175
WELL.         BOW VALLEY INDUSTRIES LTD.     : Well_name    - WELL
LOC .         00/07-20-074-13W4/0            : Location     - LOCATION
UWI .         00/07-20-074-13W4/0            : Uwi          - UNIQUE WELL ID
ENTR.         SP                             : Entered      - ENTERED BY
SRVC.         SCHLUMBERGER                   : Scn          - SERVICE COMPANY
STRT.M        370                            : top_depth    - START DEPTH
STOP.M        605                            : bot_depth    - STOP DEPTH
STEP.M        0.25                           : increment    - STEP LENGTH
 NULL. -999.2500:NULL Value
~CURVE INFORMATION BLOCK
#MNEM UNIT       ERCB CURVE CODE    CURVE DESCRIPTION
#-----------   ------------------   ----------------------------------
DEPT.M        00 001 00 00         : DEPTH        - DEPTH
ILD .OHMM     00 120 00 00         : RESD         - DEEP RESISTIVITY (DIL)
DPHI.V/V      00 890 00 00         : PHID         - DENSITY POROSITY (LIMESTONE)
NPHI.V/V      00 330 00 00         : PHIN         - NEUTRON POROSITY (LIMESTONE)
GR  .API      00 310 00 00         : GR           - GAMMA RAY
~PARAMETER INFORMATION
#MNEM.UNIT           DATA             DESCRIPTION OF MNEMONIC
#---------         -----------     ------------------------------
GL  .M        728.69               : gl           - GROUND LEVEL ELEVATION
EREF.M        732.14               : kb           - ELEVATION OF DEPTH REFERENCE
DATM.M        728.69               : datum        - DATUM ELEVATION
TDD .M        610                  : tdd          - TOTAL DEPTH DRILLER
RUN .         ONE                  : Run          - RUN NUMBER
ENG .         BILL                 : Engineer     - RECORDING ENGINEER
WIT .         JIM                  : Witness      - WITNESSED BY
MUD .         GEL                  : Mud_type     - MUD TYPE
MATR.         LIMESTONE            : Logunit      - NEUTRON MATRIX
TMAX.C        24                   : BHT          - MAXIMUM RECORDED TEMPERATURE
BHTD.M        610                  : BHTDEP       - MAXIMUM RECORDED TEMPERATURE
MATR.         1                    : LOGUNIT      - NEUTRON MATRIX
RMT .C        25                   : MDTP         - TEMPERATURE OF MUD
NEUT.         1                    : NEUTRON      - NEUTRON TYPE
RESI.         0                    : RESIST       - RESISTIVITY TYPE
RMC .OHMM     0.25                 : RMC          - RESISTIVITY OF MUD CAKE
RMF .OHMM     0.25                 : RMF          - RESISTIVITY OF MUD FILTRATE
SUFT.C        15                   : SUFT         - SURFACE TEMPERATURE
~A  DEPTH     RESD     PHID     PHIN       GR
# ...
  457.000    6.264    0.217    0.471   90.743
  457.250    6.036    0.230    0.463   92.566
  457.500    5.201    0.216    0.470   94.389
  457.750    4.566    0.200    0.467   94.389
  458.000    4.084    0.209    0.463   93.783
  458.250    3.653    0.223    0.474   91.962
  458.500    3.267    0.221    0.504   94.392
  458.750    3.033    0.211    0.506   98.644
  459.000    2.978    0.219    0.500   97.430
  459.250    2.869    0.210    0.524   95.001
  459.500    2.870    0.198    0.519   94.395
  459.750    2.817    0.210    0.506   95.610
  460.000    2.765    0.196    0.507   95.004
  460.250    2.766    0.200    0.517   93.790
  460.500    2.871    0.199    0.527   95.005
  460.750    3.395    0.226    0.529   91.969
  461.000    3.797    0.234    0.541   88.326
  461.250    5.021    0.278    0.579   79.825
  461.500    6.640    0.304    0.597   73.753
  461.750    7.426    0.305    0.581   64.644
  462.000    7.566    0.308    0.499   67.681
  462.250    7.291    0.313    0.475   71.326
  462.500    5.619    0.299    0.472   77.399
  462.750    4.842    0.288    0.477   82.866
  463.000    3.731    0.296    0.480   85.903
  463.250    3.276    0.285    0.475   92.584
  463.500    2.669    0.246    0.494   99.265
  463.750    2.258    0.230    0.533  104.731
  464.000    2.057    0.239    0.552   98.052
  464.250    2.096    0.249    0.565   96.231
  464.500    2.671    0.262    0.575   93.802
  464.750    3.340    0.273    0.592   86.515
  465.000    4.024    0.274    0.586   81.050
  465.250    4.759    0.292    0.558   76.800
  465.500    5.628    0.302    0.494   76.194
  465.750    5.735    0.292    0.467   78.016
  466.000    5.735    0.280    0.461   79.232
  466.250    5.630    0.269    0.466   78.625
  466.500    5.631    0.290    0.478   79.233
  466.750    5.528    0.305    0.471   80.448
  467.000    5.529    0.282    0.461   81.664
  467.250    5.529    0.276    0.478   79.843
  467.500    5.530    0.295    0.481   78.021
  467.750    5.740    0.321    0.478   73.771
  468.000    5.741    0.311    0.488   70.128
  468.250    5.743    0.321    0.495   67.700
  468.500    5.637    0.316    0.492   67.700
  468.750    5.534    0.325    0.492   67.701
  469.000    5.535    0.331    0.494   68.309
  469.250    5.333    0.332    0.506   68.917
  469.500    5.334    0.330    0.499   68.311
  469.750    5.334    0.320    0.486   69.526
  470.000    5.237    0.325    0.497   72.563
  470.250    5.336    0.325    0.494   74.993
  470.500    5.336    0.313    0.477   77.423
  470.750    5.337    0.324    0.488   71.351
  471.000    5.438    0.331    0.486   67.708
  471.250    5.541    0.334    0.475   67.101
  471.500    5.753    0.322    0.469   65.888
  471.750    5.861    0.332    0.468   63.459
  472.000    6.678    0.331    0.468   61.638
  472.250    7.752    0.325    0.470   62.853
  472.500    9.515    0.318    0.481   66.498
  472.750   13.810    0.280    0.483   61.640
  473.000   16.639    0.123    0.478   59.212
  473.250   14.338    0.021    0.246   54.354
  473.500   10.845    0.037    0.187   54.962
  473.750    7.615    0.088    0.239   56.785
  474.000    6.206    0.148    0.328   65.287
  474.250    5.869    0.207    0.395   67.718
  474.500    5.762    0.269    0.460   65.896
  474.750    5.656    0.319    0.480   68.326
  475.000    5.764    0.326    0.466   68.934
  475.250    5.764    0.318    0.457   68.935
  475.500    5.984    0.310    0.457   71.365
  475.750    5.984    0.308    0.464   73.187
  476.000    6.213    0.316    0.477   73.796
  476.250    6.214    0.310    0.486   71.974
  476.500    6.214    0.299    0.466   72.582
  476.750    6.215    0.305    0.453   75.012
  477.000    5.988    0.287    0.440   78.050
  477.250    5.770    0.267    0.431   77.443
  477.500    5.560    0.269    0.454   74.407
  477.750    5.561    0.284    0.466   73.194
  478.000    5.667    0.296    0.472   70.765
  478.250    5.667    0.308    0.471   68.944
  478.500    5.668    0.304    0.472   71.374
  478.750    5.669    0.319    0.486   72.589
  479.000    5.565    0.310    0.488   74.412
  479.250    5.463    0.296    0.493   77.449
  479.500    5.264    0.278    0.465   79.271
  479.750    5.167    0.263    0.459   79.272
  480.000    5.073    0.255    0.469   79.273
  480.250    5.266    0.258    0.486   81.096
  480.500    5.466    0.266    0.499   81.704
  480.750    5.675    0.274    0.482   80.490
  481.000    5.782    0.264    0.476   78.061
  481.250    5.676    0.280    0.485   76.240
  481.500    5.572    0.295    0.489   76.241
  481.750    5.471    0.297    0.481   77.456
  482.000    5.471    0.281    0.475   81.708
  482.250    5.472    0.275    0.478   84.138
  482.500    5.473    0.256    0.483   84.139
  482.750    5.473    0.255    0.486   82.925
  483.000    5.474    0.234    0.494   81.104
  483.250    5.475    0.269    0.497   81.105
  483.500    5.476    0.273    0.486   81.105
  483.750    5.476    0.272    0.474   81.713
  484.000    5.477    0.258    0.470   82.321
  484.250    5.478    0.267    0.476   82.929
  484.500    5.479    0.251    0.463   82.930
  484.750    5.582    0.266    0.469   82.324
  485.000    5.904    0.264    0.480   81.717
  485.250    6.015    0.243    0.504   81.110
  485.500    6.016    0.252    0.518   79.896
  485.750    5.906    0.257    0.503   76.861
  486.000    5.798    0.279    0.477   76.861
  486.250    5.799    0.268    0.457   73.218
  486.500    5.909    0.272    0.460   71.397
  486.750    6.133    0.280    0.456   73.220
  487.000    6.249    0.285    0.449   76.865
  487.250    6.488    0.286    0.453   79.294
  487.500    6.610    0.268    0.447   81.117
  487.750    6.612    0.268    0.451   82.940
  488.000    6.612    0.267    0.468   83.547
  488.250    6.491    0.262    0.462   81.119
  488.500    6.372    0.263    0.451   78.691
  488.750    6.373    0.251    0.454   78.691
  489.000    6.257    0.274    0.465   79.299
  489.250    6.257    0.280    0.477   81.122
  489.500    6.143    0.285    0.480   82.945
  489.750    6.030    0.281    0.469   81.731
  490.000    5.704    0.269    0.475   81.732
  490.250    5.394    0.257    0.452   80.518
  490.500    4.478    0.277    0.446   78.697
  490.750    3.582    0.269    0.445   80.519
  491.000    2.760    0.266    0.446   84.771
  491.250    2.424    0.234    0.471   91.452
  491.500    2.292    0.228    0.510   97.526
  491.750    2.168    0.249    0.534  100.563
  492.000    2.128    0.254    0.547  101.778
  492.250    2.251    0.249    0.541  101.779
  492.500    2.712    0.232    0.545  100.565
  492.750    3.267    0.241    0.560   98.744
  493.000    3.864    0.255    0.572   93.886
  493.250    4.241    0.241    0.534   90.243
  493.500    4.570    0.252    0.495   88.422
  493.750    4.833    0.238    0.479   89.637
  494.000    4.925    0.251    0.485   90.246
  494.250    5.018    0.256    0.488   89.639
  494.500    5.113    0.257    0.493   87.818
  494.750    4.927    0.244    0.479   87.819
  495.000    4.927    0.245    0.474   88.427
  495.250    4.748    0.243    0.475   87.213
  495.500    4.748    0.248    0.480   83.570
  495.750    4.576    0.245    0.489   86.000
  496.000    4.492    0.252    0.486   86.000
  496.250    4.328    0.272    0.485   82.357
  496.500    4.171    0.267    0.468   78.107
  496.750    4.171    0.260    0.464   74.464
  497.000    4.250    0.250    0.473   72.036
  497.250    4.579    0.255    0.464   73.251
  497.500    4.843    0.289    0.446   75.074
  497.750    5.122    0.290    0.434   75.074
  498.000    5.317    0.281    0.450   76.290
  498.250    5.318    0.272    0.428   82.363
  498.500    5.124    0.245    0.431   86.008
  498.750    5.030    0.255    0.451   89.045
  499.000    4.938    0.258    0.476   91.475
  499.250    4.848    0.244    0.469   89.046
  499.500    4.759    0.238    0.466   86.618
  499.750    4.672    0.235    0.473   87.833
  500.000    4.672    0.248    0.466   89.656
  500.250    4.673    0.241    0.476   91.479
