~VERSION INFORMATION
 VERS.                 2.0:   CWLS LOG ASCII STANDARD -VERSION 2.0
 WRAP.                  NO:   ONE LINE PER DEPTH STEP
~WELL INFORMATION BLOCK
#MNEM.UNIT           DATA                    DESCRIPTION OF MNEMONIC
#---------    -------------------            -------------------------------
# Generated from Intellog Unique Number	CW_79_81/WELL/502
WELL.         06-16-079-21W4                 : Well_name    - WELL
LOC .         00/06-16-079-21W4/0            : Location     - LOCATION
UWI .         00/06-16-079-21W4/0            : Uwi          - UNIQUE WELL ID
ENTR.         MAX                            : Entered      - ENTERED BY
SRVC.         SCHLUMBERGER                   : Scn          - SERVICE COMPANY
STRT.M        195                            : top_depth    - START DEPTH
STOP.M        425                            : bot_depth    - STOP DEPTH
STEP.M        0.25                           : increment    - STEP LENGTH
 NULL. -999.2500:NULL Value
~CURVE INFORMATION BLOCK
#MNEM UNIT       ERCB CURVE CODE    CURVE DESCRIPTION
#-----------   ------------------   ----------------------------------
DEPT.M        00 001 00 00         : DEPTH        - DEPTH
ILD .OHMM     00 120 00 00         : RESD         - DEEP RESISTIVITY (DIL)
NPHI.V/V      00 330 00 00         : PHIN         - NEUTRON POROSITY (SANDSTONE)
DPHI.V/V      00 890 00 00         : PHID         - DENSITY POROSITY (SANDSTONE)
CALI.MM       00 280 01 00         : CAL          - CALIPER
GR  .API      00 310 00 00         : GR           - GAMMA RAY
~PARAMETER INFORMATION
#MNEM.UNIT           DATA             DESCRIPTION OF MNEMONIC
#---------         -----------     ------------------------------
GL  .M        563.5                : gl           - GROUND LEVEL ELEVATION
EREF.M        566.8                : kb           - ELEVATION OF DEPTH REFERENCE
DATM.M        563.5                : datum        - DATUM ELEVATION
TDD .M        435                  : tdd          - TOTAL DEPTH DRILLER
RUN .         ONE                  : Run          - RUN NUMBER
ENG .         BILL                 : Engineer     - RECORDING ENGINEER
WIT .         JIM                  : Witness      - WITNESSED BY
MUD .         GEL                  : Mud_type     - MUD TYPE
MATR.         SANDSTONE            : Logunit      - NEUTRON MATRIX
TMAX.C        27.2                 : BHT          - MAXIMUM RECORDED TEMPERATURE
BHTD.M        435                  : BHTDEP       - MAXIMUM RECORDED TEMPERATURE
RMT .C        15.6                 : MDTP         - TEMPERATURE OF MUD
MUDD.KG/M     1130                 : MWT          - MUD DENSITY
NEUT.         1                    : NEUTRON      - NEUTRON TYPE
RESI.         0                    : RESIST       - RESISTIVITY TYPE
RM  .OHMM     5.35                 : RM           - RESISTIVITY OF MUD
RMC .OHMM     0.25                 : RMC          - RESISTIVITY OF MUD CAKE
RMF .OHMM     6                    : RMF          - RESISTIVITY OF MUD FILTRATE
SUFT.C        -5                   : SUFT         - SURFACE TEMPERATURE
~A  DEPTH     RESD     PHIN     PHID      CAL       GR
# ...
  341.000   10.124    0.443    0.224  158.426   94.259
  341.250   10.140    0.452    0.228  160.991   93.428
  341.500   10.163    0.456    0.222  159.632   94.384
  341.750   10.182    0.452    0.224  158.247   95.621
  342.000   10.299    0.456    0.220  157.872   96.561
  342.250   10.708    0.459    0.214  158.974   96.345
  342.500   11.029    0.432    0.220  159.558   94.627
  342.750   11.052    0.404    0.203  158.186   92.918
  343.000   11.077    0.388    0.180  157.798   92.102
  343.250   10.996    0.397    0.201  161.361   92.756
  343.500   10.625    0.416    0.215  161.466   97.536
  343.750   10.454    0.432    0.212  161.583   96.433
  344.000   10.374    0.427    0.207  163.164   92.050
  344.250   10.497    0.436    0.204  164.240   91.530
  344.500   10.513    0.441    0.212  163.853   93.971
  344.750   10.543    0.444    0.216  163.983   93.443
  345.000   10.562    0.440    0.213  164.088   93.195
  345.250   10.484    0.423    0.211  164.192   93.265
  345.500   10.506    0.427    0.202  164.297   93.615
  345.750   10.431    0.433    0.188  164.414   95.753
  346.000   10.082    0.441    0.185  164.493  100.845
  346.250    9.826    0.445    0.194  164.597   99.135
  346.500    9.665    0.436    0.206  165.220   98.009
  346.750    9.597    0.430    0.212  165.337   99.269
  347.000    9.617    0.433    0.213  164.937   99.331
  347.250    9.817    0.429    0.197  165.028   97.909
  347.500   10.111    0.425    0.187  165.159  100.040
  347.750   10.319    0.427    0.171  165.250  104.245
  348.000   10.341    0.431    0.172  165.368  108.147
  348.250   10.174    0.428    0.191  165.459  108.210
  348.500    9.828    0.425    0.202  165.564  106.501
  348.750    9.674    0.420    0.189  165.176  101.845
  349.000    9.694    0.420    0.186  165.306  101.310
  349.250    9.891    0.423    0.182  164.906  100.797
  349.500   10.284    0.423    0.182  165.010  100.254
  349.750   10.395    0.419    0.186  164.130  100.021
  350.000   10.321    0.433    0.173  163.289   99.796
  350.250   10.157    0.413    0.171  162.862  102.222
  350.500    9.991    0.416    0.173  165.441  105.238
  350.750    9.478    0.423    0.196  170.468  105.308
  351.000    8.990    0.432    0.193  172.555  103.311
  351.250    8.682    0.442    0.189  169.213  100.421
  351.500    8.235    0.425    0.182  166.364   96.333
  351.750    8.106    0.418    0.151  164.487   95.813
  352.000    8.422    0.435    0.189  164.099  100.010
  352.250    8.918    0.444    0.206  165.214  103.330
  352.500    9.444    0.437    0.199  165.319  102.498
  352.750    9.463    0.420    0.199  165.397   92.814
  353.000    9.570    0.394    0.185  164.051   87.553
  353.250    9.769    0.377    0.180  161.215   82.307
  353.500   10.248    0.390    0.209  159.817   79.409
  353.750   10.649    0.411    0.221  159.947   80.373
  354.000   10.674    0.427    0.234  160.039   81.306
  354.250   10.693    0.425    0.255  159.638   81.967
  354.500   10.721    0.419    0.244  158.771   80.569
  354.750   11.144    0.411    0.219  158.862   79.738
  355.000   11.475    0.384    0.171  158.967   80.383
  355.250   11.498    0.396    0.197  159.084   84.286
  355.500   11.215    0.416    0.236  158.723   84.659
  355.750   10.928    0.423    0.231  160.304   87.963
  356.000   10.654    0.422    0.224  163.362   90.700
  356.250   10.392    0.430    0.218  163.959   93.420
  356.500   10.313    0.430    0.210  163.558   92.597
  356.750   10.625    0.416    0.210  162.678   85.556
  357.000   10.943    0.407    0.182  162.290   74.395
  357.250   11.479    0.396    0.133  162.395   73.276
  357.500   12.268    0.365    0.140  163.004   73.642
  357.750   12.984    0.354    0.179  163.096   71.334
  358.000   14.526    0.357    0.174  163.239   68.148
  358.250   17.008    0.337    0.154  162.852   64.363
  358.500   20.097    0.310    0.123  162.943   59.117
  358.750   20.901    0.289    0.090  163.061   57.999
  359.000   19.459    0.293    0.131  163.139   59.546
  359.250   16.683    0.331    0.168  163.257   63.736
  359.500   14.307    0.374    0.205  162.856   65.579
  359.750   12.966    0.411    0.224  162.494   65.050
  360.000   12.411    0.408    0.229  162.093   66.310
  360.250   12.411    0.406    0.239  162.211   66.070
  360.500   12.236    0.404    0.244  161.823   65.239
  360.750   11.929    0.406    0.233  161.941   67.081
  361.000   11.951    0.415    0.239  161.553   67.742
  361.250   11.975    0.424    0.240  161.165   65.427
  361.500   12.222    0.423    0.247  161.256   65.785
  361.750   12.359    0.411    0.245  161.374   69.399
  362.000   12.499    0.407    0.240  161.479   71.825
  362.250   12.877    0.411    0.233  161.596   70.123
  362.500   13.384    0.412    0.230  161.674   69.005
  362.750   13.916    0.409    0.223  161.300   69.961
  363.000   14.329    0.397    0.215  160.407   69.729
  363.250   14.759    0.395    0.209  162.506   70.079
  363.500   15.201    0.396    0.209  162.132   70.740
  363.750   15.377    0.388    0.215  161.731   71.098
  364.000   14.991    0.386    0.222  162.327   72.342
  364.250   14.353    0.404    0.227  162.911   73.889
  364.500   13.731    0.425    0.238  163.016   72.475
  364.750   12.905    0.433    0.261  163.133   72.243
  365.000   12.132    0.415    0.267  163.251   74.660
  365.250   11.613    0.405    0.264  164.819   74.739
  365.500   11.527    0.416    0.255  168.875   74.506
  365.750   11.768    0.417    0.259  168.487   74.856
  366.000   11.768    0.423    0.250  165.664   74.624
  366.250   11.934    0.438    0.249  163.799   73.217
  366.500   12.285    0.438    0.241  163.398   73.272
  366.750   12.654    0.414    0.238  163.398   74.827
  367.000   12.911    0.407    0.239  163.607   77.253
  367.250   13.176    0.412    0.237  163.712   76.142
  367.500   13.210    0.429    0.237  163.816   76.795
  367.750   12.758    0.422    0.232  163.429   79.516
  368.000   11.990    0.414    0.229  163.054   80.760
  368.250   11.580    0.418    0.226  163.145   81.709
  368.500   11.192    0.426    0.222  163.263   84.142
  368.750   11.113    0.428    0.215  163.354   85.977
  369.000   11.028    0.421    0.207  163.459   88.100
  369.250   10.956    0.416    0.193  163.576   90.245
  369.500   10.956    0.410    0.193  163.681   92.368
  369.750   11.012    0.410    0.199  163.798   94.498
  370.000   11.027    0.416    0.207  163.890   97.514
  370.250   11.151    0.413    0.204  164.500  100.243
  370.500   11.171    0.412    0.182  164.604   97.663
  370.750   11.089    0.413    0.165  164.709   98.005
  371.000   10.811    0.421    0.157  164.308  101.325
  371.250   10.639    0.431    0.151  163.946  104.932
  371.500   10.372    0.440    0.189  164.051  104.419
  371.750   10.109    0.425    0.182  164.155  102.103
  372.000    9.855    0.412    0.163  164.260   98.327
  372.250    9.701    0.416    0.156  164.377   99.866
  372.500    9.628    0.419    0.155  164.469  102.882
  372.750    9.628    0.417    0.163  165.078  104.430
  373.000    9.667    0.417    0.184  165.170  103.902
  373.250    9.781    0.407    0.185  165.780  103.972
  373.500   10.072    0.402    0.196  166.389  103.149
  373.750   10.279    0.398    0.208  166.481  101.144
  374.000   10.306    0.406    0.208  166.585  101.790
  374.250   10.227    0.418    0.189  167.687  105.404
  374.500    9.880    0.417    0.176  170.253  106.058
  374.750    9.720    0.417    0.170  173.311  105.242
  375.000   10.014    0.401    0.186  174.879   95.838
  375.250   10.795    0.366    0.132  168.585  102.406
  375.500   11.749    0.359    0.122  164.751  109.860
  375.750   11.991    0.374    0.166  165.853  113.771
  376.000   11.801    0.386    0.193  166.955  112.947
  376.250   11.720    0.393    0.196  166.554  110.064
  376.500   11.738    0.378    0.191  165.208  108.339
  376.750   12.430    0.365    0.172  164.302  102.798
  377.000   13.533    0.368    0.195  162.930  101.967
  377.250   13.931    0.376    0.202  163.047  101.447
