~VERSION INFORMATION
 VERS.                 2.0:   CWLS LOG ASCII STANDARD -VERSION 2.0
 WRAP.                  NO:   ONE LINE PER DEPTH STEP
~WELL INFORMATION BLOCK
#MNEM.UNIT           DATA                    DESCRIPTION OF MNEMONIC
#---------    -------------------            -------------------------------
# Generated from Intellog Unique Number	CN_91_93/WELL/1065
WELL.         PETRO-CANADA                   : Well_name    - WELL
LOC .         00/02-22-091-19W4/0            : Location     - LOCATION
UWI .         00/02-22-091-19W400            : Uwi          - UNIQUE WELL ID
ENTR.         JOETTE                         : Entered      - ENTERED BY
SRVC.         SCHLUMBERGER                   : Scn          - SERVICE COMPANY
DATE.         01/30/92                       : Date         - LOG DATE
STRT.F        360.892                        : top_depth    - START DEPTH
STOP.F        770.997                        : bot_depth    - STOP DEPTH
STEP.F        0.821                          : increment    - STEP LENGTH
 NULL. -999.2500:NULL Value
~CURVE INFORMATION BLOCK
#MNEM UNIT       ERCB CURVE CODE    CURVE DESCRIPTION
#-----------   ------------------   ----------------------------------
DEPT.F        00 001 00 00         : DEPTH        - DEPTH
GR  .API      00 310 00 00         : GR           - GAMMA RAY
CALI.IN       00 280 01 00         : CAL          - CALIPER
PHIN.V/V      00 330 00 00         : PHIN         - NEUTRON POROSITY (SANDSTONE)
PHID.V/V      00 890 00 00         : PHID         - DENSITY POROSITY (SANDSTONE)
ILD .OHMM     00 120 00 00         : RESD         - DEEP RESISTIVITY (DIL)
~PARAMETER INFORMATION
#MNEM.UNIT           DATA             DESCRIPTION OF MNEMONIC
#---------         -----------     ------------------------------
GL  .F        1715.98              : gl           - GROUND LEVEL ELEVATION
EREF.F        1728.28              : kb           - ELEVATION OF DEPTH REFERENCE
DATM.F        1728.28              : datum        - DATUM ELEVATION
TDD .F        1021.98              : tdd          - TOTAL DEPTH DRILLER
RUN .         ONE                  : Run          - RUN NUMBER
ENG .         JO                   : Engineer     - RECORDING ENGINEER
WIT .         TIM                  : Witness      - WITNESSED BY
MUD .         GEL                  : Mud_type     - MUD TYPE
MATR.         SANDSTONE            : Logunit      - NEUTRON MATRIX
TMAX.F        50                   : BHT          - MAXIMUM RECORDED TEMPERATURE
BHTD.F        524.934              : BHTDEP       - MAXIMUM RECORDED TEMPERATURE
RMT .F        64.4                 : MDTP         - TEMPERATURE OF MUD
MUDD.LB/G     0.541666             : MWT          - MUD DENSITY
NEUT.         1                    : NEUTRON      - NEUTRON TYPE
RESI.         0                    : RESIST       - RESISTIVITY TYPE
RM  .OHMM     1.5                  : RM           - RESISTIVITY OF MUD
RMC .OHMM     1.8                  : RMC          - RESISTIVITY OF MUD CAKE
RMF .OHMM     1.1                  : RMF          - RESISTIVITY OF MUD FILTRATE
SUFT.F        39.2                 : SUFT         - SURFACE TEMPERATURE
~A   DEPT       GR     CALI     PHIN     PHID      ILD
  360.892   57.373    8.764    0.575    0.453    9.540
  361.713   55.013    8.648    0.518    0.460   10.440
  362.533   59.157    8.493    0.507    0.472   10.237
  363.353   60.937    8.182    0.498    0.468    9.681
  364.173   60.055    7.503    0.472    0.471    9.073
  364.993   57.102    7.038    0.498    0.476    8.502
  365.814   59.178    6.495    0.530    0.487    8.112
  366.634   57.999    5.836    0.523    0.355    7.957
  367.454   56.821    5.584    0.466    0.234    8.094
  368.274   46.180    5.526    0.460    0.189    8.227
  369.094   45.001    5.565    0.453    0.232    8.454
  369.915   50.625    5.701    0.424    0.334    9.167
  370.735   49.447    6.167    0.421    0.386    9.761
  371.555   55.958    6.652    0.442    0.408   10.587
  372.375   73.708    7.856    0.452    0.405   11.271
  373.196   66.910    8.225    0.399    0.288   11.468
  374.016   60.113    8.575    0.393    0.210   11.247
  374.836   58.343    8.653    0.389    0.235   10.342
  375.656   56.869    8.653    0.385    0.321    9.784
  376.476   89.998    8.770    0.384    0.313    9.170
  377.297   89.114    8.867    0.419    0.277    9.586
  378.117   86.162    8.887    0.427    0.263   11.601
  378.937   77.295    8.906    0.414    0.268   13.658
  379.757   65.470    8.946    0.428    0.285   14.544
  380.577   45.661    8.965    0.407    0.327   15.486
  381.398   42.708    8.985    0.373    0.337   18.568
  382.218   43.601    9.005    0.365    0.334   20.885
  383.038   42.422    9.024    0.361    0.322   19.929
  383.858   40.357    9.005    0.353    0.296   17.201
  384.678   53.078    9.006    0.371    0.299   12.711
  385.499   57.815    8.948    0.374    0.263   12.242
  386.319   49.835    8.948    0.373    0.214   17.782
  387.139   46.291    9.007    0.365    0.246   22.114
  387.959   43.043    9.007    0.351    0.317   22.697
  388.780   39.794    9.124    0.344    0.332   22.060
  389.600   37.433    9.221    0.342    0.344   21.637
  390.420   35.072    9.299    0.342    0.350   21.399
  391.240   32.120    9.319    0.344    0.345   21.199
  392.060   33.307    9.338    0.349    0.338   20.977
  392.881   33.017    9.319    0.351    0.344   20.977
  393.701   30.951    9.320    0.345    0.350   21.129
  394.521   37.167    9.320    0.345    0.352   21.297
  395.341   37.171    9.320    0.349    0.349   21.256
  396.161   35.993    9.301    0.351    0.343   21.244
  396.982   35.703    9.282    0.345    0.336   21.224
  397.802   36.891    9.282    0.344    0.330   21.200
  398.622   36.895    9.263    0.347    0.329   21.368
  399.442   35.718    9.225    0.356    0.331   21.368
  400.262   37.792    9.206    0.359    0.333   21.327
  401.083   39.571    9.206    0.356    0.340   21.493
  401.903   38.394    9.168    0.356    0.346   21.467
  402.723   37.807    9.148    0.363    0.352   21.058
  403.543   36.924    9.149    0.368    0.347   20.847
  404.364   38.408    9.149    0.364    0.341   20.824
  405.184   36.935    9.149    0.370    0.328   21.772
  406.004   34.573    9.150    0.369    0.319   22.755
  406.824   35.171    9.150    0.357    0.306   22.938
  407.644   36.061    9.151    0.351    0.292   22.705
  408.465   36.066    9.151    0.351    0.297   22.070
  409.285   36.071    9.151    0.359    0.301   21.647
  410.105   39.921    9.171    0.366    0.309   21.647
  410.925   38.744    9.190    0.363    0.307   21.400
  411.745   37.566    9.190    0.361    0.303   21.374
  412.566   37.274    9.230    0.367    0.309   21.162
  413.386   41.123    9.250    0.371    0.314   21.136
  414.206   42.607    9.269    0.360    0.322   21.116
  415.026   41.133    9.269    0.361    0.331   21.084
  415.846   39.659    9.270    0.367    0.345   20.495
  416.667   40.551    9.251    0.378    0.342   19.919
  417.487   40.852    9.251    0.377    0.338   18.665
  418.307   41.447    9.252    0.358    0.333   16.710
  419.127   47.367    9.213    0.349    0.282   12.807
  419.948   61.272    9.155    0.345    0.219   10.088
  420.768  107.707    9.136    0.366    0.136    8.396
  421.588  113.924    9.117    0.388    0.162    7.181
  422.408  116.885    9.079    0.426    0.242    5.976
  423.228  113.932    9.021    0.431    0.235    5.397
  424.049  107.727    9.002    0.431    0.236    5.294
  424.869  112.759    8.983    0.460    0.242    5.241
  425.689  114.539    8.983    0.433    0.246    5.331
  426.509  108.334    8.964    0.419    0.240    5.524
  427.329  107.155    8.925    0.430    0.232    5.618
  428.150  100.653    8.867    0.445    0.200    5.618
  428.970   97.701    8.809    0.429    0.162    5.552
  429.790  103.029    8.771    0.420    0.186    5.448
  430.610  106.879    8.655    0.424    0.214    5.448
  431.430  111.319    8.461    0.449    0.240    5.385
  432.251  112.804    8.054    0.463    0.251    5.429
  433.071  109.851    7.705    0.466    0.247    5.522
  433.891  113.700    7.531    0.490    0.260    5.671
  434.711  109.269    7.026    0.466    0.268    5.875
  435.531  101.289    6.483    0.444    0.279    5.977
  436.352  103.659    6.115    0.434    0.272    5.915
  437.172  103.960    6.018    0.446    0.250    5.908
  437.992  108.992    6.019    0.439    0.240    5.902
  438.812  107.519    6.019    0.442    0.237    6.005
  439.633  103.975    6.077    0.439    0.234    6.335
  440.453  106.937    6.563    0.434    0.232    6.745
  441.273  108.716    6.738    0.419    0.222    7.250
  442.093   96.595    7.476    0.397    0.192    7.934
  442.913   89.503    8.271    0.400    0.188    9.513
  443.734   87.438    8.485    0.390    0.215    9.947
  444.554   84.781    8.660    0.394    0.260   10.787
  445.374   75.026    8.719    0.389    0.269   11.481
  446.194   77.397    8.758    0.378    0.269   11.470
  447.014   85.386    8.797    0.383    0.263   10.945
  447.835   95.743    8.855    0.400    0.192   10.353
  448.655   94.565    8.855    0.406    0.178    9.182
  449.475   93.682    8.856    0.404    0.178    8.295
  450.295  111.431    8.856    0.413    0.177    6.903
  451.115  108.774    8.837    0.421    0.173    5.850
  451.936  102.570    8.818    0.417    0.125    5.433
  452.756  101.983    8.818    0.413    0.160    4.952
  453.576  106.423    8.819    0.454    0.204    4.556
  454.396  104.062    8.800    0.468    0.255    4.309
  455.217  106.729    8.800    0.475    0.247    4.037
  456.037  104.959    8.781    0.461    0.242    4.037
  456.857  100.823    8.781    0.455    0.261    3.881
  457.677   96.392    8.782    0.455    0.275    3.809
  458.497   93.736    8.782    0.449    0.266    3.736
  459.318   93.445    8.782    0.454    0.185    3.697
  460.138   92.267    8.783    0.429    0.167    3.693
  460.958   92.568    8.783    0.423    0.199    3.693
  461.778  101.148    8.783    0.452    0.226    3.684
  462.598  102.632    8.784    0.464    0.273    3.749
  463.419   96.426    8.803    0.430    0.272    3.920
  464.239   97.910    8.804    0.409    0.260    4.099
  465.059   95.549    8.804    0.406    0.238    4.611
  465.879   92.597    8.804    0.382    0.230    5.947
  466.699   90.826    8.805    0.368    0.221    7.262
  467.520   89.057    8.805    0.375    0.222    8.472
  468.340   87.287    8.806    0.372    0.224   10.344
  469.160   84.926    8.806    0.351    0.221   11.016
  469.980   78.425    8.806    0.344    0.214   12.390
  470.801   76.064    8.806    0.339    0.186   13.810
  471.621   68.379    8.807    0.342    0.137   16.110
  472.441   60.695    8.807    0.340    0.096   17.956
  473.261   66.319    8.807    0.343    0.153   19.829
  474.081   67.211    8.788    0.357    0.178   20.360
  474.902   68.991    8.788    0.349    0.218   18.902
  475.722   74.318    8.789    0.352    0.193   14.485
  476.542   86.448    8.789    0.378    0.221   12.391
  477.362   90.594    8.789    0.385    0.226   11.399
  478.182   98.585    8.809    0.378    0.223   10.393
  479.003   98.588    8.810    0.371    0.220    9.563
  479.823   96.227    8.810    0.368    0.227    9.294
