~VERSION INFORMATION
 VERS.                 2.0:   CWLS LOG ASCII STANDARD -VERSION 2.0
 WRAP.                  NO:   ONE LINE PER DEPTH STEP
~WELL INFORMATION BLOCK
#MNEM.UNIT           DATA                    DESCRIPTION OF MNEMONIC
#---------    -------------------            -------------------------------
# Generated from Intellog Unique Number	CS_69_70/WELL/644
NULL.         -999.25                        : NULL_VALUE
WELL.         MAYNARD ENERGY                 : Well_name    - WELL              
LOC .         00/05-32-070-14W4/0            : Location     - LOCATION          
UWI .         00/05-32-070-14W4/0            : Uwi          - UNIQUE WELL ID    
ENTR.         SP                             : Entered      - ENTERED BY        
SRVC.         SCHLUMBERGER                   : Scn          - SERVICE COMPANY   
STRT.M        325                            : top_depth    - START DEPTH       
STOP.M        528                            : bot_depth    - STOP DEPTH        
STEP.M        0.25                           : increment    - STEP LENGTH       
~CURVE INFORMATION BLOCK
#MNEM UNIT       ERCB CURVE CODE    CURVE DESCRIPTION
#-----------   ------------------   ----------------------------------
DEPT.M        00 001 00 00         : DEPTH        - DEPTH                       
ILD .OHMM     00 120 00 00         : RESD         - DEEP RESISTIVITY (DIL)      
DPHI.V/V      00 890 00 00         : PHID         - DENSITY POROSITY (LIMESTONE)
NPHI.V/V      00 330 00 00         : PHIN         - NEUTRON POROSITY (LIMESTONE)
GR  .API      00 310 00 00         : GR           - GAMMA RAY                   
~PARAMETER INFORMATION       
#MNEM.UNIT           DATA             DESCRIPTION OF MNEMONIC
#---------         -----------     ------------------------------
GL  .M        631.3                : gl           - GROUND LEVEL ELEVATION      
EREF.M        634.74               : kb           - ELEVATION OF DEPTH REFERENCE
DATM.M        631.3                : datum        - DATUM ELEVATION             
TDD .M        536                  : tdd          - TOTAL DEPTH DRILLER         
RUN .         ONE                  : Run          - RUN NUMBER                  
ENG .         BILL                 : Engineer     - RECORDING ENGINEER          
WIT .         JIM                  : Witness      - WITNESSED BY                
MUD .         GEL                  : Mud_type     - MUD TYPE                    
MATR.         LIMESTONE            : Logunit      - NEUTRON MATRIX              
TMAX.C        25                   : BHT          - MAXIMUM RECORDED TEMPERATURE
BHTD.M        536                  : BHTDEP       - MAXIMUM RECORDED TEMPERATURE
MATR.         1                    : LOGUNIT      - NEUTRON MATRIX              
RMT .C        25                   : MDTP         - TEMPERATURE OF MUD          
NEUT.         1                    : NEUTRON      - NEUTRON TYPE                
RESI.         0                    : RESIST       - RESISTIVITY TYPE            
RMC .OHMM     0.25                 : RMC          - RESISTIVITY OF MUD CAKE     
RMF .OHMM     0.25                 : RMF          - RESISTIVITY OF MUD FILTRATE 
SUFT.C        15                   : SUFT         - SURFACE TEMPERATURE         
~A  DEPTH     RESD     PHID     PHIN       GR
# ...
  412.000    4.942    0.341    0.395   63.096
  412.250    4.821    0.354    0.413   70.210
  412.500    4.684    0.369    0.414   76.178
  412.750    4.604    0.363    0.429   83.172
  413.000    4.572    0.347    0.448   88.417
  413.250    4.573    0.330    0.464   93.844
  413.500    4.687    0.345    0.443   90.415
  413.750    4.833    0.357    0.447   84.577
  414.000    5.052    0.338    0.422   81.509
  414.250    5.377    0.319    0.399   84.043
  414.500    5.677    0.301    0.393   86.758
  414.750    5.905    0.292    0.391   83.872
  415.000    5.905    0.313    0.387   80.142
  415.250    5.817    0.303    0.384   76.714
  415.500    5.777    0.296    0.398   74.489
  415.750    5.770    0.292    0.393   73.409
  416.000    5.811    0.296    0.376   74.919
  416.250    6.054    0.291    0.369   78.057
  416.500    6.541    0.287    0.383   80.834
  416.750    7.068    0.292    0.395   81.561
  417.000    7.943    0.304    0.402   82.049
  417.250    9.273    0.298    0.380   80.969
  417.500   10.383    0.232    0.362   76.273
  417.750   13.316    0.190    0.352   69.531
  418.000   20.019    0.202    0.346   65.017
  418.250   24.636    0.229    0.346   61.829
  418.500   23.167    0.131    0.328   61.834
  418.750   24.294    0.111    0.302   64.490
  419.000   28.663    0.180    0.266   65.940
  419.250   34.896    0.206    0.285   66.427
  419.500   41.779    0.205    0.311   65.287
  419.750   31.474    0.160    0.333   59.870
  420.000   24.088    0.107    0.321   54.573
  420.250   13.022    0.180    0.308   58.252
  420.500    9.564    0.220    0.328   65.609
  420.750    8.430    0.261    0.358   68.745
  421.000    7.799    0.299    0.389   72.785
  421.250    7.395    0.284    0.398   77.369
  421.500    7.047    0.271    0.383   80.144
  421.750    6.805    0.263    0.414   81.054
  422.000    6.700    0.271    0.440   80.515
  422.250    6.595    0.284    0.440   79.074
  422.500    6.474    0.295    0.401   74.862
  422.750    6.434    0.287    0.398   73.361
  423.000    6.484    0.279    0.411   74.811
  423.250    6.533    0.272    0.421   77.286
  423.500    6.566    0.265    0.415   81.267
  423.750    6.567    0.266    0.397   84.102
  424.000    6.519    0.265    0.391   88.507
  424.250    6.446    0.263    0.407   89.714
  424.500    6.342    0.263    0.420   91.227
  424.750    6.245    0.264    0.421   90.026
  425.000    6.132    0.272    0.419   88.283
  425.250    6.092    0.289    0.426   85.698
  425.500    6.004    0.297    0.432   83.956
  425.750    5.980    0.283    0.431   83.056
  426.000    5.956    0.269    0.419   83.784
  426.250    5.973    0.256    0.409   85.295
  426.500    5.982    0.248    0.407   86.987
  426.750    5.999    0.254    0.403   88.016
  427.000    6.016    0.264    0.394   86.875
  427.250    5.992    0.281    0.384   83.446
  427.500    5.992    0.279    0.388   79.896
  427.750    5.969    0.273    0.400   76.829
  428.000    5.953    0.277    0.397   74.123
  428.250    5.937    0.297    0.402   71.718
  428.500    5.922    0.289    0.423   74.614
  428.750    5.923    0.265    0.438   80.463
  429.000    5.939    0.246    0.446   85.286
  429.250    5.997    0.226    0.426   86.918
  429.500    6.103    0.244    0.406   85.718
  429.750    6.217    0.252    0.392   84.879
  430.000    6.274    0.243    0.389   87.294
  430.250    6.331    0.240    0.397   87.660
  430.500    6.372    0.243    0.402   85.496
  430.750    6.389    0.244    0.409   84.357
  431.000    6.414    0.243    0.420   85.024
  431.250    6.415    0.247    0.439   86.353
  431.500    6.407    0.240    0.450   87.262
  431.750    6.432    0.226    0.420   87.868
  432.000    6.465    0.216    0.404   88.958
  432.250    6.539    0.203    0.406   90.711
  432.500    6.645    0.198    0.410   92.463
  432.750    6.726    0.196    0.420   93.912
  433.000    6.759    0.215    0.391   95.604
  433.250    6.792    0.220    0.394   95.488
  433.500    6.817    0.211    0.406   93.685
  433.750    6.810    0.199    0.407   91.341
  434.000    6.786    0.190    0.394   89.719
  434.250    6.779    0.183    0.389   88.460
  434.500    6.771    0.179    0.391   87.862
  434.750    6.780    0.182    0.400   87.263
  435.000    6.780    0.198    0.395   86.786
  435.250    6.781    0.210    0.401   86.430
  435.500    6.765    0.225    0.414   86.253
  435.750    6.766    0.235    0.425   86.559
  436.000    6.758    0.228    0.424   87.347
  436.250    6.743    0.230    0.421   88.557
  436.500    6.687    0.219    0.398   89.164
  436.750    6.566    0.213    0.383   89.531
  437.000    6.429    0.212    0.399   89.355
  437.250    6.284    0.221    0.406   89.299
  437.500    6.219    0.229    0.408   92.436
  437.750    6.220    0.235    0.407   95.091
  438.000    6.253    0.243    0.406   91.060
  438.250    6.278    0.245    0.401   86.125
  438.500    6.279    0.244    0.394   82.274
  438.750    6.215    0.239    0.391   79.025
  439.000    6.191    0.237    0.403   80.597
  439.250    6.134    0.238    0.399   82.469
  439.500    5.981    0.249    0.375   85.485
  439.750    5.722    0.256    0.397   90.611
  440.000    4.953    0.266    0.431   96.278
  440.250    4.201    0.275    0.450  100.560
  440.500    3.521    0.273    0.476  102.674
  440.750    2.849    0.274    0.546  103.281
  441.000    2.380    0.277    0.571  101.538
  441.250    2.146    0.282    0.539   99.676
  441.500    2.195    0.290    0.524   98.536
  441.750    2.422    0.294    0.571   97.757
  442.000    2.755    0.286    0.600   93.304
  442.250    3.047    0.273    0.622   89.815
  442.500    3.396    0.259    0.584   87.229
  442.750    3.745    0.249    0.401   85.728
  443.000    4.216    0.246    0.388   86.456
  443.250    4.427    0.253    0.398   87.244
  443.500    4.670    0.256    0.415   87.911
  443.750    4.792    0.249    0.434   88.518
  444.000    4.834    0.244    0.451   89.307
  444.250    4.761    0.248    0.446   89.491
  444.500    4.673    0.254    0.427   89.315
  444.750    4.536    0.267    0.425   89.020
  445.000    4.415    0.277    0.423   89.024
  445.250    4.343    0.288    0.409   89.872
  445.500    4.246    0.286    0.397   90.960
  445.750    4.190    0.281    0.392   87.472
  446.000    4.029    0.278    0.401   81.091
  446.250    3.924    0.278    0.420   76.336
  446.500    3.779    0.289    0.432   73.088
  446.750    3.625    0.299    0.416   75.562
  447.000    3.472    0.311    0.407   77.315
  447.250    3.448    0.325    0.402   78.283
  447.500    3.465    0.334    0.395   67.865
  447.750    3.466    0.321    0.388   58.955
  448.000    3.499    0.307    0.384   52.634
  448.250    3.499    0.312    0.381   49.385
  448.500    3.500    0.326    0.379   52.945
  448.750    3.468    0.339    0.391   52.527
  449.000    3.323    0.348    0.383   49.039
  449.250    3.226    0.348    0.378   46.754
  449.500    3.203    0.331    0.376   44.952
  449.750    3.211    0.313    0.383   44.173
  450.000    3.252    0.300    0.384   48.877
  450.250    3.277    0.300    0.373   51.413
  450.500    3.310    0.314    0.393   53.707
  450.750    3.368    0.332    0.408   54.553
  451.000    3.474    0.348    0.419   56.427
  451.250    3.660    0.351    0.411   55.708
  451.500    3.847    0.336    0.415   54.206
  451.750    4.026    0.326    0.410   55.477
  452.000    4.189    0.322    0.382   57.408
  452.250    4.214    0.331    0.367   60.365
  452.500    4.093    0.351    0.374   54.948
  452.750    3.915    0.367    0.394   51.640
  453.000    3.730    0.365    0.412   51.102
  453.250    3.584    0.355    0.403   54.721
  453.500    3.455    0.350    0.395   57.738
  453.750    3.335    0.346    0.415   54.490
  454.000    3.246    0.346    0.442   52.627
  454.250    3.222    0.351    0.468   54.620
  454.500    3.190    0.365    0.439   59.506
  454.750    3.215    0.362    0.403   61.196
  455.000    3.297    0.355    0.408   64.815
  455.250    3.387    0.353    0.432   67.832
