~VERSION INFORMATION
 VERS.                 2.0:   CWLS LOG ASCII STANDARD -VERSION 2.0
 WRAP.                  NO:   ONE LINE PER DEPTH STEP
~WELL INFORMATION BLOCK
#MNEM.UNIT           DATA                    DESCRIPTION OF MNEMONIC
#---------    -------------------            -------------------------------
# Generated from Intellog Unique Number	CW_70_72/WELL/619
NULL.         -999.25                        : NULL_VALUE
WELL.         MESA SMITH 06-10               : Well_name    - WELL              
LOC .         06-10-072-25W4                 : Location     - LOCATION          
UWI .         00/06-10-072-25W4/0            : Uwi          - UNIQUE WELL ID    
ENTR.         JAYE                           : Entered      - ENTERED BY        
SRVC.         SCHLUMBERGER                   : Scn          - SERVICE COMPANY   
DATE.         10 FEB 75                      : Date         - LOG DATE          
STRT.M        384.048                        : top_depth    - START DEPTH       
STOP.M        600.548                        : bot_depth    - STOP DEPTH        
STEP.M        0.25                           : increment    - STEP LENGTH       
~CURVE INFORMATION BLOCK
#MNEM UNIT       ERCB CURVE CODE    CURVE DESCRIPTION
#-----------   ------------------   ----------------------------------
DEPT.M        00 001 00 00         : DEPTH        - DEPTH                       
DPHI.V/V      00 890 00 00         : PHID         - DENSITY POROSITY (SANDSTONE)
NPHI.V/V      00 330 00 00         : PHIN         - NEUTRON POROSITY (SANDSTONE)
GR  .API      00 310 00 00         : GR           - GAMMA RAY                   
CALI.MM       00 280 01 00         : CAL          - CALIPER                     
ILD .OHMM     00 120 00 00         : RESD         - DEEP RESISTIVITY (DIL)      
~PARAMETER INFORMATION       
#MNEM.UNIT           DATA             DESCRIPTION OF MNEMONIC
#---------         -----------     ------------------------------
GL  .M        606.857              : gl           - GROUND LEVEL ELEVATION      
EREF.M        610.819              : kb           - ELEVATION OF DEPTH REFERENCE
DATM.M        606.857              : datum        - DATUM ELEVATION             
TDD .M        609.6                : tdd          - TOTAL DEPTH DRILLER         
RUN .         ONE                  : Run          - RUN NUMBER                  
ENG .         FETTERLEY            : Engineer     - RECORDING ENGINEER          
WIT .         HOVER                : Witness      - WITNESSED BY                
BASE.         EDM                  : Branch       - HOME BASE OF LOGGING UNIT   
MUD .         GEL CHEM             : Mud_type     - MUD TYPE                    
MATR.         SANDSTONE            : Logunit      - NEUTRON MATRIX              
TMAX.C        23.8889              : BHT          - MAXIMUM RECORDED TEMPERATURE
BHTD.M        610.21               : BHTDEP       - MAXIMUM RECORDED TEMPERATURE
RMT .C        7.22222              : MDTP         - TEMPERATURE OF MUD          
MUDD.KG/M     0                    : MWT          - MUD DENSITY                 
NEUT.         1                    : NEUTRON      - NEUTRON TYPE                
RESI.         0                    : RESIST       - RESISTIVITY TYPE            
RM  .OHMM     4.38                 : RM           - RESISTIVITY OF MUD          
RMC .OHMM     0                    : RMC          - RESISTIVITY OF MUD CAKE     
RMF .OHMM     0                    : RMF          - RESISTIVITY OF MUD FILTRATE 
SUFT.C        -17.7778             : SUFT         - SURFACE TEMPERATURE         
~A  DEPTH     PHID     PHIN       GR      CAL     RESD
# ...
  493.548    0.153    0.422   96.361  170.401    4.777
  493.798    0.156    0.431   95.273  170.417    4.917
  494.048    0.158    0.431   92.843  170.637    5.071
  494.298    0.167    0.422   89.195  170.448    5.210
  494.548    0.167    0.415   90.302  170.463    5.236
  494.798    0.161    0.411   92.385  170.481    5.166
  495.048    0.140    0.418   93.797  170.805    5.048
  495.298    0.115    0.423   93.564  171.132    4.970
  495.548    0.123    0.438   92.841  171.251    4.921
  495.798    0.147    0.462   89.010  171.165    4.908
  496.048    0.167    0.466   83.714  170.874    4.951
  496.298    0.182    0.453   86.041  170.165    5.040
  496.548    0.201    0.462   87.149  169.770    5.150
  496.798    0.219    0.452   82.585  168.342    5.262
  497.048    0.234    0.449   78.998  165.674    5.386
  497.298    0.229    0.448   76.385  164.140    5.534
  497.548    0.222    0.438   72.127  165.293    5.792
  497.798    0.215    0.427   70.734  167.478    6.154
  498.048    0.208    0.421   70.256  169.561    6.464
  498.298    0.211    0.429   70.021  169.885    6.318
  498.548    0.207    0.433   69.361  169.596    5.950
  498.798    0.222    0.414   69.980  169.817    5.646
  499.048    0.224    0.411   71.026  169.730    5.600
  499.298    0.207    0.416   74.695  169.641    5.753
  499.548    0.177    0.412   72.570  169.348    5.957
  499.798    0.140    0.371   65.386  169.262    6.108
  500.048    0.066    0.326   58.383  169.073    6.300
  500.298    0.097    0.263   52.295  169.296    6.510
  500.548    0.144    0.360   56.390  169.416    6.725
  500.798    0.183    0.405   66.582  169.328    6.961
  501.048    0.149    0.405   67.447  168.519    7.368
  501.298    0.115    0.400   65.261  169.259    8.305
  501.548    0.091    0.389   61.613  168.862   10.348
  501.798    0.068    0.372   58.573  169.291   12.798
  502.048    0.045    0.344   54.620  169.931   14.890
  502.298    0.029    0.277   51.702  170.980   17.291
  502.548    0.013    0.273   49.395  171.306   19.674
  502.798   -0.002    0.255   51.478  172.044   19.589
  503.048    0.009    0.232   56.001  172.060   19.000
  503.298    0.053    0.261   60.950  172.594   16.584
  503.548    0.089    0.289   65.349  172.613   11.935
  503.798    0.126    0.328   70.603  172.732    8.217
  504.048    0.161    0.376   74.332  172.744    6.440
  504.298    0.195    0.427   76.537  173.074    5.316
  504.548    0.200    0.449   80.266  172.987    4.597
  504.798    0.198    0.441   85.032  173.310    4.211
  505.048    0.185    0.453   90.957  173.127    4.192
  505.298    0.194    0.443   90.723  173.136    4.276
  505.548    0.201    0.430   87.806  173.568    4.468
  505.798    0.213    0.413   83.669  173.686    4.582
  506.048    0.225    0.414   80.325  173.084    4.699
  506.298    0.209    0.407   78.688  173.306    4.784
  506.548    0.183    0.389   82.296  174.356    4.788
  506.798    0.175    0.402   85.964  175.507    4.786
  507.048    0.186    0.428   89.328  176.455    4.765
  507.298    0.176    0.436   91.472  176.885    4.779
  507.548    0.185    0.425   90.933  177.006    4.803
  507.798    0.187    0.418   85.454  177.020    4.844
  508.048    0.190    0.445   84.306  176.727    4.914
  508.298    0.189    0.448   86.267  176.538    4.946
  508.548    0.185    0.440   89.204  176.246    4.942
  508.798    0.179    0.429   91.408  175.850    4.966
  509.048    0.176    0.420   91.542  175.455    5.009
  509.298    0.168    0.413   90.819  175.574    5.099
  509.548    0.157    0.424   88.755  175.485    5.172
  509.798    0.146    0.428   88.155  175.294    5.274
  510.048    0.152    0.425   88.835  175.209    5.409
  510.298    0.158    0.433   87.992  175.122    5.630
  510.548    0.175    0.423   84.831  174.832    5.993
  510.798    0.164    0.439   83.438  174.536    6.262
  511.048    0.169    0.448   84.363  174.241    6.280
  511.298    0.172    0.442   87.055  173.537    6.082
  511.548    0.174    0.436   90.907  173.452    5.921
  511.798    0.173    0.426   95.184  173.257    5.733
  512.048    0.160    0.416   97.329  173.172    5.582
  512.298    0.144    0.441   96.241  172.984    5.496
  512.548    0.160    0.448   94.056  172.898    5.442
  512.798    0.164    0.439   93.883  172.913    5.409
  513.048    0.168    0.433   95.416  172.412    5.394
  513.298    0.150    0.422   97.317  172.325    5.380
  513.548    0.142    0.415   98.670  172.448    5.356
  513.798    0.153    0.424   98.556  172.671    5.323
  514.048    0.163    0.435   97.834  172.996    5.290
  514.298    0.155    0.445   95.709  173.217    5.276
  514.548    0.154    0.458   90.476  173.962    5.214
  514.798    0.175    0.451   90.241  174.184    5.096
  515.048    0.182    0.461   90.252  174.510    4.980
  515.298    0.174    0.448   91.175  174.525    4.831
  515.548    0.162    0.432   93.441  174.538    4.609
  515.798    0.151    0.414   96.927  174.456    4.316
  516.048    0.146    0.431  100.534  174.262    4.337
  516.298    0.150    0.442  102.800  174.282    4.651
  516.548    0.142    0.451  102.200  174.504    5.043
  516.798    0.133    0.440   90.929  174.521    5.770
  517.048    0.102    0.350   78.073  174.742    6.626
  517.298    0.076    0.317   74.973  174.864    7.483
  517.548    0.104    0.343   78.275  174.879    8.836
  517.798    0.123    0.363   81.030  174.895    9.266
  518.048    0.120    0.387   85.185  174.706    7.822
  518.298    0.093    0.410   92.512  174.618    6.776
  518.548    0.100    0.423   92.766  174.118    5.795
  518.798    0.047    0.414   87.593  173.827    5.086
  519.048    0.072    0.393   88.518  173.638    4.844
  519.298    0.101    0.411   93.344  173.449    4.742
  519.548    0.127    0.448   96.647  173.359    4.722
  519.798    0.131    0.442   97.206  173.168    4.788
  520.048    0.143    0.429   96.361  173.394    4.874
  520.298    0.138    0.409   95.457  173.717    5.019
  520.548    0.140    0.423   95.283  174.153    5.175
  520.798    0.147    0.444   97.123  174.377    5.357
  521.048    0.147    0.431   98.351  174.387    5.525
  521.298    0.134    0.423   95.739  174.508    5.677
  521.548    0.121    0.411   91.848  174.424    5.779
  521.798    0.126    0.397   93.382  174.336    5.733
  522.048    0.142    0.392   94.854  174.455    5.602
  522.298    0.154    0.414   97.547  174.471    5.375
  522.548    0.151    0.435  101.154  174.903    5.293
  522.798    0.135    0.445  101.288  174.918    5.249
  523.048    0.146    0.433  102.698  174.933    5.197
  523.298    0.150    0.430  100.269  175.055    5.192
  523.548    0.158    0.410   99.121  175.073    5.208
  523.798    0.155    0.399   99.435  175.189    5.262
  524.048    0.146    0.410   98.653  175.517    5.290
  524.298    0.137    0.412   97.320  175.434    5.295
  524.548    0.147    0.410   94.220  175.445    5.291
  524.798    0.148    0.417   91.364  175.363    5.356
  525.048    0.135    0.425   90.947  175.375    5.463
  525.298    0.125    0.436   89.493  175.494    5.613
  525.548    0.120    0.447   84.137  175.411    5.853
  525.798    0.150    0.447   84.392  175.425    6.636
  526.048    0.173    0.437   84.035  175.237    7.564
  526.298    0.165    0.413   78.130  175.151    8.096
  526.548    0.134    0.383   77.043  174.959    8.427
  526.798    0.117    0.369   79.003  174.770    8.626
  527.048    0.108    0.394   84.867  175.098    8.352
  527.298    0.085    0.350   79.389  175.215    7.910
  527.548    0.040    0.326   77.447  175.233    7.503
  527.798    0.099    0.340   79.835  175.662    6.989
  528.048    0.143    0.410   85.942  177.019    6.484
  528.298    0.139    0.415   92.294  177.862    6.017
  528.548    0.128    0.414   93.280  177.878    5.793
  528.798    0.131    0.412   94.325  177.998    5.632
  529.048    0.142    0.410   96.104  177.603    5.596
  529.298    0.147    0.412   97.334  177.105    5.551
  529.548    0.155    0.420   97.038  177.015    5.506
  529.798    0.153    0.439   96.987  177.137    5.502
