~VERSION INFORMATION
 VERS.                 2.0:   CWLS LOG ASCII STANDARD -VERSION 2.0
 WRAP.                  NO:   ONE LINE PER DEPTH STEP
~WELL INFORMATION BLOCK
#MNEM.UNIT           DATA                    DESCRIPTION OF MNEMONIC
#---------    -------------------            -------------------------------
# Generated from Intellog Unique Number	CS_77_79/WELL/866
WELL.         GULF LEISMER                   : Well_name    - WELL
LOC .         00/06-03-079-09W4/0            : Location     - LOCATION
UWI .         00/06-03-079-09W4/0            : Uwi          - UNIQUE WELL ID
ENTR.         JHS                            : Entered      - ENTERED BY
SRVC.         SCHLUMBERGER                   : Scn          - SERVICE COMPANY
STRT.M        182.88                         : top_depth    - START DEPTH
STOP.M        447.88                         : bot_depth    - STOP DEPTH
STEP.M        0.25                           : increment    - STEP LENGTH
 NULL. -999.2500:NULL Value
~CURVE INFORMATION BLOCK
#MNEM UNIT       ERCB CURVE CODE    CURVE DESCRIPTION
#-----------   ------------------   ----------------------------------
DEPT.M        00 001 00 00         : DEPTH        - DEPTH
GR  .API      00 310 00 00         : GR           - GAMMA RAY
DPHI.V/V      00 890 00 00         : PHID         - DENSITY POROSITY (SANDSTONE)
NPHI.V/V      00 330 00 00         : PHIN         - NEUTRON POROSITY (SANDSTONE)
ILD .OHMM     00 120 00 00         : RESD         - DEEP RESISTIVITY (DIL)
~PARAMETER INFORMATION
#MNEM.UNIT           DATA             DESCRIPTION OF MNEMONIC
#---------         -----------     ------------------------------
GL  .M        654.71               : gl           - GROUND LEVEL ELEVATION
EREF.M        658.368              : kb           - ELEVATION OF DEPTH REFERENCE
DATM.M        658.368              : datum        - DATUM ELEVATION
TDD .M        449.275              : tdd          - TOTAL DEPTH DRILLER
RUN .         ONE                  : Run          - RUN NUMBER
ENG .         BILL                 : Engineer     - RECORDING ENGINEER
WIT .         JIM                  : Witness      - WITNESSED BY
MUD .         GEL                  : Mud_type     - MUD TYPE
MATR.         SANDSTONE            : Logunit      - NEUTRON MATRIX
TMAX.C        23.3333              : BHT          - MAXIMUM RECORDED TEMPERATURE
BHTD.M        449.275              : BHTDEP       - MAXIMUM RECORDED TEMPERATURE
MATR.         1                    : LOGUNIT      - NEUTRON MATRIX
RMT .C        25                   : MDTP         - TEMPERATURE OF MUD
NEUT.         1                    : NEUTRON      - NEUTRON TYPE
RESI.         0                    : RESIST       - RESISTIVITY TYPE
RMC .OHMM     0.25                 : RMC          - RESISTIVITY OF MUD CAKE
RMF .OHMM     0.25                 : RMF          - RESISTIVITY OF MUD FILTRATE
SUFT.C        15                   : SUFT         - SURFACE TEMPERATURE
~A  DEPTH       GR     PHID     PHIN     RESD
# ...
  269.880   88.996    0.264    0.422   13.674
  270.130   84.202    0.267    0.413   15.053
  270.380   78.677    0.282    0.421   16.150
  270.630   72.891    0.295    0.432   16.608
  270.880   67.962    0.302    0.447   17.181
  271.130   64.565    0.321    0.436   16.993
  271.380   66.420    0.321    0.427   16.246
  271.630   74.763    0.317    0.434   15.442
  271.880   86.926    0.320    0.435   14.403
  272.130   98.596    0.314    0.443   13.439
  272.380  104.115    0.296    0.439   12.809
  272.630  105.946    0.265    0.435   12.024
  272.880  106.767    0.245    0.438   10.718
  273.130  106.011    0.235    0.440   10.023
  273.380  109.248    0.237    0.433    9.082
  273.630  111.762    0.240    0.442    8.493
  273.880  113.401    0.227    0.459    7.914
  274.130  111.423    0.237    0.470    7.365
  274.380  110.476    0.230    0.478    6.654
  274.630  111.579    0.249    0.471    6.976
  274.880  105.082    0.263    0.466    7.769
  275.130  100.911    0.255    0.478    8.353
  275.380   96.909    0.274    0.467    9.526
  275.630  100.574    0.284    0.453   10.546
  275.880  103.534    0.265    0.440   11.780
  276.130  105.436    0.251    0.436   12.696
  276.380  107.577    0.249    0.436   12.147
  276.630  111.361    0.269    0.448    9.837
  276.880  115.423    0.278    0.477    7.897
  277.130  117.131    0.266    0.502    6.815
  277.380  113.931    0.265    0.534    8.202
  277.630  109.959    0.298    0.530    9.546
  277.880  106.049    0.325    0.514   10.152
  278.130  103.769    0.297    0.492   11.160
  278.380  102.146    0.269    0.464   11.763
  278.630  103.495    0.265    0.466   12.565
  278.880  103.318    0.251    0.470   12.969
  279.130  102.091    0.244    0.462   12.477
  279.380  105.041    0.248    0.462   12.020
  279.630  110.876    0.266    0.502   11.482
  279.880  111.087    0.273    0.518   10.859
  280.130  110.395    0.263    0.505   10.790
  280.380  107.462    0.258    0.471   10.616
  280.630  104.393    0.272    0.457   10.877
  280.880  100.702    0.295    0.447   11.210
  281.130   99.578    0.282    0.437   11.681
  281.380  100.905    0.273    0.429   12.330
  281.630  103.712    0.275    0.437   12.534
  281.880  105.386    0.262    0.435   12.441
  282.130  108.638    0.259    0.431   11.769
  282.380  111.122    0.254    0.440   11.052
  282.630  110.913    0.239    0.455   11.043
  282.880  109.081    0.235    0.494   10.779
  283.130  106.038    0.250    0.506    9.845
  283.380  102.991    0.253    0.507    8.757
  283.630  101.414    0.275    0.490    8.001
  283.880  100.273    0.245    0.478    7.470
  284.130   96.565    0.237    0.467    7.441
  284.380   95.922    0.262    0.477    7.743
  284.630   97.930    0.282    0.443    7.593
  284.880   99.811    0.281    0.445    6.706
  285.130  100.777    0.259    0.462    5.587
  285.380  100.200    0.259    0.466    4.668
  285.630   97.992    0.274    0.552    4.428
  285.880   94.459    0.311    0.571    4.496
  286.130   90.641    0.336    0.556    4.824
  286.380   89.112    0.304    0.529    5.191
  286.630   86.306    0.294    0.508    5.994
  286.880   80.599    0.321    0.532    6.851
  287.130   73.836    0.359    0.569    8.890
  287.380   67.397    0.381    0.587   10.872
  287.630   64.720    0.376    0.521   13.546
  287.880   65.479    0.341    0.493   15.474
  288.130   65.860    0.323    0.446   16.812
  288.380   64.845    0.320    0.440   17.292
  288.630   62.638    0.324    0.454   16.386
  288.880   62.451    0.344    0.460   17.590
  289.130   64.014    0.350    0.452   18.479
  289.380   66.074    0.343    0.443   18.784
  289.630   67.082    0.335    0.435   18.427
  289.880   67.363    0.328    0.447   17.702
  290.130   65.787    0.321    0.448   17.768
  290.380   65.052    0.321    0.453   17.183
  290.630   62.520    0.337    0.452   16.472
  290.880   61.099    0.358    0.432   16.343
  291.130   62.694    0.362    0.438   17.015
  291.380   65.335    0.350    0.460   18.410
  291.630   69.714    0.357    0.469   19.226
  291.880   72.475    0.343    0.456   19.516
  292.130   71.665    0.345    0.451   19.202
  292.380   72.985    0.357    0.451   19.041
  292.630   73.530    0.357    0.451   18.452
  292.880   72.510    0.351    0.452   18.511
  293.130   70.844    0.353    0.447   18.110
  293.380   69.234    0.366    0.451   18.155
  293.630   68.666    0.364    0.459   18.478
  293.880   68.788    0.356    0.456   18.882
  294.130   70.481    0.350    0.464   18.855
  294.380   70.909    0.358    0.468   18.087
  294.630   69.218    0.348    0.465   17.455
  294.880   69.285    0.351    0.467   16.604
  295.130   70.144    0.348    0.471   16.443
  295.380   72.598    0.350    0.488   15.937
  295.630   75.169    0.350    0.469   16.193
  295.880   75.494    0.344    0.442   16.595
  296.130   74.148    0.345    0.429   16.568
  296.380   72.253    0.335    0.437   16.055
  296.630   70.957    0.328    0.466   15.562
  296.880   70.574    0.326    0.458   15.404
  297.130   72.023    0.331    0.445   15.601
  297.380   73.406    0.340    0.446   15.691
  297.630   73.683    0.344    0.453   15.719
  297.880   71.655    0.352    0.459   15.372
  298.130   68.977    0.363    0.462   15.787
  298.380   65.261    0.359    0.452   16.251
  298.630   65.182    0.342    0.449   18.123
  298.880   64.360    0.322    0.440   22.308
  299.130   62.865    0.296    0.427   24.743
  299.380   61.289    0.259    0.411   26.539
  299.630   62.802    0.185    0.370   25.047
  299.880   66.970    0.188    0.339   23.142
  300.130   69.400    0.203    0.427   21.142
  300.380   71.248    0.350    0.470   18.353
  300.630   71.293    0.378    0.483   15.740
  300.880   70.383    0.355    0.490   14.396
  301.130   68.317    0.353    0.491   13.615
  301.380   67.280    0.359    0.489   12.825
  301.630   67.171    0.355    0.485   12.067
  301.880   68.785    0.344    0.479   11.531
  302.130   68.606    0.337    0.476   11.256
  302.380   67.555    0.344    0.468   11.538
  302.630   67.425    0.335    0.452   12.278
  302.880   68.493    0.323    0.425   13.043
  303.130   68.854    0.323    0.435   13.880
  303.380   66.716    0.347    0.456   13.269
  303.630   67.611    0.354    0.472   12.758
  303.880   72.394    0.349    0.475   12.199
  304.130   73.496    0.337    0.467   11.862
  304.380   72.370    0.330    0.454   11.282
  304.630   69.708    0.337    0.442   11.328
  304.880   68.686    0.344    0.445   11.432
  305.130   66.956    0.337    0.443   11.538
  305.380   65.994    0.338    0.446   11.540
  305.630   66.481    0.340    0.435   11.457
  305.880   69.604    0.335    0.432   11.331
  306.130   70.124    0.325    0.461   11.134
  306.380   71.108    0.319    0.471   10.853
  306.630   73.778    0.324    0.474   10.536
  306.880   76.758    0.334    0.474   10.114
  307.130   79.585    0.336    0.470    9.493
  307.380   79.975    0.333    0.461    9.235
  307.630   77.687    0.325    0.463    9.426
  307.880   75.419    0.319    0.476    9.637
  308.130   74.417    0.309    0.455   10.112
  308.380   74.438    0.325    0.465   10.058
  308.630   74.419    0.329    0.475   10.196
  308.880   71.308    0.324    0.485   10.503
  309.130   71.249    0.333    0.460   10.763
  309.380   73.296    0.339    0.445   10.972
  309.630   74.611    0.342    0.441   11.107
  309.880   73.717    0.331    0.446   11.122
  310.130   72.128    0.311    0.461   10.800
  310.380   70.430    0.307    0.469   10.110
  310.630   70.509    0.321    0.474    8.917
  310.880   74.168    0.325    0.482    8.093
  311.130   79.532    0.324    0.488    6.715
  311.380   83.264    0.308    0.498    5.985
  311.630   84.440    0.306    0.514    5.635
  311.880   81.469    0.317    0.505    5.504
  312.130   82.082    0.322    0.485    5.515
  312.380   86.948    0.308    0.478    5.520
  312.630   88.632    0.282    0.493    5.314
  312.880   85.541    0.278    0.524    5.030
  313.130   82.430    0.315    0.524    4.991
