~VERSION INFORMATION
 VERS.                 2.0:   CWLS LOG ASCII STANDARD -VERSION 2.0
 WRAP.                  NO:   ONE LINE PER DEPTH STEP
~WELL INFORMATION BLOCK
#MNEM.UNIT           DATA                    DESCRIPTION OF MNEMONIC
#---------    -------------------            -------------------------------
# Generated from Intellog Unique Number	CS_73_76/WELL/1031
WELL.         BP FT AL MARGIE                : Well_name    - WELL
LOC .         00/06-03-075-10W4/0            : Location     - LOCATION
UWI .         00/06-03-075-10W4/0            : Uwi          - UNIQUE WELL ID
ENTR.         SP                             : Entered      - ENTERED BY
SRVC.         SCHLUMBERGER                   : Scn          - SERVICE COMPANY
STRT.M        304.8                          : top_depth    - START DEPTH
STOP.M        511.8                          : bot_depth    - STOP DEPTH
STEP.M        0.25                           : increment    - STEP LENGTH
 NULL. -999.2500:NULL Value
~CURVE INFORMATION BLOCK
#MNEM UNIT       ERCB CURVE CODE    CURVE DESCRIPTION
#-----------   ------------------   ----------------------------------
DEPT.M        00 001 00 00         : DEPTH        - DEPTH
GR  .API      00 310 00 00         : GR           - GAMMA RAY
DPHI.V/V      00 890 00 00         : PHID         - DENSITY POROSITY (SANDSTONE)
NPHI.V/V      00 330 00 00         : PHIN         - NEUTRON POROSITY (SANDSTONE)
ILD .OHMM     00 120 00 00         : RESD         - DEEP RESISTIVITY (DIL)
~PARAMETER INFORMATION
#MNEM.UNIT           DATA             DESCRIPTION OF MNEMONIC
#---------         -----------     ------------------------------
GL  .M        683.88               : gl           - GROUND LEVEL ELEVATION
EREF.M        687.172              : kb           - ELEVATION OF DEPTH REFERENCE
DATM.M        683.88               : datum        - DATUM ELEVATION
TDD .M        676.656              : tdd          - TOTAL DEPTH DRILLER
RUN .         ONE                  : Run          - RUN NUMBER
ENG .         BILL                 : Engineer     - RECORDING ENGINEER
WIT .         JIM                  : Witness      - WITNESSED BY
MUD .         GEL                  : Mud_type     - MUD TYPE
MATR.         SANDSTONE            : Logunit      - NEUTRON MATRIX
TMAX.C        25.5556              : BHT          - MAXIMUM RECORDED TEMPERATURE
BHTD.M        676.656              : BHTDEP       - MAXIMUM RECORDED TEMPERATURE
MATR.         1                    : LOGUNIT      - NEUTRON MATRIX
RMT .C        25                   : MDTP         - TEMPERATURE OF MUD
NEUT.         1                    : NEUTRON      - NEUTRON TYPE
RESI.         0                    : RESIST       - RESISTIVITY TYPE
RMC .OHMM     0.25                 : RMC          - RESISTIVITY OF MUD CAKE
RMF .OHMM     0.25                 : RMF          - RESISTIVITY OF MUD FILTRATE
SUFT.C        15                   : SUFT         - SURFACE TEMPERATURE
~A  DEPTH       GR     PHID     PHIN     RESD
# ...
  435.300   65.191    0.294    0.500    5.120
  435.550   65.055    0.285    0.496    5.035
  435.800   62.367    0.296    0.491    5.035
  436.050   60.540    0.300    0.487    5.045
  436.300   58.418    0.303    0.492    5.127
  436.550   58.316    0.307    0.492    5.132
  436.800   59.744    0.319    0.486    5.020
  437.050   61.713    0.323    0.490    4.872
  437.300   63.933    0.326    0.488    4.722
  437.550   65.600    0.324    0.477    4.676
  437.800   66.803    0.314    0.463    4.587
  438.050   67.665    0.309    0.457    4.594
  438.300   70.278    0.302    0.446    4.593
  438.550   72.636    0.280    0.517    4.742
  438.800   74.966    0.254    0.539    4.779
  439.050   76.334    0.305    0.520    4.935
  439.300   75.545    0.291    0.510    5.088
  439.550   71.593    0.274    0.503    5.253
  439.800   67.018    0.263    0.494    5.508
  440.050   65.298    0.252    0.483    5.714
  440.300   63.690    0.249    0.483    5.946
  440.550   62.422    0.235    0.486    5.939
  440.800   59.905    0.202    0.455    5.905
  441.050   58.378    0.180    0.447    5.837
  441.300   57.996    0.199    0.429    5.737
  441.550   57.739    0.204    0.412    5.643
  441.800   58.862    0.192    0.418    5.736
  442.050   60.816    0.249    0.435    5.785
  442.300   62.719    0.263    0.445    5.960
  442.550   66.322    0.256    0.450    5.851
  442.800   68.446    0.254    0.477    5.770
  443.050   70.421    0.248    0.475    5.303
  443.300   71.353    0.245    0.463    4.929
  443.550   73.749    0.243    0.460    4.658
  443.800   78.778    0.231    0.473    4.433
  444.050   79.964    0.226    0.488    4.359
  444.300   79.072    0.231    0.499    4.379
  444.550   78.098    0.237    0.514    4.521
  444.800   77.068    0.244    0.525    4.693
  445.050   76.895    0.266    0.533    5.085
  445.300   76.872    0.250    0.511    5.311
  445.550   76.612    0.229    0.502    5.596
  445.800   75.598    0.223    0.491    5.762
  446.050   74.138    0.223    0.486    5.935
  446.300   72.290    0.223    0.493    6.067
  446.550   72.754    0.213    0.499    6.186
  446.800   73.721    0.201    0.503    6.271
  447.050   74.728    0.201    0.506    6.334
  447.300   75.071    0.227    0.502    6.414
  447.550   73.737    0.233    0.491    6.497
  447.800   71.856    0.219    0.486    6.539
  448.050   71.440    0.208    0.487    6.422
  448.300   73.017    0.194    0.477    6.362
  448.550   74.631    0.180    0.468    6.166
  448.800   76.067    0.218    0.462    5.974
  449.050   78.149    0.240    0.453    5.926
  449.300   78.690    0.248    0.450    5.748
  449.550   79.319    0.239    0.453    5.743
  449.800   78.346    0.232    0.458    5.864
  450.050   78.046    0.231    0.465    5.976
  450.300   78.421    0.238    0.478    6.085
  450.550   79.393    0.226    0.491    6.079
  450.800   81.006    0.243    0.485    6.083
  451.050   82.039    0.240    0.470    5.915
  451.300   82.257    0.227    0.463    5.620
  451.550   81.189    0.238    0.461    5.373
  451.800   79.838    0.232    0.456    5.054
  452.050   79.332    0.214    0.459    4.736
  452.300   80.945    0.196    0.467    4.045
  452.550   81.805    0.205    0.461    3.609
  452.800   79.614    0.206    0.459    3.059
  453.050   77.500    0.203    0.455    2.613
  453.300   77.510    0.201    0.464    2.383
  453.550   76.205    0.224    0.478    2.221
  453.800   72.719    0.241    0.485    2.182
  454.050   71.111    0.257    0.498    2.194
  454.300   70.261    0.274    0.531    2.222
  454.550   69.596    0.273    0.584    2.269
  454.800   69.662    0.263    0.573    2.267
  455.050   69.200    0.262    0.548    2.228
  455.300   67.768    0.275    0.558    2.227
  455.550   67.908    0.279    0.576    2.231
  455.800   69.161    0.271    0.582    2.411
  456.050   74.017    0.264    0.555    2.560
  456.300   75.768    0.258    0.541    2.836
  456.550   78.469    0.252    0.530    3.098
  456.800   80.053    0.250    0.542    3.504
  457.050   80.998    0.266    0.556    3.926
  457.300   79.008    0.253    0.546    4.343
  457.550   76.994    0.237    0.534    4.742
  457.800   73.937    0.229    0.506    5.058
  458.050   72.955    0.208    0.484    5.264
  458.300   72.116    0.200    0.490    5.595
  458.550   71.660    0.217    0.478    5.671
  458.800   70.800    0.223    0.478    5.631
  459.050   70.816    0.200    0.470    5.455
  459.300   71.204    0.172    0.450    4.982
  459.550   73.127    0.154    0.429    4.638
  459.800   74.419    0.170    0.462    4.227
  460.050   75.384    0.200    0.478    3.934
  460.300   76.174    0.216    0.490    3.699
  460.550   77.330    0.222    0.493    3.593
  460.800   78.308    0.215    0.501    3.487
  461.050   79.219    0.207    0.515    3.384
  461.300   79.185    0.218    0.519    3.285
  461.550   77.646    0.225    0.498    3.213
  461.800   76.104    0.234    0.494    3.218
  462.050   75.563    0.219    0.491    3.214
  462.300   75.580    0.206    0.492    3.305
  462.550   75.581    0.201    0.502    3.405
  462.800   75.913    0.226    0.511    3.512
  463.050   77.603    0.200    0.521    3.640
  463.300   79.159    0.183    0.518    3.797
  463.550   79.782    0.178    0.515    3.865
  463.800   79.720    0.206    0.510    3.950
  464.050   77.486    0.206    0.516    3.879
  464.300   76.194    0.203    0.520    3.685
  464.550   74.227    0.207    0.532    3.575
  464.800   73.267    0.215    0.539    3.359
  465.050   73.677    0.224    0.515    3.256
  465.300   75.745    0.208    0.500    3.161
  465.550   78.767    0.199    0.500    3.200
  465.800   80.798    0.195    0.509    3.509
  466.050   82.769    0.215    0.520    3.961
  466.300   83.802    0.215    0.530    5.165
  466.550   82.831    0.198    0.536    6.710
  466.800   79.281    0.194    0.548    8.179
  467.050   71.173    0.178    0.535    9.424
  467.300   67.148    0.158    0.468   10.684
  467.550   63.672    0.117    0.345   11.171
  467.800   62.633    0.125    0.373   11.544
  468.050   62.355    0.214    0.390   11.632
  468.300   61.327    0.247    0.400   11.638
  468.550   60.501    0.252    0.405   11.640
  468.800   61.222    0.247    0.414   11.643
  469.050   61.647    0.253    0.419   11.482
  469.300   61.779    0.246    0.421   11.439
  469.550   61.799    0.233    0.408   11.432
  469.800   62.363    0.250    0.412   11.943
  470.050   65.774    0.271    0.424   12.446
  470.300   68.767    0.274    0.434   12.732
  470.550   71.103    0.268    0.439   14.042
  470.800   71.719    0.259    0.456   15.134
  471.050   69.574    0.250    0.448   16.083
  471.300   69.610    0.262    0.435   16.660
  471.550   68.889    0.259    0.433   16.806
  471.800   67.462    0.276    0.439   16.829
  472.050   65.314    0.271    0.437   16.253
  472.300   62.331    0.264    0.442   15.602
  472.550   61.301    0.259    0.455   14.403
  472.800   62.143    0.262    0.464   13.582
  473.050   64.141    0.255    0.473   12.797
  473.300   65.303    0.249    0.478   12.152
  473.550   68.695    0.244    0.481   12.104
  473.800   71.704    0.255    0.477   12.100
  474.050   74.052    0.256    0.456   12.075
  474.300   76.326    0.241    0.443   12.328
  474.550   77.761    0.240    0.456   12.723
  474.800   79.415    0.233    0.464   12.951
  475.050   81.071    0.253    0.465   13.810
  475.300   85.057    0.243    0.454   14.642
  475.550   86.206    0.239    0.452   15.947
  475.800   75.412    0.257    0.438   17.808
  476.050   66.475    0.263    0.416   19.172
  476.300   64.941    0.248    0.407   20.015
  476.550   61.947    0.239    0.419   19.564
  476.800   58.913    0.259    0.435   18.207
  477.050   57.702    0.277    0.441   17.443
  477.300   60.321    0.271    0.444   16.627
  477.550   62.109    0.270    0.439   16.111
  477.800   62.264    0.248    0.430   15.620
  478.050   59.384    0.232    0.420   15.400
  478.300   54.706    0.236    0.401   15.081
  478.550   51.523    0.247    0.387   15.117
