~VERSION INFORMATION
 VERS.                 2.0:   CWLS LOG ASCII STANDARD -VERSION 2.0
 WRAP.                  NO:   ONE LINE PER DEPTH STEP
~WELL INFORMATION BLOCK
#MNEM.UNIT           DATA                    DESCRIPTION OF MNEMONIC
#---------    -------------------            -------------------------------
# Generated from Intellog Unique Number	CN_91_93/WELL/3273
WELL.         AMOCO CANADA PETROLEUM CO.LTD. : Well_name    - WELL
LOC .         00/07-22-093-19W4/0            : Location     - LOCATION
UWI .         00/07-22-093-19W4/0            : Uwi          - UNIQUE WELL ID
ENTR.         JOETTE                         : Entered      - ENTERED BY
SRVC.         SCHLUMBERGER                   : Scn          - SERVICE COMPANY
DATE.         04\29\92                       : Date         - LOG DATE
STRT.F        260                            : top_depth    - START DEPTH
STOP.F        789.856                        : bot_depth    - STOP DEPTH
STEP.F        0.82                           : increment    - STEP LENGTH
 NULL. -999.2500:NULL Value
~CURVE INFORMATION BLOCK
#MNEM UNIT       ERCB CURVE CODE    CURVE DESCRIPTION
#-----------   ------------------   ----------------------------------
DEPT.F        00 001 00 00         : DEPTH        - DEPTH
CALI.IN       00 280 01 00         : CAL          - CALIPER
GR  .API      00 310 00 00         : GR           - GAMMA RAY
NPHI.V/V      00 330 00 00         : PHIN         - NEUTRON POROSITY (SANDSTONE)
DPHI.V/V      00 890 00 00         : PHID         - DENSITY POROSITY (SANDSTONE)
ILD .OHMM     00 120 00 00         : RESD         - DEEP RESISTIVITY (DIL)
~PARAMETER INFORMATION
#MNEM.UNIT           DATA             DESCRIPTION OF MNEMONIC
#---------         -----------     ------------------------------
GL  .F        1711                 : gl           - GROUND LEVEL ELEVATION
EREF.F        1722.6               : kb           - ELEVATION OF DEPTH REFERENCE
DATM.F        1722.6               : datum        - DATUM ELEVATION
TDD .F        787                  : tdd          - TOTAL DEPTH DRILLER
RUN .         ONE                  : Run          - RUN NUMBER
ENG .         JO                   : Engineer     - RECORDING ENGINEER
WIT .         TIM                  : Witness      - WITNESSED BY
MUD .         GEL                  : Mud_type     - MUD TYPE
MATR.         SANDSTONE            : Logunit      - NEUTRON MATRIX
TMAX.F        75                   : BHT          - MAXIMUM RECORDED TEMPERATURE
BHTD.F        787                  : BHTDEP       - MAXIMUM RECORDED TEMPERATURE
RMT .F        47                   : MDTP         - TEMPERATURE OF MUD
MUDD.LB/G     8.8                  : MWT          - MUD DENSITY
NEUT.         1                    : NEUTRON      - NEUTRON TYPE
RESI.         0                    : RESIST       - RESISTIVITY TYPE
RM  .OHMM     2.18                 : RM           - RESISTIVITY OF MUD
RMC .OHMM     2.3                  : RMC          - RESISTIVITY OF MUD CAKE
RMF .OHMM     3.35                 : RMF          - RESISTIVITY OF MUD FILTRATE
SUFT.F        39.2                 : SUFT         - SURFACE TEMPERATURE
~A  DEPTH      CAL       GR     PHIN     PHID     RESD
# ...
  499.501    9.337   83.370    0.536    0.212    8.679
  500.322    9.335   85.996    0.496    0.207    9.321
  501.142    9.335   84.184    0.515    0.191   10.283
  501.962    9.349   85.325    0.493    0.163   11.036
  502.782    9.347   87.952    0.484    0.179   11.018
  503.602    9.347   91.165    0.499    0.211   10.703
  504.423    9.342   92.901    0.474    0.206   10.783
  505.243    9.339   91.966    0.463    0.189   11.265
  506.063    9.339   89.281    0.509    0.180   11.875
  506.883    9.334   83.923    0.489    0.197   12.865
  507.703    9.332   77.093    0.464    0.208   13.934
  508.524    9.332   69.368    0.461    0.156   15.092
  509.344    9.326   67.265    0.418    0.127   15.346
  510.164    9.324   70.773    0.395    0.111   15.598
  510.984    9.324   73.991    0.459    0.175   15.575
  511.804    9.319   72.474    0.459    0.249   14.588
  512.625    9.319   71.838    0.457    0.232   13.542
  513.445    9.313   72.102    0.470    0.230   12.459
  514.265    9.312   75.015    0.480    0.211   11.459
  515.085    9.309   81.187    0.538    0.219   10.350
  515.906    9.309   77.606    0.531    0.222    9.264
  516.726    9.304   76.385    0.540    0.223    8.445
  517.546    9.302   79.307    0.545    0.233    7.560
  518.366    9.297   80.444    0.566    0.235    6.586
  519.186    9.296   85.138    0.553    0.229    5.432
  520.007    9.275   90.124    0.526    0.212    4.817
  520.827    9.271   90.674    0.554    0.213    4.272
  521.647    9.270   92.710    0.613    0.209    4.076
  522.467    9.270   81.145    0.602    0.216    4.337
  523.287    9.284   76.088    0.598    0.203    5.898
  524.108    9.302   71.326    0.602    0.186    8.700
  524.928    9.299   65.968    0.595    0.174   10.703
  525.748    9.277   65.042    0.514    0.160   12.585
  526.568    9.235   66.783    0.499    0.197   13.634
  527.388    9.193   70.587    0.538    0.261   15.038
  528.209    9.191   72.319    0.550    0.254   12.403
  529.029    9.228   75.236    0.531    0.244   10.138
  529.849    9.225   79.927    0.541    0.240    8.215
  530.669    9.223   86.389    0.548    0.201    7.155
  531.490    9.240   87.235    0.554    0.211    6.064
  532.310    9.257   84.840    0.573    0.209    5.838
  533.130    9.275   82.141    0.545    0.211    6.155
  533.950    9.292   80.629    0.518    0.220    6.904
  534.770    9.309   78.221    0.494    0.223    7.155
  535.591    9.326   79.075    0.518    0.196    7.155
  536.411    9.343   77.562    0.513    0.177    7.527
  537.231    9.360   72.496    0.486    0.153    9.782
  538.051    9.358   71.578    0.479    0.184   10.506
  538.871    9.335   72.715    0.446    0.147   14.022
  539.692    9.334   74.160    0.361    0.106   14.782
  540.512    9.311   77.964    0.362    0.131   13.476
  541.332    9.269   84.131    0.366    0.126   11.529
  542.152    9.269   86.159    0.456    0.186    9.951
  542.972    9.264   88.490    0.456    0.180    9.487
  543.793    9.242   89.931    0.460    0.186    9.737
  544.613    9.259   91.372    0.476    0.180    9.989
  545.433    9.255   85.424    0.482    0.190   10.243
  546.253    9.274   85.683    0.467    0.199   10.226
  547.073    9.291   85.648    0.433    0.245   10.027
  547.894    9.291   81.172    0.406    0.262    8.500
  548.714    9.306   85.862    0.454    0.243    8.183
  549.534    9.324   91.143    0.564    0.208    6.507
  550.354    9.338   92.588    0.561    0.174    6.096
  551.175    9.357   91.653    0.566    0.174    6.096
  551.995    9.357   92.803    0.581    0.185    5.301
  552.815    9.372   93.953    0.594    0.187    4.877
  553.635    9.370   96.576    0.601    0.187    4.652
  554.455    9.370   95.653    0.595    0.177    5.617
  555.276    9.365   95.904    0.602    0.166    5.817
  556.096    9.323   97.640    0.605    0.164    6.778
  556.916    9.319   91.401    0.577    0.163    8.039
  557.736    9.298   92.842    0.517    0.139    8.322
  558.556    9.276   94.579    0.508    0.108    9.875
  559.377    9.274   93.656    0.482    0.162   10.793
  560.197    9.291   90.067    0.435    0.180   11.693
  561.017    9.289   90.626    0.464    0.220   11.998
  561.837    9.306   92.067    0.494    0.218   12.082
  562.657    9.303   90.254    0.504    0.221   11.526
  563.478    9.320   87.851    0.498    0.222   11.302
  564.298    9.338   88.410    0.483    0.217   11.805
  565.118    9.335   91.624    0.463    0.211   12.444
  565.938    9.372   86.561    0.456    0.202   12.444
  566.759    9.389   82.976    0.436    0.178   12.627
  567.579    9.387   80.573    0.416    0.149   12.606
  568.399    9.385   82.314    0.404    0.121   12.026
  569.219    9.382   89.953    0.512    0.143   11.879
  570.039    9.379   89.327    0.523    0.186   11.663
  570.860    9.396   89.881    0.514    0.196   10.437
  571.680    9.394   92.204    0.526    0.191    9.777
  572.500    9.390   93.350    0.527    0.197    9.158
  573.320    9.389   94.195    0.496    0.191    8.897
  574.140    9.367   94.459    0.492    0.186    8.882
  574.961    9.365   94.123    0.466    0.194    9.029
  575.781    9.342   92.910    0.467    0.192    9.519
  576.601    9.300   89.625    0.507    0.179   10.126
  577.421    9.180   78.647    0.452    0.207   11.169
  578.241    9.138   75.952    0.434    0.185   13.493
  579.062    9.175   81.238    0.426    0.191   16.160
  579.882    9.251   83.565    0.397    0.161   17.032
  580.702    9.367   84.710    0.369    0.113   14.173
  581.522    9.424   87.333    0.454    0.155   14.173
  582.343    9.460   89.951    0.473    0.207   13.487
  583.163    9.460   85.775    0.454    0.195   12.764
  583.983    9.454   84.258    0.426    0.208   11.523
  584.803    9.453   86.003    0.453    0.218   10.996
  585.623    9.453   88.621    0.474    0.223   10.684
  586.444    9.448   91.234    0.468    0.221   10.377
  587.264    9.445   92.980    0.465    0.224   10.264
  588.084    9.442   95.012    0.475    0.204   10.152
  588.904    9.440   96.748    0.476    0.186   10.045
  589.724    9.438   92.277    0.475    0.181   10.028
  590.545    9.436   91.059    0.450    0.166   10.101
  591.365    9.413   92.791    0.416    0.167   10.081
  592.185    9.411   92.164    0.403    0.179   10.158
  593.005    9.408   92.715    0.417    0.187   10.234
  593.825    9.406   94.151    0.444    0.194   10.203
  594.646    9.403   95.892    0.468    0.174   10.199
  595.466    9.421   97.033    0.493    0.168   10.180
  596.286    9.418   95.820    0.499    0.156   10.347
  597.106    9.435   92.240    0.480    0.148   10.518
  597.927    9.453   86.587    0.473    0.116   10.788
  598.747    9.450   75.022    0.424    0.096   10.868
  599.567    9.447   78.830    0.331    0.077   10.848
  600.387    9.482   86.613    0.478    0.166    0.009
  601.207    9.440   90.974    0.522    0.172    9.971
  602.028    9.440   89.161    0.505    0.172    9.167
  602.848    9.453   82.657    0.478    0.161    8.277
  603.668    9.451   81.735    0.460    0.115    7.274
  604.488    9.429   91.091    0.488    0.182    6.333
  605.308    9.429   98.975    0.513    0.206    5.464
  606.129    9.423  105.684    0.564    0.216    4.889
  606.949    9.423   92.126    0.545    0.226    4.578
  607.769    9.416   86.517    0.526    0.208    5.431
  608.589    9.434   79.715    0.504    0.177    9.356
  609.409    9.434   75.564    0.482    0.172   10.608
  610.230    9.447   73.463    0.432    0.120   13.169
  611.050    9.503   81.058    0.378    0.097   14.265
  611.870    9.518   85.419    0.493    0.081   12.304
  612.690    9.556   89.188    0.521    0.139   10.519
  613.510    9.573   90.609    0.496    0.155    9.414
  614.331    9.568   91.448    0.476    0.187    8.656
  615.151    9.567   94.640    0.466    0.185    8.639
  615.971    9.567   96.653    0.518    0.183    8.018
  616.791    9.521   97.189    0.534    0.171    8.451
  617.612    9.500   96.854    0.548    0.168   10.878
  618.432    9.495   95.638    0.546    0.156   11.468
