~VERSION INFORMATION
 VERS.                 2.0:   CWLS LOG ASCII STANDARD -VERSION 2.0
 WRAP.                  NO:   ONE LINE PER DEPTH STEP
~WELL INFORMATION BLOCK
#MNEM.UNIT           DATA                    DESCRIPTION OF MNEMONIC
#---------    -------------------            -------------------------------
# Generated from Intellog Unique Number	CS_69_70/WELL/689
WELL.         AEC PRIMROSE                   : Well_name    - WELL
LOC .         00/05-04-069-04W4/0            : Location     - LOCATION
UWI .         00/05-04-069-04W4/0            : Uwi          - UNIQUE WELL ID
ENTR.         SP                             : Entered      - ENTERED BY
SRVC.         SCHLUMBERGER                   : Scn          - SERVICE COMPANY
STRT.M        350                            : top_depth    - START DEPTH
STOP.M        615                            : bot_depth    - STOP DEPTH
STEP.M        0.25                           : increment    - STEP LENGTH
 NULL. -999.2500:NULL Value
~CURVE INFORMATION BLOCK
#MNEM UNIT       ERCB CURVE CODE    CURVE DESCRIPTION
#-----------   ------------------   ----------------------------------
DEPT.M        00 001 00 00         : DEPTH        - DEPTH
ILD .OHMM     00 120 00 00         : RESD         - DEEP RESISTIVITY (DIL)
DPHI.V/V      00 890 00 00         : PHID         - DENSITY POROSITY (LIMESTONE)
NPHI.V/V      00 330 00 00         : PHIN         - NEUTRON POROSITY (LIMESTONE)
GR  .API      00 310 00 00         : GR           - GAMMA RAY
~PARAMETER INFORMATION
#MNEM.UNIT           DATA             DESCRIPTION OF MNEMONIC
#---------         -----------     ------------------------------
GL  .M        724.4                : gl           - GROUND LEVEL ELEVATION
EREF.M        728.1                : kb           - ELEVATION OF DEPTH REFERENCE
DATM.M        724.4                : datum        - DATUM ELEVATION
TDD .M        625                  : tdd          - TOTAL DEPTH DRILLER
RUN .         ONE                  : Run          - RUN NUMBER
ENG .         BILL                 : Engineer     - RECORDING ENGINEER
WIT .         JIM                  : Witness      - WITNESSED BY
MUD .         GEL                  : Mud_type     - MUD TYPE
MATR.         LIMESTONE            : Logunit      - NEUTRON MATRIX
TMAX.C        23                   : BHT          - MAXIMUM RECORDED TEMPERATURE
BHTD.M        625                  : BHTDEP       - MAXIMUM RECORDED TEMPERATURE
MATR.         1                    : LOGUNIT      - NEUTRON MATRIX
RMT .C        25                   : MDTP         - TEMPERATURE OF MUD
NEUT.         1                    : NEUTRON      - NEUTRON TYPE
RESI.         0                    : RESIST       - RESISTIVITY TYPE
RMC .OHMM     0.25                 : RMC          - RESISTIVITY OF MUD CAKE
RMF .OHMM     0.25                 : RMF          - RESISTIVITY OF MUD FILTRATE
SUFT.C        15                   : SUFT         - SURFACE TEMPERATURE
~A  DEPTH     RESD     PHID     PHIN       GR
# ...
  480.500    5.514    0.331    0.483   76.714
  480.750    5.597    0.311    0.435   80.256
  481.000    5.585    0.292    0.431   83.371
  481.250    5.584    0.283    0.457   83.560
  481.500    5.541    0.284    0.474   80.214
  481.750    5.457    0.292    0.468   75.772
  482.000    5.374    0.296    0.455   73.706
  482.250    5.223    0.301    0.444   74.565
  482.500    5.029    0.305    0.436   76.767
  482.750    4.879    0.296    0.440   79.088
  483.000    4.645    0.283    0.453   81.960
  483.250    4.498    0.270    0.474   84.588
  483.500    4.331    0.265    0.486   85.386
  483.750    4.178    0.273    0.481   86.124
  484.000    4.076    0.275    0.483   87.228
  484.250    4.022    0.275    0.515   89.185
  484.500    4.013    0.289    0.540   91.263
  484.750    4.035    0.303    0.540   93.038
  485.000    4.197    0.311    0.488   92.131
  485.250    4.399    0.279    0.460   91.039
  485.500    4.610    0.257    0.460   92.386
  485.750    4.109    0.252    0.467   95.014
  486.000    2.955    0.264    0.481   93.863
  486.250    2.304    0.268    0.520   88.567
  486.500    2.073    0.278    0.579   86.257
  486.750    2.023    0.300    0.591   86.872
  487.000    2.049    0.317    0.605   88.525
  487.250    2.084    0.329    0.587   91.763
  487.500    2.147    0.305    0.562   93.475
  487.750    2.237    0.286    0.544   95.370
  488.000    2.362    0.262    0.536   96.048
  488.250    2.485    0.244    0.534   95.323
  488.500    2.575    0.239    0.534   95.697
  488.750    2.683    0.260    0.553   95.701
  489.000    2.786    0.274    0.565   94.429
  489.250    3.031    0.284    0.580   89.863
  489.500    4.269    0.293    0.544   84.201
  489.750    5.979    0.297    0.513   86.280
  490.000    7.564    0.308    0.496   85.434
  490.250    9.462    0.320    0.504   77.699
  490.500   10.354    0.330    0.495   71.366
  490.750   11.078    0.338    0.505   66.984
  491.000   11.566    0.344    0.517   67.296
  491.250   12.075    0.352    0.504   67.485
  491.500   12.349    0.346    0.474   68.161
  491.750   12.581    0.339    0.462   68.900
  492.000   12.555    0.337    0.462   68.845
  492.250   12.435    0.336    0.465   68.974
  492.500   12.018    0.330    0.471   69.468
  492.750   10.895    0.321    0.482   70.084
  493.000    9.914    0.315    0.500   70.580
  493.250    8.971    0.318    0.487   70.645
  493.500    8.272    0.324    0.480   70.286
  493.750    7.743    0.319    0.495   69.622
  494.000    7.247    0.318    0.506   69.324
  494.250    7.259    0.322    0.506   70.061
  494.500    7.522    0.329    0.495   71.165
  494.750    8.232    0.318    0.490   71.659
  495.000    9.496    0.100    0.493   70.751
  495.250   10.670    0.053    0.480   63.626
  495.500   12.102    0.036    0.224   52.174
  495.750   12.924    0.069    0.214   47.487
  496.000   12.776    0.192    0.437   54.992
  496.250   12.027    0.264    0.462   60.422
  496.500   10.520    0.293    0.473   66.889
  496.750    8.534    0.302    0.480   70.797
  497.000    7.230    0.303    0.480   74.156
  497.250    6.729    0.303    0.474   76.356
  497.500    6.299    0.307    0.475   77.460
  497.750    5.974    0.309    0.491   77.223
  498.000    5.752    0.313    0.499   75.644
  498.250    5.538    0.306    0.493   69.739
  498.500    5.363    0.305    0.516   64.259
  498.750    5.213    0.311    0.541   64.631
  499.000    5.076    0.306    0.524   70.856
  499.250    5.027    0.299    0.497   76.835
  499.500    5.045    0.286    0.498   79.158
  499.750    5.092    0.275    0.505   77.519
  500.000    5.178    0.272    0.499   77.343
  500.250    5.315    0.279    0.482   77.898
  500.500    5.425    0.281    0.500   78.331
  500.750    5.622    0.291    0.513   78.520
  501.000    6.037    0.299    0.514   77.307
  501.250    6.375    0.297    0.490   74.998
  501.500    6.593    0.294    0.462   73.846
  501.750    6.580    0.289    0.445   73.182
  502.000    6.407    0.273    0.452   72.822
  502.250    6.031    0.261    0.465   74.109
  502.500    5.764    0.256    0.474   77.834
  502.750    5.415    0.268    0.485   77.596
  503.000    5.136    0.278    0.493   75.409
  503.250    5.194    0.289    0.505   73.893
  503.500    5.748    0.295    0.539   73.593
  503.750    6.326    0.287    0.562   68.114
  504.000    7.311    0.248    0.370   62.878
  504.250    8.093    0.160    0.362   60.203
  504.500    8.839    0.176    0.399   63.075
  504.750    9.281    0.233    0.428   65.336
  505.000    9.420    0.272    0.457   67.294
  505.250    9.190    0.303    0.466   68.031
  505.500    8.331    0.322    0.495   68.525
  505.750    7.468    0.309    0.518   69.872
  506.000    6.582    0.296    0.520   74.145
  506.250    6.080    0.289    0.512   77.077
  506.500    6.218    0.293    0.514   74.219
  506.750    6.843    0.305    0.504   66.668
  507.000    7.545    0.302    0.446   66.188
  507.250    7.997    0.302    0.450   68.753
  507.500    8.686    0.319    0.460   71.015
  507.750    9.470    0.331    0.474   69.802
  508.000   10.843    0.340    0.479   64.689
  508.250   12.484    0.349    0.465   63.599
  508.500   14.160    0.345    0.472   64.458
  508.750   16.335    0.132    0.484   58.247
  509.000   19.494    0.120    0.469   50.817
  509.250   22.700    0.145    0.343   52.043
  509.500   24.796    0.223    0.394   55.097
  509.750   25.791    0.305    0.433   57.725
  510.000   25.785    0.329    0.448   59.072
  510.250   21.802    0.331    0.466   59.932
  510.500   18.401    0.338    0.483   61.218
  510.750   16.525    0.350    0.475   62.322
  511.000   17.317    0.349    0.464   61.414
  511.250   18.182    0.339    0.456   61.238
  511.500   19.271    0.342    0.450   61.732
  511.750   20.082    0.352    0.470   59.910
  512.000   20.731    0.349    0.487   57.845
  512.250   21.201    0.346    0.458   57.973
  512.500   21.478    0.348    0.440   59.930
  512.750   21.759    0.343    0.443   61.948
  513.000   21.919    0.335    0.443   63.478
  513.250   22.798    0.328    0.436   62.752
  513.500   24.209    0.337    0.432   58.492
  513.750   26.843    0.135    0.444   53.440
  514.000   29.266    0.111    0.239   48.631
  514.250   31.136    0.119    0.225   50.223
  514.500   31.962    0.301    0.273   53.764
  514.750   28.542    0.326    0.359   58.526
  515.000   25.153    0.339    0.407   61.762
  515.250   23.768    0.345    0.457   62.865
  515.500   22.884    0.337    0.476   60.495
  515.750   23.183    0.327    0.478   57.697
  516.000   23.844    0.317    0.452   57.155
  516.250   24.939    0.308    0.439   58.259
  516.500   25.314    0.307    0.461   59.546
  516.750   25.500    0.326    0.483   61.015
  517.000   25.351    0.342    0.502   61.509
  517.250   25.203    0.351    0.494   60.540
  517.500   24.821    0.351    0.476   61.888
  517.750   24.631    0.351    0.462   62.565
  518.000   24.579    0.352    0.468   62.206
  518.250   24.947    0.337    0.463   61.785
  518.500   25.657    0.323    0.457   59.719
  518.750   26.786    0.312    0.455   56.983
  519.000   27.913    0.305    0.469   54.917
  519.250   28.815    0.298    0.483   56.936
  519.500   29.027    0.289    0.496   59.624
  519.750   26.564    0.260    0.483   62.861
  520.000   10.091    0.288    0.461   67.134
  520.250    7.465    0.299    0.448   71.772
  520.500    6.229    0.265    0.466   76.411
  520.750    5.169    0.253    0.478   79.953
  521.000    4.008    0.268    0.464   81.971
  521.250    3.730    0.282    0.462   82.404
  521.500    3.532    0.285    0.449   83.264
  521.750    3.220    0.273    0.448   84.795
  522.000    2.924    0.267    0.480   86.081
  522.250    2.800    0.265    0.509   83.710
  522.500    2.716    0.260    0.516   82.436
  522.750    2.665    0.251    0.500   85.309
  523.000    2.630    0.242    0.472   85.742
  523.250    2.634    0.254    0.486   87.698
  523.500    2.663    0.253    0.504   89.472
  523.750    2.729    0.244    0.497   86.919
