~VERSION INFORMATION
 VERS.                 2.0:   CWLS LOG ASCII STANDARD -VERSION 2.0
 WRAP.                  NO:   ONE LINE PER DEPTH STEP
~WELL INFORMATION BLOCK
#MNEM.UNIT           DATA                    DESCRIPTION OF MNEMONIC
#---------    -------------------            -------------------------------
# Generated from Intellog Unique Number	CX_WELLS/WELL/2588
NULL.         -999.25                        : NULL_VALUE
WELL.         SIEBENS PONY                   : Well_name    - WELL              
LOC .         06-08-080-09W4                 : Location     - LOCATION          
UWI .         00/06-08-080-09W400            : Uwi          - UNIQUE WELL ID    
ENTR.         T                              : Entered      - ENTERED BY        
SRVC.         SCHLUMBERGER                   : Scn          - SERVICE COMPANY   
STRT.F        800                            : top_depth    - START DEPTH       
STOP.F        1620.21                        : bot_depth    - STOP DEPTH        
STEP.F        0.82                           : increment    - STEP LENGTH       
~CURVE INFORMATION BLOCK
#MNEM UNIT       ERCB CURVE CODE    CURVE DESCRIPTION
#-----------   ------------------   ----------------------------------
DEPT.F        00 001 00 00         : DEPTH        - DEPTH                       
GR  .API      00 310 00 00         : GR           - GAMMA RAY                   
NPHI.V/V      00 330 00 00         : PHIN         - NEUTRON POROSITY (SANDSTONE)
DPHI.V/V      00 890 00 00         : PHID         - DENSITY POROSITY (SANDSTONE)
ILD .OHMM     00 120 00 00         : RESD         - DEEP RESISTIVITY (DIL)      
~PARAMETER INFORMATION       
#MNEM.UNIT           DATA             DESCRIPTION OF MNEMONIC
#---------         -----------     ------------------------------
GL  .F        2298                 : gl           - GROUND LEVEL ELEVATION      
EREF.F        2310                 : kb           - ELEVATION OF DEPTH REFERENCE
DATM.F        2310                 : datum        - DATUM ELEVATION             
TDD .F        1654                 : tdd          - TOTAL DEPTH DRILLER         
RUN .         ONE                  : Run          - RUN NUMBER                  
ENG .         BILL                 : Engineer     - RECORDING ENGINEER          
WIT .         JIM                  : Witness      - WITNESSED BY                
MUD .         GEL                  : Mud_type     - MUD TYPE                    
MATR.         SANDSTONE            : Logunit      - NEUTRON MATRIX              
TMAX.F        73                   : BHT          - MAXIMUM RECORDED TEMPERATURE
BHTD.F        1653                 : BHTDEP       - MAXIMUM RECORDED TEMPERATURE
MATR.         1                    : LOGUNIT      - NEUTRON MATRIX              
RMT .F        68                   : MDTP         - TEMPERATURE OF MUD          
NEUT.         1                    : NEUTRON      - NEUTRON TYPE                
RESI.         4.78                 : RESIST       - RESISTIVITY TYPE            
RMC .OHMM     4.8                  : RMC          - RESISTIVITY OF MUD CAKE     
RMF .OHMM     4.8                  : RMF          - RESISTIVITY OF MUD FILTRATE 
SUFT.F        37.4                 : SUFT         - SURFACE TEMPERATURE         
~A  DEPTH       GR     PHIN     PHID     RESD
  800.000   81.487    0.534    0.226    0.573
  800.820   80.935    0.540    0.230    0.573
  801.640   82.192    0.541    0.230    0.609
  802.461   82.834    0.513    0.229    0.646
  803.281   83.488    0.437    0.222    0.684
  804.101   82.923    0.442    0.219    0.698
  804.921   82.370    0.453    0.223    0.740
  805.741   83.037    0.462    0.224    0.798
  806.562   84.885    0.473    0.224    0.861
  807.382   87.349    0.476    0.228    0.912
  808.202   90.404    0.452    0.232    0.930
  809.022   94.665    0.432    0.238    0.986
  809.843  101.353    0.434    0.243    1.026
  810.663  105.627    0.440    0.231    1.047
  811.483  106.872    0.449    0.211    1.089
  812.303  108.129    0.460    0.197    1.136
  813.123  106.986    0.470    0.193    1.180
  813.944  106.408    0.479    0.196    1.204
  814.764  107.075    0.477    0.204    1.253
  815.584  107.703    0.471    0.228    1.329
  816.404  108.986    0.465    0.238    1.380
  817.224  109.012    0.466    0.238    1.436
  818.045  107.856    0.469    0.241    1.521
  818.865  104.274    0.473    0.245    1.672
  819.685   91.039    0.474    0.249    1.771
  820.505   84.440    0.476    0.256    1.908
  821.325   75.428    0.478    0.271    2.056
  822.146   61.603    0.483    0.325    2.385
  822.966   58.033    0.518    0.339    3.134
  823.786   55.042    0.544    0.383    3.444
  824.606   44.837    0.559    0.431    3.645
  825.427   38.854    0.397    0.411    3.862
  826.247   40.715    0.397    0.296    3.877
  827.067   41.343    0.398    0.276    3.958
  827.887   42.010    0.398    0.285    3.970
  828.707   44.474    0.398    0.306    3.985
  829.528   45.706    0.398    0.309    3.997
  830.348   49.377    0.398    0.309    4.013
  831.168   54.280    0.408    0.315    4.032
  831.988   55.512    0.417    0.324    4.040
  832.808   57.373    0.431    0.329    3.984
  833.629   56.217    0.441    0.330    3.858
  834.449   55.048    0.448    0.306    3.737
  835.269   56.306    0.442    0.295    3.612
  836.089   59.361    0.399    0.284    3.375
  836.909   61.234    0.370    0.119    3.151
  837.730   61.260    0.372    0.144    2.941
  838.550   60.707    0.386    0.197    2.607
  839.370   59.538    0.420    0.261    2.475
  840.190   57.792    0.440    0.275    2.440
  841.010   57.214    0.441    0.293    2.539
  841.831   58.471    0.446    0.310    2.690
  842.651   59.716    0.448    0.309    2.847
  843.471   60.974    0.447    0.301    3.016
  844.291   61.628    0.436    0.292    3.195
  845.112   61.691    0.432    0.293    3.328
  845.932   62.923    0.426    0.294    3.398
  846.752   65.991    0.430    0.291    3.408
  847.572   69.649    0.435    0.288    3.418
  848.392   72.729    0.450    0.297    3.255
  849.213   74.564    0.463    0.303    3.203
  850.033   77.041    0.474    0.301    3.053
  850.853   77.695    0.461    0.298    3.062
  851.673   78.940    0.445    0.298    3.071
  852.493   80.801    0.436    0.299    3.077
  853.314   83.856    0.429    0.303    3.089
  854.134   83.894    0.433    0.303    3.104
  854.954   80.941    0.436    0.295    3.166
  855.774   80.375    0.442    0.292    3.182
  856.594   79.810    0.447    0.290    3.191
  857.415   78.641    0.453    0.290    3.204
  858.235   78.692    0.453    0.291    3.213
  859.055   83.570    0.450    0.291    3.222
  859.875   90.257    0.443    0.315    3.124
  860.696   93.325    0.433    0.316    3.077
  861.516   93.966    0.428    0.271    2.978
  862.336   94.607    0.431    0.260    2.884
  863.156   95.877    0.440    0.266    2.743
  863.976   95.928    0.447    0.263    2.703
  864.797   95.954    0.455    0.257    2.710
  865.617   96.004    0.453    0.254    2.721
  866.437   97.275    0.438    0.253    2.638
  867.257   97.903    0.428    0.247    2.550
  868.077   99.764    0.423    0.240    2.514
  868.898   99.212    0.420    0.232    2.477
  869.718   96.836    0.425    0.224    2.486
  870.538   90.841    0.431    0.225    2.449
  871.358   85.462    0.439    0.243    2.418
  872.178   82.496    0.427    0.254    2.382
  872.999   84.357    0.409    0.248    2.304
  873.819   86.808    0.410    0.233    2.079
  874.639   91.686    0.412    0.217    1.974
  875.459   97.757    0.421    0.204    1.812
  876.280  102.635    0.430    0.202    1.690
  877.100  107.512    0.455    0.194    1.522
  877.920  109.963    0.479    0.192    1.277
  878.740  113.031    0.498    0.187    1.130
  879.560  114.276    0.506    0.175    0.964
  880.381  116.149    0.509    0.183    0.838
  881.201  116.790    0.514    0.208    0.768
  882.021  117.432    0.520    0.229    0.680
  882.841  118.689    0.525    0.234    0.671
  883.661  119.343    0.535    0.242    0.947
  884.482  118.188    0.541    0.255    1.117
  885.302  114.002    0.547    0.262    1.665
  886.122  109.214    0.463    0.271    1.826
  886.942   94.772    0.439    0.282    2.402
  887.762   83.950    0.420    0.288    2.937
  888.583   74.348    0.426    0.289    3.004
  889.403   70.175    0.440    0.289    3.013
  890.223   72.023    0.447    0.290    2.971
  891.043   74.487    0.448    0.292    2.980
  891.864   76.348    0.446    0.295    2.991
  892.684   77.002    0.442    0.302    3.003
  893.504   77.028    0.434    0.304    3.012
  894.324   80.108    0.434    0.311    3.021
  895.144   83.779    0.433    0.314    2.978
  895.965   85.011    0.427    0.315    2.831
  896.785   85.074    0.421    0.312    2.504
  897.605   85.100    0.424    0.301    2.255
  898.425   84.560    0.431    0.277    2.107
  899.245   85.805    0.436    0.264    2.041
  900.066   86.459    0.429    0.231    1.977
  900.886   84.109    0.423    0.165    1.945
  901.706   82.337    0.414    0.157    1.851
  902.526   81.156    0.408    0.191    1.731
  903.346   89.653    0.413    0.213    1.616
  904.167   95.121    0.419    0.224    1.562
  904.987  100.602    0.428    0.232    1.407
  905.807  104.876    0.441    0.227    1.180
  906.627  109.150    0.445    0.222    1.045
  907.448  113.424    0.452    0.217    1.029
  908.268  115.272    0.472    0.203    1.152
  909.088  115.926    0.499    0.187    1.219
  909.908  115.374    0.481    0.177    1.339
  910.728  113.024    0.478    0.174    1.497
  911.549  111.843    0.477    0.224    1.613
  912.369  107.657    0.468    0.247    1.803
  913.189   99.852    0.455    0.245    2.054
  914.009   99.903    0.460    0.249    2.095
  914.829   99.954    0.463    0.257    2.182
  915.650   98.798    0.453    0.270    2.230
  916.470   98.823    0.440    0.262    2.235
  917.290  100.094    0.434    0.232    2.126
  918.110  101.338    0.439    0.224    1.949
  918.930  101.992    0.446    0.230    1.789
  919.751   97.204    0.457    0.242    1.731
  920.571   91.812    0.466    0.251    1.771
  921.391   85.226    0.471    0.254    1.807
  922.211   81.657    0.466    0.255    1.950
  923.031   78.678    0.466    0.261    1.950
  923.852   76.907    0.464    0.264    2.399
  924.672   78.793    0.462    0.273    2.275
  925.492   79.421    0.457    0.278    2.284
  926.312   81.282    0.451    0.279    2.212
  927.133   82.527    0.445    0.276    2.217
  927.953   84.388    0.440    0.273    2.073
  928.773   85.633    0.443    0.265    1.970
  929.593   86.877    0.446    0.260    1.939
  930.413   89.367    0.447    0.254    1.845
  931.234   90.599    0.446    0.249    1.753
  932.054   92.447    0.446    0.243    1.669
  932.874   96.118    0.445    0.246    1.617
  933.694   99.788    0.454    0.253    1.649
  934.514  102.843    0.465    0.273    1.781
  935.335  103.510    0.479    0.296    1.921
  936.155   97.502    0.481    0.301    1.995
  936.975   92.136    0.470    0.304    2.190
  937.795   92.161    0.465    0.309    2.407
  938.615   91.621    0.466    0.311    2.460
  939.436   88.655    0.468    0.309    2.512
  940.256   86.871    0.467    0.292    2.570
  941.076   84.521    0.469    0.286    2.624
  941.896   83.340    0.470    0.277    2.629
