~VERSION INFORMATION
 VERS.                 2.0:   CWLS LOG ASCII STANDARD -VERSION 2.0
 WRAP.                  NO:   ONE LINE PER DEPTH STEP
~WELL INFORMATION BLOCK
#MNEM.UNIT           DATA                    DESCRIPTION OF MNEMONIC
#---------    -------------------            -------------------------------
# Generated from Intellog Unique Number	CW_82_90/WELL/288
WELL.         04-19-083-23W4                 : Well_name    - WELL
LOC .         00/04-19-083-23W4/0            : Location     - LOCATION
UWI .         00/04-19-083-23W4/0            : Uwi          - UNIQUE WELL ID
ENTR.         JAYE                           : Entered      - ENTERED BY
SRVC.         SCHLUMBERGER                   : Scn          - SERVICE COMPANY
DATE.         22 JAN 76                      : Date         - LOG DATE
STRT.M        207.264                        : top_depth    - START DEPTH
STOP.M        417.514                        : bot_depth    - STOP DEPTH
STEP.M        0.25                           : increment    - STEP LENGTH
 NULL. -999.2500:NULL Value
~CURVE INFORMATION BLOCK
#MNEM UNIT       ERCB CURVE CODE    CURVE DESCRIPTION
#-----------   ------------------   ----------------------------------
DEPT.M        00 001 00 00         : DEPTH        - DEPTH
CALI.MM       00 280 01 00         : CAL          - CALIPER
GR  .API      00 310 00 00         : GR           - GAMMA RAY
NPHI.V/V      00 330 00 00         : PHIN         - NEUTRON POROSITY (SANDSTONE)
DPHI.V/V      00 890 00 00         : PHID         - DENSITY POROSITY (SANDSTONE)
ILD .OHMM     00 120 00 00         : RESD         - DEEP RESISTIVITY (DIL)
~PARAMETER INFORMATION
#MNEM.UNIT           DATA             DESCRIPTION OF MNEMONIC
#---------         -----------     ------------------------------
GL  .M        592.531              : gl           - GROUND LEVEL ELEVATION
EREF.M        595.884              : kb           - ELEVATION OF DEPTH REFERENCE
DATM.M        592.531              : datum        - DATUM ELEVATION
TDD .M        421.234              : tdd          - TOTAL DEPTH DRILLER
ENG .         DODSWORTH            : Engineer     - RECORDING ENGINEER
WIT .         7658                 : Witness      - WITNESSED BY
BASE.         EDMONTON             : Branch       - HOME BASE OF LOGGING UNIT
MUD .         GEL CHEM             : Mud_type     - MUD TYPE
MATR.         SANDSTONE            : Logunit      - NEUTRON MATRIX
TMAX.C        26.6667              : BHT          - MAXIMUM RECORDED TEMPERATURE
BHTD.M        421.234              : BHTDEP       - MAXIMUM RECORDED TEMPERATURE
RMT .C        -17.7778             : MDTP         - TEMPERATURE OF MUD
MUDD.KG/M     9000                 : MWT          - MUD DENSITY
NEUT.         1                    : NEUTRON      - NEUTRON TYPE
RESI.         0                    : RESIST       - RESISTIVITY TYPE
RM  .OHMM     0                    : RM           - RESISTIVITY OF MUD
RMC .OHMM     0                    : RMC          - RESISTIVITY OF MUD CAKE
RMF .OHMM     64.91                : RMF          - RESISTIVITY OF MUD FILTRATE
SUFT.C        -17.7778             : SUFT         - SURFACE TEMPERATURE
~A  DEPTH      CAL       GR     PHIN     PHID     RESD
# ...
  316.764  161.512   81.932    0.408    0.290    4.779
  317.014  162.494   87.344    0.408    0.276    4.551
  317.264  163.364   94.108    0.403    0.265    4.562
  317.514  162.500   94.259    0.412    0.255    5.028
  317.764  162.507   92.811    0.422    0.259    6.055
  318.014  162.557   92.037    0.425    0.262    7.173
  318.264  163.531   94.271    0.419    0.264    8.128
  318.514  164.090   94.111    0.414    0.264    9.091
  318.764  163.439   91.929    0.407    0.264   10.074
  319.014  162.823   88.708    0.406    0.264   11.351
  319.264  162.823   86.591    0.405    0.264   12.325
  319.514  158.164   83.982    0.395    0.266   12.731
  319.764  157.560   81.496    0.384    0.270   12.908
  320.014  157.494   80.968    0.380    0.275   12.707
  320.264  158.782   78.791    0.385    0.258   12.322
  320.514  161.112   75.384    0.381    0.255   11.390
  320.764  160.029   70.633    0.369    0.250   10.803
  321.014  156.731   68.698    0.358    0.282   10.154
  321.264  156.675   70.014    0.385    0.301    9.578
  321.514   97.914   71.873    0.383    0.312    9.321
  321.764  159.658   74.284    0.381    0.309    9.227
  322.014  160.127   77.316    0.381    0.296    9.234
  322.264  159.847   80.093    0.383    0.281    9.504
  322.514  159.084   79.934    0.387    0.269    9.671
  322.764  159.107   76.895    0.389    0.271    9.934
  323.014  159.143   74.962    0.384    0.277   10.183
  323.264  159.143   76.276    0.386    0.296   10.519
  323.514  159.466   76.973    0.392    0.298   10.864
  323.764  159.272   77.180    0.399    0.298   11.200
  324.014  159.768   76.961    0.395    0.303   11.484
  324.264  159.563   77.050    0.389    0.309   11.432
  324.514  158.878   80.194    0.377    0.308   11.088
  324.764  157.266   81.015    0.371    0.291   10.911
  325.014  156.682   77.672    0.374    0.280   10.582
  325.264  158.701   74.511    0.384    0.270   10.320
  325.514  159.779   72.025    0.380    0.269   10.253
  325.764  159.197   71.073    0.386    0.274   10.284
  326.014  158.720   72.998    0.392    0.286   10.237
  326.264  158.970   75.408    0.400    0.296   10.203
  326.514  159.323   78.133    0.407    0.310   10.175
  326.764  160.022   79.441    0.414    0.310   10.164
  327.014  160.029   79.098    0.418    0.302   10.098
  327.264  159.760   79.062    0.428    0.290   10.088
  327.514  159.497   80.005    0.433    0.291   10.115
  327.764  159.222   81.746    0.426    0.291   10.123
  328.014  158.441   83.548    0.420    0.290   10.079
  328.264  158.165   82.896    0.410    0.291   10.011
  328.514  158.165   79.005    0.414    0.272    9.872
  328.764  159.109   79.641    0.422    0.266    9.844
  329.014  159.536   82.362    0.427    0.261    9.870
  329.264  160.515   82.019    0.433    0.271   10.008
  329.514  160.515   81.735    0.428    0.275   10.059
  329.764  159.153   83.537    0.421    0.278   10.008
  330.014  159.153   86.505    0.411    0.277   10.008
  330.264  158.823   87.078    0.409    0.273    9.243
  330.514  159.483   84.777    0.406    0.266    9.011
  330.764  160.456   79.780    0.392    0.243    8.690
  331.014  160.506   68.104    0.363    0.156    8.335
  331.264  160.339   59.680    0.236    0.092    7.907
  331.514  160.072   61.179    0.196    0.121    7.477
  331.764  161.142   64.262    0.208    0.150    7.436
  332.014  162.951   68.878    0.251    0.188    7.240
  332.264  162.951   75.335    0.342    0.217    7.231
  332.514  165.031   79.648    0.367    0.233    7.279
  332.764  164.838   77.957    0.379    0.237    7.298
  333.014  164.838   78.349    0.387    0.234    7.496
  333.264  164.428   81.500    0.381    0.229    7.814
  333.514  163.515   83.115    0.367    0.243    8.206
  333.764  162.731   86.328    0.365    0.262    8.698
  334.014  162.882   86.716    0.401    0.260    9.394
  334.264  166.571   87.478    0.409    0.259   10.181
  334.514  167.005   89.462    0.403    0.260   11.177
  334.764  167.046   92.612    0.393    0.263   13.167
  335.014  166.986   92.331    0.403    0.264   15.598
  335.264  166.716   91.192    0.411    0.260   16.626
  335.514  165.628   90.917    0.420    0.268   16.093
  335.764  165.050   91.915    0.419    0.263   12.270
  336.014  165.699   94.818    0.401    0.260   10.261
  336.264  166.997   96.251    0.392    0.253    9.292
  336.514  168.690   94.684    0.395    0.246    8.557
  336.764  170.597   94.590    0.397    0.251    7.967
  337.014  168.254   94.610    0.398    0.246    7.530
  337.264  165.093   92.861    0.396    0.240    7.411
  337.514  165.753   93.252    0.390    0.235    7.336
  337.764  167.138   94.994    0.398    0.246    7.233
  338.014  170.324   96.059    0.408    0.261    7.029
  338.264  171.682   97.676    0.410    0.266    6.805
  338.514  176.185   99.667    0.408    0.266    6.722
  338.764  181.729  101.706    0.405    0.260    6.778
  339.014  181.729  101.061    0.402    0.249    6.885
  339.264  188.133   98.083    0.399    0.244    7.020
  339.514  171.174   95.168    0.396    0.241    7.374
  339.764  165.609   92.376    0.393    0.249    7.686
  340.014  163.067   89.521    0.373    0.261    8.056
  340.264  164.349   83.483    0.366    0.261    8.305
  340.514  165.737   78.917    0.349    0.233    8.408
  340.764  163.915   76.677    0.334    0.171    8.428
  341.014  162.607   76.578    0.272    0.109    8.421
  341.264  162.477   83.646    0.241    0.121    8.335
  341.514  163.315   88.324    0.237    0.153    8.311
  341.764  166.900   93.249    0.329    0.176    8.333
  342.014  165.367   91.744    0.368    0.208    8.388
  342.264  164.081   85.583    0.403    0.231    8.695
  342.514  163.171   76.726    0.413    0.206    9.183
  342.764  161.980   79.140    0.417    0.198    9.789
  343.014  162.122   90.131    0.362    0.184   10.394
  343.264  161.966   93.462    0.382    0.197   11.120
  343.514  162.716   94.037    0.401    0.226   11.724
  343.764  164.418   95.654    0.401    0.237   12.613
  344.014  166.017   97.887    0.404    0.229   14.079
  344.264  167.926   99.010    0.407    0.233   15.259
  344.514  169.549  100.754    0.403    0.249   16.086
  344.764  169.986  101.636    0.398    0.244   16.704
  345.014  169.986  100.983    0.411    0.221   15.851
  345.264  171.018   96.418    0.418    0.243   14.458
  345.514  171.044   95.769    0.414    0.232   12.853
  345.764  169.537   96.282    0.411    0.235   11.427
  346.014  164.924   97.352    0.404    0.228   10.718
  346.264  164.120   96.949    0.402    0.216   10.090
  346.514  162.326   95.870    0.398    0.213    9.482
  346.764  161.820   95.710    0.405    0.216    9.078
  347.014  160.423   95.982    0.404    0.219    8.853
  347.264  160.656   95.452    0.397    0.220    8.429
  347.514  160.656   93.395    0.391    0.221    8.054
  347.764  160.331   91.768    0.386    0.222    7.813
  348.014  159.970   91.674    0.381    0.230    7.747
  348.264  161.758   92.001    0.375    0.232    7.696
  348.514  160.038   91.536    0.369    0.233    7.688
  348.764  158.428   90.830    0.364    0.232    7.767
  349.014  158.049   89.689    0.358    0.221    7.978
  349.264  157.994   89.163    0.361    0.212    8.256
  349.514  157.302   90.166    0.365    0.223    8.734
  349.764  156.832   91.723    0.369    0.231    9.414
  350.014  156.869   90.521    0.363    0.234   10.015
  350.264  155.983   87.852    0.362    0.241   10.835
  350.514  155.983   86.162    0.378    0.237   11.948
  350.764  155.895   82.942    0.375    0.230   12.040
  351.014  155.799   79.721    0.368    0.214   12.161
  351.264  155.735   77.112    0.356    0.197   12.178
  351.514  155.362   76.709    0.339    0.184   12.181
  351.764  155.929   77.834    0.326    0.170   12.332
  352.014  156.898   79.820    0.314    0.153   12.385
  352.264  156.898   82.662    0.299    0.162   12.491
  352.514  157.008   85.564    0.302    0.176   12.502
  352.764  157.130   90.857    0.313    0.193   12.555
  353.014  158.128   94.006    0.326    0.211   12.520
