~VERSION INFORMATION
 VERS.                 2.0:   CWLS LOG ASCII STANDARD -VERSION 2.0
 WRAP.                  NO:   ONE LINE PER DEPTH STEP
~WELL INFORMATION BLOCK
#MNEM.UNIT           DATA                    DESCRIPTION OF MNEMONIC
#---------    -------------------            -------------------------------
# Generated from Intellog Unique Number	CW_70_72/WELL/3015
NULL.         -999.25                        : NULL_VALUE
WELL.         CHIEFCO POR ET AL DANCING 07-0 : Well_name    - WELL              
LOC .         07-01-070-27W4                 : Location     - LOCATION          
UWI .         00/07-01-070-27W4/0            : Uwi          - UNIQUE WELL ID    
ENTR.         J                              : Entered      - ENTERED BY        
SRVC.         SCHLUMBERGER                   : Scn          - SERVICE COMPANY   
DATE.         20 DEC 75                      : Date         - LOG DATE          
STRT.M        484.632                        : top_depth    - START DEPTH       
STOP.M        737.632                        : bot_depth    - STOP DEPTH        
STEP.M        0.25                           : increment    - STEP LENGTH       
~CURVE INFORMATION BLOCK
#MNEM UNIT       ERCB CURVE CODE    CURVE DESCRIPTION
#-----------   ------------------   ----------------------------------
DEPT.M        00 001 00 00         : DEPTH        - DEPTH                       
ILD .OHMM     00 120 00 00         : RESD         - DEEP RESISTIVITY (DIL)      
CALI.MM       00 280 01 00         : CAL          - CALIPER                     
GR  .API      00 310 00 00         : GR           - GAMMA RAY                   
NPHI.V/V      00 330 00 00         : PHIN         - NEUTRON POROSITY (SANDSTONE)
DPHI.V/V      00 890 00 00         : PHID         - DENSITY POROSITY (SANDSTONE)
~PARAMETER INFORMATION       
#MNEM.UNIT           DATA             DESCRIPTION OF MNEMONIC
#---------         -----------     ------------------------------
GL  .M        648.005              : gl           - GROUND LEVEL ELEVATION      
EREF.M        650.748              : kb           - ELEVATION OF DEPTH REFERENCE
DATM.M        648.005              : datum        - DATUM ELEVATION             
TDD .M        754.38               : tdd          - TOTAL DEPTH DRILLER         
RUN .         ONE                  : Run          - RUN NUMBER                  
ENG .         ROBSON               : Engineer     - RECORDING ENGINEER          
BASE.         RD                   : Branch       - HOME BASE OF LOGGING UNIT   
MUD .         GEL                  : Mud_type     - MUD TYPE                    
MATR.         SANDSTONE            : Logunit      - NEUTRON MATRIX              
TMAX.C        27.7778              : BHT          - MAXIMUM RECORDED TEMPERATURE
BHTD.M        754.075              : BHTDEP       - MAXIMUM RECORDED TEMPERATURE
RMT .C        17.7778              : MDTP         - TEMPERATURE OF MUD          
MUDD.KG/M     1176                 : MWT          - MUD DENSITY                 
NEUT.         1                    : NEUTRON      - NEUTRON TYPE                
RESI.         0                    : RESIST       - RESISTIVITY TYPE            
RM  .OHMM     3.72                 : RM           - RESISTIVITY OF MUD          
RMC .OHMM     2.5                  : RMC          - RESISTIVITY OF MUD CAKE     
RMF .OHMM     4.21                 : RMF          - RESISTIVITY OF MUD FILTRATE 
SUFT.C        -17.7778             : SUFT         - SURFACE TEMPERATURE         
~A  DEPTH     RESD      CAL       GR     PHIN     PHID
# ...
  594.132    2.373  153.546   70.388    0.412    0.250
  594.382    2.272  153.777   71.677    0.401    0.230
  594.632    2.308  154.206   73.695    0.403    0.223
  594.882    2.559  155.049   75.833    0.410    0.218
  595.132    3.113  156.206   78.154    0.420    0.215
  595.382    3.684  156.948   76.105    0.425    0.206
  595.632    4.961  158.102   63.911    0.417    0.182
  595.882    6.371  159.363   56.033    0.383    0.082
  596.132    7.722  160.208   52.766    0.188    0.032
  596.382    9.599  160.747   49.683    0.177    0.012
  596.632    9.476  160.361   52.917    0.172    0.004
  596.882    8.132  159.969   58.518    0.186    0.061
  597.132    6.316  159.374   63.024    0.256    0.121
  597.382    4.415  158.476   67.654    0.324    0.215
  597.632    3.557  157.571   70.948    0.385    0.229
  597.882    3.200  155.849   73.266    0.417    0.215
  598.132    2.786  153.921   75.528    0.413    0.211
  598.382    2.600  152.398   74.935    0.411    0.229
  598.632    2.539  149.749   70.454    0.408    0.230
  598.882    2.565  147.407   72.108    0.405    0.219
  599.132    2.645  145.580   74.188    0.413    0.224
  599.382    2.753  145.707   75.597    0.419    0.230
  599.632    2.756  146.447   76.646    0.411    0.216
  599.882    2.731  150.378   76.964    0.420    0.194
  600.132    2.715  154.105   76.974    0.435    0.211
  600.382    2.715  156.392   76.321    0.430    0.239
  600.632    2.734  157.855   75.121    0.419    0.215
  600.882    2.813  158.801   76.531    0.436    0.198
  601.132    2.991  159.340   79.399    0.424    0.200
  601.382    3.158  159.363   80.930    0.420    0.186
  601.632    3.237  159.697   79.487    0.441    0.175
  601.882    3.314  159.516   80.048    0.435    0.168
  602.132    3.404  159.227   82.736    0.418    0.184
  602.382    3.485  159.050   83.719    0.416    0.192
  602.632    3.503  158.864   77.539    0.416    0.184
  602.882    3.490  158.684   75.002    0.405    0.160
  603.132    3.444  158.400   77.143    0.374    0.157
  603.382    3.393  158.317   82.317    0.406    0.158
  603.632    3.295  158.140   81.786    0.429    0.164
  603.882    3.148  158.160   81.192    0.427    0.217
  604.132    3.029  157.873   82.540    0.446    0.217
  604.382    2.984  157.903   82.009    0.448    0.213
  604.632    3.055  157.922   84.572    0.425    0.209
  604.882    3.151  157.842   85.923    0.424    0.193
  605.132    3.201  157.871   85.877    0.443    0.186
  605.382    3.271  157.785   86.496    0.447    0.199
  605.632    3.330  158.222   85.538    0.426    0.199
  605.882    3.384  158.557   82.760    0.409    0.187
  606.132    3.420  158.885   80.952    0.401    0.199
  606.382    3.418  159.223   82.970    0.393    0.207
  606.632    3.417  159.446   87.902    0.405    0.202
  606.882    3.416  159.473   89.070    0.434    0.176
  607.132    3.447  159.289   85.805    0.423    0.173
  607.382    3.476  159.211   82.538    0.414    0.192
  607.632    3.502  159.236   82.129    0.414    0.195
  607.882    3.488  159.151   85.483    0.423    0.181
  608.132    3.473  158.971   86.346    0.432    0.171
  608.382    3.429  158.891   84.539    0.441    0.164
  608.632    3.360  158.296   82.975    0.447    0.171
  608.882    3.304  158.227   82.197    0.436    0.167
  609.132    3.286  158.247   83.001    0.423    0.178
  609.382    3.326  158.170   86.476    0.402    0.190
  609.632    3.467  157.884   90.680    0.403    0.186
  609.882    3.620  157.906   94.641    0.416    0.169
  610.132    3.713  157.822   94.837    0.426    0.159
  610.382    3.724  157.637   90.235    0.419    0.173
  610.632    3.677  157.661   87.700    0.416    0.161
  610.882    3.677  157.694   87.229    0.425    0.173
  611.132    3.501  157.813   86.876    0.425    0.179
  611.382    3.430  158.045   84.278    0.416    0.186
  611.632    3.360  158.167   82.959    0.407    0.195
  611.882    3.298  158.191   84.246    0.417    0.201
  612.132    3.321  158.012   85.171    0.426    0.201
  612.382    3.462  158.240   86.705    0.417    0.179
  612.632    3.596  158.986   89.632    0.412    0.185
  612.882    3.640  159.416   90.071    0.420    0.185
  613.132    3.580  159.850   86.198    0.428    0.170
  613.382    3.346  160.082   82.932    0.425    0.164
  613.632    3.000  160.003   82.402    0.421    0.186
  613.882    2.661  159.409   83.145    0.421    0.191
  614.132    2.250  158.096   81.093    0.431    0.197
  614.382    1.978  156.885   72.057    0.434    0.211
  614.632    1.845  155.264   63.814    0.418    0.235
  614.882    2.261  153.949   56.358    0.394    0.252
  615.132    2.836  150.686   50.604    0.381    0.237
  615.382    3.729  149.162   48.071    0.384    0.206
  615.632    4.602  147.129   46.566    0.330    0.147
  615.882    5.168  150.033   45.726    0.246    0.033
  616.132    5.027  153.965   45.010    0.173    0.011
  616.382    4.346  156.765   45.268    0.226    0.047
  616.632    3.513  156.377   47.711    0.360    0.076
  616.882    2.860  154.238   50.276    0.355    0.201
  617.132    2.288  151.077   50.532    0.346    0.222
  617.382    2.055  150.173   51.213    0.372    0.232
  617.632    1.889  149.993   52.624    0.386    0.250
  617.882    1.728  150.123   53.128    0.394    0.262
  618.132    1.622  149.734   53.020    0.412    0.272
  618.382    1.546  149.652   52.728    0.406    0.278
  618.632    1.490  149.778   52.379    0.399    0.287
  618.882    1.460  149.904   52.210    0.421    0.293
  619.132    1.457  150.034   52.467    0.438    0.288
  619.382    1.495  150.567   52.842    0.419    0.288
  619.632    1.583  151.416   54.070    0.417    0.292
  619.882    1.674  151.641   55.481    0.438    0.299
  620.132    1.823  151.158   55.800    0.453    0.307
  620.382    2.007  151.174   57.636    0.446    0.302
  620.632    2.220  150.791   62.690    0.426    0.289
  620.882    2.512  150.710   68.106    0.415    0.261
  621.132    2.760  151.555   76.015    0.406    0.204
  621.382    2.967  154.046   83.742    0.410    0.170
  621.632    3.196  158.596   88.977    0.435    0.166
  621.882    3.405  163.860   83.647    0.423    0.157
  622.132    3.542  165.941   79.957    0.418    0.167
  622.382    3.665  166.477   80.339    0.421    0.164
  622.632    3.690  166.505   80.896    0.424    0.170
  622.882    3.636  166.324   82.002    0.422    0.166
  623.132    3.406  166.549   84.991    0.414    0.148
  623.382    3.172  166.880   89.074    0.416    0.127
  623.632    3.040  166.289   88.239    0.464    0.135
  623.882    2.827  162.815   81.693    0.435    0.163
  624.132    2.557  158.519   71.569    0.417    0.195
  624.382    2.364  154.429   66.785    0.439    0.229
  624.632    2.198  151.372   63.092    0.450    0.278
  624.882    2.081  150.158   59.584    0.432    0.278
  625.132    1.981  149.463   55.772    0.428    0.277
  625.382    1.931  149.691   52.752    0.427    0.287
  625.632    1.976  151.979   58.412    0.424    0.269
  625.882    2.120  150.971   59.825    0.417    0.256
  626.132    2.376  146.471   59.716    0.402    0.254
  626.382    2.828  145.466   58.700    0.400    0.258
  626.632    3.415  148.163   57.920    0.391    0.247
  626.882    3.977  154.768   52.834    0.321    0.210
  627.132    4.190  157.264   51.392    0.281    0.172
  627.382    4.196  157.800   51.468    0.265    0.178
  627.632    4.075  158.032   50.993    0.308    0.186
  627.882    3.720  158.254   49.791    0.338    0.198
  628.132    3.739  158.588   48.409    0.301    0.210
  628.382    4.245  158.918   45.751    0.236    0.092
  628.632    5.905  159.045   42.794    0.146    0.070
  628.882    7.170  159.379   42.257    0.129    0.036
  629.132    7.245  159.709   44.518    0.143    0.076
  629.382    6.462  160.865   46.841    0.185    0.166
  629.632    5.309  161.505   49.099    0.300    0.254
  629.882    4.532  160.088   49.356    0.397    0.290
  630.132    3.540  156.719   51.739    0.427    0.284
  630.382    2.918  153.554   55.216    0.410    0.265
