~VERSION INFORMATION
 VERS.                 2.0:   CWLS LOG ASCII STANDARD -VERSION 2.0
 WRAP.                  NO:   ONE LINE PER DEPTH STEP
~WELL INFORMATION BLOCK
#MNEM.UNIT           DATA                    DESCRIPTION OF MNEMONIC
#---------    -------------------            -------------------------------
# Generated from Intellog Unique Number	CS_71_72/WELL/785
WELL.         BVX ET AL LYLE                 : Well_name    - WELL
LOC .         00/06-31-072-16W4/0            : Location     - LOCATION
UWI .         00/06-31-072-16W4/0            : Uwi          - UNIQUE WELL ID
ENTR.         SP                             : Entered      - ENTERED BY
SRVC.         SCHLUMBERGER                   : Scn          - SERVICE COMPANY
STRT.M        249.936                        : top_depth    - START DEPTH
STOP.M        441.686                        : bot_depth    - STOP DEPTH
STEP.M        0.25                           : increment    - STEP LENGTH
 NULL. -999.2500:NULL Value
~CURVE INFORMATION BLOCK
#MNEM UNIT       ERCB CURVE CODE    CURVE DESCRIPTION
#-----------   ------------------   ----------------------------------
DEPT.M        00 001 00 00         : DEPTH        - DEPTH
GR  .API      00 310 00 00         : GR           - GAMMA RAY
DPHI.V/V      00 890 00 00         : PHID         - DENSITY POROSITY (SANDSTONE)
NPHI.V/V      00 330 00 00         : PHIN         - NEUTRON POROSITY (SANDSTONE)
ILD .OHMM     00 120 00 00         : RESD         - DEEP RESISTIVITY (DIL)
~PARAMETER INFORMATION
#MNEM.UNIT           DATA             DESCRIPTION OF MNEMONIC
#---------         -----------     ------------------------------
GL  .M        575.584              : gl           - GROUND LEVEL ELEVATION
EREF.M        578.815              : kb           - ELEVATION OF DEPTH REFERENCE
DATM.M        575.584              : datum        - DATUM ELEVATION
TDD .M        443.179              : tdd          - TOTAL DEPTH DRILLER
RUN .         ONE                  : Run          - RUN NUMBER
ENG .         BILL                 : Engineer     - RECORDING ENGINEER
WIT .         JIM                  : Witness      - WITNESSED BY
MUD .         GEL                  : Mud_type     - MUD TYPE
MATR.         SANDSTONE            : Logunit      - NEUTRON MATRIX
TMAX.C        14.4444              : BHT          - MAXIMUM RECORDED TEMPERATURE
BHTD.M        443.179              : BHTDEP       - MAXIMUM RECORDED TEMPERATURE
MATR.         1                    : LOGUNIT      - NEUTRON MATRIX
RMT .C        25                   : MDTP         - TEMPERATURE OF MUD
NEUT.         1                    : NEUTRON      - NEUTRON TYPE
RESI.         0                    : RESIST       - RESISTIVITY TYPE
RMC .OHMM     0.25                 : RMC          - RESISTIVITY OF MUD CAKE
RMF .OHMM     0.25                 : RMF          - RESISTIVITY OF MUD FILTRATE
SUFT.C        15                   : SUFT         - SURFACE TEMPERATURE
~A  DEPTH       GR     PHID     PHIN     RESD
  249.936  107.999    0.221    0.562    2.886
  250.186  110.125    0.259    0.567    2.836
  250.436  113.207    0.273    0.551    2.948
  250.686  114.607    0.278    0.524    2.986
  250.936  114.628    0.276    0.548    3.049
  251.186  114.646    0.294    0.551    3.039
  251.436  114.656    0.258    0.530    2.941
  251.686  114.674    0.246    0.526    2.936
  251.936  114.704    0.250    0.536    2.933
  252.186  116.229    0.246    0.546    3.018
  252.436  117.350    0.285    0.544    3.116
  252.686  117.684    0.307    0.524    3.278
  252.936  116.797    0.280    0.520    3.380
  253.186  114.170    0.267    0.540    3.397
  253.436  113.549    0.304    0.548    3.334
  253.686  109.951    0.279    0.562    3.196
  253.936  106.060    0.281    0.536    3.061
  254.186  105.762    0.267    0.505    2.882
  254.436  106.021    0.261    0.494    2.820
  254.686  106.053    0.297    0.517    2.905
  254.936  100.935    0.295    0.528    3.302
  255.186   94.410    0.301    0.500    4.263
  255.436   86.065    0.289    0.485    5.129
  255.686   77.781    0.319    0.475    6.100
  255.936   70.522    0.409    0.475    6.445
  256.186   64.411    0.432    0.515    6.305
  256.436   61.391    0.530    0.536    5.930
  256.686   65.628    0.436    0.637    5.556
  256.936   69.668    0.378    0.570    5.263
  257.186   72.690    0.348    0.465    4.915
  257.436   74.726    0.352    0.441    4.569
  257.686   75.203    0.341    0.444    4.382
  257.936   76.775    0.350    0.438    4.247
  258.186   78.341    0.355    0.436    4.214
  258.436   77.470    0.353    0.438    4.214
  258.686   75.975    0.358    0.439    4.236
  258.936   78.478    0.365    0.440    4.369
  259.186   82.962    0.359    0.448    4.359
  259.436   87.310    0.365    0.445    4.475
  259.686   89.147    0.359    0.443    4.609
  259.936   93.340    0.338    0.448    4.746
  260.186   97.349    0.317    0.459    4.873
  260.436  100.455    0.306    0.477    4.946
  260.686  101.240    0.310    0.467    5.058
  260.936  101.293    0.316    0.461    5.062
  261.186  102.215    0.310    0.466    5.146
  261.436  104.624    0.310    0.469    5.174
  261.686  105.478    0.316    0.462    5.335
  261.936  105.042    0.310    0.450    5.301
  262.186  104.294    0.304    0.437    5.699
  262.436  106.698    0.309    0.440    5.731
  262.686  109.057    0.311    0.436    5.731
  262.936  111.174    0.308    0.434    5.729
  263.186  113.331    0.299    0.436    5.728
  263.436  108.254    0.293    0.441    5.731
  263.686  107.477    0.303    0.446    5.746
  263.936  107.572    0.303    0.446    5.836
  264.186  103.210    0.270    0.422    5.886
  264.436  102.800    0.247    0.410    5.941
  264.686  108.243    0.214    0.403    6.227
  264.936  103.910    0.215    0.394    6.441
  265.186   96.974    0.240    0.398    6.502
  265.436   92.095    0.260    0.397    6.415
  265.686   87.459    0.263    0.399    6.394
  265.936   81.666    0.278    0.412    6.266
  266.186   76.760    0.229    0.413    6.203
  266.436   69.946    0.210    0.402    6.010
  266.686   68.430    0.213    0.415    5.832
  266.936   67.769    0.283    0.420    5.671
  267.186   68.830    0.300    0.424    5.397
  267.436   77.107    0.292    0.413    5.334
  267.686   83.372    0.282    0.405    5.215
  267.936   87.889    0.270    0.418    5.112
  268.186   92.734    0.293    0.421    5.116
  268.436  100.445    0.247    0.449    5.090
  268.686  111.843    0.192    0.513    4.931
  268.936  117.992    0.211    0.504    4.890
  269.186  123.265    0.219    0.518    4.661
  269.436  127.835    0.239    0.551    4.506
  269.686  133.257    0.279    0.541    4.324
  269.936  135.972    0.287    0.534    4.163
  270.186  134.468    0.305    0.550    4.048
  270.436  128.887    0.333    0.570    3.759
  270.686  128.038    0.365    0.602    3.745
  270.936  130.580    0.339    0.587    3.738
  271.186  129.806    0.309    0.582    3.824
  271.436  122.836    0.286    0.568    3.737
  271.686  122.188    0.293    0.565    3.630
  271.936  127.200    0.363    0.567    3.408
  272.186  130.434    0.334    0.570    3.232
  272.436  129.434    0.314    0.573    3.149
  272.686  128.378    0.320    0.607    3.494
  272.936  126.332    0.346    0.599    4.446
  273.186  124.987    0.318    0.555    5.034
  273.436  123.626    0.267    0.515    5.642
  273.686  120.550    0.271    0.464    6.102
  273.936  118.778    0.254    0.465    6.157
  274.186  117.838    0.236    0.470    6.352
  274.436  116.845    0.250    0.463    6.330
  274.686  114.075    0.257    0.479    6.437
  274.936  107.606    0.262    0.472    6.223
  275.186  103.879    0.274    0.460    6.050
  275.436  107.794    0.277    0.464    5.748
  275.686  108.926    0.237    0.535    5.487
  275.936  110.303    0.214    0.547    5.218
  276.186  104.727    0.227    0.548    5.078
  276.436  101.993    0.201    0.548    5.172
  276.686  100.009    0.226    0.524    5.383
  276.936   98.088    0.284    0.490    5.607
  277.186   96.787    0.307    0.470    6.172
  277.436   93.442    0.300    0.463    6.430
  277.686   90.930    0.286    0.460    6.696
  277.936   88.214    0.255    0.450    6.912
  278.186   83.255    0.230    0.441    6.933
  278.436   82.068    0.209    0.423    6.934
  278.686   89.889    0.267    0.446    6.845
  278.936   93.399    0.318    0.475    6.776
  279.186   97.486    0.315    0.475    6.685
  279.436   98.602    0.319    0.459    6.560
  279.686   99.332    0.312    0.450    6.427
  279.936  102.836    0.309    0.442    6.448
  280.186  105.100    0.306    0.456    6.309
  280.436  108.814    0.289    0.469    6.321
  280.686  113.512    0.256    0.459    6.238
  280.936  118.328    0.249    0.452    6.079
  281.186  121.227    0.257    0.448    6.086
  281.436  122.355    0.233    0.459    5.956
  281.686  126.516    0.261    0.470    6.067
  281.936  128.954    0.279    0.490    5.974
  282.186  130.171    0.269    0.479    6.168
  282.436  133.873    0.261    0.472    6.219
  282.686  139.566    0.260    0.475    6.313
  282.936  140.713    0.262    0.465    6.313
  283.186  126.689    0.260    0.463    6.325
  283.436  117.073    0.251    0.478    6.420
  283.686  113.065    0.303    0.450    6.598
  283.936  112.993    0.273    0.425    6.795
  284.186  114.802    0.245    0.416    7.000
  284.436  117.806    0.237    0.419    7.218
  284.686  119.528    0.247    0.423    7.292
  284.936  120.843    0.237    0.415    7.076
  285.186  120.217    0.231    0.425    6.885
  285.436  121.234    0.234    0.456    6.331
  285.686  126.702    0.239    0.483    5.855
  285.936  132.537    0.244    0.519    5.279
  286.186  131.731    0.227    0.546    5.068
  286.436  127.294    0.233    0.515    4.905
  286.686  118.819    0.276    0.479    4.976
  286.936  107.883    0.283    0.472    5.134
  287.186   97.907    0.303    0.469    5.175
  287.436   94.990    0.307    0.470    5.341
  287.686   94.992    0.320    0.475    5.514
  287.936   96.015    0.317    0.469    5.554
  288.186   97.983    0.308    0.464    5.737
  288.436  101.324    0.299    0.468    5.794
  288.686  102.301    0.297    0.469    5.975
  288.936  102.232    0.291    0.471    6.165
  289.186  103.192    0.296    0.466    6.226
  289.436  104.122    0.283    0.463    6.266
  289.686  107.050    0.273    0.459    6.075
  289.936  111.727    0.260    0.454    5.897
  290.186  117.003    0.248    0.459    5.726
  290.436  113.636    0.263    0.467    5.730
  290.686  110.179    0.277    0.490    5.719
  290.936  105.289    0.267    0.506    5.834
  291.186  100.186    0.299    0.483    5.971
  291.436   99.042    0.303    0.462    6.441
  291.686  102.464    0.325    0.490    7.114
  291.936   96.459    0.303    0.519    7.808
  292.186   90.980    0.297    0.585    8.159
  292.436   88.034    0.354    0.541    8.415
  292.686   93.627    0.246    0.475    8.165
  292.936  106.363    0.218    0.449    7.913
  293.186  112.736    0.231    0.454    7.456
