~VERSION INFORMATION
 VERS.                 2.0:   CWLS LOG ASCII STANDARD -VERSION 2.0
 WRAP.                  NO:   ONE LINE PER DEPTH STEP
~WELL INFORMATION BLOCK
#MNEM.UNIT           DATA                    DESCRIPTION OF MNEMONIC
#---------    -------------------            -------------------------------
# Generated from Intellog Unique Number	CW_70_72/WELL/877
NULL.         -999.25                        : NULL_VALUE
WELL.         SUNDANCE MCMORAN SMITH 07-08   : Well_name    - WELL              
LOC .         07-08-072-24W4                 : Location     - LOCATION          
UWI .         00/07-08-072-24W4/0            : Uwi          - UNIQUE WELL ID    
ENTR.         JAYE                           : Entered      - ENTERED BY        
SRVC.         SCHLUMBERGER                   : Scn          - SERVICE COMPANY   
DATE.         24 JAN 73                      : Date         - LOG DATE          
STRT.M        329.184                        : top_depth    - START DEPTH       
STOP.M        535.434                        : bot_depth    - STOP DEPTH        
STEP.M        0.25                           : increment    - STEP LENGTH       
~CURVE INFORMATION BLOCK
#MNEM UNIT       ERCB CURVE CODE    CURVE DESCRIPTION
#-----------   ------------------   ----------------------------------
DEPT.M        00 001 00 00         : DEPTH        - DEPTH                       
DPHI.V/V      00 890 00 00         : PHID         - DENSITY POROSITY (SANDSTONE)
NPHI.V/V      00 330 00 00         : PHIN         - NEUTRON POROSITY (SANDSTONE)
GR  .API      00 310 00 00         : GR           - GAMMA RAY                   
CALI.MM       00 280 01 00         : CAL          - CALIPER                     
ILD .OHMM     00 120 00 00         : RESD         - DEEP RESISTIVITY (DIL)      
~PARAMETER INFORMATION       
#MNEM.UNIT           DATA             DESCRIPTION OF MNEMONIC
#---------         -----------     ------------------------------
GL  .M        560.222              : gl           - GROUND LEVEL ELEVATION      
EREF.M        562.661              : kb           - ELEVATION OF DEPTH REFERENCE
DATM.M        560.222              : datum        - DATUM ELEVATION             
TDD .M        544.068              : tdd          - TOTAL DEPTH DRILLER         
RUN .         ONE                  : Run          - RUN NUMBER                  
MATR.         SANDSTONE            : Logunit      - NEUTRON MATRIX              
TMAX.C        23.3333              : BHT          - MAXIMUM RECORDED TEMPERATURE
BHTD.M        543.763              : BHTDEP       - MAXIMUM RECORDED TEMPERATURE
RMT .C        21.1111              : MDTP         - TEMPERATURE OF MUD          
MUDD.KG/M     0                    : MWT          - MUD DENSITY                 
NEUT.         1                    : NEUTRON      - NEUTRON TYPE                
RESI.         0                    : RESIST       - RESISTIVITY TYPE            
RM  .OHMM     3.82                 : RM           - RESISTIVITY OF MUD          
RMC .OHMM     0                    : RMC          - RESISTIVITY OF MUD CAKE     
RMF .OHMM     2.92                 : RMF          - RESISTIVITY OF MUD FILTRATE 
SUFT.C        -17.7778             : SUFT         - SURFACE TEMPERATURE         
~A  DEPTH     PHID     PHIN       GR      CAL     RESD
  329.184    0.225    0.566  117.616  193.869    2.641
  329.434    0.231    0.556  105.294  195.325    2.713
  329.684    0.247    0.549  100.990  192.257    2.822
  329.934    0.284    0.544   93.953  185.383    2.974
  330.184    0.293    0.567   92.870  186.324    3.168
  330.434    0.326    0.590   95.917  209.797    3.464
  330.684    0.263    0.589   95.442  211.356    3.557
  330.934    0.224    0.555   93.811  201.600    3.266
  331.184    0.207    0.535   97.225  188.039    2.843
  331.434    0.197    0.564   99.421  197.726    2.577
  331.684    0.189    0.589  100.585  200.521    2.428
  331.934    0.213    0.600   99.441  200.331    2.784
  332.184    0.229    0.597   95.927  198.397    3.342
  332.434    0.239    0.533   91.016  192.547    3.896
  332.684    0.212    0.473   87.323  176.412    4.517
  332.934    0.206    0.465   84.353  169.332    5.150
  333.184    0.222    0.484   80.597  169.451    5.651
  333.434    0.244    0.472   75.930  165.354    6.087
  333.684    0.231    0.476   71.323  157.449    6.379
  333.934    0.205    0.481   67.201  158.495    6.155
  334.184    0.156    0.453   67.636  162.010    5.777
  334.434    0.092    0.476   78.886  165.113    5.228
  334.684    0.201    0.502   77.256  165.541    4.756
  334.934    0.230    0.497   72.831  165.249    4.399
  335.184    0.261    0.474   67.009  161.462    4.214
  335.434    0.257    0.478   62.522  160.656    4.186
  335.684    0.243    0.503   70.734  161.495    4.159
  335.934    0.213    0.512   82.530  164.494    4.058
  336.184    0.245    0.485   95.663  169.243    3.915
  336.434    0.238    0.512  102.781  174.096    3.681
  336.684    0.214    0.518  108.137  177.405    3.565
  336.934    0.213    0.533  111.549  180.817    3.736
  337.184    0.222    0.543  114.779  182.995    4.122
  337.434    0.225    0.551  118.070  188.772    4.514
  337.684    0.267    0.463  113.767  210.496    5.035
  337.934    0.257    0.459  104.907  195.803    5.474
  338.184    0.238    0.479   95.500  180.798    5.941
  338.434    0.232    0.500   90.711  176.290    6.353
  338.684    0.230    0.447   86.347  177.542    6.596
  338.934    0.209    0.426   83.015  177.558    6.799
  339.184    0.190    0.406   81.871  175.620    6.806
  339.434    0.159    0.389   83.339  172.449    6.700
  339.684    0.137    0.385   89.728  172.469    6.175
  339.934    0.177    0.410   97.150  173.821    5.680
  340.184    0.202    0.441  105.666  175.482    5.177
  340.434    0.187    0.484  110.414  178.792    4.772
  340.684    0.179    0.487  113.219  182.002    4.553
  340.934    0.209    0.475  112.560  183.354    4.466
  341.184    0.203    0.502   99.631  186.148    4.430
  341.434    0.213    0.504   84.817  187.707    4.346
  341.684    0.226    0.477   75.228  184.843    4.231
  341.934    0.243    0.437   67.523  179.513    4.120
  342.184    0.248    0.429   61.762  174.080    3.990
  342.434    0.283    0.439   60.799  171.110    3.921
  342.684    0.272    0.447   68.950  167.630    3.983
  342.934    0.261    0.459   73.941  166.001    4.212
  343.184    0.235    0.477   78.813  164.885    4.334
  343.434    0.197    0.502   85.018  163.975    4.426
  343.684    0.190    0.501   94.202  167.182    4.488
  343.934    0.221    0.477  100.530  174.606    4.567
  344.184    0.221    0.487  105.645  179.253    4.640
  344.434    0.203    0.514  110.940  180.298    4.704
  344.684    0.198    0.497  113.987  179.083    4.830
  344.934    0.212    0.518  104.034  177.144    5.016
  345.184    0.195    0.444   94.931  173.149    5.133
  345.434    0.203    0.416   88.866  164.011    5.175
  345.684    0.210    0.425   86.567  167.729    5.180
  345.934    0.214    0.445   89.251  176.391    5.233
  346.184    0.228    0.461   89.382  177.742    5.443
  346.434    0.235    0.450   84.288  173.748    5.820
  346.684    0.232    0.450   75.004  169.444    6.386
  346.934    0.244    0.462   65.293  164.214    6.680
  347.184    0.237    0.462   63.055  160.218    6.398
  347.434    0.235    0.436   65.314  164.868    5.961
  347.684    0.235    0.424   69.211  167.968    5.514
  347.934    0.248    0.424   69.709  170.046    5.026
  348.184    0.262    0.421   69.475  170.265    4.718
  348.434    0.259    0.412   76.350  169.462    4.412
  348.684    0.246    0.397   76.057  168.860    4.195
  348.934    0.205    0.403   70.781  167.335    4.040
  349.184    0.225    0.375   68.847  166.836    4.000
  349.434    0.239    0.373   70.254  166.751    4.063
  349.684    0.206    0.389   81.685  166.870    4.111
  349.934    0.224    0.415   85.766  167.299    4.085
  350.184    0.227    0.404   88.693  167.110    3.992
  350.434    0.225    0.427   89.552  168.054    3.853
  350.684    0.228    0.449   74.071  166.526    3.724
  350.934    0.247    0.435   62.721  163.458    3.560
  351.184    0.261    0.416   55.137  160.904    3.372
  351.434    0.278    0.398   53.992  158.761    3.195
  351.684    0.291    0.387   61.171  157.336    3.099
  351.934    0.291    0.417   68.168  157.045    3.207
  352.184    0.271    0.421   72.613  157.474    3.354
  352.434    0.252    0.432   80.945  159.445    3.620
  352.684    0.233    0.439   87.820  163.782    3.942
  352.934    0.213    0.428   97.672  165.961    4.382
  353.184    0.221    0.417  103.393  165.256    4.712
  353.434    0.222    0.407  107.534  164.347    4.964
  353.684    0.220    0.405  107.787  164.159    4.781
  353.934    0.213    0.420  103.787  165.615    4.414
  354.184    0.193    0.446  100.274  171.085    3.857
  354.434    0.220    0.482  105.692  168.017    3.395
  354.684    0.187    0.504  113.721  178.629    3.016
  354.934    0.141    0.540  118.226  185.231    2.754
  355.184    0.165    0.565  120.119  188.436    2.557
  355.434    0.189    0.584  122.681  177.652    2.449
  355.684    0.144    0.601  125.303  186.309    2.460
  355.934    0.186    0.614  128.047  188.385    2.616
  356.184    0.197    0.625  131.884  197.454    2.860
  356.434    0.182    0.630  134.446  201.896    3.202
  356.684    0.165    0.608  135.368  200.370    3.513
  356.934    0.195    0.584  133.009  196.785    3.826
  357.184    0.216    0.528  130.346  189.807    4.236
  357.434    0.200    0.458  126.650  184.270    4.726
  357.684    0.181    0.468  118.215  182.434    4.809
  357.934    0.182    0.488  111.239  181.013    4.822
  358.184    0.218    0.520  105.234  179.176    4.783
  358.434    0.263    0.526   97.528  173.021    4.710
  358.684    0.290    0.504   90.977  164.191    4.645
  358.934    0.266    0.494   80.477  158.447    4.548
  359.184    0.280    0.484   74.412  160.522    4.511
  359.434    0.283    0.482   77.520  165.682    4.515
  359.684    0.277    0.520   82.998  164.465    4.552
  359.934    0.282    0.520   78.573  162.321    4.616
  360.184    0.281    0.512   77.004  158.533    4.784
  360.434    0.276    0.514   78.655  155.052    5.004
  360.684    0.268    0.508   81.095  152.087    5.206
  360.934    0.254    0.436   84.021  150.866    5.316
  361.184    0.205    0.440   86.947  150.784    5.491
  361.434    0.188    0.512   90.601  151.415    5.638
  361.684    0.246    0.573   90.856  159.765    5.802
  361.934    0.239    0.577   84.851  165.132    5.775
  362.184    0.250    0.588   81.155  165.765    5.562
  362.434    0.229    0.586   77.885  162.183    5.249
  362.684    0.251    0.538   74.674  159.319    4.927
  362.934    0.280    0.539   68.731  157.998    4.566
  363.184    0.292    0.534   66.857  156.989    4.326
  363.434    0.314    0.522   69.055  156.799    4.235
  363.684    0.316    0.509   73.560  156.408    4.216
  363.934    0.318    0.493   79.038  155.907    4.204
  364.184    0.312    0.489   84.029  155.310    4.194
  364.434    0.288    0.508   81.427  154.706    4.190
  364.684    0.307    0.496   77.792  154.418    4.178
  364.934    0.283    0.508   80.415  154.431    4.205
  365.184    0.289    0.525   82.187  153.935    4.240
  365.434    0.297    0.566   83.047  153.642    4.331
