~VERSION INFORMATION
 VERS.                 2.0:   CWLS LOG ASCII STANDARD -VERSION 2.0
 WRAP.                  NO:   ONE LINE PER DEPTH STEP
~WELL INFORMATION BLOCK
#MNEM.UNIT           DATA                    DESCRIPTION OF MNEMONIC
#---------    -------------------            -------------------------------
# Generated from Intellog Unique Number	CS_77_79/WELL/901
WELL.         CWWE WINEFRED                  : Well_name    - WELL
LOC .         00/07-19-078-03W4/0            : Location     - LOCATION
UWI .         00/07-19-078-03W4/0            : Uwi          - UNIQUE WELL ID
ENTR.         JHS                            : Entered      - ENTERED BY
SRVC.         SCHLUMBERGER                   : Scn          - SERVICE COMPANY
STRT.M        135                            : top_depth    - START DEPTH
STOP.M        415                            : bot_depth    - STOP DEPTH
STEP.M        0.25                           : increment    - STEP LENGTH
 NULL. -999.2500:NULL Value
~CURVE INFORMATION BLOCK
#MNEM UNIT       ERCB CURVE CODE    CURVE DESCRIPTION
#-----------   ------------------   ----------------------------------
DEPT.M        00 001 00 00         : DEPTH        - DEPTH
DPHI.V/V      00 890 00 00         : PHID         - DENSITY POROSITY (LIMESTONE)
NPHI.V/V      00 330 00 00         : PHIN         - NEUTRON POROSITY (LIMESTONE)
GR  .API      00 310 00 00         : GR           - GAMMA RAY
ILD .OHMM     00 120 00 00         : RESD         - DEEP RESISTIVITY (DIL)
RHOB.KG/M3    00 350 00 00         : DENS         - BULK DENSITY
~PARAMETER INFORMATION
#MNEM.UNIT           DATA             DESCRIPTION OF MNEMONIC
#---------         -----------     ------------------------------
GL  .M        556.2                : gl           - GROUND LEVEL ELEVATION
EREF.M        560.15               : kb           - ELEVATION OF DEPTH REFERENCE
DATM.M        560.15               : datum        - DATUM ELEVATION
TDD .M        423                  : tdd          - TOTAL DEPTH DRILLER
RUN .         ONE                  : Run          - RUN NUMBER
ENG .         BILL                 : Engineer     - RECORDING ENGINEER
WIT .         JIM                  : Witness      - WITNESSED BY
MUD .         GEL                  : Mud_type     - MUD TYPE
MATR.         LIMESTONE            : Logunit      - NEUTRON MATRIX
TMAX.C        24                   : BHT          - MAXIMUM RECORDED TEMPERATURE
BHTD.M        423                  : BHTDEP       - MAXIMUM RECORDED TEMPERATURE
MATR.         1                    : LOGUNIT      - NEUTRON MATRIX
RMT .C        25                   : MDTP         - TEMPERATURE OF MUD
NEUT.         1                    : NEUTRON      - NEUTRON TYPE
RESI.         0                    : RESIST       - RESISTIVITY TYPE
RMC .OHMM     0.25                 : RMC          - RESISTIVITY OF MUD CAKE
RMF .OHMM     0.25                 : RMF          - RESISTIVITY OF MUD FILTRATE
SUFT.C        15                   : SUFT         - SURFACE TEMPERATURE
~A  DEPTH     PHID     PHIN       GR     RESD     DENS
# ...
  354.000    0.311    0.329   38.541    1.824 2178.290
  354.250    0.302    0.337   37.950    1.860 2193.210
  354.500    0.301    0.346   34.249    1.895 2195.480
  354.750    0.295    0.345   32.407    1.932 2206.160
  355.000    0.291    0.342   34.940    1.970 2212.620
  355.250    0.297    0.345   40.602    1.970 2202.170
  355.500    0.281    0.333   49.388    2.047 2229.790
  355.750    0.247    0.323   55.669    2.087 2287.020
  356.000    0.234    0.321   58.828    2.168 2310.420
  356.250    0.286    0.325   51.991    2.253 2221.710
  356.500    0.311    0.319   55.783    2.296 2177.420
  356.750    0.321    0.322   60.198    2.341 2160.670
  357.000    0.320    0.334   57.734    2.342 2162.860
  357.250    0.299    0.342   58.389    2.343 2198.950
  357.500    0.284    0.337   67.174    2.299 2224.460
  357.750    0.281    0.336   71.585    2.344 2228.820
  358.000    0.284    0.346   67.249    2.390 2224.710
  358.250    0.290    0.334   61.664    2.346 2214.250
  358.500    0.308    0.334   57.324    2.302 2182.630
  358.750    0.328    0.347   54.858    2.218 2148.940
  359.000    0.329    0.341   50.521    2.096 2146.940
  359.250    0.313    0.331   53.685    2.097 2174.580
  359.500    0.294    0.321   59.340    2.058 2206.410
  359.750    0.286    0.321   55.630    2.059 2221.320
  360.000    0.286    0.314   43.168    2.099 2221.480
  360.250    0.286    0.309   31.955    2.100 2221.610
  360.500    0.289    0.305   29.496    2.140 2215.370
  360.750    0.284    0.307   31.404    2.141 2223.940
  361.000    0.268    0.307   34.568    2.142 2251.570
  361.250    0.256    0.300   35.228    2.183 2272.840
  361.500    0.253    0.292   32.144    2.226 2277.190
  361.750    0.264    0.292   31.560    2.269 2258.290
  362.000    0.296    0.311   35.337    2.313 2203.410
  362.250    0.327    0.338   42.251    2.358 2150.660
  362.500    0.373    0.346   41.661    2.404 2072.540
  362.750    0.317    0.339   38.576    2.497 2167.850
  363.000    0.250    0.324   50.485    2.746 2282.160
  363.250    0.146    0.309   65.519    3.020 2459.950
  363.500    0.129    0.301   78.054    3.514 2489.690
  363.750    0.173    0.331   81.838    3.792 2413.670
  364.000    0.231    0.343   65.625    4.091 2314.390
  364.250    0.275    0.343   47.542    3.941 2240.490
  364.500    0.274    0.343   51.956    3.586 2240.610
  364.750    0.274    0.351   50.112    3.202 2240.760
  365.000    0.299    0.360   45.152    2.860 2198.560
  365.250    0.301    0.371   40.815    2.553 2194.460
  365.500    0.290    0.359   38.975    2.413 2213.610
  365.750    0.278    0.340   39.637    2.281 2234.910
  366.000    0.265    0.347   47.796    2.197 2256.190
  366.250    0.255    0.360   58.457    2.239 2273.210
  366.500    0.252    0.364   64.121    2.283 2279.690
  366.750    0.261    0.367   61.046    2.284 2262.900
  367.000    0.277    0.380   58.575    2.285 2235.510
  367.250    0.310    0.359   56.729    2.242 2180.660
  367.500    0.298    0.323   42.392    2.201 2199.800
  367.750    0.276    0.308   38.681    2.202 2238.030
  368.000    0.256    0.300   38.718    2.245 2271.970
  368.250    0.242    0.300   39.380    2.288 2295.370
  368.500    0.236    0.311   41.301    2.423 2306.060
  368.750    0.246    0.323   47.579    2.517 2289.250
  369.000    0.268    0.328   53.865    2.615 2251.320
  369.250    0.246    0.333   55.148    2.666 2289.510
  369.500    0.232    0.349   63.933    2.667 2312.910
  369.750    0.279    0.363   61.469    2.618 2232.650
  370.000    0.304    0.365   38.388    2.569 2190.480
  370.250    0.306    0.358   30.923    2.475 2186.370
  370.500    0.311    0.335   24.088    2.384 2178.050
  370.750    0.310    0.323   22.254    2.253 2180.270
  371.000    0.296    0.309   24.785    2.129 2203.660
  371.250    0.281    0.294   26.070    2.051 2229.190
  371.500    0.274    0.289   25.481    2.052 2241.990
  371.750    0.270    0.287   24.271    2.052 2248.450
  372.000    0.276    0.288   23.065    2.092 2238.010
  372.250    0.267    0.290   23.721    2.133 2252.950
  372.500    0.261    0.296   25.016    2.174 2263.650
  372.750    0.257    0.301   25.673    2.217 2270.120
  373.000    0.266    0.302   25.705    2.217 2255.440
  373.250    0.277    0.300   26.367    2.218 2236.530
  373.500    0.284    0.302   27.651    2.219 2223.930
  373.750    0.292    0.312   29.564    2.178 2211.410
  374.000    0.293    0.310   29.609    2.138 2209.380
  374.250    0.284    0.315   29.009    2.098 2224.310
  374.500    0.279    0.316   27.803    2.060 2232.900
  374.750    0.280    0.311   26.586    2.100 2230.900
  375.000    0.279    0.303   24.746    2.101 2233.170
  375.250    0.271    0.306   24.162    2.101 2246.010
  375.500    0.270    0.309   26.695    2.062 2248.220
  375.750    0.271    0.309   27.982    2.063 2246.250
  376.000    0.285    0.313   26.778    2.064 2223.080
  376.250    0.303    0.319   28.054    2.064 2191.470
  376.500    0.366    0.330   33.099    2.026 2083.750
  376.750    0.370    0.355   36.254    1.989 2077.520
  377.000    0.341    0.367   38.785    1.990 2126.270
  377.250    0.321    0.343   35.703    1.953 2160.260
  377.500    0.313    0.321   35.114    1.991 2175.160
  377.750    0.300    0.309   34.532    2.030 2196.460
  378.000    0.295    0.308   32.691    2.030 2205.040
  378.250    0.306    0.312   30.848    1.993 2186.120
  378.500    0.308    0.324   27.133    1.956 2184.160
  378.750    0.299    0.336   25.928    1.884 2199.060
  379.000    0.307    0.340   25.960    1.849 2184.380
  379.250    0.332    0.340   25.993    1.781 2142.200
  379.500    0.329    0.343   23.529    1.749 2146.560
  379.750    0.318    0.345   21.081    1.684 2165.760
  380.000    0.317    0.335   21.103    1.685 2167.970
  380.250    0.319    0.326   22.404    1.654 2163.850
  380.500    0.325    0.331   23.053    1.654 2153.400
  380.750    0.330    0.350   24.341    1.655 2145.080
  381.000    0.320    0.373   23.757    1.624 2162.130
  381.250    0.312    0.356   24.415    1.656 2177.050
  381.500    0.304    0.348   27.574    1.688 2189.880
  381.750    0.286    0.343   38.857    1.721 2221.700
  382.000    0.213    0.335   55.142    1.857 2346.600
  382.250    0.183    0.326   65.176    2.042 2397.490
  382.500    0.193    0.338   74.590    2.288 2380.690
  382.750    0.322    0.371   60.874    2.469 2158.750
  383.000    0.338    0.388   38.416    2.517 2131.400
  383.250    0.316    0.379   31.579    2.470 2169.570
  383.500    0.271    0.354   42.240    2.379 2245.830
  383.750    0.227    0.339   57.281    2.336 2322.090
  384.000    0.211    0.330   64.811    2.381 2349.710
  384.250    0.223    0.333   58.596    2.521 2328.690
  384.500    0.258    0.339   49.263    2.619 2269.600
  384.750    0.244    0.336   50.545    2.721 2293.020
  385.000    0.234    0.331   58.715    2.671 2310.060
  385.250    0.254    0.336   57.497    2.622 2276.320
  385.500    0.272    0.345   50.035    2.525 2244.720
  385.750    0.276    0.342   50.068    2.432 2238.490
  386.000    0.278    0.343   50.108    2.342 2234.420
  386.250    0.290    0.349   40.768    2.256 2213.350
  386.500    0.301    0.354   38.935    2.215 2194.450
  386.750    0.195    0.365   75.215    2.301 2376.460
  387.000    0.157    0.381  104.618    2.678 2442.150
  387.250    0.142    0.401  117.777    3.058 2467.690
  387.500    0.132    0.421  121.569    3.627 2484.720
  387.750    0.113    0.429  119.724    4.142 2516.560
  388.000    0.085    0.419  112.270    4.642 2565.320
  388.250    0.075    0.410  114.806    5.104 2582.370
  388.500    0.125    0.413  121.085    5.303 2495.770
  388.750    0.134    0.432  125.501    5.406 2481.100
  389.000    0.123    0.420  121.167    5.306 2500.280
  389.250    0.115    0.408  117.443    5.308 2513.070
  389.500    0.109    0.399  112.490    5.515 2523.780
  389.750    0.129    0.399  108.143    5.516 2490.050
  390.000    0.157    0.404  112.566    5.731 2441.570
  390.250    0.157    0.390  116.342    5.843 2441.690
