~VERSION INFORMATION
 VERS.                 2.0:   CWLS LOG ASCII STANDARD -VERSION 2.0
 WRAP.                  NO:   ONE LINE PER DEPTH STEP
~WELL INFORMATION BLOCK
#MNEM.UNIT           DATA                    DESCRIPTION OF MNEMONIC
#---------    -------------------            -------------------------------
# Generated from Intellog Unique Number	CS_67_68/WELL/623
WELL.         INNER-CITY GAS LTD             : Well_name    - WELL
LOC .         00/03-18-068-12W4/0            : Location     - LOCATION
UWI .         00/03-18-068-12W4/0            : Uwi          - UNIQUE WELL ID
ENTR.         SP                             : Entered      - ENTERED BY
SRVC.         SCHLUMBERGER                   : Scn          - SERVICE COMPANY
STRT.M        300                            : top_depth    - START DEPTH
STOP.M        480                            : bot_depth    - STOP DEPTH
STEP.M        0.25                           : increment    - STEP LENGTH
 NULL. -999.2500:NULL Value
~CURVE INFORMATION BLOCK
#MNEM UNIT       ERCB CURVE CODE    CURVE DESCRIPTION
#-----------   ------------------   ----------------------------------
DEPT.M        00 001 00 00         : DEPTH        - DEPTH
ILD .OHMM     00 120 00 00         : RESD         - DEEP RESISTIVITY (DIL)
DPHI.V/V      00 890 00 00         : PHID         - DENSITY POROSITY (LIMESTONE)
NPHI.V/V      00 330 00 00         : PHIN         - NEUTRON POROSITY (LIMESTONE)
GR  .API      00 310 00 00         : GR           - GAMMA RAY
~PARAMETER INFORMATION
#MNEM.UNIT           DATA             DESCRIPTION OF MNEMONIC
#---------         -----------     ------------------------------
GL  .M        599                  : gl           - GROUND LEVEL ELEVATION
EREF.M        602.55               : kb           - ELEVATION OF DEPTH REFERENCE
DATM.M        599                  : datum        - DATUM ELEVATION
TDD .M        482                  : tdd          - TOTAL DEPTH DRILLER
RUN .         ONE                  : Run          - RUN NUMBER
ENG .         BILL                 : Engineer     - RECORDING ENGINEER
WIT .         JIM                  : Witness      - WITNESSED BY
MUD .         GEL                  : Mud_type     - MUD TYPE
MATR.         LIMESTONE            : Logunit      - NEUTRON MATRIX
TMAX.C        35                   : BHT          - MAXIMUM RECORDED TEMPERATURE
BHTD.M        482                  : BHTDEP       - MAXIMUM RECORDED TEMPERATURE
MATR.         1                    : LOGUNIT      - NEUTRON MATRIX
RMT .C        25                   : MDTP         - TEMPERATURE OF MUD
NEUT.         1                    : NEUTRON      - NEUTRON TYPE
RESI.         0                    : RESIST       - RESISTIVITY TYPE
RMC .OHMM     0.25                 : RMC          - RESISTIVITY OF MUD CAKE
RMF .OHMM     0.25                 : RMF          - RESISTIVITY OF MUD FILTRATE
SUFT.C        15                   : SUFT         - SURFACE TEMPERATURE
~A  DEPTH     RESD     PHID     PHIN       GR
# ...
  387.000    2.899    0.308    0.436   87.595
  387.250    2.570    0.326    0.497   90.096
  387.500    2.405    0.334    0.558   97.196
  387.750    2.309    0.336    0.576  101.086
  388.000    2.297    0.320    0.516   99.839
  388.250    2.293    0.315    0.488   93.815
  388.500    2.340    0.303    0.477   91.238
  388.750    2.389    0.293    0.478   88.846
  389.000    2.452    0.298    0.459   89.228
  389.250    2.517    0.303    0.449   95.788
  389.500    2.573    0.300    0.455   99.192
  389.750    2.612    0.294    0.471  103.083
  390.000    2.661    0.272    0.466  107.343
  390.250    2.742    0.255    0.475  109.901
  390.500    2.840    0.267    0.467  107.688
  390.750    3.003    0.257    0.453  102.268
  391.000    3.105    0.238    0.442  106.584
  391.250    3.198    0.231    0.448  111.083
  391.500    3.307    0.236    0.440  113.401
  391.750    3.369    0.244    0.423  109.917
  392.000    3.458    0.244    0.407  105.889
  392.250    3.582    0.226    0.453  112.140
  392.500    3.704    0.214    0.487  117.485
  392.750    3.902    0.210    0.490  120.955
  393.000    3.990    0.210    0.472  117.349
  393.250    4.103    0.211    0.445  112.111
  393.500    4.172    0.202    0.410  113.344
  393.750    4.235    0.215    0.389  115.542
  394.000    4.291    0.218    0.455  113.449
  394.250    4.339    0.213    0.481  113.170
  394.500    4.404    0.215    0.466  112.527
  394.750    4.405    0.211    0.427  108.441
  395.000    4.422    0.206    0.420  111.849
  395.250    4.463    0.212    0.400  114.651
  395.500    4.481    0.208    0.370  112.921
  395.750    4.523    0.204    0.386  113.609
  396.000    4.582    0.209    0.410  116.353
  396.250    4.721    0.212    0.429  112.385
  396.500    4.872    0.203    0.449  112.653
  396.750    5.019    0.194    0.469  114.608
  397.000    5.104    0.188    0.442  113.120
  397.250    5.114    0.196    0.406  110.847
  397.500    5.162    0.201    0.397  108.272
  397.750    5.182    0.206    0.410  107.507
  398.000    5.183    0.210    0.417  110.192
  398.250    5.136    0.198    0.411  112.508
  398.500    5.089    0.202    0.417  115.856
  398.750    5.062    0.204    0.418  118.116
  399.000    5.025    0.209    0.442  117.715
  399.250    5.016    0.207    0.456  116.589
  399.500    5.026    0.192    0.431  111.291
  399.750    5.027    0.178    0.408  106.418
  400.000    4.944    0.170    0.416  111.036
  400.250    4.722    0.194    0.444  120.854
  400.500    4.442    0.209    0.463  129.764
  400.750    4.305    0.220    0.479  137.709
  401.000    4.157    0.224    0.445  130.478
  401.250    4.014    0.212    0.399  123.848
  401.500    3.876    0.214    0.389  119.765
  401.750    3.742    0.226    0.384  119.783
  402.000    3.614    0.252    0.375  121.437
  402.250    3.216    0.264    0.407  126.177
  402.500    2.922    0.269    0.433  130.612
  402.750    2.634    0.249    0.453  127.793
  403.000    2.469    0.235    0.454  132.233
  403.250    2.298    0.221    0.473  129.231
  403.500    2.130    0.210    0.536  124.174
  403.750    2.256    0.195    0.551  122.142
  404.000    2.403    0.183    0.516  122.769
  404.250    2.651    0.206    0.519  124.490
  404.500    2.798    0.218    0.496  124.810
  404.750    2.980    0.232    0.508  122.595
  405.000    3.121    0.248    0.520  114.642
  405.250    3.192    0.258    0.471  110.668
  405.500    3.222    0.226    0.429  114.865
  405.750    3.282    0.208    0.409  122.447
  406.000    3.344    0.201    0.409  128.758
  406.250    3.357    0.211    0.443  124.788
  406.500    3.333    0.214    0.461  111.569
  406.750    3.159    0.221    0.482  103.429
  407.000    3.050    0.239    0.467  104.967
  407.250    3.022    0.247    0.476  106.501
  407.500    3.023    0.233    0.450  104.225
  407.750    3.018    0.153    0.429   96.506
  408.000    2.985    0.171    0.474   85.343
  408.250    2.936    0.239    0.503   83.613
  408.500    2.824    0.275    0.495   86.235
  408.750    2.623    0.274    0.493   88.495
  409.000    2.482    0.281    0.497   89.306
  409.250    2.339    0.299    0.527   81.468
  409.500    2.242    0.292    0.515   76.110
  409.750    2.177    0.290    0.520   74.256
  410.000    2.102    0.297    0.495   74.885
  410.250    2.064    0.303    0.480   73.219
  410.500    2.045    0.310    0.492   71.847
  410.750    2.038    0.298    0.495   71.083
  411.000    2.080    0.291    0.514   74.674
  411.250    2.215    0.302    0.497   78.448
  411.500    2.564    0.105    0.196   79.254
  411.750    2.985    0.058    0.171   74.441
  412.000    3.487    0.096    0.261   70.776
  412.250    4.037    0.169    0.345   68.197
  412.500    4.520    0.228    0.382   73.663
  412.750    3.855    0.269    0.401   78.224
  413.000    3.157    0.287    0.410   77.094
  413.250    2.723    0.296    0.421   76.148
  413.500    2.297    0.286    0.431   78.777
  413.750    2.064    0.284    0.429   80.913
  414.000    2.083    0.289    0.430   83.659
  414.250    2.150    0.287    0.431   85.554
  414.500    2.277    0.272    0.434   84.608
  414.750    2.416    0.265    0.441   81.911
  415.000    2.536    0.271    0.472   77.944
  415.250    2.627    0.268    0.511   78.811
  415.500    2.721    0.273    0.538   80.165
  415.750    2.793    0.281    0.529   79.884
  416.000    2.872    0.276    0.552   81.118
  416.250    2.953    0.221    0.572   85.736
  416.500    3.065    0.123    0.273   88.116
  416.750    3.258    0.105    0.256   84.511
  417.000    3.490    0.085    0.243   80.483
  417.250    3.676    0.115    0.357   78.570
  417.500    3.491    0.218    0.406   82.221
  417.750    3.136    0.270    0.464   88.109
  418.000    2.807    0.286    0.436   93.454
  418.250    2.616    0.290    0.398   93.779
  418.500    2.522    0.290    0.389   92.956
  418.750    2.522    0.271    0.415   97.516
  419.000    2.584    0.235    0.443  100.802
  419.250    2.716    0.196    0.468  100.340
  419.500    2.904    0.178    0.492   97.098
  419.750    3.064    0.206    0.507   98.211
  420.000    3.192    0.226    0.470  104.521
  420.250    3.246    0.207    0.481  113.433
  420.500    3.205    0.202    0.499  120.469
  420.750    3.205    0.211    0.516  120.854
  421.000    3.129    0.210    0.458  120.213
  421.250    3.044    0.207    0.452  124.473
  421.500    2.945    0.208    0.472  126.247
  421.750    2.766    0.212    0.490  127.539
  422.000    2.588    0.214    0.474  127.682
  422.250    2.377    0.219    0.439  122.142
  422.500    2.253    0.211    0.424  122.224
  422.750    2.172    0.209    0.411  119.708
  423.000    2.180    0.212    0.412  120.335
  423.250    2.217    0.199    0.428  124.106
  423.500    2.432    0.179    0.427  123.646
  423.750    2.728    0.161    0.425  117.744
  424.000    3.048    0.168    0.431  112.687
  424.250    3.271    0.193    0.437  115.010
  424.500    3.503    0.212    0.418  118.538
  424.750    3.622    0.217    0.429  121.945
  425.000    3.383    0.229    0.466  131.764
  425.250    3.195    0.241    0.492  141.159
  425.500    3.028    0.241    0.483  138.946
  425.750    2.787    0.236    0.493  135.521
  426.000    2.661    0.240    0.516  132.097
  426.250    2.551    0.244    0.540  138.289
  426.500    2.463    0.235    0.381  143.815
  426.750    2.391    0.229    0.374  139.664
  427.000    2.343    0.231    0.419  136.421
  427.250    2.288    0.242    0.470  138.683
  427.500    2.221    0.256    0.489  141.733
  427.750    2.153    0.261    0.506  137.762
  428.000    2.125    0.234    0.528  133.553
  428.250    2.157    0.220    0.535  131.882
  428.500    2.289    0.210    0.491  126.279
  428.750    2.425    0.201    0.451  125.158
  429.000    2.607    0.210    0.473  128.807
  429.250    2.802    0.219    0.455  130.400
  429.500    2.935    0.196    0.428  129.516
  429.750    3.086    0.209    0.450  124.943
  430.000    3.262    0.200    0.508  126.961
  430.250    3.392    0.176    0.347  122.513
