~VERSION INFORMATION
 VERS.                 2.0:   CWLS LOG ASCII STANDARD -VERSION 2.0
 WRAP.                  NO:   ONE LINE PER DEPTH STEP
~WELL INFORMATION BLOCK
#MNEM.UNIT           DATA                    DESCRIPTION OF MNEMONIC
#---------    -------------------            -------------------------------
# Generated from Intellog Unique Number	CS_77_79/WELL/853
WELL.         CANADIAN OCCIDENTAL            : Well_name    - WELL
LOC .         00/05-06-077-02W4/0            : Location     - LOCATION
UWI .         00/05-06-077-02W4/0            : Uwi          - UNIQUE WELL ID
ENTR.         SP                             : Entered      - ENTERED BY
SRVC.         SCHLUMBERGER                   : Scn          - SERVICE COMPANY
STRT.M        243.84                         : top_depth    - START DEPTH
STOP.M        527.09                         : bot_depth    - STOP DEPTH
STEP.M        0.25                           : increment    - STEP LENGTH
 NULL. -999.2500:NULL Value
~CURVE INFORMATION BLOCK
#MNEM UNIT       ERCB CURVE CODE    CURVE DESCRIPTION
#-----------   ------------------   ----------------------------------
DEPT.M        00 001 00 00         : DEPTH        - DEPTH
GR  .API      00 310 00 00         : GR           - GAMMA RAY
DPHI.V/V      00 890 00 00         : PHID         - DENSITY POROSITY (SANDSTONE)
NPHI.V/V      00 330 00 00         : PHIN         - NEUTRON POROSITY (SANDSTONE)
ILD .OHMM     00 120 00 00         : RESD         - DEEP RESISTIVITY (DIL)
~PARAMETER INFORMATION
#MNEM.UNIT           DATA             DESCRIPTION OF MNEMONIC
#---------         -----------     ------------------------------
GL  .M        612.648              : gl           - GROUND LEVEL ELEVATION
EREF.M        615.696              : kb           - ELEVATION OF DEPTH REFERENCE
DATM.M        612.648              : datum        - DATUM ELEVATION
TDD .M        536.448              : tdd          - TOTAL DEPTH DRILLER
RUN .         ONE                  : Run          - RUN NUMBER
ENG .         BILL                 : Engineer     - RECORDING ENGINEER
WIT .         JIM                  : Witness      - WITNESSED BY
MUD .         GEL                  : Mud_type     - MUD TYPE
MATR.         SANDSTONE            : Logunit      - NEUTRON MATRIX
TMAX.C        23.8889              : BHT          - MAXIMUM RECORDED TEMPERATURE
BHTD.M        536.448              : BHTDEP       - MAXIMUM RECORDED TEMPERATURE
MATR.         1                    : LOGUNIT      - NEUTRON MATRIX
RMT .C        25                   : MDTP         - TEMPERATURE OF MUD
NEUT.         1                    : NEUTRON      - NEUTRON TYPE
RESI.         0                    : RESIST       - RESISTIVITY TYPE
RMC .OHMM     0.25                 : RMC          - RESISTIVITY OF MUD CAKE
RMF .OHMM     0.25                 : RMF          - RESISTIVITY OF MUD FILTRATE
SUFT.C        15                   : SUFT         - SURFACE TEMPERATURE
~A  DEPTH       GR     PHID     PHIN     RESD
# ...
  374.340   93.216    0.250    0.543    3.835
  374.590   93.221    0.232    0.562    3.791
  374.840   93.401    0.275    0.578    3.953
  375.090   90.260    0.264    0.543    4.129
  375.340   85.323    0.267    0.503    4.690
  375.590   83.503    0.265    0.475    5.145
  375.840   88.003    0.256    0.457    5.643
  376.090   89.763    0.241    0.431    6.205
  376.340   91.729    0.231    0.433    6.539
  376.590   92.026    0.218    0.441    6.869
  376.840   90.725    0.234    0.450    7.175
  377.090   88.069    0.255    0.457    7.433
  377.340   85.532    0.266    0.455    7.802
  377.590   84.533    0.276    0.461    8.385
  377.840   83.476    0.272    0.462    8.618
  378.090   80.895    0.271    0.461    9.042
  378.340   78.817    0.281    0.465    9.245
  378.590   77.490    0.293    0.457    9.444
  378.840   75.285    0.298    0.458    9.582
  379.090   77.379    0.295    0.466    9.546
  379.340   78.948    0.282    0.472    9.461
  379.590   79.993    0.284    0.466    9.336
  379.840   80.064    0.291    0.457    9.320
  380.090   80.714    0.286    0.446    9.140
  380.340   81.802    0.285    0.441    9.168
  380.590   81.176    0.292    0.459    8.960
  380.840   82.434    0.279    0.466    9.164
  381.090   83.593    0.269    0.466    8.980
  381.340   82.291    0.264    0.471    8.981
  381.590   82.336    0.278    0.462    8.861
  381.840   87.012    0.280    0.460    8.652
  382.090   91.080    0.257    0.470    8.060
  382.340   93.501    0.239    0.483    7.714
  382.590   89.621    0.237    0.469    7.164
  382.840   91.596    0.218    0.455    6.764
  383.090   93.700    0.220    0.461    6.848
  383.340   95.399    0.228    0.474    6.929
  383.590   95.675    0.230    0.470    7.023
  383.840   96.242    0.236    0.472    7.168
  384.090   97.849    0.222    0.460    7.130
  384.340   98.746    0.212    0.451    6.582
  384.590   98.434    0.211    0.447    6.162
  384.840   97.183    0.217    0.464    5.519
  385.090   99.816    0.205    0.483    4.996
  385.340  103.392    0.228    0.497    4.160
  385.590  104.600    0.240    0.488    3.700
  385.840  104.060    0.215    0.497    3.221
  386.090  104.245    0.221    0.514    2.895
  386.340  105.281    0.246    0.556    2.683
  386.590  106.087    0.265    0.558    2.558
  386.840  109.351    0.247    0.570    2.482
  387.090  111.158    0.213    0.577    2.459
  387.340  114.164    0.234    0.571    2.621
  387.590  115.414    0.244    0.562    2.806
  387.840  115.741    0.242    0.554    2.837
  388.090  108.855    0.233    0.546    3.261
  388.340  105.669    0.215    0.557    3.597
  388.590  102.306    0.238    0.563    4.076
  388.840   98.793    0.259    0.538    4.643
  389.090   95.579    0.233    0.504    5.460
  389.340   91.048    0.213    0.485    6.878
  389.590   87.007    0.224    0.468    9.011
  389.840   77.465    0.203    0.449   10.905
  390.090   64.586    0.140    0.361   12.188
  390.340   57.313    0.071    0.202   12.901
  390.590   64.802    0.197    0.250   12.327
  390.840   71.866    0.254    0.402   10.702
  391.090   79.096    0.296    0.453    9.686
  391.340   77.230    0.293    0.469    8.872
  391.590   76.925    0.286    0.457    8.435
  391.840   77.319    0.300    0.447    8.035
  392.090   77.826    0.312    0.457    7.930
  392.340   78.889    0.304    0.466    7.767
  392.590   80.238    0.292    0.461    7.790
  392.840   81.606    0.282    0.465    7.796
  393.090   83.758    0.272    0.475    7.810
  393.340   85.615    0.281    0.474    7.678
  393.590   84.194    0.286    0.468    7.484
  393.840   85.643    0.292    0.454    6.961
  394.090   89.624    0.279    0.446    6.668
  394.340   91.614    0.260    0.442    6.398
  394.590   92.760    0.213    0.461    6.288
  394.840   92.118    0.211    0.477    6.087
  395.090   92.873    0.213    0.474    6.080
  395.340   92.830    0.211    0.478    6.083
  395.590   93.543    0.230    0.487    6.075
  395.840   91.835    0.221    0.478    6.209
  396.090   88.668    0.203    0.471    6.325
  396.340   84.702    0.188    0.461    6.316
  396.590   84.678    0.168    0.448    6.470
  396.840   89.600    0.205    0.450    6.352
  397.090   90.704    0.233    0.477    6.168
  397.340   86.154    0.261    0.475    5.989
  397.590   88.402    0.247    0.461    5.905
  397.840   93.981    0.231    0.466    5.906
  398.090   88.671    0.252    0.455    6.048
  398.340   83.986    0.266    0.443    6.362
  398.590   84.088    0.271    0.436    6.417
  398.840   85.102    0.263    0.446    6.500
  399.090   89.701    0.263    0.461    6.338
  399.340   91.601    0.235    0.462    5.700
  399.590   95.175    0.226    0.450    4.476
  399.840   95.924    0.198    0.465    3.744
  400.090   94.102    0.198    0.476    3.071
  400.340   91.224    0.240    0.498    2.740
  400.590   88.606    0.265    0.534    2.455
  400.840   86.769    0.250    0.559    2.207
  401.090   85.309    0.221    0.544    2.150
  401.340   84.007    0.243    0.506    2.146
  401.590   82.677    0.258    0.508    2.148
  401.840   83.483    0.271    0.530    2.190
  402.090   85.312    0.276    0.553    2.189
  402.340   86.883    0.232    0.561    2.191
  402.590   87.118    0.243    0.562    2.195
  402.840   88.081    0.235    0.552    2.212
  403.090   91.493    0.217    0.560    2.352
  403.340   94.269    0.211    0.566    2.600
  403.590   94.104    0.218    0.561    2.899
  403.840   93.607    0.212    0.536    3.265
  404.090   91.205    0.203    0.489    3.678
  404.340   87.965    0.193    0.438    4.049
  404.590   85.466    0.202    0.419    4.295
  404.840   85.416    0.203    0.431    4.460
  405.090   85.072    0.200    0.448    4.605
  405.340   84.361    0.197    0.453    4.693
  405.590   89.415    0.190    0.449    4.669
  405.840   89.899    0.210    0.442    4.615
  406.090   90.510    0.219    0.438    4.535
  406.340   92.370    0.217    0.431    4.450
  406.590   96.320    0.221    0.431    4.389
  406.840   97.751    0.227    0.442    4.225
  407.090   98.497    0.216    0.472    3.969
  407.340  102.024    0.194    0.491    3.680
  407.590  104.854    0.209    0.505    3.520
  407.840  105.316    0.221    0.513    3.461
  408.090  100.706    0.232    0.497    3.462
  408.340   97.121    0.221    0.473    3.541
  408.590   99.498    0.203    0.483    3.538
  408.840   99.981    0.197    0.487    3.496
  409.090  101.539    0.198    0.481    3.471
  409.340  102.438    0.190    0.474    3.303
  409.590  103.264    0.201    0.488    3.171
  409.840  106.494    0.191    0.499    3.053
  410.090  106.854    0.199    0.512    3.064
  410.340  105.109    0.207    0.516    3.128
  410.590  104.935    0.199    0.506    3.590
  410.840  105.823    0.211    0.483    3.984
  411.090   97.747    0.224    0.463    4.384
  411.340   88.593    0.213    0.440    4.705
  411.590   82.633    0.215    0.424    5.011
  411.840   78.500    0.214    0.422    5.187
  412.090   73.912    0.227    0.411    5.352
  412.340   72.950    0.246    0.404    5.456
  412.590   74.228    0.245    0.399    5.589
  412.840   76.227    0.219    0.391    5.850
  413.090   76.554    0.203    0.386    6.361
  413.340   76.851    0.171    0.390    6.592
  413.590   75.916    0.159    0.382    6.326
  413.840   72.577    0.059    0.337    5.546
  414.090   78.215    0.087    0.385    4.879
  414.340   88.686    0.134    0.409    4.326
  414.590   84.229    0.199    0.421    4.045
  414.840   81.623    0.226    0.430    3.885
  415.090   80.796    0.250    0.417    3.820
  415.340   83.062    0.232    0.409    3.727
  415.590   84.624    0.222    0.407    3.688
  415.840   82.179    0.224    0.427    3.544
  416.090   83.635    0.226    0.457    3.407
  416.340   84.484    0.233    0.482    3.311
  416.590   82.219    0.223    0.487    3.189
  416.840   71.309    0.204    0.411    3.139
  417.090   61.494    0.213    0.376    2.995
  417.340   47.871    0.228    0.352    2.880
  417.590   43.862    0.249    0.335    2.764
