~VERSION INFORMATION
 VERS.                 2.0:   CWLS LOG ASCII STANDARD -VERSION 2.0
 WRAP.                  NO:   ONE LINE PER DEPTH STEP
~WELL INFORMATION BLOCK
#MNEM.UNIT           DATA                    DESCRIPTION OF MNEMONIC
#---------    -------------------            -------------------------------
# Generated from Intellog Unique Number	CS_69_70/WELL/845
WELL.         BOW VALLEY EXPLORATIONS        : Well_name    - WELL
LOC .         00/07-31-069-13W4/0            : Location     - LOCATION
UWI .         00/07-31-069-13W4/0            : Uwi          - UNIQUE WELL ID
ENTR.         SP                             : Entered      - ENTERED BY
SRVC.         SCHLUMBERGER                   : Scn          - SERVICE COMPANY
STRT.M        265                            : top_depth    - START DEPTH
STOP.M        485                            : bot_depth    - STOP DEPTH
STEP.M        0.25                           : increment    - STEP LENGTH
 NULL. -999.2500:NULL Value
~CURVE INFORMATION BLOCK
#MNEM UNIT       ERCB CURVE CODE    CURVE DESCRIPTION
#-----------   ------------------   ----------------------------------
DEPT.M        00 001 00 00         : DEPTH        - DEPTH
ILD .OHMM     00 120 00 00         : RESD         - DEEP RESISTIVITY (DIL)
DPHI.V/V      00 890 00 00         : PHID         - DENSITY POROSITY (LIMESTONE)
NPHI.V/V      00 330 00 00         : PHIN         - NEUTRON POROSITY (LIMESTONE)
GR  .API      00 310 00 00         : GR           - GAMMA RAY
~PARAMETER INFORMATION
#MNEM.UNIT           DATA             DESCRIPTION OF MNEMONIC
#---------         -----------     ------------------------------
GL  .M        568.8                : gl           - GROUND LEVEL ELEVATION
EREF.M        576.5                : kb           - ELEVATION OF DEPTH REFERENCE
DATM.M        568.8                : datum        - DATUM ELEVATION
TDD .M        486                  : tdd          - TOTAL DEPTH DRILLER
RUN .         ONE                  : Run          - RUN NUMBER
ENG .         BILL                 : Engineer     - RECORDING ENGINEER
WIT .         JIM                  : Witness      - WITNESSED BY
MUD .         GEL                  : Mud_type     - MUD TYPE
MATR.         LIMESTONE            : Logunit      - NEUTRON MATRIX
TMAX.C        20                   : BHT          - MAXIMUM RECORDED TEMPERATURE
BHTD.M        486                  : BHTDEP       - MAXIMUM RECORDED TEMPERATURE
MATR.         1                    : LOGUNIT      - NEUTRON MATRIX
RMT .C        25                   : MDTP         - TEMPERATURE OF MUD
NEUT.         1                    : NEUTRON      - NEUTRON TYPE
RESI.         0                    : RESIST       - RESISTIVITY TYPE
RMC .OHMM     0.25                 : RMC          - RESISTIVITY OF MUD CAKE
RMF .OHMM     0.25                 : RMF          - RESISTIVITY OF MUD FILTRATE
SUFT.C        15                   : SUFT         - SURFACE TEMPERATURE
~A  DEPTH     RESD     PHID     PHIN       GR
# ...
  352.000    5.744    0.312    0.351   67.574
  352.250    4.778    0.332    0.378   70.063
  352.500    4.460    0.344    0.399   72.010
  352.750    3.946    0.341    0.420   73.711
  353.000    3.866    0.336    0.444   76.079
  353.250    3.775    0.326    0.450   79.115
  353.500    3.686    0.324    0.453   81.663
  353.750    3.666    0.333    0.443   84.212
  354.000    3.695    0.324    0.448   86.218
  354.250    3.766    0.321    0.454   86.409
  354.500    3.809    0.335    0.453   80.918
  354.750    3.874    0.347    0.453   77.726
  355.000    3.927    0.346    0.460   76.222
  355.250    4.025    0.347    0.475   74.661
  355.500    4.117    0.347    0.491   73.039
  355.750    4.195    0.337    0.477   70.330
  356.000    4.438    0.321    0.438   69.555
  356.250    4.900    0.300    0.403   69.746
  356.500    5.606    0.267    0.388   69.694
  356.750    5.886    0.251    0.388   69.826
  357.000    6.111    0.283    0.406   69.775
  357.250    5.846    0.306    0.425   67.975
  357.500    5.132    0.320    0.431   67.076
  357.750    4.422    0.330    0.417   67.690
  358.000    4.167    0.319    0.412   69.091
  358.250    4.023    0.306    0.408   66.806
  358.500    4.655    0.270    0.358   62.462
  358.750    5.589    0.052    0.321   56.667
  359.000    7.520    0.002    0.172   51.478
  359.250   10.062   -0.011    0.155   48.828
  359.500   11.706   -0.012    0.144   48.717
  359.750   12.245    0.015    0.226   50.301
  360.000   11.779    0.056    0.289   52.184
  360.250    9.385    0.117    0.348   56.972
  360.500    6.749    0.188    0.386   62.001
  360.750    5.479    0.245    0.400   66.848
  361.000    4.712    0.298    0.409   71.514
  361.250    4.270    0.317    0.411   73.398
  361.500    4.069    0.262    0.414   66.455
  361.750    4.510    0.025    0.208   61.085
  362.000    4.897    0.012    0.185   58.253
  362.250    5.278    0.064    0.338   56.026
  362.500    5.500    0.175    0.389   59.665
  362.750    5.164    0.260    0.418   62.940
  363.000    4.750    0.292    0.417   67.185
  363.250    4.265    0.303    0.417   69.370
  363.500    4.056    0.313    0.418   70.891
  363.750    3.901    0.322    0.420   72.233
  364.000    3.867    0.327    0.426   74.299
  364.250    3.860    0.330    0.436   75.880
  364.500    3.869    0.334    0.440   74.560
  364.750    3.892    0.338    0.431   72.214
  365.000    3.937    0.337    0.418   69.564
  365.250    4.027    0.330    0.431   68.122
  365.500    4.096    0.325    0.440   67.951
  365.750    4.206    0.323    0.442   69.473
  366.000    4.417    0.330    0.442   71.359
  366.250    4.484    0.339    0.445   74.332
  366.500    4.735    0.323    0.453   77.727
  366.750    4.780    0.330    0.476   85.174
  367.000    4.835    0.311    0.470   91.050
  367.250    4.892    0.282    0.452   94.990
  367.500    4.902    0.236    0.435   97.358
  367.750    4.895    0.235    0.428   98.457
  368.000    4.896    0.235    0.441   97.682
  368.250    4.861    0.229    0.448   98.117
  368.500    4.862    0.221    0.447  100.968
  368.750    4.873    0.215    0.435  103.275
  369.000    4.911    0.221    0.426  102.620
  369.250    4.940    0.223    0.423   99.487
  369.500    4.942    0.224    0.444   98.529
  369.750    4.943    0.225    0.437   98.177
  370.000    4.908    0.228    0.435   97.826
  370.250    4.883    0.228    0.444   97.836
  370.500    4.855    0.241    0.443   98.753
  370.750    4.821    0.251    0.443  100.032
  371.000    4.795    0.246    0.456  100.949
  371.250    4.761    0.240    0.450   95.518
  371.500    4.772    0.245    0.454   91.719
  371.750    4.800    0.253    0.460   91.367
  372.000    4.819    0.233    0.468   92.102
  372.250    4.830    0.218    0.475   93.263
  372.500    4.840    0.210    0.463   95.571
  372.750    4.869    0.210    0.453   99.028
  373.000    4.897    0.211    0.449  102.362
  373.250    4.927    0.210    0.456  106.062
  373.500    4.946    0.219    0.443  107.704
  373.750    4.948    0.232    0.437  104.269
  374.000    4.940    0.243    0.429  100.227
  374.250    4.905    0.230    0.430   99.149
  374.500    4.833    0.221    0.443  100.854
  374.750    4.763    0.218    0.450  102.616
  375.000    4.489    0.227    0.453  105.349
  375.250    3.839    0.235    0.454  106.872
  375.500    3.333    0.251    0.449  107.425
  375.750    2.814    0.274    0.484  108.462
  376.000    2.475    0.296    0.521  110.346
  376.250    2.255    0.319    0.543  111.386
  376.500    2.094    0.341    0.566  111.094
  376.750    1.919    0.339    0.584  109.894
  377.000    1.849    0.312    0.579  107.487
  377.250    2.127    0.295    0.557  104.415
  377.500    2.406    0.301    0.540  101.522
  377.750    2.826    0.270    0.529  100.624
  378.000    3.233    0.270    0.514  100.817
  378.250    3.630    0.240    0.489  101.371
  378.500    3.854    0.230    0.459  101.140
  378.750    4.039    0.235    0.454  100.366
  379.000    4.055    0.242    0.454  100.011
  379.250    4.095    0.249    0.457   99.661
  379.500    4.165    0.240    0.454   99.549
  379.750    4.237    0.231    0.445  100.043
  380.000    4.350    0.227    0.439  100.415
  380.250    4.376    0.234    0.435  101.151
  380.500    4.297    0.242    0.436  100.013
  380.750    4.242    0.253    0.435   92.949
  381.000    4.165    0.265    0.442   88.908
  381.250    4.104    0.225    0.443   85.231
  381.500    4.045    0.190    0.433   81.553
  381.750    3.855    0.183    0.424   78.058
  382.000    3.728    0.195    0.411   76.797
  382.250    3.540    0.229    0.404   77.474
  382.500    3.392    0.271    0.442   77.846
  382.750    3.168    0.307    0.426   77.917
  383.000    3.121    0.308    0.417   76.959
  383.250    3.110    0.299    0.416   71.831
  383.500    3.353    0.289    0.411   67.972
  383.750    3.566    0.273    0.401   64.898
  384.000    3.751    0.260    0.380   62.671
  384.250    3.946    0.247    0.360   60.808
  384.500    4.014    0.280    0.365   59.610
  384.750    4.083    0.313    0.399   59.014
  385.000    4.069    0.315    0.422   59.084
  385.250    3.914    0.310    0.411   60.366
  385.500    3.786    0.317    0.415   60.919
  385.750    3.663    0.323    0.415   61.777
  386.000    3.583    0.325    0.411   62.392
  386.250    3.518    0.324    0.407   62.765
  386.500    3.467    0.317    0.402   62.959
  386.750    3.701    0.312    0.394   63.209
  387.000    3.594    0.310    0.394   63.522
  387.250    3.508    0.313    0.398   63.894
  387.500    3.413    0.321    0.389   64.752
  387.750    3.319    0.325    0.381   65.850
  388.000    3.229    0.326    0.382   66.888
  388.250    3.170    0.329    0.407   68.470
  388.500    3.118    0.336    0.433   71.385
  388.750    3.096    0.334    0.451   72.784
  389.000    3.074    0.331    0.437   74.003
  389.250    3.075    0.330    0.428   74.678
  389.500    3.076    0.331    0.436   72.633
  389.750    3.094    0.339    0.443   70.770
  390.000    3.136    0.341    0.447   71.747
  390.250    3.184    0.341    0.438   73.089
  390.500    3.202    0.341    0.436   74.247
  390.750    3.233    0.337    0.443   74.317
  391.000    3.253    0.334    0.437   73.724
  391.250    3.266    0.336    0.428   75.428
  391.500    3.267    0.326    0.421   75.799
  391.750    3.280    0.318    0.429   75.689
  392.000    3.312    0.312    0.432   77.393
  392.250    3.344    0.308    0.445   79.581
  392.500    3.446    0.316    0.434   81.585
  392.750    3.525    0.316    0.430   83.954
  393.000    3.613    0.309    0.437   86.143
  393.250    3.696    0.304    0.440   87.118
  393.500    3.745    0.297    0.429   88.096
  393.750    3.774    0.285    0.415   90.404
  394.000    3.761    0.272    0.402   92.954
  394.250    3.672    0.266    0.422   95.262
  394.500    3.592    0.290    0.446   96.723
  394.750    3.533    0.301    0.458   98.428
  395.000    3.508    0.301    0.469   99.828
  395.250    3.496    0.292    0.476  100.987
