~VERSION INFORMATION
 VERS.                 2.0:   CWLS LOG ASCII STANDARD -VERSION 2.0
 WRAP.                  NO:   ONE LINE PER DEPTH STEP
~WELL INFORMATION BLOCK
#MNEM.UNIT           DATA                    DESCRIPTION OF MNEMONIC
#---------    -------------------            -------------------------------
# Generated from Intellog Unique Number	CS_73_76/WELL/2177
WELL.         AMOCO CANADA PETOLEUM          : Well_name    - WELL
LOC .         00/07-27-074-09W4/0            : Location     - LOCATION
UWI .         00/07-27-074-09W4/0            : Uwi          - UNIQUE WELL ID
ENTR.         SP                             : Entered      - ENTERED BY
SRVC.         SCHLUMBERGER                   : Scn          - SERVICE COMPANY
STRT.M        286.512                        : top_depth    - START DEPTH
STOP.M        490.512                        : bot_depth    - STOP DEPTH
STEP.M        0.25                           : increment    - STEP LENGTH
 NULL. -999.2500:NULL Value
~CURVE INFORMATION BLOCK
#MNEM UNIT       ERCB CURVE CODE    CURVE DESCRIPTION
#-----------   ------------------   ----------------------------------
DEPT.M        00 001 00 00         : DEPTH        - DEPTH
GR  .API      00 310 00 00         : GR           - GAMMA RAY
DPHI.V/V      00 890 00 00         : PHID         - DENSITY POROSITY (SANDSTONE)
NPHI.V/V      00 330 00 00         : PHIN         - NEUTRON POROSITY (SANDSTONE)
ILD .OHMM     00 120 00 00         : RESD         - DEEP RESISTIVITY (DIL)
~PARAMETER INFORMATION
#MNEM.UNIT           DATA             DESCRIPTION OF MNEMONIC
#---------         -----------     ------------------------------
GL  .M        661.416              : gl           - GROUND LEVEL ELEVATION
EREF.M        665.074              : kb           - ELEVATION OF DEPTH REFERENCE
DATM.M        661.416              : datum        - DATUM ELEVATION
TDD .M        594.36               : tdd          - TOTAL DEPTH DRILLER
RUN .         ONE                  : Run          - RUN NUMBER
ENG .         BILL                 : Engineer     - RECORDING ENGINEER
WIT .         JIM                  : Witness      - WITNESSED BY
MUD .         GEL                  : Mud_type     - MUD TYPE
MATR.         SANDSTONE            : Logunit      - NEUTRON MATRIX
TMAX.C        24.4444              : BHT          - MAXIMUM RECORDED TEMPERATURE
BHTD.M        594.36               : BHTDEP       - MAXIMUM RECORDED TEMPERATURE
MATR.         1                    : LOGUNIT      - NEUTRON MATRIX
RMT .C        25                   : MDTP         - TEMPERATURE OF MUD
NEUT.         1                    : NEUTRON      - NEUTRON TYPE
RESI.         0                    : RESIST       - RESISTIVITY TYPE
RMC .OHMM     0.25                 : RMC          - RESISTIVITY OF MUD CAKE
RMF .OHMM     0.25                 : RMF          - RESISTIVITY OF MUD FILTRATE
SUFT.C        15                   : SUFT         - SURFACE TEMPERATURE
~A  DEPTH       GR     PHID     PHIN     RESD
# ...
  373.512   87.230    0.287    0.384    4.452
  373.762   89.038    0.281    0.395    3.654
  374.012   89.264    0.273    0.410    3.295
  374.262   89.286    0.264    0.426    3.089
  374.512   89.298    0.263    0.441    2.976
  374.762   89.311    0.273    0.453    2.915
  375.012   89.797    0.280    0.467    2.857
  375.262   90.233    0.284    0.471    2.855
  375.512   92.369    0.276    0.459    3.023
  375.762   94.389    0.267    0.438    3.381
  376.012   96.487    0.261    0.423    3.691
  376.262   99.088    0.253    0.402    3.976
  376.512   96.274    0.252    0.386    4.532
  376.762   93.607    0.254    0.379    5.178
  377.012   92.108    0.259    0.379    5.662
  377.262   91.485    0.265    0.389    6.218
  377.512   92.570    0.268    0.397    6.670
  377.762   94.000    0.262    0.407    6.999
  378.012   95.846    0.265    0.413    7.167
  378.262   96.822    0.268    0.411    7.303
  378.512   95.931    0.271    0.405    7.301
  378.762   93.408    0.271    0.396    7.306
  379.012   90.931    0.263    0.390    7.306
  379.262   88.323    0.256    0.396    7.229
  379.512   85.680    0.254    0.403    7.179
  379.762   83.160    0.259    0.408    7.177
  380.012   83.861    0.265    0.412    7.178
  380.262   85.465    0.270    0.412    7.180
  380.512   86.545    0.276    0.414    7.182
  380.762   86.570    0.282    0.417    7.184
  381.012   87.988    0.277    0.415    7.187
  381.262   90.582    0.264    0.411    7.089
  381.512   92.323    0.257    0.409    7.056
  381.762   91.582    0.247    0.417    7.058
  382.012   91.199    0.242    0.414    6.918
  382.262   90.896    0.244    0.404    6.936
  382.512   89.879    0.244    0.394    6.813
  382.762   87.742    0.246    0.404    6.817
  383.012   83.174    0.243    0.413    6.652
  383.262   84.344    0.241    0.420    6.556
  383.512   88.235    0.242    0.426    6.571
  383.762   91.944    0.246    0.429    6.435
  384.012   94.040    0.249    0.423    6.358
  384.262   95.160    0.244    0.418    6.154
  384.512   97.220    0.240    0.419    6.092
  384.762   93.550    0.240    0.423    5.909
  385.012   90.110    0.235    0.433    5.762
  385.262   86.419    0.228    0.426    5.663
  385.512   88.009    0.226    0.419    5.670
  385.762   92.319    0.232    0.428    5.523
  386.012   93.691    0.240    0.431    5.021
  386.262   93.567    0.247    0.432    4.414
  386.512   94.093    0.257    0.453    3.698
  386.762   90.898    0.269    0.471    3.016
  387.012   88.170    0.276    0.486    2.704
  387.262   91.441    0.276    0.481    2.488
  387.512   95.118    0.272    0.471    2.366
  387.762   99.924    0.268    0.457    2.383
  388.012   98.705    0.263    0.446    2.540
  388.262   94.224    0.260    0.441    2.715
  388.512   91.951    0.257    0.432    3.088
  388.762   93.160    0.252    0.424    3.657
  389.012   93.282    0.252    0.417    3.934
  389.262   92.041    0.253    0.410    4.428
  389.512   91.587    0.249    0.416    4.773
  389.762   90.815    0.243    0.425    5.082
  390.012   90.867    0.242    0.421    5.282
  390.262   90.940    0.245    0.403    5.521
  390.512   90.074    0.261    0.385    5.845
  390.762   88.438    0.275    0.387    6.018
  391.012   82.926    0.285    0.394    6.203
  391.262   76.156    0.304    0.378    6.368
  391.512   71.101    0.324    0.365    6.478
  391.762   67.193    0.339    0.362    6.617
  392.012   69.650    0.336    0.367    6.612
  392.262   71.532    0.333    0.364    6.610
  392.512   72.802    0.330    0.368    6.551
  392.762   74.902    0.328    0.363    6.499
  393.012   74.946    0.330    0.365    6.394
  393.262   75.432    0.333    0.363    6.379
  393.512   77.110    0.335    0.360    6.377
  393.762   78.070    0.331    0.370    6.392
  394.012   77.151    0.338    0.374    6.277
  394.262   74.134    0.338    0.374    6.502
  394.512   70.330    0.333    0.378    6.359
  394.762   66.427    0.335    0.371    6.516
  395.012   69.187    0.338    0.367    6.506
  395.262   72.161    0.343    0.373    6.507
  395.512   74.558    0.348    0.366    6.508
  395.762   75.594    0.348    0.358    6.520
  396.012   73.280    0.348    0.364    6.377
  396.262   71.725    0.347    0.370    6.383
  396.512   72.817    0.337    0.375    6.188
  396.762   74.391    0.332    0.384    6.021
  397.012   76.167    0.327    0.392    5.604
  397.262   77.741    0.322    0.398    5.367
  397.512   79.285    0.318    0.402    5.332
  397.762   79.794    0.314    0.410    5.612
  398.012   80.739    0.312    0.410    5.784
  398.262   82.493    0.310    0.394    5.949
  398.512   83.395    0.307    0.395    5.955
  398.762   85.120    0.299    0.401    5.619
  399.012   86.090    0.284    0.405    5.319
  399.262   86.606    0.271    0.403    5.418
  399.512   86.523    0.253    0.401    5.573
  399.762   87.953    0.252    0.397    5.744
  400.012   89.950    0.263    0.395    5.859
  400.262   91.991    0.275    0.388    5.723
  400.512   89.692    0.285    0.377    5.737
  400.762   86.313    0.298    0.372    5.622
  401.012   84.227    0.309    0.371    5.605
  401.262   83.754    0.320    0.373    5.534
  401.512   81.846    0.330    0.375    5.407
  401.762   79.130    0.329    0.379    5.532
  402.012   77.736    0.323    0.379    5.726
  402.262   76.767    0.311    0.379    5.884
  402.512   75.789    0.288    0.351    6.508
  402.762   74.439    0.266    0.321    7.745
  403.012   72.031    0.241    0.299    9.129
  403.262   69.110    0.144    0.207   11.103
  403.512   63.761    0.164    0.234   12.650
  403.762   60.094    0.213    0.314    9.881
  404.012   63.085    0.264    0.356    8.230
  404.262   68.408    0.318    0.395    7.059
  404.512   72.323    0.337    0.403    6.240
  404.762   74.074    0.347    0.405    5.994
  405.012   76.742    0.346    0.407    5.627
  405.262   78.676    0.341    0.402    5.544
  405.512   80.409    0.337    0.393    5.360
  405.762   76.895    0.334    0.384    5.355
  406.012   74.723    0.332    0.392    5.357
  406.262   71.567    0.326    0.395    5.531
  406.512   72.748    0.320    0.380    5.721
  406.762   75.540    0.306    0.356    6.222
  407.012   77.615    0.241    0.344    7.060
  407.262   77.535    0.198    0.319    7.994
  407.512   75.023    0.161    0.290    8.847
  407.762   72.987    0.163    0.262    9.908
  408.012   71.757    0.188    0.260   10.203
  408.262   72.453    0.219    0.288    8.969
  408.512   73.045    0.249    0.316    7.624
  408.762   75.115    0.295    0.340    6.790
  409.012   77.148    0.322    0.364    6.281
  409.262   78.642    0.324    0.368    6.003
  409.512   79.368    0.324    0.374    5.777
  409.762   81.107    0.325    0.391    5.790
  410.012   81.293    0.322    0.404    5.780
  410.262   79.422    0.315    0.399    5.897
  410.512   77.763    0.306    0.388    5.970
  410.762   77.838    0.300    0.377    6.014
  411.012   79.888    0.293    0.372    5.914
  411.262   82.488    0.285    0.379    5.688
  411.512   85.976    0.279    0.401    5.350
  411.762   90.553    0.274    0.411    5.288
  412.012   93.974    0.270    0.412    5.217
  412.262   91.904    0.266    0.405    5.279
  412.512   87.485    0.259    0.396    5.352
  412.762   81.540    0.249    0.390    5.495
  413.012   82.653    0.240    0.384    5.488
  413.262   82.919    0.256    0.388    5.421
  413.512   81.403    0.268    0.389    5.203
  413.762   83.177    0.266    0.391    4.918
  414.012   84.865    0.275    0.393    4.593
  414.262   85.771    0.270    0.396    4.275
  414.512   85.645    0.258    0.412    4.164
  414.762   87.291    0.251    0.426    4.026
  415.012   89.009    0.255    0.416    4.091
  415.262   90.435    0.252    0.396    4.260
  415.512   91.631    0.249    0.387    4.707
  415.762   88.023    0.244    0.395    4.938
  416.012   80.932    0.239    0.388    5.348
  416.262   78.588    0.231    0.379    5.689
  416.512   77.951    0.225    0.388    5.931
  416.762   78.845    0.223    0.398    6.128
