~VERSION INFORMATION
 VERS.                 2.0:   CWLS LOG ASCII STANDARD -VERSION 2.0
 WRAP.                  NO:   ONE LINE PER DEPTH STEP
~WELL INFORMATION BLOCK
#MNEM.UNIT           DATA                    DESCRIPTION OF MNEMONIC
#---------    -------------------            -------------------------------
# Generated from Intellog Unique Number	CS_71_72/WELL/799
WELL.         PEX PHILLIPS AEC GRIST         : Well_name    - WELL
LOC .         00/06-36-071-09W4/0            : Location     - LOCATION
UWI .         00/06-36-071-09W4/0            : Uwi          - UNIQUE WELL ID
ENTR.         SP                             : Entered      - ENTERED BY
SRVC.         SCHLUMBERGER                   : Scn          - SERVICE COMPANY
STRT.M        315                            : top_depth    - START DEPTH
STOP.M        540                            : bot_depth    - STOP DEPTH
STEP.M        0.25                           : increment    - STEP LENGTH
 NULL. -999.2500:NULL Value
~CURVE INFORMATION BLOCK
#MNEM UNIT       ERCB CURVE CODE    CURVE DESCRIPTION
#-----------   ------------------   ----------------------------------
DEPT.M        00 001 00 00         : DEPTH        - DEPTH
ILD .OHMM     00 120 00 00         : RESD         - DEEP RESISTIVITY (DIL)
DPHI.V/V      00 890 00 00         : PHID         - DENSITY POROSITY (LIMESTONE)
NPHI.V/V      00 330 00 00         : PHIN         - NEUTRON POROSITY (LIMESTONE)
GR  .API      00 310 00 00         : GR           - GAMMA RAY
~PARAMETER INFORMATION
#MNEM.UNIT           DATA             DESCRIPTION OF MNEMONIC
#---------         -----------     ------------------------------
GL  .M        679.91               : gl           - GROUND LEVEL ELEVATION
EREF.M        683.7                : kb           - ELEVATION OF DEPTH REFERENCE
DATM.M        679.91               : datum        - DATUM ELEVATION
TDD .M        544                  : tdd          - TOTAL DEPTH DRILLER
RUN .         ONE                  : Run          - RUN NUMBER
ENG .         BILL                 : Engineer     - RECORDING ENGINEER
WIT .         JIM                  : Witness      - WITNESSED BY
MUD .         GEL                  : Mud_type     - MUD TYPE
MATR.         LIMESTONE            : Logunit      - NEUTRON MATRIX
TMAX.C        24                   : BHT          - MAXIMUM RECORDED TEMPERATURE
BHTD.M        544                  : BHTDEP       - MAXIMUM RECORDED TEMPERATURE
MATR.         1                    : LOGUNIT      - NEUTRON MATRIX
RMT .C        25                   : MDTP         - TEMPERATURE OF MUD
NEUT.         1                    : NEUTRON      - NEUTRON TYPE
RESI.         0                    : RESIST       - RESISTIVITY TYPE
RMC .OHMM     0.25                 : RMC          - RESISTIVITY OF MUD CAKE
RMF .OHMM     0.25                 : RMF          - RESISTIVITY OF MUD FILTRATE
SUFT.C        15                   : SUFT         - SURFACE TEMPERATURE
~A  DEPTH     RESD     PHID     PHIN       GR
# ...
  489.000   12.755    0.238    0.361   50.344
  489.250   13.671    0.250    0.363   47.914
  489.500   13.982    0.265    0.357   46.584
  489.750   14.436    0.262    0.352   48.063
  490.000   14.438    0.251    0.355   50.092
  490.250   14.121    0.243    0.357   51.695
  490.500   13.942    0.249    0.352   51.949
  490.750   13.944    0.252    0.350   49.459
  491.000   14.026    0.254    0.362   47.703
  491.250   14.133    0.253    0.362   47.776
  491.500   14.376    0.251    0.355   49.133
  491.750   14.513    0.246    0.354   51.161
  492.000   14.625    0.238    0.354   53.312
  492.250   14.710    0.232    0.349   53.448
  492.500   14.851    0.234    0.337   50.897
  492.750   15.448    0.234    0.337   47.858
  493.000   15.831    0.248    0.349   45.796
  493.250   16.072    0.262    0.363   44.039
  493.500   15.807    0.270    0.380   43.624
  493.750   14.756    0.265    0.358   44.004
  494.000   12.951    0.254    0.335   45.360
  494.250   10.278    0.253    0.333   50.319
  494.500    7.887    0.239    0.339   58.881
  494.750    6.910    0.187    0.349   69.215
  495.000    6.535    0.179    0.360   75.028
  495.250    6.598    0.194    0.374   80.292
  495.500    6.686    0.217    0.386   84.458
  495.750    6.750    0.232    0.381   84.654
  496.000    6.815    0.188    0.369   82.530
  496.250    6.893    0.173    0.360   79.553
  496.500    6.920    0.211    0.374   77.004
  496.750    6.908    0.183    0.379   75.366
  497.000    6.846    0.184    0.383   74.463
  497.250    6.809    0.196    0.387   78.934
  497.500    6.735    0.185    0.377   81.694
  497.750    6.648    0.184    0.370   82.259
  498.000    6.600    0.196    0.378   83.312
  498.250    6.565    0.192    0.388   84.608
  498.500    6.566    0.186    0.397   84.069
  498.750    6.580    0.203    0.408   79.015
  499.000    6.593    0.212    0.391   74.265
  499.250    6.632    0.209    0.367   70.311
  499.500    6.608    0.198    0.359   69.957
  499.750    6.524    0.185    0.358   71.192
  500.000    6.333    0.164    0.366   72.915
  500.250    5.912    0.162    0.377   74.211
  500.500    5.458    0.179    0.388   72.881
  500.750    5.029    0.192    0.397   70.698
  501.000    4.881    0.203    0.405   65.154
  501.250    4.565    0.213    0.400   57.168
  501.500    4.350    0.223    0.383   50.100
  501.750    4.183    0.230    0.367   44.434
  502.000    4.054    0.236    0.358   37.731
  502.250    3.957    0.234    0.350   49.102
  502.500    3.892    0.205    0.335   63.220
  502.750    3.842    0.198    0.329   68.239
  503.000    3.822    0.217    0.364   64.346
  503.250    3.823    0.237    0.399   59.355
  503.500    3.831    0.238    0.367   56.740
  503.750    3.817    0.214    0.340   58.465
  504.000    3.811    0.207    0.343   59.518
  504.250    3.762    0.238    0.374   58.063
  504.500    3.721    0.268    0.382   50.566
  504.750    3.673    0.277    0.380   41.422
  505.000    3.640    0.286    0.372   33.985
  505.250    3.580    0.250    0.339   40.228
  505.500    3.574    0.217    0.360   51.170
  505.750    3.642    0.222    0.382   57.472
  506.000    3.796    0.228    0.372   62.004
  506.250    3.911    0.221    0.357   65.742
  506.500    4.046    0.223    0.370   63.618
  506.750    4.077    0.232    0.373   57.651
  507.000    4.010    0.240    0.368   57.357
  507.250    3.959    0.239    0.364   75.443
  507.500    3.974    0.222    0.355   90.599
  507.750    4.103    0.185    0.356  100.810
  508.000    4.324    0.166    0.371  106.500
  508.250    4.678    0.172    0.382  109.261
  508.500    5.136    0.177    0.388  110.927
  508.750    5.413    0.179    0.384  111.304
  509.000    5.557    0.180    0.384  110.035
  509.250    5.579    0.167    0.390  105.412
  509.500    5.570    0.160    0.420  102.552
  509.750    5.530    0.153    0.363  101.099
  510.000    5.408    0.160    0.358   98.854
  510.250    5.201    0.198    0.414   89.342
  510.500    4.828    0.248    0.454   72.382
  510.750    4.558    0.275    0.502   66.167
  511.000    4.400    0.241    0.345   62.151
  511.250    4.193    0.217    0.351   61.004
  511.500    4.124    0.241    0.347   61.996
  511.750    4.132    0.251    0.348   64.145
  512.000    4.487    0.241    0.337   65.319
  512.250    4.853    0.298    0.331   54.953
  512.500    4.946    0.448    0.384   45.625
  512.750    4.540    0.512    0.493   39.716
  513.000    3.839    0.465    0.619   38.385
  513.250    3.301    0.413    0.387   40.964
  513.500    2.985    0.356    0.368   42.198
  513.750    3.140    0.305    0.372   41.356
  514.000    3.506    0.297    0.357   58.527
  514.250    3.981    0.287    0.321   84.734
  514.500    4.471    0.238    0.300  104.104
  514.750    5.001    0.195    0.327  115.534
  515.000    5.461    0.147    0.367   99.856
  515.250    5.820    0.139    0.359   88.451
  515.500    6.009    0.132    0.329   84.435
  515.750    6.089    0.144    0.316   86.830
  516.000    6.079    0.155    0.311   88.369
  516.250    5.979    0.144    0.327   89.790
  516.500    5.761    0.135    0.343   90.045
  516.750    5.459    0.159    0.337   86.640
  517.000    5.309    0.191    0.337   80.730
  517.250    5.241    0.214    0.355   77.141
  517.500    5.252    0.225    0.352   82.772
  517.750    5.402    0.204    0.348   87.793
  518.000    5.757    0.194    0.336   91.962
  518.250    6.033    0.185    0.322   93.621
  518.500    6.080    0.180    0.317   93.084
  518.750    5.539    0.206    0.322   88.091
  519.000    4.954    0.239    0.343   84.806
  519.250    4.676    0.259    0.354   88.972
  519.500    4.891    0.224    0.341   92.954
  519.750    5.242    0.160    0.352   90.037
  520.000    5.352    0.120    0.369   75.885
  520.250    5.254    0.095    0.384   63.870
  520.500    4.823    0.206    0.359   56.008
  520.750    4.691    0.237    0.353   54.616
  521.000    5.046    0.218    0.355   70.261
  521.250    5.687    0.175    0.334   83.035
  521.500    6.027    0.152    0.311   89.399
  521.750    6.351    0.130    0.325   93.688
  522.000    6.681    0.147    0.336   95.410
  522.250    6.949    0.141    0.341   96.767
  522.500    7.162    0.115    0.329   94.337
  522.750    7.257    0.099    0.318   87.147
  523.000    7.272    0.136    0.309   88.381
  523.250    7.220    0.135    0.308  100.056
  523.500    7.114    0.126    0.328  105.137
  523.750    6.945    0.162    0.359   94.039
  524.000    6.667    0.199    0.353   80.374
  524.250    6.437    0.199    0.342   78.922
  524.500    6.378    0.181    0.336   92.492
  524.750    6.427    0.175    0.334  100.320
  525.000    6.623    0.172    0.333  102.165
  525.250    6.928    0.164    0.337  101.079
  525.500    6.942    0.158    0.347   85.706
  525.750    6.664    0.167    0.341   68.257
  526.000    6.198    0.182    0.320   65.340
  526.250    5.829    0.174    0.311   75.856
  526.500    5.544    0.179    0.322   80.631
  526.750    5.473    0.196    0.346   78.691
  527.000    6.284    0.206    0.373   67.837
  527.250    7.618    0.190    0.404   59.973
  527.500    9.408    0.143    0.406   59.803
  527.750   11.068    0.074    0.393   58.352
  528.000   12.313    0.016    0.298   54.763
  528.250   12.224    0.004    0.247   57.890
  528.500   11.284   -0.007    0.236   63.766
  528.750   10.110    0.003    0.260   70.250
  529.000    9.263    0.034    0.289   76.981
  529.250    8.502    0.076    0.313   85.482
  529.500    7.533    0.077    0.335   90.867
  529.750    7.006    0.078    0.339   88.562
  530.000    6.687    0.076    0.363   86.561
  530.250    6.504    0.074    0.359   85.534
  530.500    6.530    0.069    0.357   88.298
  530.750    6.605    0.060    0.359   90.388
  531.000    6.743    0.057    0.369   92.231
  531.250    6.871    0.077    0.377   93.221
  531.500    7.188    0.092    0.384   89.878
  531.750    7.689    0.097    0.391   84.272
  532.000    8.225    0.066    0.351   76.287
  532.250    8.814    0.047    0.317   68.057
