~VERSION INFORMATION
 VERS.                 2.0:   CWLS LOG ASCII STANDARD -VERSION 2.0
 WRAP.                  NO:   ONE LINE PER DEPTH STEP
~WELL INFORMATION BLOCK
#MNEM.UNIT           DATA                    DESCRIPTION OF MNEMONIC
#---------    -------------------            -------------------------------
# Generated from Intellog Unique Number	CS_67_68/WELL/2163
WELL.         ESSO AEC 85 FISHCK             : Well_name    - WELL
LOC .         00/03-25-067-07W4/0            : Location     - LOCATION
UWI .         00/03-25-067-07W4/0            : Uwi          - UNIQUE WELL ID
ENTR.         SP                             : Entered      - ENTERED BY
SRVC.         SCHLUMBERGER                   : Scn          - SERVICE COMPANY
STRT.M        325                            : top_depth    - START DEPTH
STOP.M        545                            : bot_depth    - STOP DEPTH
STEP.M        0.25                           : increment    - STEP LENGTH
 NULL. -999.2500:NULL Value
~CURVE INFORMATION BLOCK
#MNEM UNIT       ERCB CURVE CODE    CURVE DESCRIPTION
#-----------   ------------------   ----------------------------------
DEPT.M        00 001 00 00         : DEPTH        - DEPTH
ILD .OHMM     00 120 00 00         : RESD         - DEEP RESISTIVITY (DIL)
DPHI.V/V      00 890 00 00         : PHID         - DENSITY POROSITY (LIMESTONE)
NPHI.V/V      00 330 00 00         : PHIN         - NEUTRON POROSITY (LIMESTONE)
GR  .API      00 310 00 00         : GR           - GAMMA RAY
CALI.MM       00 280 01 00         : CAL          - CALIPER
~PARAMETER INFORMATION
#MNEM.UNIT           DATA             DESCRIPTION OF MNEMONIC
#---------         -----------     ------------------------------
GL  .M        649.9                : gl           - GROUND LEVEL ELEVATION
EREF.M        653.5                : kb           - ELEVATION OF DEPTH REFERENCE
DATM.M        653.5                : datum        - DATUM ELEVATION
TDD .M        549                  : tdd          - TOTAL DEPTH DRILLER
RUN .         ONE                  : Run          - RUN NUMBER
ENG .         BILL                 : Engineer     - RECORDING ENGINEER
WIT .         JIM                  : Witness      - WITNESSED BY
MUD .         GEL                  : Mud_type     - MUD TYPE
MATR.         LIMESTONE            : Logunit      - NEUTRON MATRIX
TMAX.C        19                   : BHT          - MAXIMUM RECORDED TEMPERATURE
BHTD.M        548                  : BHTDEP       - MAXIMUM RECORDED TEMPERATURE
MATR.         1                    : LOGUNIT      - NEUTRON MATRIX
RMT .C        25                   : MDTP         - TEMPERATURE OF MUD
NEUT.         1                    : NEUTRON      - NEUTRON TYPE
RESI.         0                    : RESIST       - RESISTIVITY TYPE
RMC .OHMM     0.25                 : RMC          - RESISTIVITY OF MUD CAKE
RMF .OHMM     0.25                 : RMF          - RESISTIVITY OF MUD FILTRATE
SUFT.C        15                   : SUFT         - SURFACE TEMPERATURE
~A  DEPTH     RESD     PHID     PHIN       GR      CAL
# ...
  507.500    3.990    0.245    0.379  102.459  168.525
  507.750    3.982    0.230    0.383  105.657  168.865
  508.000    3.989    0.230    0.386  109.039  168.907
  508.250    4.042    0.238    0.381  106.928  168.947
  508.500    4.095    0.229    0.372  106.524  168.994
  508.750    4.157    0.221    0.362  109.601  169.241
  509.000    4.165    0.212    0.354  108.224  169.588
  509.250    4.103    0.202    0.351  104.708  169.825
  509.500    3.989    0.215    0.345   99.973  170.073
  509.750    3.742    0.231    0.351   95.786  169.809
  510.000    3.400    0.243    0.359   91.112  169.444
  510.250    3.207    0.255    0.365   87.537  168.974
  510.500    3.083    0.266    0.371   85.487  168.506
  510.750    3.060    0.276    0.369   84.229  168.041
  511.000    3.136    0.273    0.360   83.646  167.574
  511.250    3.262    0.264    0.355   85.136  167.008
  511.500    3.470    0.252    0.369   95.474  166.748
  511.750    3.678    0.238    0.382  107.767  166.892
  512.000    3.869    0.227    0.396  113.895  167.439
  512.250    4.093    0.217    0.412  116.787  167.784
  512.500    4.330    0.209    0.385   98.870  167.930
  512.750    4.471    0.207    0.361   80.159  167.664
  513.000    4.581    0.223    0.352   75.606  167.001
  513.250    4.911    0.224    0.360   74.533  166.632
  513.500    5.538    0.216    0.372   73.338  166.161
  513.750    6.545    0.218    0.381   67.747  165.496
  514.000    7.882    0.165    0.229   59.228  165.329
  514.250    9.582    0.113    0.189   53.883  164.965
  514.500   10.565    0.074    0.158   53.608  164.706
  514.750   11.539    0.039    0.143   55.581  164.237
  515.000    6.220    0.125    0.154   60.249  164.178
  515.250    5.012    0.172    0.338   64.236  164.011
  515.500    4.264    0.208    0.383   71.035  163.751
  515.750    3.774    0.247    0.396   77.651  163.599
  516.000    3.181    0.268    0.387   68.340  163.424
  516.250    3.046    0.278    0.390   64.581  163.163
  516.500    2.990    0.287    0.368   62.410  162.802
  516.750    3.058    0.295    0.347   61.213  162.738
  517.000    3.210    0.292    0.332   66.487  162.577
  517.250    3.507    0.199    0.322   78.839  162.519
  517.500    3.627    0.183    0.317   95.282  163.076
  517.750    3.939    0.179    0.319   97.934  164.126
  518.000    4.207    0.195    0.321   99.300  166.101
  518.250    4.518    0.186    0.317  101.704  168.076
  518.500    4.735    0.160    0.337  104.964  169.233
  518.750    4.981    0.160    0.358  109.630  170.705
  519.000    5.191    0.164    0.379  112.459  171.762
  519.250    5.349    0.155    0.364  113.158  172.309
  519.500    5.230    0.144    0.353  106.225  171.538
  519.750    4.888    0.166    0.344   98.804  169.852
  520.000    4.441    0.213    0.349   96.081  167.551
  520.250    3.887    0.233    0.360   89.149  164.954
  520.500    3.276    0.249    0.367   74.771  163.161
  520.750    3.131    0.272    0.361   60.577  161.878
  521.000    3.203    0.290    0.328   52.179  163.756
  521.250    3.338    0.176    0.306   65.265  166.642
  521.500    3.544    0.154    0.298   92.692  168.923
  521.750    3.842    0.137    0.295  103.825  170.182
  522.000    4.065    0.210    0.297  100.372  169.310
  522.250    3.944    0.236    0.301   90.448  166.707
  522.500    3.679    0.241    0.306   79.183  164.510
  522.750    3.756    0.213    0.315   88.912  161.606
  523.000    4.004    0.181    0.370   99.988  164.191
  523.250    4.228    0.163    0.406  107.334  170.943
  523.500    4.373    0.166    0.427  116.207  177.494
  523.750    4.506    0.168    0.393  122.212  188.219
  524.000    4.557    0.169    0.356  109.543  175.036
  524.250    4.332    0.172    0.339   96.997  172.433
  524.500    4.056    0.186    0.331   94.403  170.550
  524.750    3.848    0.180    0.335   94.912  169.975
  525.000    3.671    0.174    0.342   95.732  169.608
  525.250    3.470    0.222    0.338   87.395  169.649
  525.500    3.274    0.223    0.327   78.019  169.080
  525.750    3.094    0.206    0.319   85.249  166.485
  526.000    2.963    0.185    0.313   89.970  164.285
  526.250    2.827    0.223    0.351   73.579  162.191
  526.500    2.801    0.259    0.376   60.484  160.910
  526.750    2.897    0.168    0.328   62.704  160.037
  527.000    3.019    0.141    0.318   68.893  159.467
  527.250    3.188    0.124    0.337   73.922  159.102
  527.500    3.329    0.143    0.351   73.642  159.145
  527.750    3.449    0.238    0.349   81.120  159.184
  528.000    3.482    0.237    0.341   84.189  159.233
  528.250    3.423    0.236    0.336   84.766  159.065
  528.500    3.366    0.235    0.340   87.659  158.295
  528.750    3.391    0.237    0.343   90.126  157.113
  529.000    3.481    0.232    0.335   87.280  155.328
  529.250    3.628    0.215    0.320   83.400  154.148
  529.500    3.767    0.194    0.319   87.514  154.189
  529.750    3.853    0.178    0.337   92.055  155.147
  530.000    3.824    0.162    0.352   83.721  155.896
  530.250    3.621    0.201    0.343   80.509  157.161
  530.500    3.468    0.255    0.327   89.448  158.422
  530.750    3.365    0.234    0.338   94.169  159.482
  531.000    3.247    0.239    0.352   85.532  160.134
  531.250    3.174    0.266    0.360   81.525  160.381
  531.500    3.234    0.252    0.349   79.902  160.521
  531.750    3.364    0.238    0.338   80.416  158.940
  532.000    3.486    0.230    0.331   82.580  157.353
  532.250    3.633    0.228    0.326   87.240  156.786
  532.500    3.772    0.231    0.321   91.354  158.351
  532.750    3.873    0.219    0.315   92.240  160.328
  533.000    3.931    0.203    0.321   92.445  161.587
  533.250    3.709    0.204    0.334   93.445  162.138
  533.500    3.246    0.228    0.342   94.507  162.183
  533.750    2.894    0.257    0.359   92.334  161.814
  534.000    2.486    0.288    0.389   84.122  161.145
  534.250    2.271    0.326    0.386   78.164  159.763
  534.500    2.533    0.302    0.380   81.608  158.383
  534.750    2.888    0.266    0.371   86.025  157.812
  535.000    3.407    0.237    0.352   90.448  156.942
  535.250    3.923    0.205    0.320   93.157  156.775
  535.500    4.423    0.185    0.308   95.377  156.612
  535.750    4.680    0.191    0.319   95.402  157.976
  536.000    5.064    0.199    0.326  100.615  159.343
  536.250    5.307    0.192    0.339  109.551  160.301
  536.500    5.551    0.170    0.353  118.367  161.052
  536.750    5.699    0.163    0.368  122.296  162.111
  537.000    5.895    0.159    0.389  125.435  165.206
  537.250    6.109    0.158    0.403  127.350  167.388
  537.500    6.319    0.161    0.402  123.897  168.239
  537.750    6.438    0.167    0.387  118.249  168.077
  538.000    6.474    0.172    0.375  116.744  167.713
  538.250    6.486    0.173    0.366  118.847  166.940
  538.500    6.486    0.173    0.359  116.672  166.070
  538.750    6.437    0.171    0.355  116.211  164.999
  539.000    6.401    0.162    0.353  119.042  164.625
  539.250    6.329    0.172    0.349  120.532  163.852
  539.500    6.270    0.182    0.351  120.496  163.489
  539.750    6.258    0.175    0.358   28.243  163.230
  540.000    6.257    0.170    0.362   19.605  163.368
  540.250    6.316    0.170    0.364   19.813  163.207
  540.500    6.328    0.172    0.362   20.084  162.743
  540.750    6.269    0.173    0.359   20.287  162.174
  541.000    6.163    0.174    0.356   20.620  161.705
  541.250    6.105    0.171    0.360   20.951  161.441
  541.500    6.094    0.170    0.363   20.974  161.177
  541.750    6.151    0.171    0.359   20.999  160.917
  542.000    6.327    0.171    0.354   20.962  160.854
  542.250    6.398    0.174    0.352   21.174  160.999
  542.500    6.362    0.170    0.351   21.262  161.142
  542.750    6.923    0.100    0.361   21.290  161.387
  543.000   16.735    0.070    0.372   21.315  161.430
  543.250   23.422    0.001    0.384   21.399  161.373
  543.500   28.741    0.000    0.389   21.359  161.208
  543.750   32.229    0.000    0.388   21.080  160.843
