~VERSION INFORMATION
 VERS.                 2.0:   CWLS LOG ASCII STANDARD -VERSION 2.0
 WRAP.                  NO:   ONE LINE PER DEPTH STEP
~WELL INFORMATION BLOCK
#MNEM.UNIT           DATA                    DESCRIPTION OF MNEMONIC
#---------    -------------------            -------------------------------
# Generated from Intellog Unique Number	CS_71_72/WELL/833
WELL.         BOW VALLEY INDUSTRIES          : Well_name    - WELL
LOC .         00/07-35-071-17W4/2            : Location     - LOCATION
UWI .         00/07-35-071-17W4/2            : Uwi          - UNIQUE WELL ID
ENTR.         SP                             : Entered      - ENTERED BY
SRVC.         SCHLUMBERGER                   : Scn          - SERVICE COMPANY
STRT.M        274.32                         : top_depth    - START DEPTH
STOP.M        446.07                         : bot_depth    - STOP DEPTH
STEP.M        0.25                           : increment    - STEP LENGTH
 NULL. -999.2500:NULL Value
~CURVE INFORMATION BLOCK
#MNEM UNIT       ERCB CURVE CODE    CURVE DESCRIPTION
#-----------   ------------------   ----------------------------------
DEPT.M        00 001 00 00         : DEPTH        - DEPTH
GR  .API      00 310 00 00         : GR           - GAMMA RAY
DPHI.V/V      00 890 00 00         : PHID         - DENSITY POROSITY (SANDSTONE)
NPHI.V/V      00 330 00 00         : PHIN         - NEUTRON POROSITY (SANDSTONE)
ILD .OHMM     00 120 00 00         : RESD         - DEEP RESISTIVITY (DIL)
~PARAMETER INFORMATION
#MNEM.UNIT           DATA             DESCRIPTION OF MNEMONIC
#---------         -----------     ------------------------------
GL  .M        583.387              : gl           - GROUND LEVEL ELEVATION
EREF.M        586.435              : kb           - ELEVATION OF DEPTH REFERENCE
DATM.M        583.387              : datum        - DATUM ELEVATION
TDD .M        452.628              : tdd          - TOTAL DEPTH DRILLER
RUN .         ONE                  : Run          - RUN NUMBER
ENG .         BILL                 : Engineer     - RECORDING ENGINEER
WIT .         JIM                  : Witness      - WITNESSED BY
MUD .         GEL                  : Mud_type     - MUD TYPE
MATR.         SANDSTONE            : Logunit      - NEUTRON MATRIX
TMAX.C        25.5556              : BHT          - MAXIMUM RECORDED TEMPERATURE
BHTD.M        452.628              : BHTDEP       - MAXIMUM RECORDED TEMPERATURE
MATR.         1                    : LOGUNIT      - NEUTRON MATRIX
RMT .C        25                   : MDTP         - TEMPERATURE OF MUD
NEUT.         1                    : NEUTRON      - NEUTRON TYPE
RESI.         0                    : RESIST       - RESISTIVITY TYPE
RMC .OHMM     0.25                 : RMC          - RESISTIVITY OF MUD CAKE
RMF .OHMM     0.25                 : RMF          - RESISTIVITY OF MUD FILTRATE
SUFT.C        15                   : SUFT         - SURFACE TEMPERATURE
~A  DEPTH       GR     PHID     PHIN     RESD
  274.320   95.748    0.205    0.612    2.630
  274.570   94.534    0.208    0.615    3.006
  274.820   94.979    0.226    0.576    3.047
  275.070   96.081    0.231    0.557    3.119
  275.320   97.249    0.185    0.567    3.222
  275.570   97.338    0.168    0.586    3.294
  275.820   96.014    0.178    0.598    3.342
  276.070   93.060    0.171    0.588    3.337
  276.320   90.699    0.178    0.577    2.974
  276.570   93.691    0.188    0.594    2.881
  276.820   96.666    0.186    0.624    2.760
  277.070   97.485    0.202    0.635    2.670
  277.320   97.617    0.199    0.623    2.684
  277.570   96.967    0.198    0.613    2.729
  277.820   95.691    0.194    0.617    2.817
  278.070   94.463    0.189    0.630    2.917
  278.320   93.762    0.200    0.644    2.970
  278.570   93.920    0.214    0.640    2.960
  278.820   93.772    0.208    0.626    2.961
  279.070   91.934    0.224    0.611    3.019
  279.320   90.631    0.237    0.578    3.081
  279.570   90.213    0.242    0.588    2.971
  279.820   87.720    0.210    0.630    2.873
  280.070   81.686    0.236    0.649    2.796
  280.320   75.574    0.263    0.636    2.761
  280.570   70.355    0.284    0.615    2.933
  280.820   64.573    0.295    0.582    3.337
  281.070   61.013    0.308    0.555    3.854
  281.320   59.340    0.328    0.520    4.477
  281.570   57.991    0.327    0.459    4.873
  281.820   57.510    0.310    0.414    5.134
  282.070   55.766    0.315    0.390    4.913
  282.320   53.684    0.323    0.362    4.659
  282.570   51.874    0.336    0.338    4.661
  282.820   53.005    0.352    0.303    4.889
  283.070   58.105    0.320    0.349    5.074
  283.320   65.461    0.292    0.388    5.243
  283.570   70.658    0.277    0.422    5.189
  283.820   76.037    0.271    0.426    4.968
  284.070   79.522    0.269    0.440    4.600
  284.320   80.347    0.272    0.455    4.139
  284.570   80.594    0.277    0.462    4.097
  284.820   81.474    0.273    0.447    4.134
  285.070   83.448    0.265    0.438    4.205
  285.320   84.957    0.260    0.431    4.290
  285.570   86.618    0.263    0.436    4.370
  285.820   87.106    0.253    0.440    4.474
  286.070   87.290    0.254    0.432    4.567
  286.320   90.388    0.256    0.428    4.702
  286.570   92.807    0.250    0.432    4.852
  286.820   94.302    0.245    0.440    5.013
  287.070   94.931    0.238    0.450    5.137
  287.320   95.175    0.245    0.449    5.183
  287.570   93.513    0.241    0.433    5.177
  287.820   91.180    0.232    0.426    5.086
  288.070   89.172    0.231    0.431    5.060
  288.320   89.139    0.222    0.413    5.100
  288.570   89.954    0.192    0.373    5.326
  288.820   84.862    0.174    0.347    5.635
  289.070   76.283    0.180    0.338    5.902
  289.320   70.222    0.199    0.367    6.002
  289.570   65.920    0.217    0.392    5.602
  289.820   63.280    0.231    0.416    5.093
  290.070   66.604    0.217    0.439    4.616
  290.320   71.027    0.205    0.455    4.340
  290.570   75.965    0.214    0.462    4.156
  290.820   81.316    0.224    0.465    4.076
  291.070   85.719    0.212    0.467    4.082
  291.320   90.520    0.182    0.490    4.147
  291.570   95.260    0.158    0.522    4.183
  291.820   99.496    0.134    0.563    4.241
  292.070  104.006    0.137    0.595    4.272
  292.320  108.492    0.165    0.620    4.240
  292.570  112.409    0.186    0.606    4.177
  292.820  115.384    0.186    0.597    4.067
  293.070  117.318    0.210    0.621    3.832
  293.320  116.924    0.192    0.602    3.578
  293.570  114.481    0.197    0.598    3.455
  293.820  112.485    0.200    0.613    3.399
  294.070  110.682    0.197    0.628    3.462
  294.320  111.619    0.218    0.658    3.545
  294.570  114.362    0.236    0.682    3.592
  294.820  116.367    0.255    0.714    3.586
  295.070  116.720    0.248    0.665    3.451
  295.320  114.371    0.243    0.635    3.201
  295.570  110.574    0.237    0.593    2.960
  295.820  106.874    0.226    0.542    2.897
  296.070  104.133    0.213    0.508    2.981
  296.320  100.157    0.205    0.484    3.224
  296.570   95.969    0.197    0.472    3.613
  296.820   90.685    0.195    0.484    4.189
  297.070   86.921    0.210    0.499    4.603
  297.320   83.565    0.226    0.511    5.108
  297.570   81.108    0.241    0.519    5.343
  297.820   83.667    0.238    0.529    5.560
  298.070   88.382    0.205    0.544    5.527
  298.320   91.854    0.187    0.562    5.255
  298.570   89.154    0.168    0.577    4.991
  298.820   84.502    0.233    0.575    4.702
  299.070   80.728    0.253    0.527    4.469
  299.320   77.146    0.264    0.486    4.404
  299.570   77.170    0.260    0.473    4.388
  299.820   78.966    0.254    0.465    4.448
  300.070   77.943    0.249    0.477    4.585
  300.320   76.033    0.235    0.491    4.758
  300.570   74.593    0.220    0.502    4.938
  300.820   73.759    0.216    0.499    5.170
  301.070   73.981    0.224    0.478    5.383
  301.320   75.540    0.216    0.472    5.562
  301.570   77.581    0.209    0.483    5.768
  301.820   79.600    0.215    0.488    5.759
  302.070   81.921    0.242    0.489    5.656
  302.320   84.769    0.245    0.491    5.343
  302.570   85.821    0.245    0.496    5.408
  302.820   88.906    0.242    0.497    5.234
  303.070   91.549    0.238    0.481    5.194
  303.320   96.341    0.229    0.468    5.202
  303.570   97.907    0.217    0.459    5.351
  303.820  102.180    0.205    0.471    5.604
  304.070  103.826    0.227    0.489    5.768
  304.320  106.323    0.207    0.509    5.878
  304.570  108.505    0.197    0.514    5.709
  304.820  110.166    0.202    0.505    5.486
  305.070  113.055    0.205    0.500    5.235
  305.320  114.692    0.215    0.496    5.129
  305.570  113.249    0.218    0.501    5.134
  305.820  108.826    0.212    0.521    5.208
  306.070  106.696    0.207    0.534    5.326
  306.320  103.997    0.203    0.551    5.444
  306.570  102.206    0.204    0.547    5.523
  306.820  103.660    0.183    0.487    5.650
  307.070  105.968    0.167    0.449    5.676
  307.320  108.430    0.155    0.464    5.661
  307.570  110.574    0.161    0.484    5.776
  307.820  112.271    0.164    0.516    5.980
  308.070  112.630    0.160    0.547    6.095
  308.320  112.968    0.154    0.579    5.933
  308.570  112.806    0.159    0.598    5.401
  308.820  109.478    0.159    0.594    4.822
  309.070  101.670    0.212    0.558    4.206
  309.320   93.796    0.241    0.520    3.729
  309.570   86.947    0.248    0.520    3.559
  309.820   83.870    0.261    0.540    3.639
  310.070   80.390    0.260    0.487    3.763
  310.320   76.841    0.233    0.470    3.952
  310.570   78.625    0.215    0.478    4.139
  310.820   82.809    0.218    0.494    4.423
  311.070   86.379    0.271    0.486    4.620
  311.320   84.916    0.278    0.488    4.868
  311.570   82.953    0.280    0.493    5.031
  311.820   82.110    0.277    0.496    5.085
  312.070   83.141    0.269    0.500    5.077
  312.320   82.623    0.258    0.510    5.028
  312.570   78.074    0.251    0.518    4.914
  312.820   72.936    0.253    0.502    4.901
  313.070   68.005    0.262    0.489    4.993
  313.320   65.353    0.268    0.480    5.187
  313.570   63.500    0.272    0.475    5.492
  313.820   63.119    0.270    0.477    5.923
  314.070   63.953    0.263    0.476    6.291
  314.320   64.221    0.262    0.459    6.710
  314.570   63.660    0.267    0.442    7.233
  314.820   62.542    0.258    0.417    7.346
  315.070   62.090    0.241    0.385    6.874
  315.320   61.622    0.184    0.349    6.416
  315.570   60.176    0.143    0.279    6.020
  315.820   58.266    0.090    0.223    5.875
  316.070   55.154    0.049    0.182    6.127
  316.320   53.249    0.018    0.161    6.899
  316.570   50.391    0.003    0.145    7.680
  316.820   48.275   -0.013    0.134    8.994
  317.070   46.801   -0.011    0.135   10.901
  317.320   46.131    0.003    0.195   13.606
  317.570   48.931    0.018    0.254   17.517
