~VERSION INFORMATION
 VERS.                 2.0:   CWLS LOG ASCII STANDARD -VERSION 2.0
 WRAP.                  NO:   ONE LINE PER DEPTH STEP
~WELL INFORMATION BLOCK
#MNEM.UNIT           DATA                    DESCRIPTION OF MNEMONIC
#---------    -------------------            -------------------------------
# Generated from Intellog Unique Number	CW_79_81/WELL/619
WELL.         07-26-079-26W4                 : Well_name    - WELL
LOC .         00/07-26-079-26W4/0            : Location     - LOCATION
UWI .         00/07-26-079-26W4/0            : Uwi          - UNIQUE WELL ID
ENTR.         MAX                            : Entered      - ENTERED BY
SRVC.         SCHLUMBERGER                   : Scn          - SERVICE COMPANY
STRT.M        207.264                        : top_depth    - START DEPTH
STOP.M        487.764                        : bot_depth    - STOP DEPTH
STEP.M        0.25                           : increment    - STEP LENGTH
 NULL. -999.2500:NULL Value
~CURVE INFORMATION BLOCK
#MNEM UNIT       ERCB CURVE CODE    CURVE DESCRIPTION
#-----------   ------------------   ----------------------------------
DEPT.M        00 001 00 00         : DEPTH        - DEPTH
ILD .OHMM     00 120 00 00         : RESD         - DEEP RESISTIVITY (DIL)
NPHI.V/V      00 330 00 00         : PHIN         - NEUTRON POROSITY (SANDSTONE)
DPHI.V/V      00 890 00 00         : PHID         - DENSITY POROSITY (SANDSTONE)
CALI.MM       00 280 01 00         : CAL          - CALIPER
GR  .API      00 310 00 00         : GR           - GAMMA RAY
~PARAMETER INFORMATION
#MNEM.UNIT           DATA             DESCRIPTION OF MNEMONIC
#---------         -----------     ------------------------------
GL  .M        558.394              : gl           - GROUND LEVEL ELEVATION
EREF.M        562.051              : kb           - ELEVATION OF DEPTH REFERENCE
DATM.M        558.394              : datum        - DATUM ELEVATION
TDD .M        463.601              : tdd          - TOTAL DEPTH DRILLER
RUN .         ONE                  : Run          - RUN NUMBER
ENG .         BILL                 : Engineer     - RECORDING ENGINEER
WIT .         JIM                  : Witness      - WITNESSED BY
MUD .         GEL                  : Mud_type     - MUD TYPE
MATR.         SANDSTONE            : Logunit      - NEUTRON MATRIX
TMAX.C        22.2222              : BHT          - MAXIMUM RECORDED TEMPERATURE
BHTD.M        463.601              : BHTDEP       - MAXIMUM RECORDED TEMPERATURE
RMT .C        25.5556              : MDTP         - TEMPERATURE OF MUD
MUDD.KG/M     10200                : MWT          - MUD DENSITY
NEUT.         1                    : NEUTRON      - NEUTRON TYPE
RESI.         0                    : RESIST       - RESISTIVITY TYPE
RM  .OHMM     6.28                 : RM           - RESISTIVITY OF MUD
RMC .OHMM     0                    : RMC          - RESISTIVITY OF MUD CAKE
RMF .OHMM     0                    : RMF          - RESISTIVITY OF MUD FILTRATE
SUFT.C        -20.5556             : SUFT         - SURFACE TEMPERATURE
~A  DEPTH     RESD     PHIN     PHID      CAL       GR
# ...
  389.764   12.065    0.461    0.189  238.819  112.565
  390.014   11.544    0.466    0.176  238.394  107.807
  390.264   11.353    0.455    0.177  237.968  106.355
  390.514   11.264    0.444    0.179  237.515  107.593
  390.764   11.075    0.427    0.186  237.598  110.943
  391.014   10.792    0.459    0.203  237.163  115.788
  391.264   10.328    0.465    0.203  236.728  117.037
  391.514    9.791    0.448    0.204  235.785  119.776
  391.764    9.285    0.444    0.208  235.350  118.324
  392.014    9.132    0.447    0.210  234.407  119.573
  392.264    9.132    0.444    0.214  234.407  121.728
  392.514    9.072    0.445    0.214  234.083  121.766
  392.764    9.072    0.447    0.203  233.630  121.198
  393.014    8.937    0.447    0.206  233.694  117.640
  393.264    8.946    0.438    0.203  234.275  110.182
  393.514    9.547    0.422    0.179  234.857  104.829
  393.764   10.096    0.416    0.160  235.438  104.272
  394.014   10.389    0.398    0.137  237.055  107.011
  394.264   10.311    0.413    0.173  238.135  118.163
  394.514    9.956    0.433    0.192  239.225  126.319
  394.764    9.104    0.445    0.187  240.324  126.057
  395.014    8.712    0.455    0.192  240.896  123.100
  395.264    8.712    0.438    0.193  240.896  119.242
  395.514    8.429    0.426    0.189  241.079  116.290
  395.764    8.433    0.413    0.185  241.633  115.127
  396.014    8.602    0.411    0.180  241.716  115.471
  396.264    9.097    0.413    0.164  241.799  119.120
  396.514    9.445    0.414    0.168  241.863  123.670
  396.764    9.546    0.420    0.181  241.927  127.615
  397.014    9.300    0.425    0.187  241.002  131.559
  397.264    8.661    0.430    0.194  240.069  133.703
  397.514    8.065    0.443    0.191  239.126  128.945
  397.764    7.929    0.437    0.189  237.675  125.093
  398.014    8.087    0.420    0.191  236.732  123.036
  398.264    8.552    0.418    0.193  235.780  120.373
  398.514   10.367    0.423    0.195  234.329  115.915
  398.764   12.119    0.424    0.194  233.376  112.957
  399.014   14.556    0.408    0.193  231.944  109.700
  399.264   15.963    0.406    0.189  230.493  106.437
  399.514   18.155    0.415    0.132  229.032  103.179
  399.764   23.028    0.331    0.087  227.581   97.821
  400.014   32.583    0.274    0.042  226.149   89.467
  400.264   46.956    0.243    0.030  225.206   89.510
  400.514   97.341    0.237    0.017  225.261   89.548
  400.764  125.758    0.229    0.022  225.343   91.692
  401.014  136.691    0.209    0.011  225.943   90.835
  401.264  131.986    0.206   -0.002  225.943   81.576
  401.514  122.891    0.210   -0.004  226.607   75.917
  401.764   98.050    0.214   -0.001  227.161   74.466
  402.014   85.634    0.230    0.016  227.743   75.709
  402.264   56.437    0.263    0.169  227.816   82.055
  402.514   40.361    0.325    0.173  227.899   84.199
  402.764   34.002    0.391    0.143  227.972   90.549
  403.014   27.618    0.385    0.125  228.554   95.700
  403.264   25.490    0.385    0.130  229.154   98.144
  403.514   25.289    0.415    0.233  229.735  100.593
  403.764   23.770    0.423    0.231  230.298  102.731
  404.014   21.338    0.423    0.216  230.907  106.376
  404.264   17.811    0.432    0.213  231.471  108.225
  404.514   14.869    0.426    0.200  231.562  110.069
  404.764   11.754    0.418    0.185  231.682  112.819
  405.014   10.747    0.425    0.155  231.709  115.263
  405.264   10.747    0.430    0.149  231.782  116.206
  405.514   10.118    0.431    0.155  231.847  115.655
  405.764    9.763    0.435    0.161  231.938  116.293
  406.014    9.515    0.439    0.179  232.520  115.136
  406.264    9.526    0.438    0.205  232.593  111.278
  406.514   10.169    0.434    0.200  233.166  106.826
  406.764   10.653    0.430    0.182  233.747  108.364
  407.014   11.166    0.422    0.167  234.846  111.408
  407.264   11.492    0.410    0.173  235.428  113.858
  407.514   11.508    0.412    0.179  235.501  113.011
  407.764   11.525    0.417    0.180  236.082  112.449
  408.014   11.525    0.421    0.166  236.147  113.087
  408.264   11.454    0.424    0.160  236.220  113.436
  408.514   11.056    0.428    0.196  236.321  113.479
  408.764   11.056    0.430    0.199  236.394  112.322
  409.014   10.504    0.433    0.177  235.950  112.666
  409.264   10.228    0.430    0.152  235.516  113.615
  409.514   10.059    0.424    0.135  235.072  114.558
  409.764   10.073    0.425    0.150  235.163  117.603
  410.014   10.086    0.448    0.176  234.720  121.547
  410.264   10.192    0.462    0.192  234.811  120.990
  410.514   10.206    0.446    0.190  234.885  117.733
  410.764   10.127    0.421    0.175  234.958  116.887
  411.014   10.127    0.427    0.168  235.013  119.325
  411.264    9.891    0.436    0.176  235.141  121.769
  411.514    9.630    0.442    0.178  235.160  122.118
  411.764    9.300    0.442    0.170  235.242  119.155
  412.014    9.154    0.437    0.175  235.334  115.003
  412.264    8.994    0.430    0.164  235.389  112.345
  412.514    8.923    0.430    0.167  235.463  112.383
  412.764    8.854    0.431    0.171  235.037  112.126
  413.014    8.854    0.434    0.158  234.103  111.870
  413.264    8.803    0.429    0.175  233.678  114.325
  413.514    8.575    0.420    0.181  232.716  117.069
  413.764    8.575    0.422    0.167  231.783  115.606
  414.014    8.597    0.429    0.153  230.840  114.154
  414.264    8.455    0.435    0.150  229.888  113.903
  414.514    8.468    0.442    0.154  229.453  114.241
  414.764    8.632    0.439    0.169  228.011  116.691
  415.014    8.884    0.430    0.172  227.068  120.935
  415.264    9.397    0.423    0.175  226.134  121.873
  415.514   10.213    0.426    0.161  225.201  121.016
  415.764   10.213    0.428    0.162  225.201  111.157
  416.014   12.292    0.413    0.185  224.839  109.405
  416.264   14.488    0.397    0.204  222.363  108.848
  416.514   16.933    0.389    0.209  221.410  104.090
  416.764   20.714    0.388    0.213  219.959  102.633
  417.014   24.435    0.385    0.182  219.534   99.976
  417.264   28.044    0.361    0.123  219.662   95.812
  417.514   32.782    0.303    0.002  219.182   91.354
  417.764   34.984    0.262    0.015  218.738   85.096
  418.014   43.981    0.264    0.044  218.312   82.449
  418.264   56.297    0.283    0.052  218.312   82.787
  418.514   60.647    0.293    0.066  218.468   83.731
  418.764   62.388    0.304    0.107  218.015   83.179
  419.014   60.271    0.339    0.116  217.589   81.117
  419.264   56.108    0.319    0.053  218.180   76.653
  419.514   46.409    0.293    0.029  218.244   77.897
  419.764   32.003    0.307    0.063  218.835   85.753
  420.014   21.088    0.333    0.099  218.899   92.093
  420.264   16.373    0.351    0.125  218.982   99.349
  420.514   13.545    0.375    0.151  219.064  104.494
  420.764   13.076    0.412    0.178  219.147  111.440
  421.014   11.740    0.427    0.190  219.211  113.884
  421.264   10.543    0.439    0.206  219.275  112.437
  421.514    9.996    0.431    0.194  219.349  109.780
  421.764    9.652    0.419    0.167  219.939  106.812
  422.014    9.404    0.420    0.130  220.539  105.060
  422.264    9.164    0.439    0.150  221.112  108.104
  422.514    9.011    0.431    0.136  221.693  113.249
  422.764    9.011    0.433    0.151  221.766  114.509
  423.014    8.959    0.433    0.172  221.323  116.642
  423.264    8.647    0.429    0.175  217.848  125.693
  423.514    8.350    0.431    0.171  214.863  129.938
  423.764    8.062    0.433    0.161  212.904  134.793
  424.014    7.926    0.432    0.158  212.479  135.137
  424.264    8.087    0.430    0.148  213.060  128.573
  424.514    8.319    0.414    0.120  216.192  125.915
  424.764    8.492    0.399    0.107  217.281  117.551
  425.014    9.054    0.371    0.065  216.837  112.498
  425.264   10.112    0.350    0.069  214.887  113.447
  425.514   10.406    0.356    0.119  213.935  120.387
  425.764   10.420    0.400    0.160  213.510  125.832
  426.014   10.420    0.398    0.141  213.510  131.282
