~VERSION INFORMATION
 VERS.                 2.0:   CWLS LOG ASCII STANDARD -VERSION 2.0
 WRAP.                  NO:   ONE LINE PER DEPTH STEP
~WELL INFORMATION BLOCK
#MNEM.UNIT           DATA                    DESCRIPTION OF MNEMONIC
#---------    -------------------            -------------------------------
# Generated from Intellog Unique Number	CS_73_76/WELL/2001
WELL.         BOW VALLEY INDUSTRIES LTD.     : Well_name    - WELL
LOC .         00/07-03-075-14W4/0            : Location     - LOCATION
UWI .         00/07-03-075-14W4/0            : Uwi          - UNIQUE WELL ID
ENTR.         SP                             : Entered      - ENTERED BY
SRVC.         SCHLUMBERGER                   : Scn          - SERVICE COMPANY
STRT.M        410                            : top_depth    - START DEPTH
STOP.M        640                            : bot_depth    - STOP DEPTH
STEP.M        0.25                           : increment    - STEP LENGTH
 NULL. -999.2500:NULL Value
~CURVE INFORMATION BLOCK
#MNEM UNIT       ERCB CURVE CODE    CURVE DESCRIPTION
#-----------   ------------------   ----------------------------------
DEPT.M        00 001 00 00         : DEPTH        - DEPTH
ILD .OHMM     00 120 00 00         : RESD         - DEEP RESISTIVITY (DIL)
DPHI.V/V      00 890 00 00         : PHID         - DENSITY POROSITY (LIMESTONE)
NPHI.V/V      00 330 00 00         : PHIN         - NEUTRON POROSITY (LIMESTONE)
GR  .API      00 310 00 00         : GR           - GAMMA RAY
~PARAMETER INFORMATION
#MNEM.UNIT           DATA             DESCRIPTION OF MNEMONIC
#---------         -----------     ------------------------------
GL  .M        774.5                : gl           - GROUND LEVEL ELEVATION
EREF.M        777.8                : kb           - ELEVATION OF DEPTH REFERENCE
DATM.M        774.5                : datum        - DATUM ELEVATION
TDD .M        653.4                : tdd          - TOTAL DEPTH DRILLER
RUN .         ONE                  : Run          - RUN NUMBER
ENG .         BILL                 : Engineer     - RECORDING ENGINEER
WIT .         JIM                  : Witness      - WITNESSED BY
MUD .         GEL                  : Mud_type     - MUD TYPE
MATR.         LIMESTONE            : Logunit      - NEUTRON MATRIX
TMAX.C        27.1                 : BHT          - MAXIMUM RECORDED TEMPERATURE
BHTD.M        653.4                : BHTDEP       - MAXIMUM RECORDED TEMPERATURE
MATR.         1                    : LOGUNIT      - NEUTRON MATRIX
RMT .C        25                   : MDTP         - TEMPERATURE OF MUD
NEUT.         1                    : NEUTRON      - NEUTRON TYPE
RESI.         0                    : RESIST       - RESISTIVITY TYPE
RMC .OHMM     0.25                 : RMC          - RESISTIVITY OF MUD CAKE
RMF .OHMM     0.25                 : RMF          - RESISTIVITY OF MUD FILTRATE
SUFT.C        15                   : SUFT         - SURFACE TEMPERATURE
~A  DEPTH     RESD     PHID     PHIN       GR
# ...
  497.000    9.010    0.280    0.497   84.052
  497.250    7.492    0.260    0.502   86.481
  497.500    6.345    0.203    0.532   90.733
  497.750    5.785    0.201    0.529   93.163
  498.000    5.373    0.208    0.516   94.986
  498.250    5.176    0.224    0.510   98.023
  498.500    5.081    0.231    0.503  100.453
  498.750    4.987    0.223    0.512   98.631
  499.000    4.805    0.231    0.539   99.847
  499.250    4.381    0.235    0.567  104.099
  499.500    3.643    0.228    0.581  105.314
  499.750    3.143    0.223    0.580  104.707
  500.000    2.711    0.224    0.568  103.493
  500.250    2.339    0.217    0.556  101.672
  500.500    2.094    0.212    0.553  101.066
  500.750    2.295    0.207    0.556   99.852
  501.000    2.470    0.212    0.558   98.031
  501.250    2.707    0.225    0.576   96.209
  501.500    2.967    0.220    0.594   94.995
  501.750    3.193    0.231    0.604   91.960
  502.000    3.312    0.257    0.599   88.924
  502.250    3.192    0.280    0.567   85.281
  502.500    3.132    0.274    0.522   83.460
  502.750    3.497    0.272    0.493   89.533
  503.000    3.905    0.280    0.482   91.963
  503.250    4.693    0.286    0.479   96.822
  503.500    5.538    0.266    0.493   99.859
  503.750    5.960    0.251    0.529  102.289
  504.000    6.182    0.236    0.555  104.719
  504.250    5.140    0.230    0.577  106.542
  504.500    4.434    0.229    0.605  103.506
  504.750    3.897    0.265    0.614   97.434
  505.000    3.123    0.286    0.598   90.754
  505.250    2.597    0.305    0.579   84.682
  505.500    2.200    0.310    0.510   79.824
  505.750    3.120    0.297    0.498   80.432
  506.000    3.548    0.289    0.497   84.077
  506.250    4.676    0.283    0.497   85.292
  506.500    5.417    0.282    0.507   85.900
  506.750    6.161    0.281    0.515   85.901
  507.000    6.879    0.293    0.526   84.687
  507.250    6.507    0.300    0.538   84.688
  507.500    6.269    0.284    0.503   85.296
  507.750    6.153    0.267    0.494   86.511
  508.000    6.152    0.273    0.492   86.511
  508.250    6.038    0.263    0.507   86.512
  508.500    6.148    0.269    0.519   84.691
  508.750    6.147    0.275    0.513   82.263
  509.000    6.375    0.286    0.519   81.049
  509.250    6.613    0.292    0.497   79.835
  509.500    7.115    0.194    0.419   76.799
  509.750    7.381    0.136    0.375   79.229
  510.000    8.090    0.171    0.388   85.910
  510.250    8.392    0.238    0.417   88.947
  510.500    8.389    0.258    0.460   91.377
  510.750    8.083    0.265    0.499   90.163
  511.000    7.369    0.272    0.517   88.950
  511.250    7.101    0.278    0.511   88.950
  511.500    6.595    0.253    0.498   88.951
  511.750    6.354    0.242    0.493   88.951
  512.000    6.352    0.226    0.483   87.737
  512.250    6.350    0.231    0.500   85.309
  512.500    6.466    0.214    0.509   83.488
  512.750    6.585    0.221    0.481   80.452
  513.000    6.830    0.232    0.477   81.667
  513.250    6.954    0.246    0.496   84.705
  513.500    6.952    0.259    0.512   82.276
  513.750    6.951    0.269    0.522   81.669
  514.000    6.696    0.287    0.509   81.670
  514.250    6.694    0.263    0.494   82.885
  514.500    6.693    0.247    0.464   79.242
  514.750    7.071    0.209    0.257   74.992
  515.000    7.895    0.018    0.236   67.706
  515.250    8.979    0.045    0.229   63.455
  515.500   10.212    0.085    0.252   78.031
  515.750   11.614    0.128    0.363   83.497
  516.000   12.498    0.175    0.406   88.356
  516.250   11.822    0.203    0.439   90.786
  516.500    9.830    0.221    0.459   91.394
  516.750    8.025    0.229    0.470   92.609
  517.000    6.432    0.232    0.498   93.824
  517.250    5.973    0.242    0.513   95.040
  517.500    5.862    0.197    0.495   93.219
  517.750    5.860    0.175    0.483   93.826
  518.000    5.752    0.197    0.473   95.042
  518.250    5.857    0.203    0.467   96.257
  518.500    5.855    0.189    0.466   96.865
  518.750    5.961    0.177    0.471   96.866
  519.000    6.070    0.174    0.492   96.259
  519.250    6.070    0.183    0.508   93.831
  519.500    6.181    0.198    0.518   92.617
  519.750    6.066    0.213    0.530   88.974
  520.000    5.954    0.218    0.507   89.582
  520.250    5.736    0.221    0.490   91.404
  520.500    5.527    0.214    0.478   92.012
  520.750    5.424    0.218    0.488   89.584
  521.000    5.423    0.225    0.501   88.977
  521.250    5.421    0.220    0.501   89.585
  521.500    5.420    0.221    0.499   90.193
  521.750    5.418    0.235    0.506   88.372
  522.000    5.417    0.239    0.510   82.300
  522.250    5.415    0.249    0.501   76.228
  522.500    5.514    0.272    0.479   73.799
  522.750    5.512    0.289    0.464   72.585
  523.000    5.510    0.284    0.459   72.586
  523.250    5.611    0.298    0.457   73.194
  523.500    5.610    0.293    0.456   74.409
  523.750    5.712    0.282    0.463   75.625
  524.000    5.816    0.289    0.472   77.447
  524.250    5.815    0.284    0.475   78.662
  524.500    5.922    0.296    0.484   80.485
  524.750    5.920    0.313    0.500   81.093
  525.000    5.918    0.319    0.505   81.094
  525.250    6.026    0.305    0.495   81.095
  525.500    6.025    0.316    0.484   81.095
  525.750    6.022    0.307    0.497   81.704
  526.000    6.021    0.302    0.509   81.704
  526.250    6.019    0.296    0.515   81.097
  526.500    6.016    0.291    0.506   79.276
  526.750    6.016    0.281    0.497   78.670
  527.000    6.013    0.273    0.491   78.063
  527.250    6.011    0.278    0.483   78.671
  527.500    6.010    0.294    0.474   79.279
  527.750    6.008    0.291    0.470   81.102
  528.000    6.006    0.283    0.482   82.924
  528.250    6.004    0.266    0.487   83.532
  528.500    6.002    0.268    0.491   84.748
  528.750    5.891    0.274    0.483   85.963
  529.000    5.890    0.287    0.484   87.785
  529.250    5.887    0.274    0.494   88.393
  529.500    5.778    0.267    0.507   89.001
  529.750    5.777    0.266    0.499   90.824
  530.000    5.465    0.235    0.508   94.468
  530.250    5.266    0.215    0.521   97.505
  530.500    4.801    0.219    0.553   99.328
  530.750    4.219    0.207    0.567   96.293
  531.000    3.573    0.216    0.570   94.471
  531.250    3.026    0.230    0.559   93.865
  531.500    2.811    0.218    0.551   96.294
  531.750    2.758    0.233    0.554   96.902
  532.000    2.758    0.239    0.570   95.082
  532.250    2.913    0.228    0.567   94.475
  532.500    3.194    0.221    0.542   93.868
  532.750    3.632    0.253    0.515   95.691
  533.000    3.981    0.248    0.500   96.906
  533.250    4.130    0.245    0.503   93.871
  533.500    4.610    0.248    0.510   92.656
  533.750    4.782    0.251    0.507   90.835
  534.000    4.870    0.232    0.498   93.265
  534.250    4.868    0.221    0.515   96.909
  534.500    4.957    0.234    0.523   97.517
  534.750    5.048    0.236    0.524   92.660
  535.000    5.140    0.234    0.514   87.802
  535.250    5.138    0.214    0.502   81.730
  535.500    5.329    0.190    0.478   77.480
  535.750    5.427    0.191    0.465   76.266
  536.000    5.840    0.228    0.472   75.659
  536.250    6.171    0.228    0.471   69.587
  536.500    6.889    0.190    0.433   63.515
  536.750    7.414    0.068    0.279   59.872
  537.000    7.979    0.095    0.320   58.658
  537.250    7.975    0.266    0.427   60.480
  537.500    7.828    0.306    0.457   59.874
  537.750    6.753    0.312    0.448   60.482
  538.000    6.272    0.309    0.460   61.697
  538.250    5.511    0.301    0.457   61.090
  538.500    5.311    0.301    0.462   60.484
  538.750    5.212    0.296    0.474   59.878
  539.000    5.307    0.253    0.468   59.271
  539.250    5.505    0.191    0.449   59.272
  539.500    5.606    0.195    0.424   58.665
  539.750    5.502    0.266    0.369   59.273
  540.000    5.301    0.295    0.420   60.488
  540.250    5.203    0.309    0.448   62.311
