~VERSION INFORMATION
 VERS.                 2.0:   CWLS LOG ASCII STANDARD -VERSION 2.0
 WRAP.                  NO:   ONE LINE PER DEPTH STEP
~WELL INFORMATION BLOCK
#MNEM.UNIT           DATA                    DESCRIPTION OF MNEMONIC
#---------    -------------------            -------------------------------
# Generated from Intellog Unique Number	CC_80_83/WELL/2300
NULL.         -999.25                        : NULL_VALUE
WELL.         NOVALTA NEWBY                  : Well_name    - WELL
LOC .         07-24-082-05W4                 : Location     - LOCATION          
UWI .         00/07-24-082-05W4/0            : Uwi          - UNIQUE WELL ID    
ENTR.         DW                             : Entered      - ENTERED BY        
SRVC.         COMPUTALOG                     : Scn          - SERVICE COMPANY   
DATE.         22 JAN 83                      : Date         - LOG DATE
STRT.M        90                             : top_depth    - START DEPTH       
STOP.M        270.001                        : bot_depth    - STOP DEPTH        
STEP.M        0.3                            : increment    - STEP LENGTH       
~CURVE INFORMATION BLOCK
#MNEM UNIT       ERCB CURVE CODE    CURVE DESCRIPTION
#-----------   ------------------   ----------------------------------
DEPT.M        00 001 00 00         : DEPTH        - DEPTH                       
DPHI.V/V      00 890 00 00         : PHID         - DENSITY POROSITY (LIMESTONE)
NPHI.V/V      00 330 00 00         : PHIN         - NEUTRON POROSITY (LIMESTONE)
GR  .API      00 310 00 00         : GR           - GAMMA RAY                   
ILD .OHMM     00 120 00 00         : RESD         - DEEP RESISTIVITY (DIL)      
~PARAMETER INFORMATION       
#MNEM.UNIT           DATA             DESCRIPTION OF MNEMONIC
#---------         -----------     ------------------------------
GL  .M        459.76               : gl           - GROUND LEVEL ELEVATION      
EREF.M        462.76               : kb           - ELEVATION OF DEPTH REFERENCE
DATM.M        462.76               : datum        - DATUM ELEVATION             
TDD .M        273                  : tdd          - TOTAL DEPTH DRILLER         
RUN .         ONE                  : Run          - RUN NUMBER                  
ENG .         BILL                 : Engineer     - RECORDING ENGINEER          
WIT .         JIM                  : Witness      - WITNESSED BY                
MUD .         GEL                  : Mud_type     - MUD TYPE                    
MATR.         LIMESTONE            : Logunit      - NEUTRON MATRIX              
TMAX.C        23                   : BHT          - MAXIMUM RECORDED TEMPERATURE
BHTD.M        273                  : BHTDEP       - MAXIMUM RECORDED TEMPERATURE
MATR.         1                    : LOGUNIT      - NEUTRON MATRIX              
RMT .C        25                   : MDTP         - TEMPERATURE OF MUD          
NEUT.         1                    : NEUTRON      - NEUTRON TYPE                
RESI.         0                    : RESIST       - RESISTIVITY TYPE            
RMC .OHMM     0.25                 : RMC          - RESISTIVITY OF MUD CAKE     
RMF .OHMM     0.25                 : RMF          - RESISTIVITY OF MUD FILTRATE 
SUFT.C        15                   : SUFT         - SURFACE TEMPERATURE         
~A  DEPTH     PHID     PHIN       GR     RESD
# ...
  194.401    0.331    0.233   65.373   15.133
  194.701    0.322    0.241   66.011   12.774
  195.001    0.304    0.247   72.315   10.784
  195.301    0.299    0.247   72.953   10.585
  195.601    0.341    0.228   61.630   10.792
  195.901    0.346    0.204   58.491   11.211
  196.201    0.336    0.242   57.870   11.647
  196.501    0.319    0.245   57.878   11.651
  196.801    0.310    0.242   61.664   11.437
  197.101    0.322    0.248   69.228   10.217
  197.401    0.321    0.257   71.124    8.623
  197.701    0.311    0.273   73.022    7.418
  198.001    0.306    0.300   73.662    6.752
  198.301    0.311    0.285   69.261    6.264
  198.601    0.326    0.272   68.640    5.596
  198.901    0.320    0.331   74.315    5.093
  199.201    0.300    0.391   82.507    4.299
  199.501    0.291    0.381   83.778    4.142
  199.801    0.272    0.434   86.302    4.066
  200.101    0.258    0.419   92.607    5.101
  200.401    0.307    0.299   87.578    7.304
  200.701    0.331    0.219   79.403    8.992
  201.001    0.342    0.193   53.599   12.398
  201.301    0.337    0.095   48.571   20.261
  201.601    0.329    0.078   50.468   25.419
  201.901    0.333    0.077   86.361   29.021
  202.201    0.347    0.062   78.815   32.513
  202.501    0.348    0.056   76.306   35.746
  202.801    0.349    0.053   81.353   33.790
  203.101    0.355    0.052   75.694   30.183
  203.401    0.355    0.058   65.628   22.324
  203.701    0.356    0.077   57.453   19.204
  204.001    0.360    0.072   59.981   17.153
  204.301    0.358    0.074   53.063   13.944
  204.601    0.353    0.106   53.072   11.993
  204.901    0.343    0.121   59.376    9.566
  205.201    0.329    0.157   70.087    7.488
  205.501    0.327    0.185   70.096    4.333
  205.801    0.317    0.279   60.662    2.197
  206.101    0.306    0.316   61.298    1.820
  206.401    0.289    0.354   63.198    1.721
  206.701    0.281    0.357   63.208    1.627
  207.001    0.259    0.360   65.102    1.722
  207.301    0.244    0.367   67.629    2.004
  207.601    0.263    0.346   68.267    2.042
  207.901    0.265    0.324   71.424    1.599
  208.201    0.240    0.320   72.060    1.569
  208.501    0.287    0.366   46.888    1.662
  208.801    0.295    0.345   53.191    1.694
  209.101    0.248    0.333   72.087    1.513
  209.401    0.238    0.340   48.171    1.352
  209.701    0.303    0.351   38.107    1.254
  210.001    0.320    0.359   36.857    1.208
  210.301    0.317    0.357   33.088    1.142
  210.601    0.310    0.347   24.283    1.121
  210.901    0.310    0.345   23.663    1.100
  211.201    0.313    0.371   28.076    1.100
  211.501    0.320    0.373   33.751    1.060
  211.801    0.324    0.357   44.462    1.041
  212.101    0.320    0.341   51.396    1.022
  212.401    0.312    0.326   45.109    1.003
  212.701    0.302    0.332   34.416    1.082
  213.001    0.300    0.360   33.794    1.145
  213.301    0.302    0.390   43.246    1.259
  213.601    0.271    0.398   52.697    1.493
  213.901    0.261    0.396   60.263    1.673
  214.201    0.265    0.388   60.900    1.839
  214.501    0.268    0.387   66.575    1.947
  214.801    0.257    0.387   67.844    1.947
  215.101    0.256    0.371   67.220    1.806
  215.401    0.242    0.356   67.230    1.614
  215.701    0.279    0.375   57.793    1.415
  216.001    0.298    0.409   54.026    1.288
  216.301    0.294    0.410   51.515    1.264
  216.601    0.313    0.385   35.784    1.289
  216.901    0.317    0.353   37.682    1.471
  217.201    0.283    0.359   52.800    1.680
  217.501    0.247    0.383   68.547    1.847
  217.801    0.225    0.431   85.555    1.813
  218.101    0.222    0.437   89.970    1.559
  218.401    0.259    0.428   82.423    1.367
  218.701    0.315    0.390   42.769    1.292
  219.001    0.327    0.379   44.038    1.317
  219.301    0.305    0.408   57.267    1.368
  219.601    0.277    0.411   64.830    1.422
  219.901    0.284    0.375   59.802    1.396
  220.201    0.291    0.364   57.921    1.370
  220.501    0.301    0.368   49.746    1.345
  220.801    0.288    0.365   49.754    1.247
  221.101    0.281    0.369   42.838    1.202
  221.401    0.299    0.370   33.404    1.136
  221.701    0.311    0.361   31.523    1.115
  222.001    0.311    0.352   36.568    1.116
  222.301    0.295    0.397   47.278    1.159
  222.601    0.289    0.393   46.658    1.181
  222.901    0.304    0.350   32.816    1.228
  223.201    0.308    0.336   35.972    1.228
  223.501    0.306    0.337   44.795    1.228
  223.801    0.303    0.369   46.691    1.183
  224.101    0.377    0.369   31.592    1.140
  224.401    0.380    0.355   20.897    1.058
  224.701    0.361    0.344   21.535    1.019
  225.001    0.335    0.362   24.694    1.000
  225.301    0.335    0.388   25.959    0.982
  225.601    0.333    0.372   18.414    0.964
  225.901    0.329    0.359   15.275    0.982
  226.201    0.325    0.356   22.208    0.983
  226.501    0.321    0.348   27.253    1.040
  226.801    0.311    0.334   26.633    1.061
  227.101    0.303    0.360   27.271    1.144
  227.401    0.288    0.351   27.908    1.211
  227.701    0.261    0.304   25.397    1.357
  228.001    0.237    0.283   22.887    1.410
  228.301    0.233    0.274   24.156    1.384
  228.601    0.299    0.329   26.056    1.359
  228.901    0.301    0.329   25.433    1.309
  229.201    0.277    0.309   24.810    1.237
  229.501    0.269    0.308   21.672    1.215
  229.801    0.264    0.297   21.681    1.262
  230.101    0.254    0.278   24.207    1.286
  230.401    0.249    0.272   25.474    1.362
  230.701    0.260    0.272   24.855    1.442
  231.001    0.266    0.270   23.602    1.498
  231.301    0.264    0.270   26.760    1.527
  231.601    0.259    0.287   31.805    1.527
  231.901    0.254    0.313   34.960    1.499
  232.201    0.246    0.308   31.821    1.472
  232.501    0.236    0.279   26.164    1.418
  232.801    0.260    0.261   24.915    1.418
  233.101    0.256    0.271   26.183    1.419
  233.401    0.238    0.282   27.450    1.474
  233.701    0.234    0.283   28.087    1.503
  234.001    0.236    0.277   27.467    1.532
  234.301    0.229    0.268   28.732    1.532
  234.601    0.237    0.303   35.036    1.533
  234.901    0.258    0.300   36.934    1.534
  235.201    0.252    0.284   30.018    1.534
  235.501    0.236    0.279   25.619    1.564
  235.801    0.231    0.272   25.628    1.564
  236.101    0.248    0.325   37.598    1.565
  236.401    0.253    0.335   45.790    1.566
  236.701    0.232    0.317   42.022    1.509
  237.001    0.224    0.308   32.588    1.481
  237.301    0.246    0.299   30.077    1.454
  237.602    0.256    0.293   29.456    1.454
  237.902    0.246    0.274   28.206    1.428
  238.202    0.227    0.274   26.327    1.401
  238.502    0.251    0.284   28.222    1.376
  238.802    0.262    0.303   29.492    1.350
  239.102    0.263    0.312   29.498    1.351
  239.402    0.253    0.315   28.880    1.351
  239.702    0.249    0.298   30.147    1.378
  240.002    0.249    0.278   32.042    1.404
  240.302    0.251    0.274   34.569    1.405
  240.602    0.242    0.306   33.949    1.405
  240.902    0.240    0.302   32.069    1.354
  241.202    0.253    0.337   32.078    1.280
  241.502    0.295    0.338   37.750    1.233
  241.802    0.285    0.308   45.944    1.188
  242.102    0.269    0.299   35.249    1.102
  242.402    0.289    0.327   25.814    1.022
  242.702    0.302    0.337   27.714    1.023
  243.002    0.307    0.343   28.982    1.023
  243.302    0.300    0.347   27.728    1.063
  243.602    0.294    0.324   25.850    1.083
  243.902    0.289    0.303   28.376    1.147
  244.202    0.271    0.291   33.423    1.192
  244.502    0.257    0.295   35.320    1.192
  244.802    0.266    0.329   35.326    1.106
  245.102    0.284    0.340   32.816    1.085
  245.402    0.303    0.367   32.825    1.065
  245.702    0.317    0.393   32.834    1.046
  246.002    0.301    0.382   29.065    1.046
  246.302    0.295    0.364   28.445    1.047
