~VERSION INFORMATION
 VERS.                 2.0:   CWLS LOG ASCII STANDARD -VERSION 2.0
 WRAP.                  NO:   ONE LINE PER DEPTH STEP
~WELL INFORMATION BLOCK
#MNEM.UNIT           DATA                    DESCRIPTION OF MNEMONIC
#---------    -------------------            -------------------------------
# Generated from Intellog Unique Number	CN_91_93/WELL/2644
WELL.         07-33-091-18W4                 : Well_name    - WELL
LOC .         00/07-33-091-18W4/0            : Location     - LOCATION
UWI .         00/07-33-091-18W400            : Uwi          - UNIQUE WELL ID
ENTR.         joette                         : Entered      - ENTERED BY
SRVC.         SCHLUMBERGER                   : Scn          - SERVICE COMPANY
DATE.         02/05/92                       : Date         - LOG DATE
STRT.M        90                             : top_depth    - START DEPTH
STOP.M        250                            : bot_depth    - STOP DEPTH
STEP.M        0.25                           : increment    - STEP LENGTH
 NULL. -999.2500:NULL Value
~CURVE INFORMATION BLOCK
#MNEM UNIT       ERCB CURVE CODE    CURVE DESCRIPTION
#-----------   ------------------   ----------------------------------
DEPT.M        00 001 00 00         : DEPTH        - DEPTH
GR  .API      00 310 00 00         : GR           - GAMMA RAY
CALI.MM       00 280 01 00         : CAL          - CALIPER
NPHI.V/V      00 330 00 00         : PHIN         - NEUTRON POROSITY (SANDSTONE)
ILD .OHMM     00 120 00 00         : RESD         - DEEP RESISTIVITY (DIL)
DPHI.V/V      00 890 00 00         : PHID         - DENSITY POROSITY (SANDSTONE)
~PARAMETER INFORMATION
#MNEM.UNIT           DATA             DESCRIPTION OF MNEMONIC
#---------         -----------     ------------------------------
GL  .M        517.2                : gl           - GROUND LEVEL ELEVATION
EREF.M        520.4                : kb           - ELEVATION OF DEPTH REFERENCE
DATM.M        520.4                : datum        - DATUM ELEVATION
TDD .M        249.5                : tdd          - TOTAL DEPTH DRILLER
RUN .         ONE                  : Run          - RUN NUMBER
ENG .         JO                   : Engineer     - RECORDING ENGINEER
WIT .         TIM                  : Witness      - WITNESSED BY
MUD .         GEL                  : Mud_type     - MUD TYPE
MATR.         SANDSTONE            : Logunit      - NEUTRON MATRIX
TMAX.C        28                   : BHT          - MAXIMUM RECORDED TEMPERATURE
BHTD.M        249.5                : BHTDEP       - MAXIMUM RECORDED TEMPERATURE
RMT .C        18                   : MDTP         - TEMPERATURE OF MUD
MUDD.KG/M     1140                 : MWT          - MUD DENSITY
NEUT.         1                    : NEUTRON      - NEUTRON TYPE
RESI.         0                    : RESIST       - RESISTIVITY TYPE
RM  .OHMM     4.81                 : RM           - RESISTIVITY OF MUD
RMC .OHMM     4.81                 : RMC          - RESISTIVITY OF MUD CAKE
RMF .OHMM     4.81                 : RMF          - RESISTIVITY OF MUD FILTRATE
SUFT.C        4                    : SUFT         - SURFACE TEMPERATURE
~A  DEPTH       GR      CAL     PHIN     RESD     PHID
# ...
  163.000   96.806  164.959    0.432   14.145    0.186
  163.250  100.980  163.041    0.449   14.693    0.173
  163.500   99.533  168.030    0.447   15.260    0.194
  163.750   91.279  166.606    0.412   16.774    0.208
  164.000   88.052  163.201    0.384   18.093    0.220
  164.250   83.058  158.817    0.364   18.790    0.226
  164.500   82.495  155.426    0.308   21.048    0.144
  164.750   86.376  153.509    0.356   21.451    0.147
  165.000   94.406  152.085    0.360   21.864    0.186
  165.250   91.179  151.640    0.340   22.289    0.250
  165.500   90.329  151.696    0.344   22.293    0.231
  165.750   93.322  152.738    0.366   21.475    0.257
  166.000   97.791  152.738    0.375   21.077    0.273
  166.250   97.233  152.856    0.368   20.304    0.258
  166.500   95.490  152.905    0.367   19.194    0.256
  166.750   97.299  153.468    0.377   18.839    0.258
  167.000   99.109  154.010    0.377   18.491    0.260
  167.250   99.151  154.108    0.375   17.812    0.252
  167.500   97.992  154.615    0.376   17.819    0.239
  167.750   97.137  155.157    0.410   17.822    0.232
  168.000   98.059  155.720    0.418   17.827    0.241
  168.250   99.280  156.262    0.401   18.170    0.229
  168.500   96.053  156.318    0.391   18.520    0.232
  168.750   91.951  156.860    0.372   18.877    0.259
  169.000   89.909  156.915    0.367   19.244    0.268
  169.250   87.866  156.971    0.367   19.247    0.258
  169.500   86.715  156.047    0.373   18.893    0.232
  169.750   88.825  156.103    0.367   18.544    0.214
  170.000   93.886  156.159    0.395   17.203    0.220
  170.250   98.359  157.694    0.428   16.261    0.257
  170.500   97.209  163.176    0.435   15.371    0.276
  170.750   93.695  164.712    0.445   14.806    0.245
  171.000   92.244  163.774    0.416   14.263    0.154
  171.250   92.573  162.350    0.381   13.999    0.152
  171.500   95.867  160.926    0.390   12.985    0.196
  171.750   95.304  160.988    0.396   11.821    0.225
  172.000   92.969  161.530    0.379    9.082    0.226
  172.250   93.595  161.586    0.352    7.524    0.190
  172.500   97.180  162.135    0.387    6.472    0.158
  172.750  104.618  162.198    0.489    6.004    0.190
  173.000  108.795  162.198    0.544    6.355    0.213
  173.250  109.124  162.337    0.557    7.253    0.249
  173.500  106.794  161.865    0.542    7.823    0.263
  173.750   99.419  161.865    0.483    8.598    0.232
  174.000   89.985  161.511    0.447    9.814    0.194
  174.250   90.314  160.552    0.388   10.585    0.129
  174.500   92.120  159.621    0.400   10.994    0.129
  174.750   91.265  158.697    0.428   10.996    0.173
  175.000   91.299  158.753    0.426   10.795    0.219
  175.250   95.772  159.302    0.429   10.595    0.223
  175.500  100.245  163.790    0.459   10.207    0.219
  175.750   99.095  170.266    0.483   10.208    0.215
  176.000   94.096  168.349    0.505   10.805    0.214
  176.250   85.850  163.471    0.477   12.101    0.198
  176.500   79.363  157.607    0.321   14.342    0.073
  176.750   74.957  155.182    0.299   17.987    0.025
  177.000   77.946  153.278    0.323   19.401    0.009
  177.250   91.895  152.333    0.368   20.151    0.045
  177.500   96.961  152.333    0.380   20.538    0.183
  177.750   96.994  151.486    0.386   21.332    0.222
  178.000   96.436  151.021    0.383   22.579    0.223
  178.250   96.469  150.590    0.367   23.900    0.227
  178.500   92.950  150.680    0.328   25.778    0.235
  178.750   89.432  150.208    0.325   27.284    0.266
  179.000   86.209  150.208    0.338   29.428    0.272
  179.250   86.243  150.361    0.346   32.959    0.267
  179.500   82.428  150.389    0.353   35.549    0.261
  179.750   77.722  150.389    0.343   41.344    0.237
  180.000   74.803  150.486    0.300   48.999    0.184
  180.250   74.241  150.486    0.295   56.987    0.118
  180.500   73.978  150.626    0.290   68.823    0.140
  180.750   71.940  150.647    0.277   81.565    0.171
  181.000   66.349  150.647    0.265  102.296    0.196
  181.250   63.723  151.258    0.249  114.578    0.203
  181.500   63.456  151.258    0.257  116.780    0.196
  181.750   63.194  151.877    0.243  119.025    0.172
  182.000   61.447  152.405    0.220  114.666    0.149
  182.250   62.960  152.405    0.246  110.445    0.151
  182.500   67.138  152.530    0.294  100.539    0.211
  182.750   68.059  153.073    0.304   93.268    0.236
  183.000   64.841  153.170    0.305   89.835    0.249
  183.250   62.806  152.698    0.306   83.338    0.295
  183.500   63.127  151.767    0.343   81.808    0.271
  183.750   64.645  151.315    0.387   81.819    0.270
  184.000   62.602  150.884    0.436   83.396    0.295
  184.250   59.375  150.454    0.422   91.660    0.270
  184.500   57.337  150.509    0.380   97.016    0.211
  184.750   60.034  150.558    0.235   95.229    0.149
  185.000   61.844  151.594    0.232   80.393    0.075
  185.250   60.693  155.116    0.257   59.480    0.042
  185.500   64.875  156.645    0.335   43.186    0.031
  185.750   73.196  157.187    0.362   30.770    0.038
  186.000   83.293  157.257    0.401   21.514    0.090
  186.250   90.138  156.805    0.417   15.621    0.226
  186.500   95.504  156.805    0.428   12.230    0.239
  186.750   96.125  156.451    0.438   12.235    0.218
  187.000   87.871  156.486    0.413   12.236    0.178
  187.250   84.648  156.542    0.385   12.472    0.114
  187.500   91.786  156.542    0.408   12.713    0.119
  187.750   93.299  156.660    0.409   12.958    0.147
  188.000   92.745  157.195    0.403   13.207    0.196
  188.250   94.254  157.195    0.417   13.463    0.214
  188.500   98.731  157.334    0.432   13.722    0.217
  188.750  100.833  157.863    0.438   14.254    0.217
  189.000   95.834  157.911    0.424   14.527    0.213
  189.250   90.840  158.009    0.419   14.810    0.199
  189.500   89.097  158.523    0.411   14.812    0.191
  189.750   89.727  158.579    0.404   15.098    0.174
  190.000   91.528  158.148    0.419   15.102    0.154
  190.250   91.561  157.217    0.432   15.106    0.168
  190.500   96.923  155.786    0.452   15.109    0.162
  190.750  100.808  155.348    0.461   14.831    0.197
  191.000   91.966  155.397    0.451   14.836    0.207
  191.250   94.063  156.453    0.400   14.562    0.178
  191.500   98.536  156.495    0.425   14.293    0.151
  191.750  105.082  158.031    0.435   13.768    0.134
  192.000  107.491  164.514    0.434   13.014    0.160
  192.250  105.453  167.043    0.417   12.303    0.203
  192.500  103.114  168.078    0.429   12.306    0.196
  192.750  101.071  168.634    0.433   12.544    0.186
  193.000   99.629  169.169    0.429   12.785    0.175
  193.250   98.770  169.718    0.430   13.031    0.181
  193.500   99.988  169.774    0.448   13.793    0.212
  193.750  101.509  170.830    0.454   14.058    0.234
  194.000  100.350  168.419    0.439   14.329    0.205
  194.250  100.984  165.008    0.404   14.883    0.203
  194.500  102.794  160.617    0.399   15.459    0.218
  194.750  104.595  158.699    0.412   16.058    0.221
  195.000  106.408  159.248    0.406   16.680    0.212
  195.250  101.110  159.804    0.330   17.000    0.198
  195.500   96.999  159.860    0.313   17.006    0.173
  195.750   96.737  159.916    0.335   17.334    0.044
  196.000   98.842  161.444    0.371   17.013    0.005
  196.250  103.315  170.880    0.401   16.082    0.098
  196.500  106.313  171.923    0.406   14.367    0.189
  196.750  112.858  170.498    0.411   13.079    0.202
  197.000  117.040  169.574    0.425   12.597    0.205
  197.250  116.181  170.116    0.441   11.908    0.216
  197.500  107.926  172.639    0.469   11.470    0.224
  197.750  110.328  176.155    0.483   11.049    0.220
  198.000  109.769  177.683    0.472   10.845    0.223
  198.250  100.623  171.819    0.393   10.645    0.216
  198.500  100.956  163.488    0.383   10.649    0.182
  198.750  108.394  162.550    0.420   11.061    0.093
  199.000  111.679  169.520    0.447   11.930    0.114
  199.250  107.864  172.049    0.462   16.751    0.176
