~VERSION INFORMATION
 VERS.                 2.0:   CWLS LOG ASCII STANDARD -VERSION 2.0
 WRAP.                  NO:   ONE LINE PER DEPTH STEP
~WELL INFORMATION BLOCK
#MNEM.UNIT           DATA                    DESCRIPTION OF MNEMONIC
#---------    -------------------            -------------------------------
# Generated from Intellog Unique Number	CS_69_70/WELL/852
WELL.         HUSKEY OIL OPERATIONS          : Well_name    - WELL
LOC .         00/07-04-069-05W4/0            : Location     - LOCATION
UWI .         00/07-04-069-05W4/0            : Uwi          - UNIQUE WELL ID
ENTR.         SP                             : Entered      - ENTERED BY
SRVC.         SCHLUMBERGER                   : Scn          - SERVICE COMPANY
STRT.M        315                            : top_depth    - START DEPTH
STOP.M        555                            : bot_depth    - STOP DEPTH
STEP.M        0.25                           : increment    - STEP LENGTH
 NULL. -999.2500:NULL Value
~CURVE INFORMATION BLOCK
#MNEM UNIT       ERCB CURVE CODE    CURVE DESCRIPTION
#-----------   ------------------   ----------------------------------
DEPT.M        00 001 00 00         : DEPTH        - DEPTH
ILD .OHMM     00 120 00 00         : RESD         - DEEP RESISTIVITY (DIL)
DPHI.V/V      00 890 00 00         : PHID         - DENSITY POROSITY (LIMESTONE)
NPHI.V/V      00 330 00 00         : PHIN         - NEUTRON POROSITY (LIMESTONE)
GR  .API      00 310 00 00         : GR           - GAMMA RAY
~PARAMETER INFORMATION
#MNEM.UNIT           DATA             DESCRIPTION OF MNEMONIC
#---------         -----------     ------------------------------
GL  .M        680.2                : gl           - GROUND LEVEL ELEVATION
EREF.M        683.8                : kb           - ELEVATION OF DEPTH REFERENCE
DATM.M        680.2                : datum        - DATUM ELEVATION
TDD .M        564                  : tdd          - TOTAL DEPTH DRILLER
RUN .         ONE                  : Run          - RUN NUMBER
ENG .         BILL                 : Engineer     - RECORDING ENGINEER
WIT .         JIM                  : Witness      - WITNESSED BY
MUD .         GEL                  : Mud_type     - MUD TYPE
MATR.         LIMESTONE            : Logunit      - NEUTRON MATRIX
TMAX.C        32                   : BHT          - MAXIMUM RECORDED TEMPERATURE
BHTD.M        564                  : BHTDEP       - MAXIMUM RECORDED TEMPERATURE
MATR.         1                    : LOGUNIT      - NEUTRON MATRIX
RMT .C        25                   : MDTP         - TEMPERATURE OF MUD
NEUT.         1                    : NEUTRON      - NEUTRON TYPE
RESI.         0                    : RESIST       - RESISTIVITY TYPE
RMC .OHMM     0.25                 : RMC          - RESISTIVITY OF MUD CAKE
RMF .OHMM     0.25                 : RMF          - RESISTIVITY OF MUD FILTRATE
SUFT.C        15                   : SUFT         - SURFACE TEMPERATURE
~A  DEPTH     RESD     PHID     PHIN       GR
# ...
  489.000   14.604    0.315    0.423   76.607
  489.250   16.627    0.310    0.421   69.133
  489.500   17.044    0.308    0.417   64.792
  489.750   16.087    0.313    0.416   61.955
  490.000   14.764    0.313    0.417   66.882
  490.250   13.987    0.312    0.417   73.614
  490.500   12.957    0.321    0.419   79.022
  490.750   11.802    0.313    0.424   82.927
  491.000   10.124    0.301    0.415   88.034
  491.250    8.444    0.288    0.405   92.240
  491.500    7.492    0.262    0.400   94.759
  491.750    7.045    0.222    0.415   90.778
  492.000    6.776    0.197    0.419   83.185
  492.250    6.817    0.179    0.412   74.148
  492.500    7.241    0.137    0.390   66.013
  492.750    7.506    0.091    0.348   66.606
  493.000    7.680    0.059    0.312   77.552
  493.250    7.668    0.107    0.339   85.489
  493.500    7.403    0.155    0.368   90.898
  493.750    7.066    0.168    0.389   94.802
  494.000    6.860    0.183    0.404   98.165
  494.250    6.723    0.194    0.420   96.832
  494.500    6.625    0.187    0.421  100.494
  494.750    6.603    0.183    0.411   98.921
  495.000    6.606    0.177    0.402   91.810
  495.250    6.621    0.173    0.395   88.250
  495.500    6.611    0.186    0.383   90.106
  495.750    6.613    0.197    0.374   93.168
  496.000    6.615    0.194    0.371   96.469
  496.250    6.617    0.189    0.384   99.772
  496.500    6.583    0.186    0.397  102.834
  496.750    6.585    0.183    0.412  105.052
  497.000    6.550    0.178    0.428  102.997
  497.250    6.468    0.173    0.445  102.387
  497.500    6.374    0.167    0.463   98.887
  497.750    6.400    0.174    0.478   93.281
  498.000    6.585    0.189    0.455   86.830
  498.250    7.008    0.186    0.424   80.623
  498.500    7.671    0.126    0.401   75.137
  498.750    8.072    0.122    0.404   69.109
  499.000    8.415    0.166    0.369   65.188
  499.250    8.577    0.212    0.342   76.616
  499.500    8.532    0.180    0.340   84.853
  499.750    8.023    0.166    0.359   90.261
  500.000    7.349    0.162    0.375   95.129
  500.250    7.015    0.174    0.387   97.228
  500.500    6.849    0.184    0.386   99.806
  500.750    6.700    0.191    0.387  101.664
  501.000    6.651    0.176    0.396  102.980
  501.250    6.543    0.167    0.411   98.758
  501.500    6.460    0.165    0.408   92.550
  501.750    6.402    0.172    0.400   88.027
  502.000    6.380    0.169    0.398   93.614
  502.250    6.406    0.164    0.420   98.302
  502.500    6.494    0.161    0.440  102.267
  502.750    6.557    0.173    0.422  104.244
  503.000    6.671    0.174    0.404  104.115
  503.250    6.711    0.179    0.402  106.033
  503.500    6.752    0.188    0.414  106.747
  503.750    6.895    0.181    0.422  100.418
  504.000    7.269    0.181    0.410   89.032
  504.250    7.927    0.189    0.385   79.815
  504.500    8.907    0.080    0.355   72.222
  504.750   10.065    0.048    0.349   70.166
  505.000   11.163    0.145    0.377   66.607
  505.250   12.014    0.229    0.396   58.533
  505.500   12.523    0.260    0.395   48.953
  505.750   12.910    0.254    0.348   55.747
  506.000   12.603    0.239    0.322   64.346
  506.250   10.651    0.226    0.335   72.824
  506.500    9.327    0.216    0.348   77.630
  506.750    8.323    0.206    0.353   80.210
  507.000    7.753    0.197    0.363   82.248
  507.250    7.236    0.189    0.360   85.972
  507.500    6.805    0.183    0.372   94.570
  507.750    6.606    0.176    0.401  100.040
  508.000    6.759    0.178    0.402  100.813
  508.250    6.980    0.176    0.382   98.276
  508.500    7.222    0.171    0.363   97.305
  508.750    7.501    0.165    0.349   98.199
  509.000    7.761    0.156    0.364  101.200
  509.250    8.153    0.146    0.388  104.743
  509.500    8.547    0.157    0.404   96.909
  509.750    9.078    0.232    0.428   74.389
  510.000   10.452    0.276    0.415   32.126
  510.250   15.298    0.327    0.390   24.654
  510.500   27.674    0.323    0.367   27.414
  510.750   44.399    0.314    0.358   31.619
  511.000   62.593    0.312    0.359   36.185
  511.250   39.483    0.316    0.360   44.241
  511.500   27.714    0.318    0.351   54.707
  511.750   22.643    0.304    0.350   66.376
  512.000   19.387    0.276    0.368   72.627
  512.250   17.561    0.252    0.381   68.285
  512.500   17.534    0.233    0.382   60.270
  512.750   18.279    0.222    0.373   54.243
  513.000   19.308    0.262    0.365   49.238
  513.250   21.293    0.295    0.374   45.978
  513.500   24.241    0.301    0.388   42.720
  513.750   29.086    0.307    0.403   38.679
  514.000   35.429    0.313    0.415   35.119
  514.250   40.866    0.322    0.406   32.161
  514.500   49.681    0.328    0.390   33.055
  514.750   43.509    0.334    0.368   40.691
  515.000   35.348    0.309    0.347   48.206
  515.250   29.591    0.288    0.362   53.555
  515.500   29.548    0.284    0.404   38.558
  515.750   36.464    0.319    0.440   30.062
  516.000   46.458    0.349    0.418   26.021
  516.250   52.495    0.350    0.387   25.952
  516.500   55.344    0.346    0.370   29.314
  516.750   55.886    0.339    0.401   32.375
  517.000   52.258    0.320    0.410   31.163
  517.250   45.762    0.300    0.358   31.998
  517.500   30.479    0.313    0.346   47.338
  517.750   23.408    0.301    0.426   64.725
  518.000   29.106    0.287    0.471   75.852
  518.250   35.650    0.282    0.522   62.179
  518.500   30.697    0.324    0.446   52.420
  518.750   26.581    0.341    0.381   48.498
  519.000   22.294    0.289    0.397   55.593
  519.250   23.329    0.259    0.320   62.807
  519.500   23.558    0.200    0.247   60.331
  519.750   20.903    0.002    0.272   51.173
  520.000   20.714    0.211    0.365   51.585
  520.250   33.800    0.282    0.420   52.842
  520.500   44.291    0.328    0.408   32.788
  520.750   53.643    0.350    0.401   23.812
  521.000   68.729    0.358    0.406   21.815
  521.250   39.181    0.337    0.385   25.298
  521.500   25.467    0.280    0.343   37.570
  521.750   15.619    0.237    0.390   57.063
  522.000   11.996    0.204    0.426   82.215
  522.250   10.329    0.188    0.451   79.317
  522.500   16.603    0.260    0.455   61.612
  522.750   35.288    0.288    0.411   38.249
  523.000   66.771    0.315    0.397   31.379
  523.250   88.816    0.324    0.394   26.675
  523.500   91.043    0.342    0.396   21.490
  523.750   69.790    0.356    0.394   21.723
  524.000   48.439    0.354    0.382   30.019
  524.250   26.598    0.283    0.375   44.458
  524.500   19.787    0.248    0.367   58.594
  524.750   16.941    0.231    0.354   64.665
  525.000   27.939    0.281    0.376   63.947
  525.250   39.180    0.323    0.391   33.249
  525.500   47.820    0.359    0.389   21.535
  525.750   42.338    0.355    0.367   48.197
  526.000   24.664    0.309    0.349   59.146
  526.250   16.759    0.287    0.350   67.858
  526.500   12.299    0.269    0.378   73.913
  526.750   14.954    0.254    0.397   78.031
  527.000   22.949    0.244    0.417   57.071
  527.250   35.683    0.292    0.456   40.401
  527.500   50.608    0.325    0.429   32.252
  527.750   69.651    0.336    0.410   26.824
  528.000   92.674    0.344    0.389   21.938
  528.250  113.109    0.352    0.376   17.416
  528.500  131.470    0.355    0.359   28.787
  528.750   49.179    0.331    0.345   45.718
  529.000   36.499    0.303    0.397   56.547
  529.250   25.605    0.280    0.428   60.485
  529.500   27.146    0.265    0.436   60.012
  529.750   33.009    0.254    0.434   50.534
  530.000   36.746    0.284    0.414   40.995
  530.250   40.602    0.316    0.387   36.169
  530.500   41.149    0.315    0.383   45.971
  530.750   36.365    0.293    0.402   52.204
  531.000   30.319    0.264    0.420   58.499
  531.250   25.185    0.278    0.436   60.020
  531.500   21.925    0.298    0.424   57.130
  531.750   20.003    0.295    0.414   54.964
  532.000   22.521    0.278    0.421   46.876
  532.250   27.128    0.303    0.412   36.068
