~VERSION INFORMATION
 VERS.                 2.0:   CWLS LOG ASCII STANDARD -VERSION 2.0
 WRAP.                  NO:   ONE LINE PER DEPTH STEP
~WELL INFORMATION BLOCK
#MNEM.UNIT           DATA                    DESCRIPTION OF MNEMONIC
#---------    -------------------            -------------------------------
# Generated from Intellog Unique Number	CX_WELLS/WELL/3141
WELL.         PARA ET AL RESDELEN            : Well_name    - WELL
LOC .         00/08-02-083-06W4/0            : Location     - LOCATION
UWI .         00/08-02-083-06W4/0            : Uwi          - UNIQUE WELL ID
ENTR.         TIM                            : Entered      - ENTERED BY
SRVC.         SCHLUMBERGER                   : Scn          - SERVICE COMPANY
STRT.M        80                             : top_depth    - START DEPTH
STOP.M        295                            : bot_depth    - STOP DEPTH
STEP.M        0.25                           : increment    - STEP LENGTH
 NULL. -999.2500:NULL Value
~CURVE INFORMATION BLOCK
#MNEM UNIT       ERCB CURVE CODE    CURVE DESCRIPTION
#-----------   ------------------   ----------------------------------
DEPT.M        00 001 00 00         : DEPTH        - DEPTH
GR  .API      00 310 00 00         : GR           - GAMMA RAY
NPHI.V/V      00 330 00 00         : PHIN         - NEUTRON POROSITY (SANDSTONE)
DPHI.V/V      00 890 00 00         : PHID         - DENSITY POROSITY (SANDSTONE)
ILD .OHMM     00 120 00 00         : RESD         - DEEP RESISTIVITY (OTHER)
~PARAMETER INFORMATION
#MNEM.UNIT           DATA             DESCRIPTION OF MNEMONIC
#---------         -----------     ------------------------------
GL  .M        494                  : gl           - GROUND LEVEL ELEVATION
EREF.M        497.7                : kb           - ELEVATION OF DEPTH REFERENCE
DATM.M        497.7                : datum        - DATUM ELEVATION
TDD .M        294                  : tdd          - TOTAL DEPTH DRILLER
RUN .         ONE                  : Run          - RUN NUMBER
ENG .         BILL                 : Engineer     - RECORDING ENGINEER
WIT .         JIM                  : Witness      - WITNESSED BY
MUD .         GEL                  : Mud_type     - MUD TYPE
MATR.         SANDSTONE            : Logunit      - NEUTRON MATRIX
TMAX.C        25                   : BHT          - MAXIMUM RECORDED TEMPERATURE
BHTD.M        294                  : BHTDEP       - MAXIMUM RECORDED TEMPERATURE
MATR.         1                    : LOGUNIT      - NEUTRON MATRIX
RMT .C        18                   : MDTP         - TEMPERATURE OF MUD
NEUT.         1                    : NEUTRON      - NEUTRON TYPE
RESI.         4.2                  : RESIST       - RESISTIVITY TYPE
RMC .OHMM     3.1                  : RMC          - RESISTIVITY OF MUD CAKE
RMF .OHMM     4.2                  : RMF          - RESISTIVITY OF MUD FILTRATE
SUFT.C        4                    : SUFT         - SURFACE TEMPERATURE
~A  DEPTH       GR     PHIN     PHID     RESD
# ...
  210.500   96.202    0.454    0.200    8.266
  210.750   93.356    0.440    0.164    8.926
  211.000   89.930    0.432    0.143    9.125
  211.250   83.619    0.423    0.160    8.802
  211.500   78.470    0.422    0.208    8.047
  211.750   75.063    0.429    0.240    7.766
  212.000   76.302    0.436    0.279    7.229
  212.250   79.283    0.440    0.271    7.104
  212.500   83.425    0.442    0.261    6.609
  212.750   87.007    0.446    0.269    6.035
  213.000   86.503    0.448    0.277    5.511
  213.250   85.439    0.452    0.288    5.130
  213.500   84.354    0.459    0.289    4.949
  213.750   86.174    0.468    0.287    4.609
  214.000   87.994    0.475    0.289    4.529
  214.250   89.813    0.461    0.292    4.542
  214.500   91.052    0.422    0.299    5.091
  214.750   92.872    0.382    0.304    8.442
  215.000   95.853    0.379    0.300   10.005
  215.250   98.253    0.375    0.264   11.859
  215.500   96.007    0.363    0.244   20.794
  215.750   84.451    0.342    0.296   28.093
  216.000   81.624    0.313    0.325   35.210
  216.250   75.314    0.261    0.338   43.340
  216.500   67.242    0.165    0.345   45.936
  216.750   52.220    0.134    0.353   46.042
  217.000   48.794    0.111    0.359   46.148
  217.250   48.871    0.101    0.362   41.387
  217.500   50.129    0.096    0.364   37.096
  217.750   50.787    0.092    0.366   32.618
  218.000   47.942    0.092    0.364   29.769
  218.250   43.954    0.097    0.363   25.707
  218.500   41.709    0.105    0.360   22.200
  218.750   40.044    0.148    0.357   18.480
  219.000   37.798    0.213    0.352   16.249
  219.250   37.295    0.316    0.321   14.024
  219.500   39.134    0.351    0.316   12.578
  219.750   39.811    0.367    0.318   11.701
  220.000   39.269    0.379    0.327   11.300
  220.250   38.766    0.383    0.329   11.332
  220.500   38.843    0.381    0.329   11.351
  220.750   39.540    0.375    0.326   11.384
  221.000   38.456    0.353    0.321   11.611
  221.250   38.514    0.343    0.320   11.652
  221.500   39.772    0.343    0.322   11.672
  221.750   39.850    0.344    0.323   11.699
  222.000   38.185    0.344    0.325   11.732
  222.250   35.939    0.340    0.325   11.752
  222.500   34.274    0.335    0.320   11.780
  222.750   36.675    0.326    0.315   11.807
  223.000   37.914    0.319    0.312   11.629
  223.250   37.991    0.318    0.308   11.642
  223.500   37.488    0.321    0.308   11.676
  223.750   36.384    0.328    0.311   11.929
  224.000   34.177    0.333    0.313   11.943
  224.250   32.493    0.335    0.317   11.971
  224.500   30.848    0.334    0.318   12.005
  224.750   30.886    0.325    0.316   12.040
  225.000   31.564    0.320    0.314   11.831
  225.250   33.383    0.322    0.313   11.865
  225.500   34.603    0.326    0.313   11.666
  225.750   35.842    0.324    0.312   11.693
  226.000   35.339    0.319    0.312   11.517
  226.250   32.532    0.316    0.310   11.537
  226.500   32.609    0.319    0.310   11.577
  226.750   37.913    0.321    0.311   11.590
  227.000   40.333    0.327    0.313   11.630
  227.250   39.810    0.327    0.313   11.643
  227.500   39.887    0.324    0.313   11.677
  227.750   44.610    0.323    0.313   12.148
  228.000   58.064    0.323    0.313   12.631
  228.250   60.464    0.323    0.313   13.387
  228.500   55.896    0.324    0.311   13.927
  228.750   54.250    0.327    0.306   13.702
  229.000   68.265    0.334    0.303   12.987
  229.250   74.150    0.334    0.301   12.082
  229.500   75.989    0.335    0.299   11.667
  229.750   78.389    0.341    0.293   11.273
  230.000   83.693    0.369    0.280   11.084
  230.250   90.739    0.395    0.274   11.116
  230.500   97.224    0.413    0.256   11.142
  230.750  101.947    0.425    0.241   11.167
  231.000  107.832    0.441    0.226   11.206
  231.250  109.090    0.457    0.217   11.225
  231.500  108.587    0.471    0.216   11.258
  231.750  108.664    0.476    0.217   11.069
  232.000  107.019    0.469    0.218   11.088
  232.250  104.754    0.453    0.222   11.126
  232.500  100.747    0.445    0.223   11.146
  232.750   96.198    0.441    0.224   11.171
  233.000   98.598    0.435    0.225   11.190
  233.250  102.740    0.435    0.227   11.427
  233.500  104.560    0.442    0.228   12.118
  233.750  100.572    0.452    0.234   13.324
  234.000   93.081    0.452    0.254   15.232
  234.250   76.878    0.442    0.261   16.438
  234.500   70.568    0.426    0.271   17.750
  234.750   67.180    0.418    0.285   18.466
  235.000   67.277    0.425    0.299   19.212
  235.250   67.316    0.447    0.315   19.618
  235.500   70.897    0.471    0.319   20.044
  235.750   71.555    0.478    0.324   20.468
  236.000   68.148    0.486    0.334   20.515
  236.250   64.160    0.492    0.345   19.108
  236.500   64.218    0.477    0.347   18.430
  236.750   67.218    0.457    0.318   17.787
  237.000   70.200    0.441    0.291   17.176
  237.250   73.180    0.422    0.279   16.596
  237.500   76.742    0.417    0.269   16.643
  237.750   79.723    0.424    0.272   16.995
  238.000   82.124    0.439    0.276   17.691
  238.250   81.620    0.460    0.289   18.394
  238.500   79.375    0.447    0.278   18.783
  238.750   80.033    0.434    0.270   19.180
  239.000   84.795    0.435    0.271   19.213
  239.250   86.595    0.435    0.272   18.924
  239.500   86.092    0.424    0.274   18.596
  239.750   83.846    0.407    0.278   17.957
  240.000   79.878    0.404    0.279   17.341
  240.250   77.613    0.409    0.280   17.070
  240.500   75.948    0.411    0.280   17.109
  240.750   73.703    0.411    0.282   17.799
  241.000   73.219    0.409    0.287   17.850
  241.250   75.619    0.406    0.287   17.541
  241.500   78.600    0.406    0.284   16.939
  241.750   79.839    0.411    0.279   16.683
  242.000   78.755    0.418    0.275   16.712
  242.250   77.671    0.428    0.276   17.066
  242.500   77.148    0.429    0.280   17.764
  242.750   77.225    0.430    0.279   18.150
  243.000   75.560    0.430    0.279   18.171
  243.250   69.831    0.432    0.285   18.915
  243.500   64.681    0.437    0.306   19.689
  243.750   62.416    0.438    0.312   20.094
  244.000   63.675    0.431    0.310   21.298
  244.250   62.010    0.426    0.302   21.736
  244.500   58.584    0.419    0.304   21.811
  244.750   57.499    0.410    0.305   21.433
  245.000   66.888    0.421    0.302   19.951
  245.250   74.534    0.433    0.291   19.255
  245.500   74.611    0.445    0.286   18.261
  245.750   76.450    0.439    0.280   17.624
  246.000   79.993    0.431    0.273   17.018
  246.250   85.297    0.422    0.267   16.131
  246.500   85.955    0.419    0.253   15.595
  246.750   80.225    0.421    0.261   15.333
  247.000   73.334    0.424    0.282   15.368
  247.250   65.842    0.422    0.293   17.559
  247.500   57.789    0.418    0.321   20.050
  247.750   51.498    0.421    0.332   22.881
  248.000   50.414    0.426    0.357   27.661
  248.250   49.330    0.432    0.361   25.734
  248.500   49.988    0.427    0.327   23.514
  248.750   52.369    0.397    0.313   22.680
  249.000   63.480    0.383    0.279   22.300
  249.250   73.449    0.388    0.266   22.364
  249.500   72.965    0.402    0.274   24.177
  249.750   68.377    0.411    0.285   25.596
  250.000   55.659    0.414    0.306   30.906
  250.250   50.510    0.412    0.328   38.758
  250.500   50.007    0.411    0.344   45.114
  250.750   48.942    0.414    0.346   49.631
  251.000   46.116    0.418    0.348   53.593
  251.250   44.432    0.424    0.352   55.723
  251.500   41.063    0.433    0.363   55.915
  251.750   42.264    0.440    0.362   55.010
  252.000   47.568    0.435    0.348   53.090
  252.250   61.021    0.427    0.336   48.453
  252.500   65.183    0.424    0.324   45.130
  252.750   63.518    0.423    0.316   44.348
  253.000   60.672    0.419    0.315   43.655
  253.250   56.104    0.418    0.317   42.155
  253.500   59.104    0.415    0.310   40.684
  253.750   62.647    0.409    0.302   39.309
