~VERSION INFORMATION
 VERS.                 2.0:   CWLS LOG ASCII STANDARD -VERSION 2.0
 WRAP.                  NO:   ONE LINE PER DEPTH STEP
~WELL INFORMATION BLOCK
#MNEM.UNIT           DATA                    DESCRIPTION OF MNEMONIC
#---------    -------------------            -------------------------------
# Generated from Intellog Unique Number	CS_73_76/WELL/1998
WELL.         ASHLAND OIL CANADA             : Well_name    - WELL
LOC .         00/06-31-076-18W4/0            : Location     - LOCATION
UWI .         00/06-31-076-18W4/0            : Uwi          - UNIQUE WELL ID
ENTR.         SP                             : Entered      - ENTERED BY
SRVC.         SCHLUMBERGER                   : Scn          - SERVICE COMPANY
STRT.M        207.264                        : top_depth    - START DEPTH
STOP.M        386.764                        : bot_depth    - STOP DEPTH
STEP.M        0.25                           : increment    - STEP LENGTH
 NULL. -999.2500:NULL Value
~CURVE INFORMATION BLOCK
#MNEM UNIT       ERCB CURVE CODE    CURVE DESCRIPTION
#-----------   ------------------   ----------------------------------
DEPT.M        00 001 00 00         : DEPTH        - DEPTH
GR  .API      00 310 00 00         : GR           - GAMMA RAY
DPHI.V/V      00 890 00 00         : PHID         - DENSITY POROSITY (SANDSTONE)
NPHI.V/V      00 330 00 00         : PHIN         - NEUTRON POROSITY (SANDSTONE)
ILD .OHMM     00 120 00 00         : RESD         - DEEP RESISTIVITY (DIL)
~PARAMETER INFORMATION
#MNEM.UNIT           DATA             DESCRIPTION OF MNEMONIC
#---------         -----------     ------------------------------
GL  .M        563.575              : gl           - GROUND LEVEL ELEVATION
EREF.M        567.538              : kb           - ELEVATION OF DEPTH REFERENCE
DATM.M        563.575              : datum        - DATUM ELEVATION
TDD .M        471.83               : tdd          - TOTAL DEPTH DRILLER
RUN .         ONE                  : Run          - RUN NUMBER
ENG .         BILL                 : Engineer     - RECORDING ENGINEER
WIT .         JIM                  : Witness      - WITNESSED BY
MUD .         GEL                  : Mud_type     - MUD TYPE
MATR.         SANDSTONE            : Logunit      - NEUTRON MATRIX
TMAX.C        23.3333              : BHT          - MAXIMUM RECORDED TEMPERATURE
BHTD.M        471.83               : BHTDEP       - MAXIMUM RECORDED TEMPERATURE
MATR.         1                    : LOGUNIT      - NEUTRON MATRIX
RMT .C        25                   : MDTP         - TEMPERATURE OF MUD
NEUT.         1                    : NEUTRON      - NEUTRON TYPE
RESI.         0                    : RESIST       - RESISTIVITY TYPE
RMC .OHMM     0.25                 : RMC          - RESISTIVITY OF MUD CAKE
RMF .OHMM     0.25                 : RMF          - RESISTIVITY OF MUD FILTRATE
SUFT.C        15                   : SUFT         - SURFACE TEMPERATURE
~A  DEPTH       GR     PHID     PHIN     RESD
# ...
  294.264   55.418    0.307    0.486    8.419
  294.514   57.121    0.309    0.505    8.401
  294.764   56.454    0.310    0.524    8.630
  295.014   54.843    0.312    0.514    8.779
  295.264   56.026    0.295    0.497    8.832
  295.514   57.372    0.289    0.491    8.613
  295.764   59.364    0.296    0.509    8.241
  296.014   61.316    0.311    0.529    7.300
  296.264   63.283    0.300    0.544    7.212
  296.514   65.210    0.289    0.557    7.074
  296.764   66.928    0.288    0.565    7.653
  297.014   64.770    0.307    0.580    9.277
  297.264   60.440    0.326    0.603   11.098
  297.514   57.635    0.302    0.527   14.257
  297.764   56.154    0.266    0.257   19.125
  298.014   56.162    0.126    0.180   32.673
  298.264   55.476    0.036    0.168   43.712
  298.514   56.972    0.062    0.171   46.741
  298.764   59.173    0.063    0.205   42.711
  299.014   60.877    0.103    0.226   38.153
  299.264   61.769    0.157    0.254   30.861
  299.514   64.442    0.196    0.285   21.494
  299.764   66.802    0.227    0.420   16.155
  300.014   67.813    0.256    0.526   12.611
  300.264   68.910    0.312    0.554   12.118
  300.514   69.877    0.309    0.542   11.238
  300.764   69.858    0.301    0.541   10.883
  301.014   69.875    0.306    0.523   10.560
  301.264   68.515    0.315    0.505   10.419
  301.514   65.716    0.303    0.534   10.095
  301.764   63.092    0.323    0.557    9.536
  302.014   61.919    0.344    0.554    8.750
  302.264   67.581    0.354    0.542    7.761
  302.514   71.582    0.391    0.537    6.760
  302.764   74.606    0.430    0.548    6.171
  303.014   75.697    0.470    0.597    5.661
  303.264   75.162    0.464    0.626    5.164
  303.514   76.128    0.460    0.647    4.950
  303.764   77.103    0.467    0.653    4.732
  304.014   78.071    0.446    0.650    4.570
  304.264   78.860    0.458    0.650    4.547
  304.514   78.054    0.428    0.643    4.548
  304.764   76.916    0.347    0.518    4.882
  305.014   76.956    0.304    0.535    5.192
  305.264   76.961    0.277    0.546    5.737
  305.514   75.475    0.285    0.572    6.051
  305.764   73.760    0.291    0.550    6.340
  306.014   70.390    0.306    0.584    6.321
  306.264   70.002    0.314    0.597    6.314
  306.514   70.977    0.286    0.571    6.280
  306.764   70.969    0.308    0.554    6.104
  307.014   70.029    0.314    0.561    6.528
  307.264   69.087    0.328    0.548    6.977
  307.514   69.570    0.313    0.539    7.832
  307.764   70.246    0.316    0.527    8.411
  308.014   67.789    0.327    0.506    8.720
  308.264   65.243    0.316    0.497    8.912
  308.514   63.386    0.309    0.496    8.914
  308.764   63.694    0.290    0.487    8.699
  309.014   65.727    0.279    0.484    8.220
  309.264   66.933    0.270    0.501    8.087
  309.514   69.537    0.283    0.521    7.335
  309.764   73.064    0.292    0.530    7.010
  310.014   77.069    0.284    0.541    6.440
  310.264   78.561    0.275    0.551    5.946
  310.514   77.718    0.287    0.582    5.593
  310.764   77.532    0.302    0.608    5.257
  311.014   80.559    0.315    0.607    4.931
  311.264   83.158    0.304    0.585    4.653
  311.514   85.893    0.259    0.563    4.668
  311.764   87.943    0.237    0.528    4.457
  312.014   89.237    0.240    0.560    4.466
  312.264   90.056    0.234    0.580    4.466
  312.514   89.934    0.240    0.588    4.459
  312.764   91.440    0.256    0.595    4.429
  313.014   92.417    0.286    0.611    4.085
  313.264   91.420    0.280    0.621    3.823
  313.514   87.305    0.276    0.613    4.081
  313.764   85.488    0.270    0.605    4.590
  314.014   81.822    0.244    0.601    4.622
  314.264   77.823    0.258    0.611    4.857
  314.514   73.759    0.273    0.602    4.827
  314.764   69.370    0.287    0.603    5.119
  315.014   67.204    0.255    0.577    5.442
  315.264   67.084    0.252    0.572    5.767
  315.514   73.154    0.261    0.578    6.094
  315.764   75.459    0.246    0.545    6.419
  316.014   75.813    0.218    0.557    6.724
  316.264   75.336    0.233    0.564    7.290
  316.514   72.749    0.247    0.557    7.585
  316.764   71.043    0.267    0.511    8.245
  317.014   70.133    0.258    0.484    8.675
  317.264   70.233    0.206    0.480    9.704
  317.514   69.555    0.183    0.483   10.450
  317.764   68.946    0.163    0.446   11.231
  318.014   68.274    0.143    0.365   11.421
  318.264   65.540    0.161    0.367   11.388
  318.514   63.008    0.184    0.396   11.800
  318.764   60.160    0.133    0.394   12.299
  319.014   56.746    0.055    0.280   14.920
  319.264   56.937    0.011    0.180   20.556
  319.514   56.754    0.005    0.173   45.900
  319.764   58.891    0.003    0.229   51.502
  320.014   63.641    0.048    0.249   46.442
  320.264   69.834    0.124    0.331   40.415
  320.514   77.073    0.175    0.422   29.878
  320.764   79.971    0.214    0.458   17.637
  321.014   81.758    0.234    0.471   12.648
  321.264   82.699    0.224    0.462   11.183
  321.514   81.636    0.216    0.455   10.403
  321.764   81.511    0.199    0.448   10.329
  322.014   81.462    0.197    0.461   10.186
  322.264   82.127    0.212    0.470    9.975
  322.514   82.017    0.222    0.465    9.730
  322.764   80.842    0.220    0.461    9.388
  323.014   82.334    0.217    0.470    9.292
  323.264   84.643    0.211    0.476    8.937
  323.514   85.012    0.205    0.482    8.779
  323.764   85.735    0.212    0.502    8.558
  324.014   84.972    0.232    0.515    8.355
  324.264   82.849    0.233    0.513    8.384
  324.514   80.155    0.229    0.495    8.136
  324.764   78.440    0.216    0.486    8.156
  325.014   79.738    0.194    0.510    8.147
  325.264   81.644    0.230    0.542    8.107
  325.514   82.084    0.252    0.531    7.945
  325.764   81.970    0.242    0.519    7.939
  326.014   83.309    0.230    0.520    7.916
  326.264   84.612    0.228    0.539    7.734
  326.514   88.297    0.239    0.539    7.738
  326.764   88.029    0.238    0.530    7.737
  327.014   85.122    0.232    0.523    7.737
  327.264   83.945    0.251    0.546    7.749
  327.514   85.614    0.234    0.566    7.529
  327.764   86.277    0.253    0.561    7.526
  328.014   85.533    0.262    0.560    7.470
  328.264   85.570    0.349    0.599    7.329
  328.514   86.803    0.359    0.605    7.126
  328.764   88.567    0.288    0.608    6.908
  329.014   87.452    0.263    0.597    6.741
  329.264   84.955    0.267    0.612    6.742
  329.514   82.439    0.283    0.621    6.505
  329.764   82.429    0.303    0.617    6.349
  330.014   82.547    0.331    0.608    6.314
  330.264   82.574    0.351    0.601    6.307
  330.514   83.119    0.407    0.606    6.288
  330.764   83.787    0.389    0.609    6.575
  331.014   84.315    0.390    0.608    6.896
  331.264   85.909    0.305    0.594    7.223
  331.514   87.713    0.259    0.585    7.549
  331.764   88.542    0.233    0.564    7.870
  332.014   88.552    0.236    0.553    8.104
  332.264   87.678    0.225    0.534    8.081
  332.514   87.083    0.218    0.503    8.259
  332.764   90.115    0.223    0.480    8.299
  333.014   90.944    0.231    0.489    8.075
  333.264   90.784    0.240    0.492    7.921
  333.514   86.887    0.241    0.494    7.810
  333.764   84.272    0.253    0.508    7.675
  334.014   83.254    0.233    0.511    7.669
  334.264   83.229    0.223    0.525    7.655
  334.514   84.247    0.252    0.537    7.863
  334.764   85.283    0.262    0.562    7.988
  335.014   85.490    0.271    0.530    8.097
  335.264   84.915    0.233    0.470    8.270
  335.514   84.441    0.210    0.469    8.349
  335.764   81.716    0.214    0.484    8.390
  336.014   80.257    0.223    0.505    7.656
  336.264   80.125    0.260    0.477    7.501
  336.514   79.397    0.344    0.492    7.039
  336.764   78.442    0.380    0.536    6.709
  337.014   77.747    0.405    0.571    6.428
  337.264   78.828    0.402    0.603    6.443
  337.514   79.552    0.410    0.603    6.532
