~VERSION INFORMATION
 VERS.                 2.0:   CWLS LOG ASCII STANDARD -VERSION 2.0
 WRAP.                  NO:   ONE LINE PER DEPTH STEP
~WELL INFORMATION BLOCK
#MNEM.UNIT           DATA                    DESCRIPTION OF MNEMONIC
#---------    -------------------            -------------------------------
# Generated from Intellog Unique Number	CW_79_81/WELL/2453
WELL.         06-24-081-23W4                 : Well_name    - WELL
LOC .         00/06-24-081-23W4/0            : Location     - LOCATION
UWI .         00/06-24-081-23W4/0            : Uwi          - UNIQUE WELL ID
ENTR.         MAX                            : Entered      - ENTERED BY
SRVC.         WESTERN ATLAS                  : Scn          - SERVICE COMPANY
STRT.M        200                            : top_depth    - START DEPTH
STOP.M        452                            : bot_depth    - STOP DEPTH
STEP.M        0.25                           : increment    - STEP LENGTH
 NULL. -999.2500:NULL Value
~CURVE INFORMATION BLOCK
#MNEM UNIT       ERCB CURVE CODE    CURVE DESCRIPTION
#-----------   ------------------   ----------------------------------
DEPT.M        00 001 00 00         : DEPTH        - DEPTH
ILD .OHMM     00 120 00 00         : RESD         - DEEP RESISTIVITY (DIL)
NPHI.V/V      00 330 00 00         : PHIN         - NEUTRON POROSITY (SANDSTONE)
DPHI.V/V      00 890 00 00         : PHID         - DENSITY POROSITY (SANDSTONE)
GR  .API      00 310 00 00         : GR           - GAMMA RAY
CALI.MM       00 280 01 00         : CAL          - CALIPER
~PARAMETER INFORMATION
#MNEM.UNIT           DATA             DESCRIPTION OF MNEMONIC
#---------         -----------     ------------------------------
GL  .M        610                  : gl           - GROUND LEVEL ELEVATION
EREF.M        614.3                : kb           - ELEVATION OF DEPTH REFERENCE
DATM.M        610                  : datum        - DATUM ELEVATION
TDD .M        458.5                : tdd          - TOTAL DEPTH DRILLER
RUN .         ONE                  : Run          - RUN NUMBER
ENG .         BILL                 : Engineer     - RECORDING ENGINEER
WIT .         JIM                  : Witness      - WITNESSED BY
MUD .         GEL                  : Mud_type     - MUD TYPE
MATR.         SANDSTONE            : Logunit      - NEUTRON MATRIX
TMAX.C        28                   : BHT          - MAXIMUM RECORDED TEMPERATURE
BHTD.M        458.5                : BHTDEP       - MAXIMUM RECORDED TEMPERATURE
MATR.         1                    : LOGUNIT      - NEUTRON MATRIX
RMT .C        15                   : MDTP         - TEMPERATURE OF MUD
NEUT.         1                    : NEUTRON      - NEUTRON TYPE
RESI.         0                    : RESIST       - RESISTIVITY TYPE
RMC .OHMM     5.6                  : RMC          - RESISTIVITY OF MUD CAKE
RMF .OHMM     5                    : RMF          - RESISTIVITY OF MUD FILTRATE
SUFT.C        -20                  : SUFT         - SURFACE TEMPERATURE
~A  DEPTH     RESD     PHIN     PHID       GR      CAL
# ...
  382.500   10.332    0.360    0.212  100.906  207.389
  382.750   10.176    0.343    0.210  102.598  208.816
  383.000   10.173    0.335    0.204  105.102  210.054
  383.250   10.170    0.332    0.203  104.119  211.636
  383.500   10.167    0.332    0.202  104.225  212.616
  383.750   10.201    0.335    0.200  101.673  212.589
  384.000   10.274    0.344    0.196   96.463  211.859
  384.250   10.347    0.362    0.193   93.797  211.264
  384.500   10.344    0.358    0.190  101.081  210.392
  384.750   10.496    0.339    0.190  104.448  210.372
  385.000   10.650    0.331    0.197  105.460  210.347
  385.250   10.767    0.329    0.207  107.015  210.321
  385.500   10.864    0.334    0.214  108.873  210.397
  385.750   11.091    0.349    0.213  106.439  210.770
  386.000   11.438    0.345    0.210  100.382  210.738
  386.250   11.692    0.339    0.197   96.985  210.719
  386.500   11.953    0.346    0.188   97.392  210.692
  386.750   12.174    0.348    0.182   97.980  210.866
  387.000   12.285    0.338    0.178   97.601  211.345
  387.250   12.132    0.326    0.177   97.935  212.289
  387.500   11.850    0.353    0.168   99.684  213.106
  387.750   11.758    0.386    0.163   95.558  214.283
  388.000   11.864    0.375    0.171   95.242  214.562
  388.250   11.949    0.357    0.195   97.161  214.338
  388.500   11.901    0.351    0.227   99.623  214.010
  388.750   11.703    0.353    0.231  100.661  214.062
  389.000   11.609    0.353    0.183   99.890  214.452
  389.250   11.433    0.348    0.169  100.842  215.234
  389.500   11.387    0.341    0.166   99.437  215.710
  389.750   11.383    0.334    0.170   98.213  215.887
  390.000   11.380    0.328    0.172   98.802  215.865
  390.250   11.358    0.324    0.162  102.228  216.002
  390.500   11.267    0.319    0.147  103.723  216.814
  390.750   11.263    0.319    0.153  103.950  217.196
  391.000   11.260    0.326    0.160  102.907  217.270
  391.250   11.299    0.330    0.161  101.442  217.040
  391.500   11.358    0.330    0.155  100.944  216.712
  391.750   11.354    0.332    0.153  103.341  216.602
  392.000   11.350    0.341    0.157  103.328  216.159
  392.250   11.347    0.349    0.167  101.380  216.130
  392.500   11.280    0.353    0.182  103.055  215.500
  392.750   11.151    0.349    0.191  106.060  215.072
  393.000   10.962    0.341    0.191  108.945  215.150
  393.250   10.649    0.339    0.183  111.151  215.523
  393.500   10.321    0.336    0.163  111.385  215.491
  393.750   10.089    0.358    0.150  109.921  215.470
  394.000    9.807    0.350    0.149  113.713  216.049
  394.250    9.588    0.338    0.160  118.170  216.426
  394.500    9.461    0.331    0.176  120.451  216.401
  394.750    9.402    0.327    0.187  118.912  216.285
  395.000    9.473    0.326    0.195  116.125  215.839
  395.250    9.755    0.336    0.204  118.287  215.411
  395.500   10.380    0.340    0.205  119.360  214.986
  395.750   11.336    0.341    0.202  118.136  214.358
  396.000   12.650    0.337    0.201  114.979  213.627
  396.250   14.879    0.328    0.213  111.264  213.107
  396.500   17.980    0.328    0.227  108.481  212.660
  396.750   22.175    0.318    0.221  105.084  212.637
  397.000   27.033    0.296    0.200  101.504  212.312
  397.250   31.312    0.278    0.170   97.621  212.086
  397.500   33.523    0.270    0.141   93.558  211.959
  397.750   33.406    0.275    0.126   89.068  211.523
  398.000   32.880    0.285    0.131   86.031  211.502
  398.250   33.117    0.300    0.146   83.120  211.473
  398.500   33.914    0.305    0.158   78.755  211.449
  398.750   35.436    0.305    0.167   76.927  211.221
  399.000   37.676    0.300    0.164   77.939  210.892
  399.250   41.078    0.286    0.133   77.749  210.864
  399.500   45.469    0.282    0.125   74.460  210.840
  399.750   49.294    0.253    0.130   69.372  210.809
  400.000   52.042    0.221    0.117   63.919  211.086
  400.250   51.223    0.192    0.093   60.883  211.265
  400.500   46.668    0.176    0.068   62.438  211.243
  400.750   39.040    0.189    0.068   71.109  211.209
  401.000   32.755    0.209    0.078   75.878  211.185
  401.250   28.792    0.247    0.089   77.312  211.162
  401.500   25.784    0.271    0.099   78.384  211.135
  401.750   23.128    0.281    0.115   81.993  211.109
  402.000   20.861    0.283    0.136   86.931  211.084
  402.250   18.890    0.290    0.152   88.383  211.051
  402.500   17.351    0.320    0.169   90.886  211.024
  402.750   16.834    0.327    0.187   96.427  210.600
  403.000   17.080    0.307    0.180   98.164  210.473
  403.250   18.100    0.284    0.154   95.612  210.245
  403.500   19.897    0.267    0.123   89.859  209.817
  403.750   22.447    0.245    0.101   82.148  209.386
  404.000   23.331    0.230    0.087   75.084  209.362
  404.250   23.151    0.231    0.094   70.721  211.347
  404.500   21.822    0.254    0.115   71.430  213.636
  404.750   20.008    0.278    0.156   76.730  215.020
  405.000   18.240    0.300    0.200   83.601  215.296
  405.250   16.543    0.335    0.202   87.340  215.265
  405.500   15.312    0.336    0.201   91.602  215.238
  405.750   14.634    0.344    0.203   95.212  214.412
  406.000   14.309    0.351    0.199   95.017  213.884
  406.250   14.199    0.354    0.194   92.224  213.457
  406.500   14.221    0.351    0.191   88.282  213.030
  406.750   14.344    0.339    0.199   84.980  212.595
  407.000   14.451    0.328    0.204   85.466  212.563
  407.250   14.882    0.317    0.205   84.724  212.542
  407.500   15.327    0.322    0.204   83.260  213.124
  407.750   15.729    0.328    0.199   82.401  213.905
  408.000   16.138    0.328    0.190   82.687  214.584
  408.250   16.849    0.316    0.174   83.223  214.956
  408.500   17.377    0.313    0.152   79.936  214.931
  408.750   17.632    0.309    0.149   78.954  214.903
  409.000   17.694    0.306    0.155   84.135  214.877
  409.250   17.622    0.307    0.166   87.866  214.852
  409.500   17.485    0.310    0.179   87.488  214.827
  409.750   17.240    0.305    0.187   85.345  214.711
  410.000   16.709    0.294    0.184   85.582  214.270
  410.250   16.090    0.297    0.174   87.256  214.244
  410.500   15.584    0.306    0.174   87.302  213.914
  410.750   15.065    0.317    0.181   88.134  213.688
  411.000   14.482    0.327    0.192   91.985  213.666
  411.250   13.759    0.335    0.194  101.462  213.632
  411.500   13.336    0.334    0.191  104.215  213.608
  411.750   12.841    0.340    0.186  102.989  213.985
  412.000   12.579    0.338    0.172  102.492  214.662
  412.250   12.436    0.332    0.158  103.082  215.240
  412.500   12.363    0.330    0.147  103.126  215.721
  412.750   12.358    0.349    0.141   98.699  216.497
  413.000   12.354    0.352    0.137   97.174  216.471
  413.250   12.350    0.350    0.133  101.750  216.447
  413.500   12.347    0.343    0.130  106.869  216.116
  413.750   12.297    0.332    0.127  109.995  215.890
  414.000   12.202    0.324    0.123  110.582  215.870
  414.250   12.068    0.329    0.114  110.988  215.920
  414.500   11.879    0.330    0.098  115.503  216.312
  414.750   11.612    0.317    0.074  115.490  216.689
  415.000   11.351    0.322    0.072  110.764  217.070
  415.250   11.097    0.333    0.098  103.498  218.054
  415.500   10.849    0.340    0.136   98.286  219.538
  415.750   10.572    0.336    0.157  103.243  220.715
  416.000   10.407    0.339    0.155  108.765  220.685
  416.250   10.249    0.343    0.145  112.615  221.067
  416.500   10.152    0.339    0.141  112.479  222.954
  416.750   10.111    0.329    0.141  107.873  223.329
  417.000   10.107    0.316    0.142  101.878  221.391
  417.250   10.119    0.296    0.138  103.299  218.124
  417.500   10.195    0.283    0.126  114.109  216.002
  417.750   11.053    0.294    0.125  117.233  214.363
  418.000   12.311    0.296    0.132  117.096  213.328
  418.250   14.008    0.292    0.130  113.820  212.095
  418.500   16.128    0.281    0.112  107.706  210.563
  418.750   19.091    0.272    0.081   97.367  209.243
