~VERSION INFORMATION
 VERS.                 2.0:   CWLS LOG ASCII STANDARD -VERSION 2.0
 WRAP.                  NO:   ONE LINE PER DEPTH STEP
~WELL INFORMATION BLOCK
#MNEM.UNIT           DATA                    DESCRIPTION OF MNEMONIC
#---------    -------------------            -------------------------------
# Generated from Intellog Unique Number	CC_80_83/WELL/2307
NULL.         -999.25                        : NULL_VALUE
WELL.         ICGR CDN OXY NEWBY             : Well_name    - WELL
LOC .         07-34-081-05W4                 : Location     - LOCATION          
UWI .         00/07-34-081-05W4/0            : Uwi          - UNIQUE WELL ID    
ENTR.         DW                             : Entered      - ENTERED BY        
SRVC.         SCHLUMBERGER                   : Scn          - SERVICE COMPANY   
DATE.         29 JAN 86                      : Date         - LOG DATE
STRT.M        100                            : top_depth    - START DEPTH       
STOP.M        280.001                        : bot_depth    - STOP DEPTH        
STEP.M        0.3                            : increment    - STEP LENGTH       
~CURVE INFORMATION BLOCK
#MNEM UNIT       ERCB CURVE CODE    CURVE DESCRIPTION
#-----------   ------------------   ----------------------------------
DEPT.M        00 001 00 00         : DEPTH        - DEPTH                       
DPHI.V/V      00 890 00 00         : PHID         - DENSITY POROSITY (LIMESTONE)
NPHI.V/V      00 330 00 00         : PHIN         - NEUTRON POROSITY (LIMESTONE)
GR  .API      00 310 00 00         : GR           - GAMMA RAY                   
ILD .OHMM     00 120 00 00         : RESD         - DEEP RESISTIVITY (DIL)      
~PARAMETER INFORMATION       
#MNEM.UNIT           DATA             DESCRIPTION OF MNEMONIC
#---------         -----------     ------------------------------
GL  .M        469                  : gl           - GROUND LEVEL ELEVATION      
EREF.M        472                  : kb           - ELEVATION OF DEPTH REFERENCE
DATM.M        472                  : datum        - DATUM ELEVATION             
TDD .M        289                  : tdd          - TOTAL DEPTH DRILLER         
RUN .         ONE                  : Run          - RUN NUMBER                  
ENG .         BILL                 : Engineer     - RECORDING ENGINEER          
WIT .         JIM                  : Witness      - WITNESSED BY                
MUD .         GEL                  : Mud_type     - MUD TYPE                    
MATR.         LIMESTONE            : Logunit      - NEUTRON MATRIX              
TMAX.C        21                   : BHT          - MAXIMUM RECORDED TEMPERATURE
BHTD.M        288                  : BHTDEP       - MAXIMUM RECORDED TEMPERATURE
MATR.         1                    : LOGUNIT      - NEUTRON MATRIX              
RMT .C        25                   : MDTP         - TEMPERATURE OF MUD          
NEUT.         1                    : NEUTRON      - NEUTRON TYPE                
RESI.         0                    : RESIST       - RESISTIVITY TYPE            
RMC .OHMM     0.25                 : RMC          - RESISTIVITY OF MUD CAKE     
RMF .OHMM     0.25                 : RMF          - RESISTIVITY OF MUD FILTRATE 
SUFT.C        15                   : SUFT         - SURFACE TEMPERATURE         
~A  DEPTH     PHID     PHIN       GR     RESD
# ...
  204.401    0.322    0.395   77.504    4.247
  204.701    0.316    0.369   68.852    5.036
  205.001    0.292    0.341   66.988    5.749
  205.301    0.176    0.331   70.070    6.085
  205.601    0.125    0.334   80.556    6.440
  205.901    0.171    0.337   86.723    6.563
  206.201    0.190    0.358   90.417    6.816
  206.501    0.191    0.394   89.173    6.688
  206.801    0.186    0.434   87.930    6.687
  207.101    0.186    0.410   91.010    6.562
  207.401    0.193    0.387  100.879    6.199
  207.701    0.199    0.412  103.960    5.857
  208.001    0.203    0.428  103.951    5.747
  208.301    0.198    0.445  105.177    5.747
  208.601    0.186    0.467  107.020    5.328
  208.901    0.205    0.485  105.157    5.034
  209.201    0.203    0.498  107.620    4.755
  209.501    0.196    0.504  113.785    4.666
  209.801    0.193    0.507  113.158    4.755
  210.101    0.191    0.507  110.681    4.755
  210.401    0.193    0.513  108.818    4.755
  210.701    0.201    0.508  107.574    4.666
  211.001    0.208    0.509  108.803    4.666
  211.301    0.215    0.537  112.497    4.492
  211.601    0.230    0.528  111.254    4.325
  211.901    0.230    0.491  107.541    4.164
  212.201    0.209    0.501  102.591    4.164
  212.501    0.224    0.534   98.260    4.086
  212.801    0.233    0.508   98.254    4.086
  213.101    0.212    0.485  102.566    4.086
  213.401    0.211    0.461  106.260    4.009
  213.701    0.238    0.460  105.635    3.717
  214.001    0.211    0.516  104.393    3.446
  214.301    0.179    0.519  105.618    3.445
  214.601    0.161    0.489  105.610    3.716
  214.901    0.159    0.445  101.896    3.933
  215.201    0.168    0.466  100.653    4.323
  215.501    0.175    0.491  105.582    4.752
  215.801    0.174    0.447  106.809    4.752
  216.101    0.166    0.442  106.182    4.576
  216.401    0.169    0.466  104.938    4.575
  216.701    0.178    0.469  104.931    4.405
  217.001    0.183    0.467  106.773    4.405
  217.301    0.184    0.462  107.383    4.405
  217.601    0.178    0.452  107.993    4.405
  217.901    0.167    0.444  106.131    4.405
  218.201    0.167    0.448  102.417    4.405
  218.501    0.178    0.451  103.027    4.322
  218.801    0.189    0.418  104.253    4.161
  219.101    0.197    0.427  101.774    4.161
  219.401    0.220    0.412   62.247    4.241
  219.701    0.244    0.230   61.003    4.488
  220.001    0.251    0.248   64.083    5.028
  220.301    0.252    0.261   56.047    6.309
  220.601    0.279    0.264   44.924    8.223
  220.901    0.310    0.263   35.651   10.717
  221.201    0.317    0.204   30.087   13.197
  221.501    0.324    0.175   23.903   16.251
  221.801    0.322    0.182   23.276   23.283
  222.101    0.322    0.193   26.353   32.732
  222.401    0.336    0.216   28.200   39.551
  222.701    0.353    0.242   31.278   39.549
  223.001    0.361    0.287   27.562   30.343
  223.301    0.347    0.319   23.234   12.947
  223.601    0.322    0.348   18.284    5.421
  223.901    0.311    0.355   22.598    4.402
  224.201    0.292    0.348   36.174    4.004
  224.501    0.299    0.382   34.313    4.159
  224.801    0.319    0.387   27.512    4.838
  225.101    0.331    0.381   26.886    7.064
  225.401    0.335    0.388   29.962   12.702
  225.701    0.323    0.393   33.657   20.775
  226.001    0.302    0.368   33.651   24.632
  226.301    0.294    0.395   33.026   24.632
  226.601    0.314    0.386   35.487   21.170
  226.901    0.261    0.383   64.498   12.942
  227.201    0.256    0.441   42.260    9.743
  227.501    0.276    0.435   34.226    8.863
  227.801    0.283    0.338   29.276    9.032
  228.101    0.277    0.315   27.415    9.929
  228.401    0.270    0.326   31.108   13.188
  228.701    0.275    0.339   33.573   17.516
  229.001    0.276    0.345   34.181   21.165
  229.301    0.285    0.339   33.555   22.829
  229.601    0.308    0.323   34.164   23.708
  229.901    0.315    0.325   36.623   23.263
  230.201    0.302    0.381   35.998   21.979
  230.501    0.288    0.371   36.607   18.890
  230.801    0.290    0.382   39.685   15.931
  231.101    0.309    0.393   40.913   13.184
  231.401    0.320    0.374   45.842   11.331
  231.701    0.297    0.382   60.652   10.705
  232.001    0.261    0.408   60.027   10.307
  232.301    0.280    0.417   48.904    9.028
  232.601    0.325    0.409   32.224    8.213
  232.901    0.339    0.393   28.511    9.376
  233.201    0.334    0.386   29.736   11.546
  233.501    0.335    0.377   30.344   14.765
  233.801    0.338    0.364   38.363   17.507
  234.101    0.314    0.348   55.025   17.841
  234.401    0.277    0.359   59.956   15.925
  234.701    0.280    0.397   56.244    9.553
  235.001    0.300    0.417   44.502    6.181
  235.301    0.324    0.418   33.380    3.925
  235.601    0.334    0.387   25.343    3.708
  235.901    0.331    0.379   26.571    4.154
  236.201    0.316    0.362   38.911    5.115
  236.501    0.275    0.357   59.895    5.839
  236.801    0.264    0.370   59.887    6.541
  237.101    0.279    0.397   49.999    4.925
  237.401    0.312    0.400   32.700    2.687
  237.701    0.331    0.389   27.753    2.399
  238.001    0.338    0.364   27.122    1.806
  238.301    0.336    0.364   27.735    1.612
  238.601    0.337    0.373   30.813    1.439
  238.901    0.338    0.379   33.273    1.412
  239.201    0.338    0.378   32.646    1.412
  239.501    0.336    0.378   31.404    1.439
  239.801    0.337    0.373   30.777    1.466
  240.101    0.342    0.374   32.005    1.466
  240.401    0.344    0.369   30.758    1.494
  240.701    0.346    0.363   30.135    1.494
  241.001    0.341    0.369   28.891    1.466
  241.301    0.335    0.374   28.883    1.466
  241.601    0.329    0.378   31.341    1.466
  241.901    0.326    0.375   33.804    1.438
  242.201    0.326    0.383   34.412    1.438
  242.501    0.329    0.377   29.463    1.438
  242.801    0.331    0.371   30.689    1.466
  243.101    0.327    0.372   35.620    1.494
  243.401    0.318    0.374   36.230    1.494
  243.701    0.315    0.387   32.516    1.494
  244.001    0.329    0.390   26.949    1.438
  244.301    0.341    0.394   25.090    1.411
  244.601    0.346    0.404   27.549    1.385
  244.901    0.351    0.437   25.070    1.385
  245.201    0.357    0.394   25.062    1.411
  245.501    0.346    0.367   28.141    1.384
  245.801    0.337    0.372   28.750    1.384
  246.101    0.342    0.379   27.507    1.333
  246.401    0.344    0.395   26.264    1.333
  246.701    0.337    0.413   27.490    1.333
  247.001    0.339    0.392   28.716    1.308
  247.301    0.330    0.379   31.175    1.308
  247.602    0.315    0.370   34.873    1.308
  247.902    0.317    0.367   37.951    1.283
  248.202    0.325    0.387   41.028    1.308
  248.502    0.335    0.401   40.403    1.384
  248.802    0.339    0.389   31.751    1.437
  249.102    0.340    0.387   44.091    1.641
  249.402    0.313    0.449   58.901    1.770
  249.702    0.298    0.443   82.972    1.909
  250.002    0.239    0.398   81.728    2.059
  250.302    0.235    0.404   63.813    2.179
  250.602    0.248    0.409   59.483    2.179
  250.902    0.287    0.390   66.884    1.770
  251.202    0.318    0.364   72.433    1.641
  251.502    0.290    0.409   63.161    1.580
  251.802    0.298    0.422   67.475    1.610
  252.102    0.309    0.387   73.023    1.838
  252.402    0.244    0.385   68.075    2.138
  252.702    0.272    0.405   60.040    2.350
  253.002    0.284    0.402   69.293    2.583
  253.302    0.214    0.374   81.632    2.583
  253.602    0.258    0.369   84.712    2.487
  253.902    0.277    0.381   63.092    2.395
  254.202    0.300    0.391   53.822    1.945
  254.502    0.314    0.396   48.256    1.609
  254.802    0.332    0.427   40.219    1.520
  255.102    0.343    0.412   46.381    1.464
  255.402    0.337    0.378   50.081    1.464
  255.702    0.316    0.382   52.541    1.549
  256.002    0.301    0.381   53.151    1.609
  256.302    0.286    0.374   58.082    1.802
