~VERSION INFORMATION
 VERS.                 2.0:   CWLS LOG ASCII STANDARD -VERSION 2.0
 WRAP.                  NO:   ONE LINE PER DEPTH STEP
~WELL INFORMATION BLOCK
#MNEM.UNIT           DATA                    DESCRIPTION OF MNEMONIC
#---------    -------------------            -------------------------------
# Generated from Intellog Unique Number	CS_69_70/WELL/620
NULL.         -999.25                        : NULL_VALUE
WELL.         MAYNARD ENERGY                 : Well_name    - WELL              
LOC .         00/03-20-070-15W4/0            : Location     - LOCATION          
UWI .         00/03-20-070-15W4/0            : Uwi          - UNIQUE WELL ID    
ENTR.         SP                             : Entered      - ENTERED BY        
SRVC.         SCHLUMBERGER                   : Scn          - SERVICE COMPANY   
STRT.M        270                            : top_depth    - START DEPTH       
STOP.M        489                            : bot_depth    - STOP DEPTH        
STEP.M        0.25                           : increment    - STEP LENGTH       
~CURVE INFORMATION BLOCK
#MNEM UNIT       ERCB CURVE CODE    CURVE DESCRIPTION
#-----------   ------------------   ----------------------------------
DEPT.M        00 001 00 00         : DEPTH        - DEPTH                       
ILD .OHMM     00 120 00 00         : RESD         - DEEP RESISTIVITY (DIL)      
DPHI.V/V      00 890 00 00         : PHID         - DENSITY POROSITY (LIMESTONE)
NPHI.V/V      00 330 00 00         : PHIN         - NEUTRON POROSITY (LIMESTONE)
GR  .API      00 310 00 00         : GR           - GAMMA RAY                   
~PARAMETER INFORMATION       
#MNEM.UNIT           DATA             DESCRIPTION OF MNEMONIC
#---------         -----------     ------------------------------
GL  .M        566.63               : gl           - GROUND LEVEL ELEVATION      
EREF.M        569.83               : kb           - ELEVATION OF DEPTH REFERENCE
DATM.M        566.63               : datum        - DATUM ELEVATION             
TDD .M        495                  : tdd          - TOTAL DEPTH DRILLER         
RUN .         ONE                  : Run          - RUN NUMBER                  
ENG .         BILL                 : Engineer     - RECORDING ENGINEER          
WIT .         JIM                  : Witness      - WITNESSED BY                
MUD .         GEL                  : Mud_type     - MUD TYPE                    
MATR.         LIMESTONE            : Logunit      - NEUTRON MATRIX              
TMAX.C        21                   : BHT          - MAXIMUM RECORDED TEMPERATURE
BHTD.M        495                  : BHTDEP       - MAXIMUM RECORDED TEMPERATURE
MATR.         1                    : LOGUNIT      - NEUTRON MATRIX              
RMT .C        25                   : MDTP         - TEMPERATURE OF MUD          
NEUT.         1                    : NEUTRON      - NEUTRON TYPE                
RESI.         0                    : RESIST       - RESISTIVITY TYPE            
RMC .OHMM     0.25                 : RMC          - RESISTIVITY OF MUD CAKE     
RMF .OHMM     0.25                 : RMF          - RESISTIVITY OF MUD FILTRATE 
SUFT.C        15                   : SUFT         - SURFACE TEMPERATURE         
~A  DEPTH     RESD     PHID     PHIN       GR
# ...
  444.000   12.633    0.224    0.347   68.305
  444.250   12.366    0.225    0.345   68.013
  444.500   12.074    0.231    0.341   67.362
  444.750   11.774    0.237    0.337   66.413
  445.000   11.564    0.224    0.330   65.705
  445.250   11.524    0.206    0.328   65.591
  445.500   11.736    0.202    0.326   65.363
  445.750   12.199    0.202    0.325   65.680
  446.000   12.573    0.215    0.326   65.940
  446.250   12.890    0.212    0.327   65.645
  446.500   13.151    0.192    0.328   63.910
  446.750   13.322    0.186    0.325   61.207
  447.000   12.957    0.186    0.327   59.833
  447.250   11.594    0.192    0.330   60.509
  447.500   10.409    0.190    0.333   65.048
  447.750    9.134    0.171    0.340   72.608
  448.000    7.844    0.161    0.348   78.230
  448.250    6.756    0.155    0.362   85.483
  448.500    6.375    0.148    0.371   95.815
  448.750    6.270    0.160    0.374  104.093
  449.000    6.474    0.175    0.372  112.132
  449.250    6.864    0.190    0.363  118.360
  449.500    7.888    0.209    0.353  105.221
  449.750    9.512    0.233    0.347   92.443
  450.000   10.739    0.246    0.344   84.429
  450.250   11.990    0.254    0.342   74.245
  450.500   13.079    0.264    0.347   64.122
  450.750   12.333    0.277    0.344   65.826
  451.000   10.758    0.293    0.337   71.817
  451.250    9.532    0.298    0.329   75.022
  451.500    8.542    0.247    0.322   80.527
  451.750    7.690    0.199    0.320   86.395
  452.000    7.017    0.170    0.319   91.781
  452.250    6.652    0.169    0.320   95.172
  452.500    6.482    0.165    0.323   98.564
  452.750    6.507    0.156    0.329  100.990
  453.000    6.621    0.146    0.331  102.391
  453.250    6.736    0.139    0.325  102.704
  453.500    6.996    0.136    0.316   99.822
  453.750    7.289    0.136    0.309   94.647
  454.000    7.720    0.157    0.306   85.005
  454.250    8.232    0.180    0.305   75.726
  454.500    8.744    0.197    0.304   70.369
  454.750    9.321    0.210    0.305   67.728
  455.000    9.825    0.210    0.307   71.906
  455.250   10.191    0.196    0.308   74.392
  455.500   10.363    0.199    0.310   76.818
  455.750   10.420    0.210    0.310   79.609
  456.000   10.453    0.218    0.310   81.312
  456.250   10.437    0.225    0.313   80.901
  456.500   10.316    0.236    0.324   78.139
  456.750    9.959    0.238    0.332   77.670
  457.000    9.473    0.240    0.337   78.709
  457.250    9.011    0.215    0.338   80.231
  457.500    8.605    0.209    0.331   80.666
  457.750    8.289    0.205    0.328   78.930
  458.000    7.997    0.200    0.323   77.497
  458.250    7.819    0.166    0.321   77.268
  458.500    7.706    0.156    0.324   80.542
  458.750    7.471    0.171    0.329   83.089
  459.000    7.155    0.186    0.347   86.602
  459.250    6.839    0.205    0.373   91.080
  459.500    6.434    0.193    0.387   98.091
  459.750    5.939    0.154    0.403  109.025
  460.000    5.298    0.134    0.420  116.339
  460.250    4.933    0.121    0.406  118.585
  460.500    4.918    0.139    0.380  115.102
  460.750    5.210    0.149    0.355  111.977
  461.000    5.625    0.163    0.337  108.795
  461.250    5.991    0.171    0.328  107.717
  461.500    6.187    0.158    0.326  107.791
  461.750    6.366    0.146    0.325  107.080
  462.000    6.497    0.153    0.325  102.689
  462.250    6.595    0.166    0.326   99.385
  462.500    6.652    0.172    0.328   97.167
  462.750    6.693    0.176    0.332   95.791
  463.000    6.604    0.166    0.333   94.056
  463.250    6.337    0.166    0.338   93.043
  463.500    6.264    0.175    0.340   92.273
  463.750    6.403    0.184    0.343   92.827
  464.000    6.485    0.186    0.345   97.910
  464.250    6.583    0.178    0.347  103.474
  464.500    6.673    0.174    0.348  107.650
  464.750    6.763    0.177    0.346  108.571
  465.000    6.999    0.169    0.340  106.778
  465.250    7.276    0.157    0.334  105.884
  465.500    7.544    0.145    0.328  104.568
  465.750    7.748    0.141    0.322  100.598
  466.000    7.911    0.144    0.315   91.560
  466.250    8.066    0.159    0.313   84.455
  466.500    8.229    0.164    0.314   77.351
  466.750    8.310    0.173    0.328   73.861
  467.000    8.254    0.191    0.334   67.778
  467.250    7.955    0.213    0.326   65.681
  467.500    7.817    0.245    0.314   72.693
  467.750    7.655    0.229    0.307   79.406
  468.000    7.582    0.203    0.302   84.850
  468.250    7.469    0.194    0.296   88.667
  468.500    7.397    0.184    0.297   89.097
  468.750    7.349    0.184    0.302   87.904
  469.000    7.317    0.176    0.305   86.049
  469.250    7.212    0.164    0.307   84.612
  469.500    7.066    0.183    0.306   82.756
  469.750    6.726    0.199    0.304   80.239
  470.000    6.572    0.208    0.301   78.320
  470.250    6.200    0.202    0.298   76.822
  470.500    6.151    0.191    0.298   75.206
  470.750    5.965    0.184    0.297   73.590
  471.000    5.754    0.180    0.299   71.798
  471.250    5.479    0.188    0.300   71.024
  471.500    5.301    0.188    0.299   70.010
  471.750    5.066    0.185    0.299   70.867
  472.000    4.985    0.183    0.299   72.571
  472.250    4.742    0.181    0.299   74.153
  472.500    4.491    0.191    0.302   74.166
  472.750    4.208    0.197    0.309   71.288
  473.000    3.851    0.192    0.311   67.677
  473.250    3.705    0.189    0.309   58.640
  473.500    3.487    0.199    0.306   50.928
  473.750    3.276    0.215    0.305   46.960
  474.000    3.131    0.242    0.305   50.111
  474.250    3.058    0.272    0.314   59.357
  474.500    3.051    0.268    0.320   66.912
  474.750    3.043    0.252    0.322   73.382
  475.000    3.027    0.240    0.326   76.232
  475.250    2.939    0.230    0.327   76.424
  475.500    2.826    0.243    0.329   69.440
  475.750    2.680    0.252    0.330   59.798
  476.000    2.526    0.269    0.333   53.838
  476.250    2.438    0.285    0.337   50.955
  476.500    2.414    0.301    0.340   50.667
  476.750    2.414    0.295    0.341   51.948
  477.000    2.440    0.276    0.340   52.865
  477.250    2.424    0.262    0.338   53.967
  477.500    2.400    0.252    0.338   54.159
  477.750    2.360    0.247    0.342   52.242
  478.000    2.669    0.248    0.344   50.203
  478.250    2.678    0.248    0.340   51.725
  478.500    2.662    0.246    0.337   50.895
  478.750    2.630    0.243    0.334   48.736
  479.000    2.582    0.248    0.331   45.913
  479.250    2.493    0.274    0.331   40.376
  479.500    2.413    0.293    0.330   37.131
  479.750    2.251    0.304    0.329   36.842
  480.000    2.211    0.300    0.329   37.763
  480.250    2.163    0.299    0.329   38.678
  480.500    2.164    0.297    0.329   39.842
  480.750    2.213    0.318    0.329   40.399
  481.000    2.238    0.313    0.329   40.287
  481.250    2.279    0.307    0.328   39.337
  481.500    2.280    0.302    0.327   37.779
  481.750    2.288    0.300    0.327   38.759
  482.000    2.175    0.300    0.326   40.521
  482.250    2.289    0.296    0.324   42.226
  482.500    2.436    0.294    0.323   43.989
  482.750    2.599    0.292    0.322   46.477
  483.000    2.697    0.287    0.321   48.962
  483.250    2.803    0.264    0.320   50.365
  483.500    2.836    0.241    0.319   51.042
  483.750    2.861    0.222    0.319   52.019
  484.000    2.870    0.250    0.326   56.558
  484.250    2.863    0.268    0.325   67.915
  484.500    2.863    0.279    0.322  140.334
  484.750    2.856    0.283    0.320  150.485
  485.000    2.840    0.277    0.319  152.791
  485.250    2.865    0.271    0.319  153.711
  485.500    2.865    0.265    0.322  147.327
  485.750    2.874    0.258    0.326  113.007
  486.000    2.899    0.251    0.328   87.437
  486.250    2.884    0.255    0.330   56.134
  486.500    2.819    0.263    0.330   47.881
  486.750    2.779    0.267    0.328   45.785
  487.000    2.755    0.268    0.327   45.193
  487.250    2.740    0.268    0.326   45.209
