~VERSION INFORMATION
 VERS.                 2.0:   CWLS LOG ASCII STANDARD -VERSION 2.0
 WRAP.                  NO:   ONE LINE PER DEPTH STEP
~WELL INFORMATION BLOCK
#MNEM.UNIT           DATA                    DESCRIPTION OF MNEMONIC
#---------    -------------------            -------------------------------
# Generated from Intellog Unique Number	CX_WELLS/WELL/3100
WELL.         PARAMONT ALGAR                 : Well_name    - WELL
LOC .         00/06-06-082-17W4/0            : Location     - LOCATION
UWI .         00/06-06-082-17W400            : Uwi          - UNIQUE WELL ID
ENTR.         TIM                            : Entered      - ENTERED BY
SRVC.         SCHLUMBERGER                   : Scn          - SERVICE COMPANY
STRT.F        630                            : top_depth    - START DEPTH
STOP.F        1109.82                        : bot_depth    - STOP DEPTH
STEP.F        0.82                           : increment    - STEP LENGTH
 NULL. -999.2500:NULL Value
~CURVE INFORMATION BLOCK
#MNEM UNIT       ERCB CURVE CODE    CURVE DESCRIPTION
#-----------   ------------------   ----------------------------------
DEPT.F        00 001 00 00         : DEPTH        - DEPTH
GR  .API      00 310 00 00         : GR           - GAMMA RAY
NPHI.V/V      00 330 00 00         : PHIN         - NEUTRON POROSITY (SANDSTONE)
DPHI.V/V      00 890 00 00         : PHID         - DENSITY POROSITY (SANDSTONE)
ILD .OHMM     00 120 00 00         : RESD         - DEEP RESISTIVITY (OTHER)
~PARAMETER INFORMATION
#MNEM.UNIT           DATA             DESCRIPTION OF MNEMONIC
#---------         -----------     ------------------------------
GL  .F        1777                 : gl           - GROUND LEVEL ELEVATION
EREF.F        1787                 : kb           - ELEVATION OF DEPTH REFERENCE
DATM.F        1787                 : datum        - DATUM ELEVATION
TDD .F        1120                 : tdd          - TOTAL DEPTH DRILLER
RUN .         ONE                  : Run          - RUN NUMBER
ENG .         BILL                 : Engineer     - RECORDING ENGINEER
WIT .         JIM                  : Witness      - WITNESSED BY
MUD .         GEL                  : Mud_type     - MUD TYPE
MATR.         SANDSTONE            : Logunit      - NEUTRON MATRIX
TMAX.F        68                   : BHT          - MAXIMUM RECORDED TEMPERATURE
BHTD.F        1120                 : BHTDEP       - MAXIMUM RECORDED TEMPERATURE
MATR.         1                    : LOGUNIT      - NEUTRON MATRIX
RMT .F        68                   : MDTP         - TEMPERATURE OF MUD
NEUT.         1                    : NEUTRON      - NEUTRON TYPE
RESI.         1.88                 : RESIST       - RESISTIVITY TYPE
RMC .OHMM     3.4                  : RMC          - RESISTIVITY OF MUD CAKE
RMF .OHMM     1.88                 : RMF          - RESISTIVITY OF MUD FILTRATE
SUFT.F        37.4                 : SUFT         - SURFACE TEMPERATURE
~A  DEPTH       GR     PHIN     PHID     RESD
# ...
  772.717   82.879    0.402    0.245    7.278
  773.537   82.275    0.388    0.241    7.119
  774.357   82.272    0.386    0.238    6.961
  775.177   85.270    0.387    0.237    6.722
  775.997   86.469    0.389    0.237    6.722
  776.818   91.267    0.394    0.238    6.801
  777.638   96.065    0.401    0.238    6.960
  778.458   91.861    0.403    0.239    7.039
  779.278   87.056    0.397    0.240    7.198
  780.098   82.851    0.389    0.244    7.436
  780.919   81.647    0.385    0.247    7.833
  781.739   80.443    0.388    0.254    8.309
  782.559   76.239    0.390    0.258    8.944
  783.379   69.033    0.385    0.265    9.738
  784.199   63.027    0.372    0.274   10.849
  785.020   57.021    0.367    0.265   12.278
  785.840   58.818    0.377    0.243   12.198
  786.660   61.216    0.384    0.220   11.642
  787.480   65.415    0.387    0.228   10.690
  788.301   68.413    0.391    0.245    9.975
  789.121   75.013    0.427    0.251    9.340
  789.941   77.410    0.431    0.250    9.022
  790.761   78.007    0.426    0.244    8.863
  791.581   79.804    0.421    0.237    8.783
  792.402   83.402    0.416    0.233    8.783
  793.222   84.601    0.410    0.227    8.783
  794.042   88.199    0.408    0.225    8.783
  794.862   90.597    0.407    0.224    8.703
  795.682   95.394    0.410    0.220    8.624
  796.503   97.193    0.415    0.219    8.386
  797.323  101.392    0.421    0.221    8.227
  798.143  105.590    0.431    0.226    8.068
  798.963  106.187    0.429    0.227    7.671
  799.783  106.784    0.427    0.227    7.194
  800.604  106.781    0.420    0.222    6.559
  801.424  103.776    0.417    0.218    6.321
  802.244  101.973    0.413    0.222    6.638
  803.064  100.168    0.408    0.228    7.273
  803.885   98.365    0.404    0.232    7.908
  804.705   97.160    0.400    0.232    8.543
  805.525   96.557    0.394    0.222   10.210
  806.345   94.153    0.389    0.174   10.607
  807.165   89.949    0.376    0.168   11.242
  807.986   83.944    0.312    0.152   12.035
  808.806   77.337    0.298    0.137   12.035
  809.626   81.536    0.342    0.163   12.035
  810.446   88.135    0.364    0.185   12.670
  811.266   93.533    0.398    0.208   12.670
  812.087   95.332    0.399    0.219   11.876
  812.907   97.729    0.399    0.222   11.161
  813.727   96.526    0.402    0.224   10.447
  814.547   95.922    0.404    0.225   10.129
  815.367   94.118    0.409    0.225    9.811
  816.188   86.913    0.412    0.226    9.652
  817.008   85.109    0.420    0.227    9.414
  817.828   91.707    0.423    0.228    9.414
  818.648   94.706    0.422    0.228    9.255
  819.469   94.703    0.423    0.228    9.096
  820.289   90.498    0.429    0.228    9.096
  821.109   87.494    0.434    0.229    9.096
  821.929   86.891    0.433    0.229    9.096
  822.749   86.887    0.423    0.231    8.937
  823.570   87.484    0.423    0.232    8.698
  824.390   89.882    0.424    0.232    8.539
  825.210   93.480    0.417    0.232    8.380
  826.030   94.676    0.423    0.232    8.301
  826.850   95.274    0.435    0.231    8.142
  827.671   93.471    0.447    0.231    8.062
  828.491   89.264    0.445    0.231    7.983
  829.311   90.463    0.431    0.229    8.062
  830.131   94.662    0.415    0.226    8.141
  830.951   93.458    0.401    0.220    8.459
  831.772   89.853    0.382    0.207    8.617
  832.592   85.048    0.352    0.196    8.855
  833.412   80.243    0.306    0.187    9.093
  834.232   68.235    0.260    0.163    9.252
  835.052   67.032    0.238    0.142    9.331
  835.873   64.027    0.272    0.122    9.569
  836.693   62.823    0.310    0.094    9.649
  837.513   71.224    0.334    0.118    9.887
  838.333   75.422    0.376    0.173    9.886
  839.154   77.219    0.388    0.245    9.807
  839.974   77.817    0.389    0.243    9.648
  840.794   82.014    0.389    0.243    9.330
  841.614   84.413    0.382    0.242    9.171
  842.434   85.010    0.373    0.247    9.092
  843.255   85.007    0.362    0.269    8.933
  844.075   84.403    0.350    0.274    8.933
  844.895   82.599    0.356    0.272    8.933
  845.715   74.193    0.364    0.267    8.853
  846.535   72.988    0.369    0.266    8.853
  847.356   75.387    0.373    0.267    8.773
  848.176   78.986    0.380    0.262    8.614
  848.996   81.384    0.385    0.254    8.456
  849.816   82.580    0.387    0.246    8.217
  850.636   83.777    0.391    0.242    8.058
  851.457   85.575    0.396    0.242    7.899
  852.277   87.371    0.398    0.239    7.661
  853.097   87.370    0.398    0.234    7.582
  853.917   86.767    0.398    0.232    7.661
  854.738   84.361    0.397    0.239    7.899
  855.558   83.158    0.391    0.247    8.058
  856.378   80.754    0.383    0.258    8.296
  857.198   78.350    0.367    0.265    8.772
  858.018   77.146    0.360    0.263    9.168
  858.839   74.742    0.354    0.265    9.486
  859.659   72.338    0.344    0.266    9.883
  860.479   72.335    0.331    0.265   10.280
  861.299   73.532    0.318    0.228   10.994
  862.119   74.129    0.300    0.214   11.708
  862.940   72.926    0.258    0.174   14.963
  863.760   68.719    0.235    0.154   16.948
  864.580   67.517    0.105    0.119   20.203
  865.400   66.314    0.082    0.035   21.869
  866.220   71.112    0.110    0.035   21.949
  867.041   75.311    0.162    0.119   20.678
  867.861   78.309    0.309    0.193   18.217
  868.681   80.106    0.339    0.240   16.153
  869.501   81.904    0.363    0.235   14.803
  870.322   83.701    0.381    0.230   13.136
  871.142   85.499    0.390    0.228   12.580
  871.962   88.497    0.397    0.228   11.627
  872.782   91.494    0.399    0.228   10.436
  873.602   93.893    0.403    0.223    9.880
  874.423   96.890    0.405    0.211    9.404
  875.243   98.688    0.411    0.211    9.086
  876.063   99.885    0.417    0.213    8.768
  876.883  101.082    0.418    0.215    8.609
  877.703  101.079    0.417    0.220    8.450
  878.524  100.475    0.415    0.222    8.450
  879.344   99.873    0.411    0.222    8.450
  880.164   98.669    0.407    0.218    8.609
  880.984   96.866    0.405    0.210    8.688
  881.804   95.662    0.403    0.197    8.847
  882.625   93.257    0.401    0.204    8.926
  883.445   93.254    0.400    0.208    8.926
  884.265   96.252    0.400    0.201    8.846
  885.085   99.850    0.400    0.197    8.687
  885.906  101.648    0.400    0.195    8.608
  886.726  102.845    0.403    0.194    8.528
  887.546  103.443    0.403    0.188    8.449
  888.366  100.438    0.404    0.183    8.369
  889.186  101.035    0.405    0.177    8.290
  890.007  104.033    0.410    0.182    8.290
  890.827  108.232    0.413    0.191    8.131
  891.647  112.430    0.414    0.196    8.051
  892.467  113.628    0.416    0.202    7.654
  893.287  112.424    0.420    0.195    7.892
  894.108  110.020    0.414    0.191    8.130
  894.928  106.416    0.393    0.187    8.447
  895.748  101.010    0.390    0.182    8.765
  896.568   95.604    0.383    0.177    9.241
  897.388   93.801    0.371    0.181    9.876
  898.209   98.599    0.358    0.189   10.114
  899.029  100.997    0.348    0.191    9.955
  899.849  103.994    0.353    0.192    9.717
  900.669  103.391    0.360    0.195    9.478
  901.490  104.587    0.371    0.198    9.161
  902.310  105.786    0.385    0.199    9.002
  903.130  107.584    0.375    0.199    8.843
  903.950  104.579    0.348    0.202    8.922
  904.770  100.975    0.341    0.209    9.081
  905.591   98.571    0.323    0.218    9.478
  906.411   94.966    0.342    0.223   10.033
  907.231   87.160    0.352    0.225   10.589
  908.051   83.555    0.359    0.225   10.747
  908.871   84.152    0.359    0.225   10.747
  909.692   82.948    0.356    0.228   10.747
  910.512   81.745    0.353    0.229   10.906
  911.332   78.741    0.343    0.224   11.223
  912.152   75.736    0.339    0.216   11.779
  912.972   73.933    0.333    0.204   12.731
  913.793   69.727    0.326    0.163   13.684
  914.613   63.722    0.293    0.127   15.668
