~VERSION INFORMATION
 VERS.                 2.0:   CWLS LOG ASCII STANDARD -VERSION 2.0
 WRAP.                  NO:   ONE LINE PER DEPTH STEP
~WELL INFORMATION BLOCK
#MNEM.UNIT           DATA                    DESCRIPTION OF MNEMONIC
#---------    -------------------            -------------------------------
# Generated from Intellog Unique Number	CS_67_68/WELL/2164
WELL.         TOTAL ATMORE                   : Well_name    - WELL
LOC .         00/03-34-067-16W4/0            : Location     - LOCATION
UWI .         00/03-34-067-16W4/0            : Uwi          - UNIQUE WELL ID
ENTR.         SP                             : Entered      - ENTERED BY
SRVC.         SCHLUMBERGER                   : Scn          - SERVICE COMPANY
STRT.M        300                            : top_depth    - START DEPTH
STOP.M        462                            : bot_depth    - STOP DEPTH
STEP.M        0.25                           : increment    - STEP LENGTH
 NULL. -999.2500:NULL Value
~CURVE INFORMATION BLOCK
#MNEM UNIT       ERCB CURVE CODE    CURVE DESCRIPTION
#-----------   ------------------   ----------------------------------
DEPT.M        00 001 00 00         : DEPTH        - DEPTH
ILD .OHMM     00 120 00 00         : RESD         - DEEP RESISTIVITY (DIL)
DPHI.V/V      00 890 00 00         : PHID         - DENSITY POROSITY (LIMESTONE)
NPHI.V/V      00 330 00 00         : PHIN         - NEUTRON POROSITY (LIMESTONE)
GR  .API      00 310 00 00         : GR           - GAMMA RAY
CALI.MM       00 280 01 00         : CAL          - CALIPER
~PARAMETER INFORMATION
#MNEM.UNIT           DATA             DESCRIPTION OF MNEMONIC
#---------         -----------     ------------------------------
GL  .M        549.7                : gl           - GROUND LEVEL ELEVATION
EREF.M        553                  : kb           - ELEVATION OF DEPTH REFERENCE
DATM.M        553                  : datum        - DATUM ELEVATION
TDD .M        510                  : tdd          - TOTAL DEPTH DRILLER
RUN .         ONE                  : Run          - RUN NUMBER
ENG .         BILL                 : Engineer     - RECORDING ENGINEER
WIT .         JIM                  : Witness      - WITNESSED BY
MUD .         GEL                  : Mud_type     - MUD TYPE
MATR.         LIMESTONE            : Logunit      - NEUTRON MATRIX
TMAX.C        32                   : BHT          - MAXIMUM RECORDED TEMPERATURE
BHTD.M        509                  : BHTDEP       - MAXIMUM RECORDED TEMPERATURE
MATR.         1                    : LOGUNIT      - NEUTRON MATRIX
RMT .C        25                   : MDTP         - TEMPERATURE OF MUD
NEUT.         1                    : NEUTRON      - NEUTRON TYPE
RESI.         0                    : RESIST       - RESISTIVITY TYPE
RMC .OHMM     0.25                 : RMC          - RESISTIVITY OF MUD CAKE
RMF .OHMM     0.25                 : RMF          - RESISTIVITY OF MUD FILTRATE
SUFT.C        15                   : SUFT         - SURFACE TEMPERATURE
~A  DEPTH     RESD     PHID     PHIN       GR      CAL
# ...
  409.500    1.688    0.293    0.408   52.203  163.491
  409.750    1.701    0.294    0.402   53.041  163.467
  410.000    1.737    0.290    0.407   53.138  163.416
  410.250    1.796    0.283    0.409   55.004  163.684
  410.500    1.985    0.275    0.407   58.886  164.173
  410.750    2.180    0.273    0.409   59.787  164.424
  411.000    2.515    0.280    0.421   58.973  164.497
  411.250    2.917    0.232    0.431   59.063  164.863
  411.500    3.416    0.143    0.331   55.504  165.024
  411.750    4.338    0.067    0.212   52.187  165.303
  412.000    5.915    0.002    0.172   50.393  165.160
  412.250    6.608    0.000    0.166   49.881  164.813
  412.500    6.027    0.083    0.335   53.035  164.570
  412.750    3.941    0.162    0.365   56.248  164.430
  413.000    3.284    0.203    0.390   59.944  163.991
  413.250    2.826    0.256    0.415   61.142  163.744
  413.500    2.487    0.285    0.425   61.853  163.506
  413.750    2.281    0.282    0.437   63.419  163.375
  414.000    2.192    0.277    0.455   65.654  163.145
  414.250    2.168    0.286    0.455   68.439  163.087
  414.500    2.276    0.292    0.433   71.347  162.954
  414.750    2.454    0.266    0.448   74.684  162.513
  415.000    2.737    0.247    0.462   77.775  162.075
  415.250    2.923    0.232    0.452   80.802  161.531
  415.500    3.086    0.216    0.458   83.458  161.075
  415.750    3.229    0.196    0.465   86.792  161.138
  416.000    3.346    0.177    0.470   82.683  160.896
  416.250    3.435    0.172    0.416   86.992  161.066
  416.500    3.554    0.180    0.412   92.954  162.049
  416.750    3.867    0.189    0.433   97.020  163.431
  417.000    3.941    0.180    0.445   99.679  164.916
  417.250    4.099    0.172    0.448   98.682  166.106
  417.500    4.177    0.166    0.432   93.109  166.576
  417.750    4.185    0.167    0.420   89.606  167.249
  418.000    4.091    0.177    0.413   89.643  167.631
  418.250    4.008    0.185    0.412   92.369  167.779
  418.500    3.882    0.181    0.418   94.356  167.654
  418.750    3.774    0.179    0.426   95.493  167.399
  419.000    3.641    0.184    0.435   93.153  166.862
  419.250    3.540    0.184    0.441   92.032  166.921
  419.500    3.461    0.175    0.434   94.333  166.885
  419.750    3.371    0.172    0.430   95.039  167.050
  420.000    3.241    0.170    0.446   94.895  167.114
  420.250    3.103    0.168    0.459   96.215  167.175
  420.500    2.944    0.180    0.449   98.573  167.248
  420.750    2.757    0.192    0.450  100.503  167.828
  421.000    2.596    0.197    0.466   99.442  168.906
  421.250    2.463    0.193    0.473   95.211  171.405
  421.500    2.394    0.238    0.496   93.787  175.134
  421.750    2.332    0.255    0.541   99.439  178.139
  422.000    2.284    0.243    0.561  102.526  181.563
  422.250    2.242    0.232    0.562  100.802  183.763
  422.500    2.192    0.235    0.553   97.730  185.250
  422.750    2.167    0.242    0.548   95.444  186.638
  423.000    2.123    0.236    0.545   94.445  187.716
  423.250    2.068    0.234    0.546   96.070  189.003
  423.500    2.068    0.232    0.565   96.111  189.983
  423.750    2.135    0.234    0.569   95.474  191.376
  424.000    2.221    0.240    0.564   97.404  192.148
  424.250    2.350    0.253    0.565   99.946  189.881
  424.500    2.453    0.267    0.528  101.572  186.082
  424.750    2.586    0.250    0.475   97.583  181.863
  425.000    2.757    0.212    0.452   94.447  174.096
  425.250    2.917    0.176    0.458   95.401  165.923
  425.500    3.051    0.167    0.472   96.358  163.142
  425.750    3.127    0.158    0.482   97.007  164.626
  426.000    3.174    0.165    0.495   99.850  167.031
  426.250    3.180    0.176    0.473  102.329  167.716
  426.500    3.192    0.190    0.452  100.851  166.244
  426.750    3.234    0.191    0.443   98.012  162.460
  427.000    3.302    0.178    0.426   92.928  160.685
  427.250    3.487    0.168    0.409   85.947  159.935
  427.500    3.738    0.183    0.397   81.044  159.896
  427.750    3.992    0.189    0.386   78.158  159.959
  428.000    4.271    0.165    0.376   77.765  160.433
  428.250    4.553    0.148    0.379   80.189  160.598
  428.500    4.826    0.165    0.398   82.844  160.254
  428.750    5.106    0.175    0.416   80.690  160.217
  429.000    5.322    0.119    0.439   69.804  160.295
  429.250    5.578    0.076    0.311   62.396  160.446
  429.500    5.748    0.041    0.265   53.525  160.714
  429.750    5.835    0.059    0.228   67.909  160.780
  430.000    5.780    0.100    0.274   74.715  161.147
  430.250    5.174    0.152    0.360   79.089  161.519
  430.500    4.579    0.169    0.398   82.970  161.889
  430.750    4.271    0.167    0.402   84.539  162.773
  431.000    4.279    0.165    0.409   84.026  163.132
  431.250    4.279    0.159    0.423   82.354  163.500
  431.500    4.279    0.149    0.414   75.438  163.870
  431.750    4.263    0.143    0.405   83.652  164.040
  432.000    4.255    0.158    0.403   84.919  164.210
  432.250    4.231    0.169    0.402   86.788  164.276
  432.500    4.215    0.148    0.403   89.198  164.541
  432.750    4.175    0.137    0.410   92.657  164.905
  433.000    4.113    0.161    0.402   94.890  165.376
  433.250    4.059    0.187    0.403   97.981  165.645
  433.500    3.991    0.188    0.415   94.303  165.924
  433.750    3.910    0.180    0.427   94.947  166.092
  434.000    3.866    0.175    0.440   96.083  166.054
  434.250    3.829    0.170    0.412   95.085  165.812
  434.500    3.829    0.168    0.401   93.235  165.562
  434.750    3.837    0.166    0.395   91.560  165.219
  435.000    3.829    0.158    0.405   91.051  164.875
  435.250    3.851    0.173    0.428   92.799  164.939
  435.500    3.851    0.184    0.421   95.889  165.414
  435.750    3.851    0.188    0.416   96.964  165.782
  436.000    3.880    0.180    0.412   91.390  165.853
  436.250    3.909    0.172    0.421   89.172  165.608
  436.500    3.954    0.166    0.429   91.345  165.773
  436.750    3.991    0.173    0.430   94.494  165.745
  437.000    4.051    0.181    0.442   95.268  165.696
  437.250    4.152    0.179    0.454   94.756  165.768
  437.500    4.238    0.173    0.402   94.978  165.823
  437.750    4.368    0.175    0.386   95.197  165.786
  438.000    4.467    0.181    0.412   95.364  165.953
  438.250    4.561    0.183    0.421  100.710  166.231
  438.500    4.595    0.173    0.409  104.468  166.396
  438.750    4.604    0.165    0.402  103.776  166.260
  439.000    4.434    0.159    0.394   99.906  166.225
  439.250    3.829    0.142    0.387   95.553  166.074
  439.500    3.149    0.147    0.393   91.503  165.634
  439.750    2.740    0.187    0.435   88.672  170.268
  440.000    2.518    0.298    0.473   86.332  183.961
  440.250    2.301    0.318    0.506   86.004  195.927
  440.500    2.090    0.323    0.528   88.604  201.889
  440.750    1.906    0.328    0.538   90.903  209.377
  441.000    1.829    0.311    0.532   93.323  217.579
  441.250    1.853    0.284    0.536   92.384  222.118
  441.500    1.899    0.269    0.535   89.129  225.538
  441.750    1.998    0.262    0.516   87.888  224.079
  442.000    2.122    0.256    0.543   88.046  220.382
  442.250    2.283    0.261    0.570   87.718  215.775
  442.500    2.537    0.284    0.537   85.680  210.746
  442.750    2.943    0.309    0.455   82.610  204.095
  443.000    3.344    0.067    0.399   79.533  196.339
  443.250    3.701    0.046    0.367   74.873  188.055
  443.500    3.946    0.035    0.347   71.130  176.120
  443.750    4.128    0.061    0.337   78.371  168.052
  444.000    4.214    0.093    0.373   84.142  170.857
  444.250    3.938    0.140    0.404   87.968  175.805
  444.500    3.585    0.193    0.431   90.081  177.493
  444.750    3.376    0.215    0.444   89.933  178.594
  445.000    3.300    0.192    0.465   77.769  178.343
  445.250    3.325    0.126    0.495   65.421  177.584
  445.500    3.344    0.093    0.315   59.477  173.188
  445.750    3.313    0.107    0.343   75.320  170.900
