~VERSION INFORMATION
 VERS.                 2.0:   CWLS LOG ASCII STANDARD -VERSION 2.0
 WRAP.                  NO:   ONE LINE PER DEPTH STEP
~WELL INFORMATION BLOCK
#MNEM.UNIT           DATA                    DESCRIPTION OF MNEMONIC
#---------    -------------------            -------------------------------
# Generated from Intellog Unique Number	CS_67_68/WELL/2184
WELL.         CHIEFCO et al TWEEDIE          : Well_name    - WELL
LOC .         00/08-05-067-12W4/0            : Location     - LOCATION
UWI .         00/08-05-067-12W4/0            : Uwi          - UNIQUE WELL ID
ENTR.         SP                             : Entered      - ENTERED BY
SRVC.         SCHLUMBERGER                   : Scn          - SERVICE COMPANY
STRT.M        280                            : top_depth    - START DEPTH
STOP.M        485                            : bot_depth    - STOP DEPTH
STEP.M        0.25                           : increment    - STEP LENGTH
 NULL. -999.2500:NULL Value
~CURVE INFORMATION BLOCK
#MNEM UNIT       ERCB CURVE CODE    CURVE DESCRIPTION
#-----------   ------------------   ----------------------------------
DEPT.M        00 001 00 00         : DEPTH        - DEPTH
ILD .OHMM     00 120 00 00         : RESD         - DEEP RESISTIVITY (DIL)
DPHI.V/V      00 890 00 00         : PHID         - DENSITY POROSITY (LIMESTONE)
NPHI.V/V      00 330 00 00         : PHIN         - NEUTRON POROSITY (LIMESTONE)
GR  .API      00 310 00 00         : GR           - GAMMA RAY
CALI.MM       00 280 01 00         : CAL          - CALIPER
~PARAMETER INFORMATION
#MNEM.UNIT           DATA             DESCRIPTION OF MNEMONIC
#---------         -----------     ------------------------------
GL  .M        555.5                : gl           - GROUND LEVEL ELEVATION
EREF.M        558.5                : kb           - ELEVATION OF DEPTH REFERENCE
DATM.M        558.5                : datum        - DATUM ELEVATION
TDD .M        488                  : tdd          - TOTAL DEPTH DRILLER
RUN .         ONE                  : Run          - RUN NUMBER
ENG .         BILL                 : Engineer     - RECORDING ENGINEER
WIT .         JIM                  : Witness      - WITNESSED BY
MUD .         GEL                  : Mud_type     - MUD TYPE
MATR.         LIMESTONE            : Logunit      - NEUTRON MATRIX
TMAX.C        19                   : BHT          - MAXIMUM RECORDED TEMPERATURE
BHTD.M        487.4                : BHTDEP       - MAXIMUM RECORDED TEMPERATURE
MATR.         1                    : LOGUNIT      - NEUTRON MATRIX
RMT .C        25                   : MDTP         - TEMPERATURE OF MUD
NEUT.         1                    : NEUTRON      - NEUTRON TYPE
RESI.         0                    : RESIST       - RESISTIVITY TYPE
RMC .OHMM     0.25                 : RMC          - RESISTIVITY OF MUD CAKE
RMF .OHMM     0.25                 : RMF          - RESISTIVITY OF MUD FILTRATE
SUFT.C        15                   : SUFT         - SURFACE TEMPERATURE
~A  DEPTH     RESD     PHID     PHIN       GR      CAL
  280.000    2.314    0.341    0.515   97.960  236.519
  280.250    2.341    0.327    0.507   95.362  237.564
  280.500    2.386    0.298    0.503   96.599  237.089
  280.750    2.432    0.309    0.523   97.957  234.177
  281.000    2.521    0.329    0.489   99.682  231.980
  281.250    2.637    0.346    0.471  100.127  229.478
  281.500    2.708    0.345    0.484  101.122  227.779
  281.750    2.684    0.317    0.463  103.152  225.987
  282.000    2.656    0.294    0.469  105.423  224.292
  282.250    2.628    0.280    0.476  106.900  221.082
  282.500    2.586    0.265    0.474  104.485  217.967
  282.750    2.545    0.285    0.483  104.565  216.577
  283.000    2.495    0.321    0.489  101.844  219.549
  283.250    2.487    0.325    0.472  100.707  223.845
  283.500    2.484    0.299    0.459  104.197  224.790
  283.750    2.527    0.278    0.444  105.859  225.636
  284.000    2.566    0.266    0.447  106.674  225.569
  284.250    2.640    0.260    0.464  107.785  224.682
  284.500    2.767    0.253    0.477  109.813  223.497
  284.750    2.916    0.244    0.489  112.693  222.313
  285.000    3.056    0.237    0.475  114.661  220.414
  285.250    3.269    0.250    0.457  112.003  218.122
  285.500    3.471    0.270    0.447  110.621  216.929
  285.750    3.611    0.283    0.434  111.979  215.238
  286.000    3.701    0.092    0.423  111.998  213.848
  286.250    3.568    0.042    0.423  107.086  212.255
  286.500    3.389    0.028    0.431  103.513  208.332
  286.750    3.149    0.084    0.430  104.080  203.491
  287.000    2.986    0.239    0.418  100.873  199.667
  287.250    2.858    0.247    0.411   86.463  196.349
  287.500    2.745    0.235    0.428   86.180  198.716
  287.750    2.642    0.223    0.446   94.112  207.478
  288.000    2.604    0.215    0.460  101.378  212.986
  288.250    2.630    0.224    0.465  104.013  217.584
  288.500    2.681    0.213    0.463  104.216  218.836
  288.750    2.738    0.222    0.459  106.304  218.973
  289.000    2.806    0.237    0.459  109.002  220.019
  289.250    2.850    0.248    0.452  105.306  220.960
  289.500    2.873    0.241    0.464  106.848  220.993
  289.750    2.790    0.217    0.474  101.815  220.313
  290.000    2.680    0.202    0.463  105.550  219.735
  290.250    2.727    0.217    0.462  108.428  219.768
  290.500    2.837    0.232    0.468  108.813  217.776
  290.750    3.018    0.236    0.471  108.588  214.964
  291.000    3.204    0.247    0.481  106.903  212.252
  291.250    3.491    0.245    0.471  108.870  208.736
  291.500    3.955    0.256    0.458  104.810  207.244
  291.750    4.285    0.287    0.443  103.003  205.753
  292.000    4.409    0.324    0.436  106.736  203.552
  292.250    4.411    0.322    0.441  107.425  204.600
  292.500    4.301    0.104    0.430  104.217  200.169
  292.750    4.224    0.074    0.416  102.470  195.535
  293.000    4.050    0.252    0.427   95.428  194.649
  293.250    3.920    0.264    0.457   90.332  200.671
  293.500    3.758    0.205    0.454   95.467  198.670
  293.750    3.352    0.178    0.423   99.747  195.253
  294.000    3.040    0.196    0.405  100.315  197.517
  294.250    2.840    0.226    0.405   98.933  200.290
  294.500    2.693    0.226    0.429  100.232  200.727
  294.750    2.705    0.234    0.443  104.329  202.179
  295.000    2.824    0.269    0.441  102.521  201.703
  295.250    3.049    0.281    0.418   98.035  195.343
  295.500    3.285    0.306    0.401   91.114  190.301
  295.750    3.527    0.320    0.383   83.401  185.260
  296.000    3.697    0.088    0.370   74.166  180.421
  296.250    3.740    0.163    0.348   63.227  180.556
  296.500    3.735    0.198    0.368   73.657  184.646
  296.750    3.737    0.215    0.391   86.706  190.157
  297.000    3.767    0.243    0.417   94.942  194.962
  297.250    3.861    0.255    0.437  101.720  196.921
  297.500    3.965    0.245    0.444  105.940  192.790
  297.750    4.094    0.236    0.421  101.457  190.085
  298.000    4.197    0.230    0.401   98.429  191.235
  298.250    4.278    0.256    0.422   92.969  193.501
  298.500    4.272    0.258    0.439   97.254  197.079
  298.750    4.227    0.270    0.456  103.358  205.633
  299.000    4.230    0.276    0.426  108.674  195.722
  299.250    4.303    0.266    0.395  101.447  189.767
  299.500    4.427    0.280    0.367   93.248  191.934
  299.750    4.580    0.200    0.394   93.938  196.327
  300.000    4.668    0.188    0.415  103.822  199.096
  300.250    4.741    0.229    0.420  109.258  201.971
  300.500    4.796    0.258    0.413  105.504  203.837
  300.750    4.799    0.276    0.410  102.415  204.469
  301.000    4.767    0.205    0.416  107.732  202.775
  301.250    4.656    0.185    0.413  106.107  199.054
  301.500    4.548    0.199    0.400  104.362  196.962
  301.750    4.475    0.222    0.385  102.674  196.886
  302.000    4.387    0.243    0.412  100.441  196.819
  302.250    4.317    0.267    0.429  106.186  197.761
  302.500    4.256    0.266    0.440  110.527  200.031
  302.750    4.173    0.256    0.461  106.953  205.439
  303.000    4.098    0.274    0.463  103.014  207.602
  303.250    4.018    0.285    0.460  107.051  207.426
  303.500    3.976    0.275    0.445  109.567  206.648
  303.750    3.970    0.253    0.444  110.073  205.767
  304.000    4.025    0.240    0.433  106.865  204.079
  304.250    4.049    0.226    0.422  107.067  203.195
  304.500    4.007    0.248    0.409  107.938  203.021
  304.750    3.928    0.268    0.415  106.922  200.012
  305.000    3.873    0.259    0.424  103.474  195.069
  305.250    3.825    0.225    0.413   98.682  189.420
  305.500    3.778    0.203    0.410   93.951  185.495
  305.750    3.697    0.194    0.425   95.068  182.987
  306.000    3.584    0.192    0.423   91.859  181.500
  306.250    3.527    0.183    0.417   98.335  181.229
  306.500    3.477    0.172    0.409  102.248  181.967
  306.750    3.453    0.163    0.401  102.267  184.338
  307.000    3.481    0.168    0.391  105.759  187.112
  307.250    3.595    0.202    0.392  110.161  187.745
  307.500    3.691    0.217    0.400  114.016  185.749
  307.750    3.804    0.223    0.405  117.869  183.245
  308.000    3.928    0.249    0.399  121.237  181.457
  308.250    3.952    0.275    0.393  121.986  180.263
  308.500    3.790    0.122    0.395  105.384  179.990
  308.750    3.600    0.086    0.387   90.365  182.262
  309.000    3.433    0.124    0.380   88.193  184.217
  309.250    3.310    0.216    0.392   91.195  185.771
  309.500    3.121    0.233    0.414   93.832  186.618
  309.750    2.937    0.231    0.428   99.697  186.552
  310.000    2.775    0.236    0.421  100.141  186.681
  310.250    2.656    0.238    0.435   98.639  187.321
  310.500    2.518    0.232    0.445  102.310  189.588
  310.750    2.344    0.226    0.453  107.079  191.846
  311.000    2.194    0.222    0.447  111.424  197.663
  311.250    2.061    0.240    0.435  113.936  202.158
  311.500    1.936    0.261    0.423  118.156  201.888
  311.750    1.992    0.281    0.407  121.161  192.180
  312.000    2.084    0.294    0.394  117.952  184.802
  312.250    2.250    0.305    0.385  109.693  177.730
  312.500    2.451    0.315    0.385  103.073  177.562
  312.750    2.608    0.318    0.393   93.899  177.395
  313.000    2.682    0.303    0.393   82.594  177.323
  313.250    2.744    0.293    0.388   73.968  177.354
  313.500    2.777    0.282    0.387   79.954  177.384
  313.750    2.778    0.276    0.387   87.342  176.912
  314.000    2.795    0.272    0.389   92.047  176.642
  314.250    2.828    0.281    0.388   97.058  176.469
  314.500    2.904    0.276    0.387   97.444  176.503
  314.750    3.061    0.269    0.393   96.609  176.531
  315.000    3.202    0.267    0.403   97.361  176.258
  315.250    3.318    0.257    0.414   98.475  176.090
  315.500    3.395    0.263    0.422   99.346  175.915
  315.750    3.409    0.275    0.423   99.122  175.644
  316.000    3.387    0.263    0.429   97.436  175.978
  316.250    3.326    0.235    0.435   99.527  176.524
