~VERSION INFORMATION
 VERS.                 2.0:   CWLS LOG ASCII STANDARD -VERSION 2.0
 WRAP.                  NO:   ONE LINE PER DEPTH STEP
~WELL INFORMATION BLOCK
#MNEM.UNIT           DATA                    DESCRIPTION OF MNEMONIC
#---------    -------------------            -------------------------------
# Generated from Intellog Unique Number	CS_73_76/WELL/772
WELL.         BOW VALLEY INDUSTRIES LTD      : Well_name    - WELL
LOC .         00/07-27-073-18W4/0            : Location     - LOCATION
UWI .         00/07-27-073-18W4/0            : Uwi          - UNIQUE WELL ID
ENTR.         SP                             : Entered      - ENTERED BY
SRVC.         SCHLUMBERGER                   : Scn          - SERVICE COMPANY
STRT.M        204.216                        : top_depth    - START DEPTH
STOP.M        444.716                        : bot_depth    - STOP DEPTH
STEP.M        0.25                           : increment    - STEP LENGTH
 NULL. -999.2500:NULL Value
~CURVE INFORMATION BLOCK
#MNEM UNIT       ERCB CURVE CODE    CURVE DESCRIPTION
#-----------   ------------------   ----------------------------------
DEPT.M        00 001 00 00         : DEPTH        - DEPTH
GR  .API      00 310 00 00         : GR           - GAMMA RAY
DPHI.V/V      00 890 00 00         : PHID         - DENSITY POROSITY (SANDSTONE)
NPHI.V/V      00 330 00 00         : PHIN         - NEUTRON POROSITY (SANDSTONE)
ILD .OHMM     00 120 00 00         : RESD         - DEEP RESISTIVITY (DIL)
~PARAMETER INFORMATION
#MNEM.UNIT           DATA             DESCRIPTION OF MNEMONIC
#---------         -----------     ------------------------------
GL  .M        582.168              : gl           - GROUND LEVEL ELEVATION
EREF.M        585.216              : kb           - ELEVATION OF DEPTH REFERENCE
DATM.M        582.168              : datum        - DATUM ELEVATION
TDD .M        443.789              : tdd          - TOTAL DEPTH DRILLER
RUN .         ONE                  : Run          - RUN NUMBER
ENG .         BILL                 : Engineer     - RECORDING ENGINEER
WIT .         JIM                  : Witness      - WITNESSED BY
MUD .         GEL                  : Mud_type     - MUD TYPE
MATR.         SANDSTONE            : Logunit      - NEUTRON MATRIX
TMAX.C        22.2222              : BHT          - MAXIMUM RECORDED TEMPERATURE
BHTD.M        443.179              : BHTDEP       - MAXIMUM RECORDED TEMPERATURE
MATR.         1                    : LOGUNIT      - NEUTRON MATRIX
RMT .C        25                   : MDTP         - TEMPERATURE OF MUD
NEUT.         1                    : NEUTRON      - NEUTRON TYPE
RESI.         0                    : RESIST       - RESISTIVITY TYPE
RMC .OHMM     0.25                 : RMC          - RESISTIVITY OF MUD CAKE
RMF .OHMM     0.25                 : RMF          - RESISTIVITY OF MUD FILTRATE
SUFT.C        15                   : SUFT         - SURFACE TEMPERATURE
~A  DEPTH       GR     PHID     PHIN     RESD
# ...
  421.716   70.588    0.174    0.395    5.696
  421.966   69.597    0.179    0.409    5.685
  422.216   68.733    0.164    0.428    5.814
  422.466   69.463    0.163    0.437    5.803
  422.716   69.768    0.172    0.443    5.550
  422.966   71.577    0.180    0.439    5.147
  423.216   71.902    0.176    0.431    4.086
  423.466   71.832    0.192    0.435    3.748
  423.716   72.519    0.204    0.456    3.099
  423.966   73.600    0.207    0.484    2.724
  424.216   74.657    0.220    0.496    2.301
  424.466   75.697    0.237    0.511    2.145
  424.716   76.160    0.231    0.513    2.082
  424.966   76.935    0.211    0.510    2.031
  425.216   76.187    0.203    0.529    2.080
  425.466   75.346    0.192    0.536    2.205
  425.716   72.876    0.204    0.544    2.571
  425.966   70.718    0.189    0.488    2.908
  426.216   71.097    0.172    0.442    3.622
  426.466   72.260    0.151    0.411    4.249
  426.716   70.876    0.160    0.405    4.239
  426.966   70.483    0.162    0.418    4.301
  427.216   65.372    0.150    0.415    4.474
  427.466   61.569    0.143    0.412    4.665
  427.716   59.458    0.133    0.385    4.834
  427.966   62.196    0.121    0.372    5.111
  428.216   64.832    0.132    0.386    5.036
  428.466   65.413    0.148    0.403    4.896
  428.716   64.332    0.151    0.419    4.762
  428.966   64.989    0.138    0.421    4.630
  429.216   67.236    0.149    0.409    4.498
  429.466   69.296    0.152    0.410    4.454
  429.716   71.676    0.157    0.414    4.371
  429.966   73.809    0.166    0.420    4.376
  430.216   74.824    0.175    0.415    4.438
  430.466   74.886    0.169    0.417    4.592
  430.716   74.009    0.146    0.420    4.985
  430.966   69.948    0.124    0.417    5.396
  431.216   66.069    0.104    0.402    5.935
  431.466   62.205    0.081    0.389    6.372
  431.716   63.844    0.057    0.381    6.438
  431.966   69.703    0.081    0.348    6.182
  432.216   75.777    0.105    0.371    5.453
  432.466   80.342    0.126    0.383    4.748
  432.716   85.173    0.157    0.400    4.385
  432.966   91.316    0.163    0.416    4.035
  433.216   97.121    0.165    0.446    3.706
  433.466  100.493    0.178    0.465    3.485
  433.716  102.539    0.179    0.466    3.343
  433.966  101.382    0.194    0.478    3.248
  434.216   99.374    0.187    0.485    3.226
  434.466   95.927    0.179    0.500    3.225
  434.716   93.327    0.170    0.509    3.226
  434.966   85.872    0.176    0.496    3.226
  435.216   73.599    0.183    0.479    3.220
  435.466   64.178    0.198    0.465    3.286
  435.716   54.553    0.186    0.447    3.281
  435.966   42.582    0.179    0.435    3.316
  436.216   53.066    0.176    0.440    3.332
  436.466   59.038    0.172    0.431    3.390
  436.716   64.850    0.163    0.442    3.386
  436.966   66.767    0.170    0.452    3.455
  437.216   66.647    0.168    0.461    3.502
  437.466   67.401    0.164    0.440    3.510
  437.716   67.373    0.146    0.367    3.512
  437.966   67.389    0.128    0.043    3.469
  438.216   67.224    0.107    0.024    3.367
  438.466   66.216    0.089    0.002    3.336
  438.716   62.315    0.133    0.000    3.348
  438.966   57.804    0.164    0.000    3.578
  439.216   55.451    0.183   -0.000    4.001
  439.466   58.209    0.171   -0.000    4.727
  439.716   64.256    0.165   -0.000    5.241
  439.966   68.583    0.143    0.000    5.532
  440.216   71.300    0.125    0.000    5.706
  440.466   74.884    0.101    0.000    5.615
  440.716   78.015    0.137   -0.000    5.466
  440.966   79.059    0.153   -0.000    5.218
  441.216   78.685    0.147   -0.000    5.185
  441.466   78.760    0.169    0.029    5.031
  441.716   78.798    0.186    0.085    5.016
  441.966   78.816    0.200    0.275    5.015
  442.216   79.558    0.203    0.432    5.015
  442.466   78.741    0.189    0.436    5.015
  442.716   74.301    0.181    0.442    5.015
  442.966   72.891    0.188    0.445    5.015
  443.216   63.813    0.185    0.441    5.015
  443.466   43.281    0.176    0.410    5.015
  443.716   18.477    0.182    0.365    5.015
  443.966    3.136    0.178    0.284    5.017
  444.216    2.948    0.181    0.291    4.948
  444.466    3.163    0.188    0.291    4.931
  444.716    3.563    0.188    0.290    4.929
