~VERSION INFORMATION
 VERS.                 2.0:   CWLS LOG ASCII STANDARD -VERSION 2.0
 WRAP.                  NO:   ONE LINE PER DEPTH STEP
~WELL INFORMATION BLOCK
#MNEM.UNIT           DATA                    DESCRIPTION OF MNEMONIC
#---------    -------------------            -------------------------------
# Generated from Intellog Unique Number	CX_WELLS/WELL/3156
WELL.         SURMONT                        : Well_name    - WELL
LOC .         00/06-27-083-09W4/0            : Location     - LOCATION
UWI .         00/06-27-083-09W400            : Uwi          - UNIQUE WELL ID
ENTR.         TIM                            : Entered      - ENTERED BY
SRVC.         SCHLUMBERGER                   : Scn          - SERVICE COMPANY
DATE.         03/04/92                       : Date         - LOG DATE
STRT.F        900                            : top_depth    - START DEPTH
STOP.F        1649.67                        : bot_depth    - STOP DEPTH
STEP.F        0.82                           : increment    - STEP LENGTH
 NULL. -999.2500:NULL Value
~CURVE INFORMATION BLOCK
#MNEM UNIT       ERCB CURVE CODE    CURVE DESCRIPTION
#-----------   ------------------   ----------------------------------
DEPT.F        00 001 00 00         : DEPTH        - DEPTH
GR  .API      00 310 00 00         : GR           - GAMMA RAY
NPHI.V/V      00 330 00 00         : PHIN         - NEUTRON POROSITY (SANDSTONE)
DPHI.V/V      00 890 00 00         : PHID         - DENSITY POROSITY (SANDSTONE)
ILD .OHMM     00 120 00 00         : RESD         - DEEP RESISTIVITY (OTHER)
~PARAMETER INFORMATION
#MNEM.UNIT           DATA             DESCRIPTION OF MNEMONIC
#---------         -----------     ------------------------------
GL  .F        2455.75              : gl           - GROUND LEVEL ELEVATION
EREF.F        2465.25              : kb           - ELEVATION OF DEPTH REFERENCE
DATM.F        2465.25              : datum        - DATUM ELEVATION
TDD .F        1694                 : tdd          - TOTAL DEPTH DRILLER
RUN .         ONE                  : Run          - RUN NUMBER
ENG .         JO                   : Engineer     - RECORDING ENGINEER
WIT .         TIM                  : Witness      - WITNESSED BY
MUD .         GEL                  : Mud_type     - MUD TYPE
MATR.         SANDSTONE            : Logunit      - NEUTRON MATRIX
TMAX.F        72                   : BHT          - MAXIMUM RECORDED TEMPERATURE
BHTD.F        1694                 : BHTDEP       - MAXIMUM RECORDED TEMPERATURE
RMT .F        72                   : MDTP         - TEMPERATURE OF MUD
MUDD.LB/G     1                    : MWT          - MUD DENSITY
NEUT.         1                    : NEUTRON      - NEUTRON TYPE
RESI.         8.35                 : RESIST       - RESISTIVITY TYPE
RM  .OHMM     7.8                  : RM           - RESISTIVITY OF MUD
RMC .OHMM     9.7                  : RMC          - RESISTIVITY OF MUD CAKE
RMF .OHMM     9.7                  : RMF          - RESISTIVITY OF MUD FILTRATE
SUFT.F        32                   : SUFT         - SURFACE TEMPERATURE
~A  DEPTH       GR     PHIN     PHID     RESD
# ...
 1328.150   73.632    0.468    0.257   15.753
 1328.970   76.147    0.468    0.257   13.839
 1329.790   78.662    0.468    0.255   12.165
 1330.610   84.253    0.468    0.250   10.895
 1331.430   88.621    0.472    0.242    9.769
 1332.250   92.359    0.479    0.235    9.078
 1333.070   94.245    0.484    0.231    8.280
 1333.890   96.760    0.486    0.226    7.841
 1334.710   99.310    0.487    0.223    7.291
 1335.530   99.344    0.488    0.220    6.907
 1336.350  100.635    0.490    0.213    6.552
 1337.170  101.332    0.493    0.206    6.318
 1337.990  102.029    0.493    0.208    5.989
 1338.810  102.692    0.493    0.214    5.888
 1339.630  104.000    0.492    0.224    5.578
 1340.450  104.663    0.493    0.232    5.291
 1341.270  104.765    0.495    0.234    5.202
 1342.090  104.205    0.497    0.238    5.022
 1342.910  103.644    0.497    0.239    4.940
 1343.730  102.523    0.495    0.239    4.859
 1344.550  101.962    0.493    0.235    4.777
 1345.370  102.030    0.485    0.225    4.704
 1346.190  101.470    0.475    0.219    4.798
 1347.010  101.572    0.470    0.218    4.809
 1347.830  101.606    0.467    0.220    5.102
 1348.650  101.674    0.466    0.221    5.312
 1349.480  101.742    0.466    0.214    5.418
 1350.300  103.034    0.466    0.201    5.853
 1351.120  104.325    0.464    0.189    6.569
 1351.940  104.393    0.464    0.194    6.964
 1352.760  103.850    0.463    0.200    7.108
 1353.580  104.564    0.468    0.208    7.128
 1354.400  105.821    0.472    0.213    7.008
 1355.220  108.982    0.478    0.218    6.773
 1356.040  110.256    0.486    0.221    6.531
 1356.860  111.548    0.490    0.226    6.305
 1357.680  112.823    0.492    0.227    5.869
 1358.500  113.502    0.500    0.232    5.663
 1359.320  114.811    0.504    0.234    5.567
 1360.140  114.862    0.509    0.240    5.277
 1360.960  114.964    0.512    0.245    5.095
 1361.780  114.964    0.517    0.250    4.827
 1362.600  114.489    0.523    0.256    4.573
 1363.420  114.523    0.526    0.255    4.493
 1364.240  114.591    0.530    0.249    4.338
 1365.060  112.246    0.524    0.245    4.188
 1365.880  111.668    0.510    0.240    3.972
 1366.700  110.530    0.501    0.234    3.979
 1367.520  109.969    0.494    0.227    3.914
 1368.340  109.426    0.490    0.219    3.997
 1369.160  107.659    0.485    0.212    4.079
 1369.980  105.909    0.480    0.210    4.245
 1370.800  104.753    0.475    0.210    4.859
 1371.620  104.210    0.471    0.215    5.053
 1372.440  104.889    0.468    0.218    5.255
 1373.260  106.776    0.460    0.217    5.788
 1374.080  109.291    0.459    0.211    6.375
 1374.900  109.988    0.454    0.208    6.751
 1375.720  110.039    0.448    0.203    7.440
 1376.540  110.141    0.443    0.201    8.033
 1377.360  109.563    0.435    0.199    8.678
 1378.180  109.037    0.430    0.198    9.380
 1379.000  109.122    0.430    0.197    9.755
 1379.820  109.785    0.431    0.195   10.157
 1380.640  109.853    0.432    0.195   10.367
 1381.460  109.904    0.434    0.196   10.592
 1382.280  109.394    0.436    0.202   10.616
 1383.100  108.816    0.438    0.207   10.634
 1383.920  107.678    0.440    0.204   10.659
 1384.740  107.118    0.441    0.202   10.683
 1385.560  106.591    0.445    0.197   10.319
 1386.380  107.254    0.452    0.196   10.144
 1387.200  109.786    0.456    0.200    9.793
 1388.020  111.077    0.468    0.205    9.283
 1388.850  110.551    0.478    0.212    8.962
 1389.670  108.172    0.470    0.216    8.496
 1390.490  106.982    0.449    0.221    8.347
 1391.310  103.397    0.443    0.228    8.211
 1392.130  101.630    0.440    0.230    7.931
 1392.950   99.880    0.434    0.232    7.940
 1393.770   99.914    0.434    0.231    7.665
 1394.590  100.594    0.440    0.226    7.540
 1395.410  103.126    0.442    0.220    7.999
 1396.230  104.418    0.450    0.217    8.646
 1397.050  106.321    0.459    0.213    9.340
 1397.870  106.389    0.464    0.211    9.903
 1398.690  105.845    0.472    0.209   10.107
 1399.510  104.078    0.482    0.208   10.142
 1400.330  102.923    0.485    0.204   10.153
 1401.150  101.139    0.486    0.203    9.802
 1401.970   99.983    0.486    0.200    9.468
 1402.790  100.680    0.484    0.200    9.140
 1403.610  101.360    0.476    0.200    8.985
 1404.430  102.040    0.470    0.201    8.679
 1405.250  102.703    0.459    0.202    8.532
 1406.070  103.383    0.463    0.203    8.393
 1406.890  104.674    0.467    0.205    8.416
 1407.710  105.371    0.471    0.207    8.284
 1408.530  106.051    0.475    0.210    8.293
 1409.350  104.301    0.474    0.213    8.162
 1410.170  102.517    0.471    0.219    8.180
 1410.990  100.733    0.470    0.226    8.037
 1411.810   97.147    0.474    0.232    8.060
 1412.630   97.810    0.476    0.232    8.074
 1413.450  100.954    0.478    0.232    8.097
 1414.270  102.840    0.479    0.231    8.110
 1415.090  104.778    0.480    0.231    7.987
 1415.910  106.698    0.482    0.231    7.856
 1416.730  107.344    0.485    0.231    7.719
 1417.550  107.412    0.489    0.231    7.452
 1418.370  109.349    0.496    0.232    7.060
 1419.190  109.383    0.502    0.229    6.569
 1420.010  108.228    0.499    0.227    6.220
 1420.830  102.807    0.492    0.217    5.784
 1421.650   93.071    0.481    0.221    5.483
 1422.470   90.675    0.462    0.228    5.396
 1423.290   90.760    0.453    0.240    5.402
 1424.110   90.216    0.447    0.246    5.628
 1424.930   90.284    0.441    0.253    5.963
 1425.750   88.534    0.438    0.254    6.205
 1426.570   86.750    0.432    0.251    6.575
 1427.400   84.966    0.420    0.242    6.842
 1428.220   81.975    0.414    0.211    7.254
 1429.040   79.614    0.404    0.175    7.837
 1429.860   78.458    0.395    0.129    8.804
 1430.680   81.585    0.384    0.153    9.151
 1431.500   85.306    0.409    0.168    9.892
 1432.320   93.939    0.450    0.196   10.488
 1433.140  100.753    0.479    0.197   11.119
 1433.960  104.492    0.482    0.199   11.349
 1434.780  107.636    0.488    0.203   11.163
 1435.600  107.704    0.492    0.204   10.193
 1436.420  105.937    0.490    0.205    9.652
 1437.240  105.376    0.489    0.205    8.484
 1438.060  105.444    0.487    0.201    7.889
 1438.880  106.141    0.485    0.195    7.612
 1439.700  106.209    0.485    0.193    7.220
 1440.520  104.459    0.486    0.204    7.228
 1441.340  102.675    0.493    0.228    6.856
 1442.160  100.891    0.498    0.234    6.740
 1442.980   97.305    0.508    0.240    6.503
 1443.800   94.927    0.516    0.245    6.278
 1444.620   91.919    0.521    0.251    5.735
 1445.440   88.928    0.521    0.248    5.530
 1446.260   88.402    0.516    0.235    5.240
 1447.080   87.858    0.510    0.220    4.964
 1447.900   87.909    0.500    0.207    4.536
 1448.720   87.365    0.495    0.198    4.456
 1449.540   87.434    0.492    0.205    4.302
 1450.360   89.949    0.489    0.217    4.312
 1451.180   91.835    0.491    0.222    4.326
 1452.000   96.219    0.495    0.217    4.416
 1452.820   99.958    0.499    0.209    4.507
 1453.640  101.861    0.501    0.206    4.692
 1454.460  104.376    0.510    0.198    5.162
 1455.280  105.039    0.512    0.185    5.903
 1456.100  100.213    0.507    0.154    6.139
 1456.920   88.047    0.491    0.123    5.504
 1457.740   85.056    0.449    0.120    5.311
 1458.560   83.272    0.437    0.146    5.124
 1459.380   88.234    0.466    0.169    4.949
 1460.200   98.107    0.498    0.194    4.961
 1461.020  103.069    0.506    0.203    5.063
 1461.840  104.360    0.519    0.208    5.473
 1462.660  105.669    0.530    0.215    5.592
 1463.480  106.349    0.536    0.222    5.494
 1464.300  107.640    0.540    0.222    5.307
 1465.120  108.303    0.542    0.222    5.123
 1465.940  106.553    0.541    0.222    4.943
 1466.770  104.786    0.538    0.219    4.689
 1467.590  103.614    0.537    0.217    4.689
 1468.410  103.733    0.531    0.213    5.080
 1469.230  103.784    0.525    0.206    4.991
 1470.050  104.430    0.523    0.198    4.906
