~VERSION INFORMATION
 VERS.                 2.0:   CWLS LOG ASCII STANDARD -VERSION 2.0
 WRAP.                  NO:   ONE LINE PER DEPTH STEP
~WELL INFORMATION BLOCK
#MNEM.UNIT           DATA                    DESCRIPTION OF MNEMONIC
#---------    -------------------            -------------------------------
# Generated from Intellog Unique Number	CW_79_81/WELL/2459
WELL.         07-20-081-22W4                 : Well_name    - WELL
LOC .         00/07-20-081-22W4/0            : Location     - LOCATION
UWI .         00/07-20-081-22W4/0            : Uwi          - UNIQUE WELL ID
ENTR.         MAX                            : Entered      - ENTERED BY
SRVC.         SCHLUMBERGER                   : Scn          - SERVICE COMPANY
STRT.M        225                            : top_depth    - START DEPTH
STOP.M        439.75                         : bot_depth    - STOP DEPTH
STEP.M        0.25                           : increment    - STEP LENGTH
 NULL. -999.2500:NULL Value
~CURVE INFORMATION BLOCK
#MNEM UNIT       ERCB CURVE CODE    CURVE DESCRIPTION
#-----------   ------------------   ----------------------------------
DEPT.M        00 001 00 00         : DEPTH        - DEPTH
ILD .OHMM     00 120 00 00         : RESD         - DEEP RESISTIVITY (DIL)
NPHI.V/V      00 330 00 00         : PHIN         - NEUTRON POROSITY (SANDSTONE)
DPHI.V/V      00 890 00 00         : PHID         - DENSITY POROSITY (SANDSTONE)
GR  .API      00 310 00 00         : GR           - GAMMA RAY
CALI.MM       00 280 01 00         : CAL          - CALIPER
~PARAMETER INFORMATION
#MNEM.UNIT           DATA             DESCRIPTION OF MNEMONIC
#---------         -----------     ------------------------------
GL  .M        606.19               : gl           - GROUND LEVEL ELEVATION
EREF.M        609.8                : kb           - ELEVATION OF DEPTH REFERENCE
DATM.M        606.19               : datum        - DATUM ELEVATION
TDD .M        449                  : tdd          - TOTAL DEPTH DRILLER
RUN .         ONE                  : Run          - RUN NUMBER
ENG .         BILL                 : Engineer     - RECORDING ENGINEER
WIT .         JIM                  : Witness      - WITNESSED BY
MUD .         GEL                  : Mud_type     - MUD TYPE
MATR.         SANDSTONE            : Logunit      - NEUTRON MATRIX
TMAX.C        28                   : BHT          - MAXIMUM RECORDED TEMPERATURE
BHTD.M        449                  : BHTDEP       - MAXIMUM RECORDED TEMPERATURE
MATR.         1                    : LOGUNIT      - NEUTRON MATRIX
RMT .C        16                   : MDTP         - TEMPERATURE OF MUD
NEUT.         1                    : NEUTRON      - NEUTRON TYPE
RESI.         0                    : RESIST       - RESISTIVITY TYPE
RMC .OHMM     5                    : RMC          - RESISTIVITY OF MUD CAKE
RMF .OHMM     5                    : RMF          - RESISTIVITY OF MUD FILTRATE
SUFT.C        -20                  : SUFT         - SURFACE TEMPERATURE
~A  DEPTH     RESD     PHIN     PHID       GR      CAL
# ...
  298.000    9.834    0.480    0.321   74.624  157.105
  298.250    8.465    0.485    0.312   73.055  157.177
  298.500    7.964    0.479    0.302   67.609  157.578
  298.750    7.788    0.465    0.312   62.856  157.170
  299.000    8.130    0.454    0.324   60.417  156.468
  299.250    9.130    0.453    0.336   59.462  156.064
  299.500   10.699    0.458    0.345   59.514  156.055
  299.750   11.709    0.456    0.352   60.555  156.041
  300.000   11.796    0.447    0.352   61.045  156.030
  300.250   11.620    0.446    0.346   62.463  156.416
  300.500   11.639    0.457    0.344   62.990  156.506
  300.750   11.850    0.471    0.348   63.815  156.497
  301.000   12.090    0.482    0.355   65.352  156.487
  301.250   12.034    0.478    0.363   66.849  156.474
  301.500   12.216    0.480    0.365   64.864  156.466
  301.750   12.034    0.484    0.368   63.434  157.246
  302.000   11.922    0.482    0.366   61.470  157.435
  302.250   11.919    0.480    0.362   59.210  157.425
  302.500   12.004    0.480    0.358   57.424  157.414
  302.750   12.088    0.473    0.355   58.258  157.403
  303.000   12.085    0.470    0.361   62.455  157.391
  303.250   12.260    0.466    0.359   63.635  157.382
  303.500   12.370    0.463    0.358   64.281  157.074
  303.750   12.412    0.462    0.356   65.106  156.867
  304.000   12.340    0.466    0.355   65.931  156.760
  304.250   12.049    0.471    0.357   65.044  156.269
  304.500   11.955    0.470    0.359   61.824  155.849
  304.750   11.864    0.464    0.357   63.479  155.839
  305.000   11.709    0.454    0.358   64.245  155.829
  305.250   11.535    0.456    0.357   64.476  155.818
  305.500   11.364    0.465    0.356   64.944  155.807
  305.750   11.179    0.450    0.359   66.737  155.713
  306.000   11.091    0.448    0.359   66.237  155.289
  306.250   11.007    0.454    0.364   63.857  154.886
  306.500   10.923    0.458    0.364   62.724  154.480
  306.750   10.880    0.457    0.364   62.599  154.271
  307.000   10.916    0.454    0.365   62.534  154.261
  307.250   11.092    0.450    0.363   60.817  154.250
  307.500   11.174    0.442    0.362   60.563  154.242
  307.750   11.253    0.436    0.364   61.032  154.626
  308.000   11.271    0.441    0.369   60.433  154.715
  308.250   11.392    0.451    0.370   59.833  154.705
  308.500   11.622    0.456    0.366   59.827  154.695
  308.750   11.773    0.440    0.357   60.631  154.682
  309.000   11.680    0.444    0.352   61.120  154.672
  309.250   11.337    0.451    0.334   62.537  154.664
  309.500   11.067    0.458    0.328   63.778  154.357
  309.750   10.621    0.470    0.334   64.840  154.149
  310.000   10.110    0.487    0.345   65.783  154.140
  310.250    9.873    0.501    0.352   66.774  154.129
  310.500    9.795    0.495    0.355   67.015  154.118
  310.750    9.864    0.481    0.357   65.586  154.108
  311.000    9.880    0.479    0.359   64.690  154.690
  311.250    9.878    0.480    0.360   64.091  156.065
  311.500    9.875    0.477    0.362   64.203  157.836
  311.750    9.887    0.469    0.363   66.491  159.176
  312.000    9.960    0.464    0.360   68.462  159.989
  312.250    9.884    0.456    0.359   67.745  159.979
  312.500    9.755    0.451    0.358   65.603  159.968
  312.750    9.646    0.448    0.357   64.291  159.959
  313.000    9.590    0.449    0.356   64.225  159.951
  313.250    9.587    0.463    0.354   64.525  160.020
  313.500    9.585    0.481    0.350   67.239  160.420
  313.750    9.583    0.479    0.354   69.368  160.412
  314.000    9.633    0.476    0.354   68.829  160.402
  314.250    9.666    0.476    0.350   68.230  160.195
  314.500    9.628    0.478    0.344   68.639  159.790
  314.750    9.485    0.469    0.337   69.730  159.299
  315.000    9.482    0.461    0.332   70.466  158.877
  315.250    9.549    0.462    0.332   71.646  158.868
  315.500    9.564    0.456    0.331   72.114  158.858
  315.750    9.632    0.457    0.332   71.396  158.846
  316.000    9.754    0.467    0.336   69.670  158.836
  316.250    9.853    0.474    0.339   67.764  158.908
  316.500   10.002    0.469    0.334   67.758  159.309
  316.750    9.999    0.463    0.334   71.312  159.300
  317.000    9.942    0.467    0.330   72.730  159.883
  317.250    9.610    0.478    0.324   75.691  160.664
  317.500    8.787    0.489    0.321   81.797  161.345
  317.750    7.231    0.490    0.325   91.363  161.896
  318.000    6.312    0.488    0.322   95.312  162.711
  318.250    6.082    0.500    0.297   91.509  163.492
  318.500    5.993    0.512    0.296   89.663  164.272
  318.750    5.925    0.512    0.303   89.539  165.053
  319.000    5.826    0.499    0.306   90.067  165.835
  319.250    5.663    0.486    0.291   88.655  166.945
  319.500    5.492    0.482    0.284   85.188  168.582
  319.750    5.370    0.489    0.302   83.758  175.692
  320.000    5.369    0.503    0.321   81.260  180.132
  320.250    5.447    0.513    0.356   76.982  177.155
  320.500    5.616    0.512    0.388   71.399  169.926
  320.750    6.053    0.505    0.375   66.219  169.767
  321.000    6.586    0.529    0.432   66.460  170.993
  321.250    6.880    0.532    0.443   75.710  182.058
  321.500    6.841    0.529    0.454   80.511  176.808
  321.750    6.740    0.527    0.450   84.659  171.457
  322.000    6.750    0.521    0.426   89.043  170.162
  322.250    7.053    0.497    0.376   91.598  164.842
  322.500    7.615    0.485    0.322   91.344  164.007
  322.750    7.897    0.477    0.275   90.388  163.998
  323.000    8.057    0.467    0.241   89.967  163.395
  323.250    8.114    0.455    0.226   89.486  162.792
  323.500    8.111    0.444    0.232   88.946  162.485
  323.750    8.121    0.439    0.250   88.939  162.389
  324.000    8.182    0.442    0.232   88.934  161.969
  324.250    8.300    0.443    0.250   87.504  160.771
  324.500    8.467    0.444    0.252   86.430  159.871
  324.750    8.559    0.448    0.254   86.661  159.467
  325.000    8.556    0.456    0.259   87.486  159.655
  325.250    8.541    0.469    0.262   86.135  160.516
  325.500    8.473    0.473    0.256   84.151  160.918
  325.750    8.471    0.462    0.260   84.619  160.906
  326.000    8.516    0.455    0.266   84.197  160.897
  326.250    8.544    0.455    0.272   84.784  160.690
  326.500    8.648    0.456    0.276   86.321  160.483
  326.750    9.106    0.445    0.277   86.789  160.701
  327.000    9.104    0.434    0.261   86.784  159.867
  327.250    9.168    0.432    0.258   87.726  159.462
  327.500    9.335    0.446    0.255   85.466  159.353
  327.750    9.575    0.453    0.254   82.612  159.343
  328.000    9.875    0.451    0.255   80.825  159.629
  328.250   10.258    0.460    0.260   80.719  160.887
  328.500   10.334    0.459    0.260   80.218  161.288
  328.750   10.032    0.449    0.265   82.586  162.070
  329.000    9.575    0.441    0.261   87.268  162.851
  329.250    9.163    0.440    0.262   90.584  163.434
  329.500    8.831    0.445    0.269   91.647  163.919
  329.750    8.459    0.451    0.268   92.500  164.864
  330.000    8.203    0.448    0.269   93.236  165.678
  330.250    8.140    0.465    0.268   90.382  165.273
  330.500    8.258    0.468    0.271   86.638  163.977
  330.750    8.591    0.464    0.279   80.224  162.186
  331.000    9.203    0.457    0.289   71.437  159.901
  331.250   10.360    0.448    0.295   62.301  156.395
  331.500   11.187    0.440    0.291   60.564  154.737
  331.750   11.266    0.449    0.274   60.795  154.333
  332.000   11.160    0.449    0.260   60.849  154.223
  332.250   11.157    0.455    0.254   61.793  154.213
  332.500   11.379    0.469    0.267   63.151  154.105
  332.750   11.910    0.475    0.307   63.204  153.615
  333.000   12.467    0.452    0.276   64.680  153.193
  333.250   12.465    0.412    0.246   66.098  153.182
  333.500   12.393    0.373    0.156   67.872  153.468
  333.750   12.117    0.377    0.160   69.291  153.854
  334.000   11.611    0.418    0.252   69.582  154.141
  334.250   10.882    0.444    0.279   67.715  154.130
