~VERSION INFORMATION
 VERS.                 2.0:   CWLS LOG ASCII STANDARD -VERSION 2.0
 WRAP.                  NO:   ONE LINE PER DEPTH STEP
~WELL INFORMATION BLOCK
#MNEM.UNIT           DATA                    DESCRIPTION OF MNEMONIC
#---------    -------------------            -------------------------------
# Generated from Intellog Unique Number	CW_76_78/WELL/2801
WELL.         07-25-077-24W4                 : Well_name    - WELL
LOC .         00/07-25-077-24W4/0            : Location     - LOCATION
UWI .         00/07-25-077-24W4/0            : Uwi          - UNIQUE WELL ID
ENTR.         JJ                             : Entered      - ENTERED BY
SRVC.         SCHLUMBERGER                   : Scn          - SERVICE COMPANY
DATE.         9 FEB 71                       : Date         - LOG DATE
STRT.M        487.68                         : top_depth    - START DEPTH
STOP.M        636.93                         : bot_depth    - STOP DEPTH
STEP.M        0.25                           : increment    - STEP LENGTH
 NULL. -999.2500:NULL Value
~CURVE INFORMATION BLOCK
#MNEM UNIT       ERCB CURVE CODE    CURVE DESCRIPTION
#-----------   ------------------   ----------------------------------
DEPT.M        00 001 00 00         : DEPTH        - DEPTH
ILD .OHMM     00 120 00 00         : RESD         - DEEP RESISTIVITY (DIL)
CALI.MM       00 280 01 00         : CAL          - CALIPER
GR  .API      00 310 00 00         : GR           - GAMMA RAY
NPHI.V/V      00 330 00 00         : PHIN         - NEUTRON POROSITY (SANDSTONE)
DELT.US/F     00 520 00 00         : DELT         - SONIC TRAVEL TIME
~PARAMETER INFORMATION
#MNEM.UNIT           DATA             DESCRIPTION OF MNEMONIC
#---------         -----------     ------------------------------
GL  .M        667.573              : gl           - GROUND LEVEL ELEVATION
EREF.M        670.865              : kb           - ELEVATION OF DEPTH REFERENCE
DATM.M        670.865              : datum        - DATUM ELEVATION
TDD .M        637.032              : tdd          - TOTAL DEPTH DRILLER
RUN .         ONE                  : Run          - RUN NUMBER
ENG .         KEOWN                : Engineer     - RECORDING ENGINEER
WIT .         KELLY                : Witness      - WITNESSED BY
BASE.         EDM                  : Branch       - HOME BASE OF LOGGING UNIT
MUD .         GEL                  : Mud_type     - MUD TYPE
MATR.         SANDSTONE            : Logunit      - NEUTRON MATRIX
TMAX.C        31.6667              : BHT          - MAXIMUM RECORDED TEMPERATURE
BHTD.M        637.946              : BHTDEP       - MAXIMUM RECORDED TEMPERATURE
RMT .C        21.1111              : MDTP         - TEMPERATURE OF MUD
MUDD.KG/M     1128                 : MWT          - MUD DENSITY
NEUT.         0                    : NEUTRON      - NEUTRON TYPE
RESI.         0                    : RESIST       - RESISTIVITY TYPE
RM  .OHMM     3.56                 : RM           - RESISTIVITY OF MUD
RMC .OHMM     0                    : RMC          - RESISTIVITY OF MUD CAKE
RMF .OHMM     3.51                 : RMF          - RESISTIVITY OF MUD FILTRATE
SUFT.C        5                    : SUFT         - SURFACE TEMPERATURE
~A  DEPTH     RESD      CAL       GR     PHIN     DELT
# ...
  560.680    7.870  226.048   32.785    0.268  364.377
  560.930    8.918  224.829   30.627    0.286  354.098
  561.180    9.305  223.914   31.410    0.288  349.723
  561.430    9.193  223.208   31.801    0.288  349.993
  561.680    9.087  222.910   31.212    0.296  348.947
  561.930    8.983  222.410   30.622    0.286  346.463
  562.180    8.951  223.041   31.601    0.289  344.055
  562.430    9.014  223.880   32.973    0.299  340.331
  562.680    9.115  224.099   35.717    0.291  346.812
  562.930    9.185  224.012   39.049    0.277  349.495
  563.180    9.328  223.714   41.597    0.289  345.639
  563.430    9.589  223.524   43.948    0.307  342.636
  563.680    9.762  223.331   45.123    0.302  341.651
  563.930    9.777  222.934   44.730    0.299  341.862
  564.180    9.623  222.534   45.121    0.290  341.671
  564.430    9.384  222.549   46.100    0.285  342.452
  564.680    9.162  222.562   47.668    0.313  347.098
  564.930    8.977  222.782   49.235    0.303  356.274
  565.180    8.658  222.695   45.705    0.325  358.107
  565.430    8.308  222.605   42.566    0.312  356.075
  565.680    8.292  222.415   39.231    0.298  354.780
  565.930    8.456  222.737   40.995    0.289  358.842
  566.180    8.686  223.781   45.700    0.317  362.123
  566.430    8.875  225.647   61.581    0.288  354.141
  566.680    8.898  227.001   80.011    0.251  338.964
  566.930    8.938  227.428   85.108    0.249  324.509
  567.180    8.982  225.692   77.460    0.289  333.604
  567.430    9.053  223.643   67.459    0.292  361.033
  567.680    9.179  222.627   58.242    0.287  356.979
  567.930    9.320  222.229   47.848    0.268  351.881
  568.180    9.804  222.037   40.200    0.288  364.768
  568.430   10.081  221.951   35.689    0.318  370.142
  568.680   10.016  221.964   33.531    0.305  371.979
  568.930    9.983  222.285   33.333    0.301  359.546
  569.180   10.124  223.844   34.313    0.292  356.344
  569.430   10.552  225.509   36.468    0.297  353.800
  569.680   11.575  226.138   39.212    0.292  350.458
  569.930   12.472  226.978   42.740    0.275  347.397
  570.180   14.090  227.712   44.896    0.254  342.627
  570.430   16.456  228.449   48.032    0.227  327.049
  570.680   17.590  228.978   52.737    0.210  307.627
  570.930   17.026  229.092   57.638    0.193  290.356
  571.180   15.189  229.521   61.166    0.192  268.634
  571.430   12.949  229.738   65.478    0.236  319.815
  571.680   11.772  229.960   69.203    0.258  358.752
  571.930   10.159  229.971   73.123    0.271  368.115
  572.180    8.918  230.401   79.789    0.279  376.350
  572.430    8.211  230.413   89.984    0.291  379.053
  572.680    7.876  230.426   99.786    0.305  376.699
  572.930    7.779  230.135   98.020    0.282  371.719
  573.180    7.762  230.045   88.999    0.278  365.250
  573.430    7.985  229.747   84.489    0.268  355.246
  573.680    8.261  229.761   84.683    0.258  365.199
  573.930    8.776  229.879   84.290    0.272  382.612
  574.180    9.751  230.304   81.348    0.283  364.816
  574.430   11.282  230.630   73.699    0.263  345.579
  574.680   12.949  230.538   61.933    0.253  334.917
  574.930   16.419  228.492   56.834    0.259  340.095
  575.180   17.283  228.300   56.441    0.277  343.559
  575.430   17.202  230.991   56.635    0.277  341.667
  575.680   16.877  232.241   56.634    0.272  338.668
  575.930   16.645  232.362   56.829    0.257  337.162
  576.180   16.596  232.681   57.416    0.243  334.224
  576.430   16.992  232.798   58.395    0.235  329.125
  576.680   17.173  232.299   59.571    0.232  322.845
  576.930   16.339  232.312   61.530    0.252  308.784
  577.180   15.407  231.709   63.882    0.224  309.634
  577.430   14.604  231.310   68.391    0.239  327.377
  577.680   13.539  230.707   78.194    0.248  332.750
  577.930   12.521  230.721   83.878    0.271  324.642
  578.180   11.796  230.733   73.877    0.253  322.944
  578.430   10.875  232.190   71.327    0.242  340.221
  578.680   10.453  234.574   72.894    0.256  347.090
  578.930   10.523  236.749   65.246    0.267  352.196
  579.180   11.681  236.867   59.363    0.273  357.765
  579.430   15.015  232.454   52.106    0.276  364.713
  579.680   17.261  229.684   48.968    0.286  371.460
  579.930   20.646  228.050   52.300    0.297  377.417
  580.180   27.501  227.345   56.809    0.297  373.693
  580.430   33.480  226.944   54.847    0.301  378.276
  580.680   35.074  227.064   55.826    0.305  376.452
  580.930   34.277  227.179   56.217    0.311  366.377
  581.180   31.487  227.501   57.588    0.302  366.251
  581.430   26.544  227.928   60.528    0.309  371.951
  581.680   19.036  228.561   66.213    0.319  380.261
  581.930   16.883  229.912   72.879    0.343  387.516
  582.180   12.906  234.668   78.172    0.366  393.363
  582.430   11.527  236.638   83.857    0.395  411.943
  582.680   10.379  236.961   71.503    0.452  424.449
  582.930    9.040  235.942   65.227    0.482  436.629
  583.180    8.418  234.514   53.853    0.501  451.093
  583.430    7.805  232.675   76.401    0.521  450.569
  583.680    7.294  230.217   80.517    0.407  438.929
  583.930    6.770  225.185   82.869    0.383  427.089
  584.180    6.251  222.313   79.338    0.363  418.259
  584.430    5.859  223.151   83.847    0.389  408.777
  584.680    5.558  224.504   89.924    0.416  414.279
  584.930    5.453  225.550   94.237    0.384  415.724
  585.180    5.533  226.284   89.138    0.360  387.264
  585.430    5.716  227.122   79.529    0.336  362.400
  585.680    6.473  227.859   70.900    0.295  346.113
  585.930    7.995  228.180   67.957    0.281  348.860
  586.180    8.242  228.194   68.545    0.284  360.053
  586.430    9.463  228.206   75.798    0.286  371.977
  586.680    9.701  227.913   80.895    0.301  378.784
  586.930    9.055  226.793   86.776    0.337  382.521
  587.180    8.172  224.851   92.657    0.336  373.297
  587.430    7.174  223.425   95.597    0.311  381.805
  587.680    7.669  223.538   92.459    0.324  391.950
  587.930    8.825  224.274   74.418    0.318  393.857
  588.180   10.666  225.010   49.515    0.329  378.291
  588.430   18.980  225.538   49.906    0.321  362.380
  588.680   20.009  225.243   51.278    0.292  355.127
  588.930   19.905  224.229   53.237    0.290  345.576
  589.180   18.789  224.034   52.255    0.283  346.887
  589.430   17.776  223.948   57.744    0.303  350.165
  589.680   16.971  223.960   62.449    0.303  353.118
  589.930   16.119  223.561   65.977    0.318  352.540
  590.180   15.513  223.064   66.564    0.308  353.713
  590.430   14.986  223.178   66.563    0.298  356.069
  590.680   14.389  223.708   67.738    0.286  355.428
  590.930   13.943  223.621   68.914    0.270  351.629
  591.180   13.583  222.603   70.481    0.289  350.204
  591.430   14.142  220.863   67.343    0.282  353.023
  591.680   15.393  218.718   64.596    0.297  356.689
  591.930   16.968  218.217   60.282    0.309  348.123
  592.180   21.275  218.744   57.731    0.295  310.895
  592.430   29.669  219.789   52.436    0.250  262.348
  592.680   36.855  221.037   48.317    0.162  234.345
  592.930   46.446  222.081   45.375    0.130  206.474
  593.180   52.342  223.435   44.785    0.106  196.001
  593.430   45.365  224.171   44.392    0.075  192.543
  593.680   38.311  223.465   43.802    0.069  203.396
  593.930   31.807  223.374   45.762    0.086  230.438
  594.180   24.430  223.389   49.682    0.131  258.972
  594.430   13.637  224.229   60.465    0.196  286.466
  594.680   11.421  225.377   65.758    0.192  312.312
  594.930    9.914  223.748   71.051    0.191  333.389
  595.180    8.734  224.268   78.305    0.255  343.404
  595.430    7.992  225.105   82.225    0.281  349.693
  595.680    7.552  226.561   86.146    0.286  357.028
  595.930    7.305  225.853   83.596    0.287  342.765
  596.180    7.122  219.482   76.143    0.298  335.700
  596.430    7.122  217.746   71.240    0.268  333.872
  596.680    7.240  217.964   68.886    0.287  338.978
  596.930    7.613  218.802   70.257    0.282  338.401
