~VERSION INFORMATION
 VERS.                 2.0:   CWLS LOG ASCII STANDARD -VERSION 2.0
 WRAP.                  NO:   ONE LINE PER DEPTH STEP
~WELL INFORMATION BLOCK
#MNEM.UNIT           DATA                    DESCRIPTION OF MNEMONIC
#---------    -------------------            -------------------------------
# Generated from Intellog Unique Number	CS_77_79/WELL/917
WELL.         ICGR GRAHAM                    : Well_name    - WELL
LOC .         00/08-09-079-05W4/0            : Location     - LOCATION
UWI .         00/08-09-079-05W4/0            : Uwi          - UNIQUE WELL ID
ENTR.         JHS                            : Entered      - ENTERED BY
SRVC.         SCHLUMBERGER                   : Scn          - SERVICE COMPANY
STRT.M        95                             : top_depth    - START DEPTH
STOP.M        330                            : bot_depth    - STOP DEPTH
STEP.M        0.25                           : increment    - STEP LENGTH
 NULL. -999.2500:NULL Value
~CURVE INFORMATION BLOCK
#MNEM UNIT       ERCB CURVE CODE    CURVE DESCRIPTION
#-----------   ------------------   ----------------------------------
DEPT.M        00 001 00 00         : DEPTH        - DEPTH
DPHI.V/V      00 890 00 00         : PHID         - DENSITY POROSITY (LIMESTONE)
NPHI.V/V      00 330 00 00         : PHIN         - NEUTRON POROSITY (LIMESTONE)
GR  .API      00 310 00 00         : GR           - GAMMA RAY
ILD .OHMM     00 120 00 00         : RESD         - DEEP RESISTIVITY (DIL)
RHOB.KG/M3    00 350 00 00         : DENS         - BULK DENSITY
~PARAMETER INFORMATION
#MNEM.UNIT           DATA             DESCRIPTION OF MNEMONIC
#---------         -----------     ------------------------------
GL  .M        510.2                : gl           - GROUND LEVEL ELEVATION
EREF.M        513.2                : kb           - ELEVATION OF DEPTH REFERENCE
DATM.M        513.2                : datum        - DATUM ELEVATION
TDD .M        339                  : tdd          - TOTAL DEPTH DRILLER
RUN .         ONE                  : Run          - RUN NUMBER
ENG .         BILL                 : Engineer     - RECORDING ENGINEER
WIT .         JIM                  : Witness      - WITNESSED BY
MUD .         GEL                  : Mud_type     - MUD TYPE
MATR.         LIMESTONE            : Logunit      - NEUTRON MATRIX
TMAX.C        24                   : BHT          - MAXIMUM RECORDED TEMPERATURE
BHTD.M        339                  : BHTDEP       - MAXIMUM RECORDED TEMPERATURE
MATR.         1                    : LOGUNIT      - NEUTRON MATRIX
RMT .C        25                   : MDTP         - TEMPERATURE OF MUD
NEUT.         1                    : NEUTRON      - NEUTRON TYPE
RESI.         0                    : RESIST       - RESISTIVITY TYPE
RMC .OHMM     0.25                 : RMC          - RESISTIVITY OF MUD CAKE
RMF .OHMM     0.25                 : RMF          - RESISTIVITY OF MUD FILTRATE
SUFT.C        15                   : SUFT         - SURFACE TEMPERATURE
~A  DEPTH     PHID     PHIN       GR     RESD     DENS
# ...
  131.500    0.307    0.427   93.540   19.832    0.000
  131.750    0.312    0.448   91.757   19.854    0.000
  132.000    0.294    0.462   84.474   20.252    0.000
  132.250    0.312    0.439   74.152   20.655    0.000
  132.500    0.324    0.419   53.455   22.301    0.000
  132.750    0.317    0.412   44.963   23.615    0.000
  133.000    0.325    0.400   48.659   25.029    0.000
  133.250    0.311    0.398   56.628   25.044    0.000
  133.500    0.304    0.410   62.151   24.611    0.000
  133.750    0.302    0.420   64.629   23.723    0.000
  134.000    0.295    0.447   61.626   22.027    0.000
  134.250    0.306    0.426   61.044   20.845    0.000
  134.500    0.292    0.411   69.010   20.096    0.000
  134.750    0.269    0.406   69.052   19.747    0.000
  135.000    0.276    0.406   58.725   19.768    0.000
  135.250    0.313    0.394   60.595   19.789    0.000
  135.500    0.308    0.387   72.830   19.813    0.000
  135.750    0.280    0.396   77.750   19.462    0.000
  136.000    0.273    0.413   81.446   18.421    0.000
  136.250    0.260    0.429   77.824   17.757    0.000
  136.500    0.275    0.417   71.769   16.800    0.000
  136.750    0.277    0.411   74.248   16.197    0.000
  137.000    0.265    0.436   74.899   15.615    0.000
  137.250    0.282    0.453   79.808   15.055    0.000
  137.500    0.282    0.464   86.565   14.515    0.000
  137.750    0.287    0.452   89.037   14.262    0.000
  138.000    0.297    0.421   88.466   14.279    0.000
  138.250    0.279    0.424   85.464   14.295    0.000
  138.500    0.251    0.448   88.552   14.307    0.000
  138.750    0.257    0.431   95.299   13.289    0.000
  139.000    0.264    0.428  100.816   12.108    0.000
  139.250    0.252    0.453  110.005   11.033    0.000
  139.500    0.251    0.466  108.825   10.437    0.000
  139.750    0.232    0.458  104.592    9.879    0.000
  140.000    0.241    0.446  104.631    9.706    0.000
  140.250    0.252    0.435  105.291   10.090    0.000
  140.500    0.238    0.448  102.274   10.688    0.000
  140.750    0.252    0.431   91.950   11.534    0.000
  141.000    0.280    0.412   86.501   12.215    0.000
  141.250    0.270    0.410   87.156   12.944    0.000
  141.500    0.254    0.425   89.019   12.957    0.000
  141.750    0.256    0.413   93.938   12.492    0.000
  142.000    0.261    0.416  104.337   11.818    0.000
  142.250    0.255    0.445  112.913   10.973    0.000
  142.500    0.256    0.434  111.142   10.382    0.000
  142.750    0.256    0.422  113.606   10.013    0.000
  143.000    0.246    0.422  113.638    9.836    0.000
  143.250    0.242    0.449  110.635    9.662    0.000
  143.500    0.251    0.489  108.844    9.493    0.000
  143.750    0.262    0.502  106.440    9.504    0.000
  144.000    0.248    0.497  105.875    9.880    0.000
  144.250    0.248    0.485  103.474   10.465    0.000
  144.500    0.277    0.453   93.757   11.296    0.000
  144.750    0.325    0.440   82.819   12.195    0.000
  145.000    0.339    0.436   87.127   13.164    0.000
  145.250    0.309    0.449   96.921   13.686    0.000
  145.500    0.283    0.454   92.697   13.697    0.000
  145.750    0.285    0.460   87.855   13.975    0.000
  146.000    0.298    0.456   87.284   13.991    0.000
  146.250    0.299    0.429   95.249   14.007    0.000
  146.500    0.272    0.417  105.047   14.026    0.000
  146.750    0.252    0.422  108.742   14.036    0.000
  147.000    0.243    0.443  107.568   13.792    0.000
  147.250    0.242    0.465   99.066   13.802    0.000
  147.500    0.245    0.463   91.179   13.566    0.000
  147.750    0.246    0.446   83.899   13.834    0.000
  148.000    0.254    0.444   74.186   13.849    0.000
  148.250    0.329    0.463   62.027   14.128    0.000
  148.500    0.352    0.480   58.414   14.971    0.000
  148.750    0.360    0.476   59.062   15.855    0.000
  149.000    0.355    0.444   59.094   16.171    0.000
  149.250    0.350    0.419   60.968   16.498    0.000
  149.500    0.332    0.417   67.711   14.479    0.000
  149.750    0.310    0.430   79.336   12.945    0.000
  150.000    0.268    0.481   89.743   11.362    0.000
  150.250    0.236    0.505   91.001   10.954    0.000
  150.500    0.197    0.459   83.121   10.560    0.000
  150.750    0.143    0.438   86.205    9.444    0.000
  151.000    0.135    0.462   95.998    8.606    0.000
  151.250    0.194    0.488  105.182    7.992    0.000
  151.500    0.240    0.493  105.834    8.002    0.000
  151.750    0.271    0.468   94.895    8.318    0.000
  152.000    0.279    0.433   84.570    8.811    0.000
  152.250    0.280    0.448   91.312    9.507    0.000
  152.500    0.294    0.451   94.406   10.859    0.000
  152.750    0.305    0.427   83.470   12.642    0.000
  153.000    0.309    0.413   74.970   13.389    0.000
  153.250    0.298    0.417   78.672   13.656    0.000
  153.500    0.271    0.433   86.637   13.422    0.000
  153.750    0.257    0.447   90.331   12.935    0.000
  154.000    0.262    0.456   89.171   11.570    0.000
  154.250    0.259    0.460   85.532   10.543    0.000
  154.500    0.252    0.460   75.812   10.552    0.000
  154.750    0.256    0.438   67.326   10.969    0.000
  155.000    0.258    0.400   67.964   11.623    0.000
  155.250    0.241    0.385   76.540   12.311    0.000
  155.500    0.237    0.404   80.850   13.039    0.000
  155.750    0.250    0.419   79.672   13.552    0.000
  156.000    0.254    0.413   74.222   13.831    0.000
  156.250    0.255    0.401   67.559   13.334    0.000
  156.500    0.265    0.408   66.987   12.856    0.000
  156.750    0.278    0.433   67.632   12.625    0.000
  157.000    0.284    0.459   71.333   11.950    0.000
  157.250    0.259    0.482   75.641   11.307    0.000
  157.500    0.229    0.455   79.335   10.697    0.000
  157.750    0.216    0.440   84.867   10.123    0.000
  158.000    0.235    0.457   87.338    9.946    0.000
  158.250    0.253    0.459   78.848    9.767    0.000
  158.500    0.247    0.443   75.837    9.966    0.000
  158.750    0.254    0.465   74.045   10.756    0.000
  159.000    0.296    0.457   70.426   12.521    0.000
  159.250    0.324    0.446   65.586   14.033    0.000
  159.500    0.329    0.446   63.188   15.432    0.000
  159.750    0.341    0.437   63.843   16.656    0.000
  160.000    0.347    0.421   63.873   17.322    0.000
  160.250    0.320    0.413   61.485   17.669    0.000
  160.500    0.289    0.398   58.475   17.352    0.000
  160.750    0.243    0.388   57.283   17.374    0.000
  161.000    0.232    0.400   56.102   17.072    0.000
  161.250    0.284    0.437   57.361   16.770    0.000
  161.500    0.334    0.449   59.850   16.476    0.000
  161.750    0.333    0.471   60.498   16.184    0.000
  162.000    0.338    0.459   62.364   15.032    0.000
  162.250    0.324    0.448   66.058   14.492    0.000
  162.500    0.319    0.458   66.705   14.235    0.000
  162.750    0.318    0.464   63.096   13.988    0.000
  163.000    0.312    0.472   62.516   14.007    0.000
  163.250    0.314    0.488   64.392   14.020    0.000
  163.500    0.315    0.463   65.040   14.036    0.000
  163.750    0.314    0.432   65.080   14.318    0.000
  164.000    0.311    0.430   64.500   14.331    0.000
  164.250    0.304    0.451   63.331   14.350    0.000
  164.500    0.311    0.466   65.193   14.095    0.000
  164.750    0.315    0.469   68.886   14.111    0.000
  165.000    0.312    0.464   67.706   14.129    0.000
  165.250    0.316    0.443   62.875   13.882    0.000
  165.500    0.327    0.426   61.084   13.894    0.000
  165.750    0.316    0.415   64.167   13.396    0.000
  166.000    0.302    0.421   66.039   12.917    0.000
  166.250    0.302    0.447   63.032   12.690    0.000
  166.500    0.324    0.458   64.289   12.234    0.000
  166.750    0.330    0.459   69.201   12.023    0.000
  167.000    0.337    0.455   66.207   12.036    0.000
  167.250    0.344    0.459   65.622   11.825    0.000
  167.500    0.318    0.465   72.377   11.616    0.000
  167.750    0.298    0.456   74.241   11.414    0.000
