~VERSION INFORMATION
 VERS.                 2.0:   CWLS LOG ASCII STANDARD -VERSION 2.0
 WRAP.                  NO:   ONE LINE PER DEPTH STEP
~WELL INFORMATION BLOCK
#MNEM.UNIT           DATA                    DESCRIPTION OF MNEMONIC
#---------    -------------------            -------------------------------
# Generated from Intellog Unique Number	CS_77_79/WELL/891
WELL.         BVX MERLAND DUNCAN             : Well_name    - WELL
LOC .         00/07-03-078-15W4/0            : Location     - LOCATION
UWI .         00/07-03-078-15W4/0            : Uwi          - UNIQUE WELL ID
ENTR.         JHS                            : Entered      - ENTERED BY
SRVC.         SCHLUMBERGER                   : Scn          - SERVICE COMPANY
STRT.M        180                            : top_depth    - START DEPTH
STOP.M        430                            : bot_depth    - STOP DEPTH
STEP.M        0.25                           : increment    - STEP LENGTH
 NULL. -999.2500:NULL Value
~CURVE INFORMATION BLOCK
#MNEM UNIT       ERCB CURVE CODE    CURVE DESCRIPTION
#-----------   ------------------   ----------------------------------
DEPT.M        00 001 00 00         : DEPTH        - DEPTH
DPHI.V/V      00 890 00 00         : PHID         - DENSITY POROSITY (LIMESTONE)
NPHI.V/V      00 330 00 00         : PHIN         - NEUTRON POROSITY (LIMESTONE)
GR  .API      00 310 00 00         : GR           - GAMMA RAY
ILD .OHMM     00 120 00 00         : RESD         - DEEP RESISTIVITY (DIL)
~PARAMETER INFORMATION
#MNEM.UNIT           DATA             DESCRIPTION OF MNEMONIC
#---------         -----------     ------------------------------
GL  .M        581.32               : gl           - GROUND LEVEL ELEVATION
EREF.M        584.77               : kb           - ELEVATION OF DEPTH REFERENCE
DATM.M        584.77               : datum        - DATUM ELEVATION
TDD .M        430                  : tdd          - TOTAL DEPTH DRILLER
RUN .         ONE                  : Run          - RUN NUMBER
ENG .         BILL                 : Engineer     - RECORDING ENGINEER
WIT .         JIM                  : Witness      - WITNESSED BY
MUD .         GEL                  : Mud_type     - MUD TYPE
MATR.         LIMESTONE            : Logunit      - NEUTRON MATRIX
TMAX.C        23                   : BHT          - MAXIMUM RECORDED TEMPERATURE
BHTD.M        430                  : BHTDEP       - MAXIMUM RECORDED TEMPERATURE
MATR.         1                    : LOGUNIT      - NEUTRON MATRIX
RMT .C        25                   : MDTP         - TEMPERATURE OF MUD
NEUT.         1                    : NEUTRON      - NEUTRON TYPE
RESI.         0                    : RESIST       - RESISTIVITY TYPE
RMC .OHMM     0.25                 : RMC          - RESISTIVITY OF MUD CAKE
RMF .OHMM     0.25                 : RMF          - RESISTIVITY OF MUD FILTRATE
SUFT.C        15                   : SUFT         - SURFACE TEMPERATURE
~A  DEPTH     PHID     PHIN       GR     RESD
# ...
  310.500    0.285    0.417   74.960    7.716
  310.750    0.280    0.409   79.873    7.156
  311.000    0.283    0.421   83.558    7.025
  311.250    0.269    0.441   86.629    6.896
  311.500    0.260    0.451   87.240    6.396
  311.750    0.250    0.464   81.704    6.160
  312.000    0.253    0.481   83.545    5.933
  312.250    0.257    0.455   86.613    5.824
  312.500    0.248    0.434   86.611    5.938
  312.750    0.246    0.428   85.378    6.053
  313.000    0.251    0.425   81.685    6.055
  313.250    0.243    0.417   78.609    6.173
  313.500    0.237    0.408   74.916    6.175
  313.750    0.270    0.445   73.069    5.948
  314.000    0.292    0.530   81.057    5.950
  314.250    0.288    0.498   81.667    6.066
  314.500    0.288    0.464   79.206    6.185
  314.750    0.300    0.449   79.817    6.426
  315.000    0.320    0.444   81.657    6.428
  315.250    0.316    0.459   83.498    6.553
  315.500    0.286    0.464   82.880    6.808
  315.750    0.263    0.424   79.802    7.073
  316.000    0.267    0.401   81.643    7.489
  316.250    0.286    0.400   80.410    7.635
  316.500    0.304    0.424   74.874    7.783
  316.750    0.323    0.429   63.805    7.935
  317.000    0.345    0.424   59.498    7.938
  317.250    0.353    0.435   55.805    8.093
  317.500    0.348    0.421   53.958    8.095
  317.750    0.344    0.407   52.725    7.946
  318.000    0.339    0.401   54.566    7.801
  318.250    0.337    0.410   58.864    7.804
  318.500    0.348    0.434   61.935    7.806
  318.750    0.347    0.423   60.702    7.809
  319.000    0.338    0.432   58.240    7.812
  319.250    0.330    0.429   59.465    7.815
  319.500    0.331    0.418   58.232    7.818
  319.750    0.332    0.418   56.385    7.820
  320.000    0.331    0.438   58.839    7.973
  320.250    0.344    0.439   58.836    7.976
  320.500    0.343    0.417   56.374    7.978
  320.750    0.333    0.407   57.599    7.982
  321.000    0.323    0.410   60.054    7.984
  321.250    0.326    0.405   60.052    7.987
  321.500    0.327    0.391   59.433    7.990
  321.750    0.325    0.389   60.044    8.145
  322.000    0.322    0.408   60.655    8.149
  322.250    0.331    0.411   61.881    7.999
  322.500    0.341    0.408   63.722    8.002
  322.750    0.347    0.408   61.874    7.854
  323.000    0.341    0.423   60.641    7.857
  323.250    0.336    0.437   58.792    7.860
  323.500    0.336    0.422   57.560    7.863
  323.750    0.339    0.418   58.171    8.015
  324.000    0.336    0.410   60.011    8.172
  324.250    0.331    0.397   58.163    8.331
  324.500    0.335    0.406   57.545    8.822
  324.750    0.347    0.441   56.927    9.164
  325.000    0.353    0.423   56.923    9.168
  325.250    0.357    0.416   56.305    8.999
  325.500    0.348    0.415   55.072    8.346
  325.750    0.343    0.418   54.453    7.889
  326.000    0.344    0.427   56.908    7.598
  326.250    0.353    0.433   59.979    7.182
  326.500    0.365    0.436   59.361    7.184
  326.750    0.358    0.423   58.127    7.186
  327.000    0.346    0.418   59.353    7.467
  327.250    0.336    0.407   61.193    7.612
  327.500    0.327    0.401   63.035    7.908
  327.750    0.328    0.410   59.957    8.216
  328.000    0.344    0.425   56.265    8.220
  328.250    0.358    0.418   59.335    8.068
  328.500    0.356    0.415   57.487    7.626
  328.750    0.347    0.421   57.482    7.345
  329.000    0.345    0.417   57.479    7.075
  329.250    0.352    0.409   58.706    6.945
  329.500    0.348    0.409   59.932    6.947
  329.750    0.335    0.415   60.543    7.356
  330.000    0.315    0.418   60.539    7.938
  330.250    0.295    0.412   59.922    8.404
  330.500    0.142    0.242   55.000    9.241
  330.750    0.125    0.202   50.693   10.554
  331.000    0.134    0.198   50.075   11.605
  331.250    0.257    0.229   52.530   12.523
  331.500    0.226    0.346   51.911   13.012
  331.750    0.149    0.267   50.064   13.015
  332.000    0.138    0.240   51.290   12.070
  332.250    0.186    0.266   53.745    9.806
  332.500    0.350    0.426   57.430    8.756
  332.750    0.347    0.444   61.115    7.969
  333.000    0.348    0.449   62.956    7.531
  333.250    0.352    0.416   61.108    7.118
  333.500    0.348    0.386   60.489    6.987
  333.750    0.343    0.396   60.485    7.123
  334.000    0.347    0.412   61.712    6.993
  334.250    0.343    0.417   62.938    6.735
  334.500    0.341    0.423   60.475    6.611
  334.750    0.346    0.435   60.471    6.869
  335.000    0.353    0.430   58.008    7.003
  335.250    0.351    0.414   58.005    7.275
  335.500    0.338    0.404   59.846    7.417
  335.750    0.334    0.405   57.998    7.562
  336.000    0.338    0.409   56.764    7.856
  336.250    0.332    0.400   55.531    8.318
  336.500    0.309    0.399   55.527    8.975
  336.750    0.271    0.390   54.910   10.446
  337.000    0.098    0.345   53.677   12.159
  337.250    0.069    0.167   51.828   13.886
  337.500    0.044    0.145   49.366   15.857
  337.750    0.019    0.130   47.519   18.809
  338.000    0.012    0.120   45.056   22.736
  338.250    0.007    0.118   43.207   25.478
  338.500    0.001    0.119   42.589   28.554
  338.750    0.001    0.122   41.356   28.563
  339.000    0.001    0.128   38.894   28.038
  339.250    0.016    0.153   36.432   23.655
  339.500    0.027    0.204   42.575   17.154
  339.750    0.049    0.258   51.792   12.677
  340.000    0.245    0.357   54.248    9.730
  340.250    0.326    0.409   56.089    8.209
  340.500    0.336    0.419   57.928    7.470
  340.750    0.339    0.410   59.770    7.195
  341.000    0.340    0.398   62.840    7.063
  341.250    0.337    0.393   62.837    7.066
  341.500    0.339    0.390   60.989    7.204
  341.750    0.344    0.397   59.755    7.207
  342.000    0.342    0.409   59.751    7.209
  342.250    0.341    0.417   59.748    7.212
  342.500    0.345    0.415   59.130    7.214
  342.750    0.346    0.420   56.053    7.216
  343.000    0.342    0.427   55.435    7.085
  343.250    0.340    0.426   56.045    6.954
  343.500    0.344    0.418   56.042    6.698
  343.750    0.341    0.416   57.882    6.331
  344.000    0.339    0.424   60.338    6.214
  344.250    0.331    0.437   62.793    5.986
  344.500    0.325    0.466   64.019    5.988
  344.750    0.333    0.450   65.245    5.877
  345.000    0.336    0.422   68.315    5.879
  345.250    0.340    0.440   72.000    5.882
  345.500    0.342    0.455   67.078    5.885
  345.750    0.336    0.452   60.928    5.998
  346.000    0.337    0.462   62.767    6.001
  346.250    0.341    0.451   64.609    6.117
  346.500    0.331    0.434   65.834    6.120
  346.750    0.328    0.423   67.060    6.239
  347.000    0.329    0.448   65.827    6.361
  347.250    0.325    0.426   65.208    6.363
  347.500    0.318    0.416   65.820    6.365
  347.750    0.309    0.431   68.276    6.489
  348.000    0.305    0.431   67.657    6.492
  348.250    0.306    0.439   65.809    6.493
  348.500    0.306    0.451   67.035    6.496
  348.750    0.310    0.436   69.490    6.377
  349.000    0.312    0.415   71.945    6.259
  349.250    0.306    0.411   73.172    6.144
  349.500    0.298    0.420   77.471    5.918
  349.750    0.292    0.430   84.844    5.594
  350.000    0.269    0.451   90.729    5.069
  350.250    0.262    0.437   93.800    4.884
  350.500    0.251    0.452   96.253    4.980
  350.750    0.237    0.445   95.620    5.272
  351.000    0.237    0.415   93.137    5.908
  351.250    0.245    0.399   91.887    6.255
  351.500    0.245    0.399   88.785    6.258
  351.750    0.248    0.429   84.449    6.381
  352.000    0.250    0.436   80.113    6.757
  352.250    0.063    0.445   73.925    7.290
  352.500    0.045    0.284   61.567    8.016
  352.750    0.071    0.239   59.083    8.650
  353.000    0.157    0.303   81.285    8.819
  353.250    0.207    0.364   86.205    8.659
  353.500    0.221    0.407   86.809    8.342
  353.750    0.216    0.416   89.265    7.887
