~VERSION INFORMATION
 VERS.                 2.0:   CWLS LOG ASCII STANDARD -VERSION 2.0
 WRAP.                  NO:   ONE LINE PER DEPTH STEP
~WELL INFORMATION BLOCK
#MNEM.UNIT           DATA                    DESCRIPTION OF MNEMONIC
#---------    -------------------            -------------------------------
# Generated from Intellog Unique Number	CS_69_70/WELL/854
WELL.         HUSKY OIL OPERATIONS           : Well_name    - WELL
LOC .         00/08-32-069-06W4/0            : Location     - LOCATION
UWI .         00/08-32-069-06W4/0            : Uwi          - UNIQUE WELL ID
ENTR.         SP                             : Entered      - ENTERED BY
SRVC.         SCHLUMBERGER                   : Scn          - SERVICE COMPANY
STRT.M        330                            : top_depth    - START DEPTH
STOP.M        570                            : bot_depth    - STOP DEPTH
STEP.M        0.25                           : increment    - STEP LENGTH
 NULL. -999.2500:NULL Value
~CURVE INFORMATION BLOCK
#MNEM UNIT       ERCB CURVE CODE    CURVE DESCRIPTION
#-----------   ------------------   ----------------------------------
DEPT.M        00 001 00 00         : DEPTH        - DEPTH
ILD .OHMM     00 120 00 00         : RESD         - DEEP RESISTIVITY (DIL)
DPHI.V/V      00 890 00 00         : PHID         - DENSITY POROSITY (LIMESTONE)
NPHI.V/V      00 330 00 00         : PHIN         - NEUTRON POROSITY (LIMESTONE)
GR  .API      00 310 00 00         : GR           - GAMMA RAY
~PARAMETER INFORMATION
#MNEM.UNIT           DATA             DESCRIPTION OF MNEMONIC
#---------         -----------     ------------------------------
GL  .M        685.1                : gl           - GROUND LEVEL ELEVATION
EREF.M        688.8                : kb           - ELEVATION OF DEPTH REFERENCE
DATM.M        685.1                : datum        - DATUM ELEVATION
TDD .M        575                  : tdd          - TOTAL DEPTH DRILLER
RUN .         ONE                  : Run          - RUN NUMBER
ENG .         BILL                 : Engineer     - RECORDING ENGINEER
WIT .         JIM                  : Witness      - WITNESSED BY
MUD .         GEL                  : Mud_type     - MUD TYPE
MATR.         LIMESTONE            : Logunit      - NEUTRON MATRIX
TMAX.C        25                   : BHT          - MAXIMUM RECORDED TEMPERATURE
BHTD.M        575                  : BHTDEP       - MAXIMUM RECORDED TEMPERATURE
MATR.         1                    : LOGUNIT      - NEUTRON MATRIX
RMT .C        25                   : MDTP         - TEMPERATURE OF MUD
NEUT.         1                    : NEUTRON      - NEUTRON TYPE
RESI.         0                    : RESIST       - RESISTIVITY TYPE
RMC .OHMM     0.25                 : RMC          - RESISTIVITY OF MUD CAKE
RMF .OHMM     0.25                 : RMF          - RESISTIVITY OF MUD FILTRATE
SUFT.C        15                   : SUFT         - SURFACE TEMPERATURE
~A  DEPTH     RESD     PHID     PHIN       GR
# ...
  460.500    4.931    0.231    0.412   86.476
  460.750    4.688    0.258    0.437   88.719
  461.000    4.406    0.254    0.428   90.233
  461.250    4.220    0.250    0.421   90.956
  461.500    4.065    0.245    0.436   90.282
  461.750    3.975    0.243    0.450   86.994
  462.000    3.982    0.242    0.456   88.082
  462.250    4.051    0.244    0.445   90.811
  462.500    4.182    0.251    0.437   92.629
  462.750    4.342    0.259    0.432   86.606
  463.000    4.467    0.273    0.427   84.656
  463.250    4.535    0.282    0.421   87.141
  463.500    4.526    0.281    0.416   89.992
  463.750    4.442    0.272    0.415   92.600
  464.000    4.409    0.264    0.424   91.197
  464.250    4.410    0.260    0.429   87.726
  464.500    4.410    0.255    0.424   86.324
  464.750    4.427    0.252    0.428   84.008
  465.000    4.443    0.250    0.437   85.826
  465.250    4.444    0.249    0.440   89.163
  465.500    4.427    0.249    0.448   91.831
  465.750    4.411    0.250    0.451   93.466
  466.000    4.386    0.252    0.437   92.610
  466.250    4.378    0.253    0.422   90.599
  466.500    4.379    0.259    0.408   86.886
  466.750    4.362    0.270    0.415   83.902
  467.000    4.355    0.277    0.453   83.166
  467.250    4.421    0.278    0.471   82.067
  467.500    4.421    0.285    0.478   78.658
  467.750    4.388    0.298    0.459   75.066
  468.000    4.339    0.296    0.444   78.099
  468.250    4.243    0.297    0.456   82.712
  468.500    4.071    0.305    0.484   85.624
  468.750    3.951    0.308    0.473   81.606
  469.000    3.806    0.301    0.438   76.556
  469.250    3.756    0.297    0.421   72.904
  469.500    3.679    0.313    0.414   69.921
  469.750    3.618    0.321    0.412   73.865
  470.000    3.680    0.315    0.397   82.611
  470.250    3.923    0.288    0.390   88.015
  470.500    4.127    0.258    0.402   90.926
  470.750    4.358    0.238    0.405   93.109
  471.000    4.449    0.233    0.398   95.109
  471.250    4.500    0.241    0.400   96.440
  471.500    4.508    0.247    0.403   91.633
  471.750    4.417    0.203    0.416   91.567
  472.000    4.051    0.184    0.435   91.196
  472.250    3.801    0.222    0.436   88.942
  472.500    3.553    0.252    0.416   85.350
  472.750    3.253    0.264    0.427   80.907
  473.000    2.945    0.280    0.433   77.377
  473.250    2.671    0.304    0.416   75.730
  473.500    2.364    0.306    0.403   80.282
  473.750    2.101    0.298    0.412   83.984
  474.000    1.949    0.304    0.475   86.288
  474.250    1.758    0.315    0.524   86.951
  474.500    1.722    0.321    0.553   86.945
  474.750    1.768    0.315    0.548   86.453
  475.000    1.849    0.309    0.531   86.690
  475.250    1.957    0.305    0.516   87.171
  475.500    2.055    0.302    0.507   87.773
  475.750    2.074    0.304    0.503   88.314
  476.000    2.174    0.294    0.502   89.037
  476.250    2.452    0.283    0.510   89.822
  476.500    3.003    0.275    0.514   90.059
  476.750    3.762    0.279    0.494   89.264
  477.000    4.497    0.288    0.470   85.368
  477.250    5.024    0.215    0.437   82.324
  477.500    5.266    0.166    0.400   78.793
  477.750    5.024    0.139    0.377   81.644
  478.000    4.549    0.158    0.399   86.317
  478.250    4.268    0.191    0.409   87.710
  478.500    3.893    0.223    0.418   90.197
  478.750    3.531    0.237    0.419   93.412
  479.000    3.263    0.231    0.414   95.716
  479.250    3.010    0.230    0.423   97.716
  479.500    2.803    0.241    0.449   98.561
  479.750    2.710    0.245    0.458   93.936
  480.000    2.741    0.244    0.459   91.135
  480.250    3.168    0.239    0.474   92.100
  480.500    4.006    0.237    0.470   92.885
  480.750    4.594    0.239    0.452   93.123
  481.000    5.019    0.219    0.462   86.918
  481.250    5.330    0.171    0.406   83.205
  481.500    4.991    0.129    0.373   83.807
  481.750    4.368    0.138    0.344   87.690
  482.000    3.816    0.178    0.354   95.464
  482.250    3.296    0.215    0.362  104.089
  482.500    2.962    0.217    0.427  109.129
  482.750    2.697    0.214    0.462  107.724
  483.000    2.573    0.224    0.474  106.260
  483.250    2.549    0.233    0.484  105.100
  483.500    2.549    0.226    0.458  103.331
  483.750    2.535    0.232    0.433  103.994
  484.000    2.516    0.236    0.446  106.177
  484.250    2.502    0.235    0.471  108.237
  484.500    2.536    0.231    0.495  109.508
  484.750    2.930    0.225    0.506  109.563
  485.000    3.755    0.219    0.501  105.911
  485.250    4.802    0.216    0.497   98.247
  485.500    5.993    0.214    0.453   87.119
  485.750    6.926    0.176    0.402   75.565
  486.000    7.796    0.086    0.356   66.261
  486.250    8.217    0.070    0.325   69.294
  486.500    8.295    0.154    0.355   74.940
  486.750    8.141    0.214    0.371   77.609
  487.000    8.453    0.233    0.370   75.233
  487.250   10.432    0.248    0.359   70.061
  487.500   12.850    0.262    0.337   64.707
  487.750   14.711    0.272    0.334   60.446
  488.000   16.038    0.270    0.343   57.523
  488.250   16.937    0.175    0.316   55.816
  488.500   17.422    0.097    0.287   59.761
  488.750   16.875    0.143    0.276   64.435
  489.000   15.597    0.196    0.301   67.407
  489.250   14.826    0.240    0.326   67.705
  489.500   14.041    0.256    0.348   67.881
  489.750   13.373    0.246    0.365   68.241
  490.000   12.617    0.253    0.378   68.660
  490.250   11.905    0.267    0.391   69.080
  490.500   11.381    0.270    0.386   69.075
  490.750   10.839    0.262    0.370   68.340
  491.000   10.479    0.253    0.360   70.522
  491.250   10.382    0.245    0.357   72.886
  491.500   10.500    0.240    0.355   75.311
  491.750   11.005    0.238    0.362   76.400
  492.000   12.181    0.252    0.378   76.515
  492.250   13.867    0.273    0.398   75.963
  492.500   14.077    0.289    0.416   74.377
  492.750   14.616    0.297    0.414   72.670
  493.000   14.645    0.299    0.410   72.178
  493.250   14.265    0.308    0.410   71.686
  493.500   13.510    0.303    0.408   74.598
  493.750   12.723    0.298    0.405   80.001
  494.000   11.649    0.296    0.402   83.399
  494.250   10.991    0.293    0.400   86.128
  494.500   10.273    0.296    0.414   87.825
  494.750    9.821    0.286    0.410   87.515
  495.000    9.424    0.263    0.416   81.188
  495.250    9.513    0.244    0.394   72.612
  495.500   10.065    0.238    0.357   68.413
  495.750   10.490    0.242    0.343   68.650
  496.000   10.892    0.236    0.339   67.308
  496.250   11.078    0.233    0.346   63.412
  496.500   11.633    0.229    0.331   67.540
  496.750   13.393    0.221    0.317   68.445
  497.000   15.477    0.227    0.320   59.505
  497.250   17.785    0.243    0.322   52.693
  497.500   19.684    0.257    0.322   45.696
  497.750   21.745    0.274    0.323   41.984
  498.000   22.536    0.287    0.328   37.542
  498.250   22.452    0.296    0.334   45.680
  498.500   24.387    0.290    0.319   53.271
  498.750   28.555    0.273    0.328   48.403
  499.000   32.568    0.267    0.347   37.822
  499.250   35.242    0.289    0.344   32.043
  499.500   34.784    0.305    0.331   34.833
  499.750   31.967    0.300    0.325   38.231
  500.000   34.462    0.254    0.312   41.203
  500.250   41.739    0.226    0.326   37.065
  500.500   46.456    0.251    0.360   30.555
  500.750   49.336    0.290    0.365   26.174
  501.000   43.917    0.310    0.345   24.831
  501.250   38.007    0.316    0.330   39.169
  501.500   27.160    0.282    0.311   50.529
  501.750   21.159    0.249    0.297   64.563
  502.000   20.076    0.225    0.313   65.226
  502.250   21.361    0.230    0.355   46.014
  502.500   24.454    0.257    0.364   38.532
  502.750   28.795    0.273    0.347   33.968
  503.000   32.841    0.292    0.335   37.730
  503.250   32.967    0.307    0.324   45.262
  503.500   29.290    0.269    0.316   50.301
  503.750   25.301    0.241    0.333   53.820
