~VERSION INFORMATION
 VERS.                 2.0:   CWLS LOG ASCII STANDARD -VERSION 2.0
 WRAP.                  NO:   ONE LINE PER DEPTH STEP
~WELL INFORMATION BLOCK
#MNEM.UNIT           DATA                    DESCRIPTION OF MNEMONIC
#---------    -------------------            -------------------------------
# Generated from Intellog Unique Number	CS_69_70/WELL/620
NULL.         -999.25                        : NULL_VALUE
WELL.         MAYNARD ENERGY                 : Well_name    - WELL              
LOC .         00/03-20-070-15W4/0            : Location     - LOCATION          
UWI .         00/03-20-070-15W4/0            : Uwi          - UNIQUE WELL ID    
ENTR.         SP                             : Entered      - ENTERED BY        
SRVC.         SCHLUMBERGER                   : Scn          - SERVICE COMPANY   
STRT.M        270                            : top_depth    - START DEPTH       
STOP.M        489                            : bot_depth    - STOP DEPTH        
STEP.M        0.25                           : increment    - STEP LENGTH       
~CURVE INFORMATION BLOCK
#MNEM UNIT       ERCB CURVE CODE    CURVE DESCRIPTION
#-----------   ------------------   ----------------------------------
DEPT.M        00 001 00 00         : DEPTH        - DEPTH                       
ILD .OHMM     00 120 00 00         : RESD         - DEEP RESISTIVITY (DIL)      
DPHI.V/V      00 890 00 00         : PHID         - DENSITY POROSITY (LIMESTONE)
NPHI.V/V      00 330 00 00         : PHIN         - NEUTRON POROSITY (LIMESTONE)
GR  .API      00 310 00 00         : GR           - GAMMA RAY                   
~PARAMETER INFORMATION       
#MNEM.UNIT           DATA             DESCRIPTION OF MNEMONIC
#---------         -----------     ------------------------------
GL  .M        566.63               : gl           - GROUND LEVEL ELEVATION      
EREF.M        569.83               : kb           - ELEVATION OF DEPTH REFERENCE
DATM.M        566.63               : datum        - DATUM ELEVATION             
TDD .M        495                  : tdd          - TOTAL DEPTH DRILLER         
RUN .         ONE                  : Run          - RUN NUMBER                  
ENG .         BILL                 : Engineer     - RECORDING ENGINEER          
WIT .         JIM                  : Witness      - WITNESSED BY                
MUD .         GEL                  : Mud_type     - MUD TYPE                    
MATR.         LIMESTONE            : Logunit      - NEUTRON MATRIX              
TMAX.C        21                   : BHT          - MAXIMUM RECORDED TEMPERATURE
BHTD.M        495                  : BHTDEP       - MAXIMUM RECORDED TEMPERATURE
MATR.         1                    : LOGUNIT      - NEUTRON MATRIX              
RMT .C        25                   : MDTP         - TEMPERATURE OF MUD          
NEUT.         1                    : NEUTRON      - NEUTRON TYPE                
RESI.         0                    : RESIST       - RESISTIVITY TYPE            
RMC .OHMM     0.25                 : RMC          - RESISTIVITY OF MUD CAKE     
RMF .OHMM     0.25                 : RMF          - RESISTIVITY OF MUD FILTRATE 
SUFT.C        15                   : SUFT         - SURFACE TEMPERATURE         
~A  DEPTH     RESD     PHID     PHIN       GR
  270.000    2.777    0.248    0.577   97.870
  270.250    2.786    0.242    0.586   96.314
  270.500    2.803    0.242    0.589   96.810
  270.750    2.811    0.252    0.488   98.935
  271.000    2.780    0.256    0.487  100.095
  271.250    2.772    0.262    0.492  103.307
  271.500    2.764    0.261    0.497  106.579
  271.750    2.757    0.258    0.502  108.522
  272.000    2.758    0.272    0.497  110.104
  272.250    2.750    0.272    0.491  109.876
  272.500    2.743    0.265    0.485  108.081
  272.750    2.711    0.250    0.478  106.890
  273.000    2.703    0.231    0.480  105.935
  273.250    2.712    0.229    0.484  105.164
  273.500    2.720    0.254    0.489  104.453
  273.750    2.762    0.272    0.494  104.043
  274.000    2.844    0.285    0.497  104.962
  274.250    2.950    0.293    0.493  107.089
  274.500    3.007    0.273    0.487  108.609
  274.750    3.113    0.257    0.473  110.374
  275.000    3.211    0.241    0.468  111.352
  275.250    3.342    0.236    0.462  111.424
  275.500    3.472    0.221    0.454  110.050
  275.750    3.530    0.221    0.451  107.590
  276.000    3.482    0.230    0.455  104.467
  276.250    3.385    0.247    0.458  102.668
  276.500    3.304    0.275    0.462  101.173
  276.750    3.215    0.290    0.466  100.524
  277.000    3.103    0.302    0.471  100.657
  277.250    3.022    0.308    0.476  101.758
  277.500    2.949    0.303    0.479  102.675
  277.750    2.836    0.295    0.481  104.017
  278.000    2.788    0.295    0.481  105.237
  278.250    2.870    0.299    0.483  106.034
  278.500    2.943    0.294    0.487  105.805
  278.750    3.058    0.287    0.491  107.266
  279.000    3.213    0.283    0.492  107.401
  279.250    3.392    0.291    0.491  103.793
  279.500    3.531    0.272    0.475   95.842
  279.750    3.596    0.260    0.449   89.038
  280.000    3.589    0.206    0.426   85.492
  280.250    3.451    0.174    0.407   83.151
  280.500    3.208    0.116    0.403   90.286
  280.750    2.989    0.155    0.426   97.176
  281.000    2.811    0.219    0.444  101.714
  281.250    2.755    0.280    0.475  102.211
  281.500    2.902    0.307    0.455   94.081
  281.750    3.130    0.330    0.434   89.808
  282.000    3.317    0.314    0.421   83.365
  282.250    3.480    0.303    0.407   79.095
  282.500    3.611    0.288    0.380   75.849
  282.750    3.725    0.294    0.368   74.475
  283.000    3.750    0.279    0.367   74.852
  283.250    3.864    0.263    0.368   81.321
  283.500    4.068    0.253    0.374   86.222
  283.750    4.320    0.250    0.382   89.855
  284.000    4.540    0.237    0.388   92.342
  284.250    4.679    0.228    0.394   93.744
  284.500    4.582    0.228    0.398   95.808
  284.750    4.339    0.226    0.401  100.286
  285.000    4.015    0.246    0.403  101.386
  285.250    3.698    0.248    0.389   91.563
  285.500    3.415    0.267    0.366   79.329
  285.750    3.172    0.289    0.353   67.818
  286.000    2.929    0.314    0.346   57.271
  286.250    2.751    0.338    0.344   46.303
  286.500    2.613    0.353    0.344   35.335
  286.750    2.541    0.360    0.342   31.667
  287.000    2.485    0.342    0.340   32.467
  287.250    2.477    0.323    0.334   33.444
  287.500    2.526    0.318    0.334   34.362
  287.750    2.576    0.308    0.334   36.431
  288.000    2.568    0.312    0.332   37.406
  288.250    2.520    0.330    0.329   39.532
  288.500    2.472    0.338    0.326   41.476
  288.750    2.489    0.332    0.330   42.998
  289.000    2.522    0.319    0.342   44.941
  289.250    2.506    0.310    0.352   48.939
  289.500    2.458    0.301    0.362   52.571
  289.750    2.402    0.301    0.368   59.222
  290.000    2.484    0.300    0.373   66.355
  290.250    2.598    0.310    0.376   74.332
  290.500    2.866    0.312    0.379   82.070
  290.750    3.216    0.315    0.382   88.963
  291.000    3.590    0.306    0.384   94.887
  291.250    3.867    0.284    0.366   98.943
  291.500    4.135    0.257    0.351   92.802
  291.750    4.209    0.244    0.341   84.610
  292.000    4.161    0.232    0.331   76.115
  292.250    4.024    0.242    0.325   69.431
  292.500    3.910    0.254    0.328   66.308
  292.750    3.797    0.254    0.335   65.476
  293.000    3.684    0.260    0.344   67.359
  293.250    3.620    0.276    0.348   73.468
  293.500    3.604    0.283    0.353   81.146
  293.750    3.605    0.276    0.352   85.018
  294.000    3.597    0.258    0.353   88.411
  294.250    3.517    0.226    0.356   90.235
  294.500    3.371    0.219    0.362   90.731
  294.750    3.177    0.247    0.368   88.813
  295.000    3.056    0.259    0.373   84.364
  295.250    3.072    0.271    0.375   81.176
  295.500    3.122    0.258    0.377   76.129
  295.750    3.228    0.251    0.380   75.048
  296.000    3.432    0.248    0.388   72.709
  296.250    3.627    0.228    0.401   78.454
  296.500    3.798    0.203    0.414   90.113
  296.750    3.921    0.183    0.431   99.781
  297.000    3.921    0.165    0.443  109.991
  297.250    3.873    0.184    0.452  118.994
  297.500    3.784    0.193    0.458  121.241
  297.750    3.720    0.187    0.459  121.316
  298.000    3.696    0.204    0.458  120.605
  298.250    3.673    0.231    0.457  118.687
  298.500    3.681    0.238    0.462  117.795
  298.750    3.706    0.220    0.469  118.411
  299.000    3.690    0.185    0.478  121.140
  299.250    3.618    0.169    0.486  122.842
  299.500    3.407    0.155    0.492  123.278
  299.750    3.189    0.177    0.497  122.990
  300.000    3.068    0.173    0.500  122.038
  300.250    3.019    0.200    0.502  119.699
  300.500    3.012    0.232    0.497  116.092
  300.750    3.077    0.261    0.471  110.674
  301.000    3.289    0.289    0.445  105.136
  301.250    3.534    0.320    0.417  102.133
  301.500    3.737    0.309    0.410  102.024
  301.750    3.908    0.301    0.416  103.909
  302.000    4.112    0.291    0.423  105.430
  302.250    4.266    0.280    0.429  103.695
  302.500    4.365    0.266    0.425  101.234
  302.750    4.373    0.246    0.421   98.657
  303.000    4.341    0.229    0.419   97.278
  303.250    4.318    0.244    0.420   94.821
  303.500    4.375    0.268    0.423   93.866
  303.750    4.408    0.281    0.427   94.844
  304.000    4.514    0.277    0.432   95.521
  304.250    4.661    0.268    0.436   95.957
  304.500    4.759    0.258    0.441   95.793
  304.750    4.776    0.243    0.445   95.144
  305.000    4.647    0.238    0.449   95.091
  305.250    4.420    0.232    0.453   96.735
  305.500    4.193    0.228    0.460  100.247
  305.750    3.966    0.215    0.463  104.786
  306.000    3.837    0.188    0.471  109.629
  306.250    3.708    0.189    0.484  112.657
  306.500    3.676    0.229    0.490  116.718
  306.750    3.725    0.256    0.480  119.023
  307.000    3.839    0.263    0.465  120.058
  307.250    3.970    0.257    0.439  124.174
  307.500    4.019    0.248    0.422  125.696
  307.750    4.052    0.231    0.414  122.994
  308.000    4.061    0.246    0.408  119.628
  308.250    4.070    0.265    0.406  115.297
  308.500    4.030    0.276    0.405  109.159
  308.750    4.046    0.292    0.407  106.394
  309.000    4.153    0.286    0.410  103.150
  309.250    4.275    0.274    0.412  101.895
  309.500    4.487    0.264    0.415  101.426
  309.750    4.715    0.249    0.417  102.285
  310.000    4.862    0.238    0.417  102.057
  310.250    5.000    0.229    0.409  100.622
  310.500    5.090    0.216    0.403   99.549
  310.750    5.018    0.213    0.399  102.277
  311.000    4.945    0.219    0.402  108.205
  311.250    4.775    0.226    0.410  112.683
  311.500    4.735    0.240    0.418  114.626
  311.750    4.622    0.234    0.425  113.615
  312.000    4.614    0.226    0.430  115.739
  312.250    4.623    0.240    0.433  116.114
  312.500    4.664    0.245    0.425  114.742
  312.750    4.738    0.254    0.423  113.245
  313.000    4.852    0.252    0.422  110.848
  313.250    4.991    0.236    0.413  109.290
