~VERSION INFORMATION
 VERS.                 2.0:   CWLS LOG ASCII STANDARD -VERSION 2.0
 WRAP.                  NO:   ONE LINE PER DEPTH STEP
~WELL INFORMATION BLOCK
#MNEM.UNIT           DATA                    DESCRIPTION OF MNEMONIC
#---------    -------------------            -------------------------------
# Generated from Intellog Unique Number	CS_77_79/WELL/915
WELL.         MESA HB LEISMER                : Well_name    - WELL
LOC .         00/07-33-078-09W4/0            : Location     - LOCATION
UWI .         00/07-33-078-09W4/0            : Uwi          - UNIQUE WELL ID
ENTR.         JHS                            : Entered      - ENTERED BY
SRVC.         SCHLUMBERGER                   : Scn          - SERVICE COMPANY
STRT.M        228.6                          : top_depth    - START DEPTH
STOP.M        460.1                          : bot_depth    - STOP DEPTH
STEP.M        0.25                           : increment    - STEP LENGTH
 NULL. -999.2500:NULL Value
~CURVE INFORMATION BLOCK
#MNEM UNIT       ERCB CURVE CODE    CURVE DESCRIPTION
#-----------   ------------------   ----------------------------------
DEPT.M        00 001 00 00         : DEPTH        - DEPTH
RHOB.KG/M3    00 350 00 00         : DENS         - BULK DENSITY
GR  .API      00 310 00 00         : GR           - GAMMA RAY
DPHI.V/V      00 890 00 00         : PHID         - DENSITY POROSITY (SANDSTONE)
NPHI.V/V      00 330 00 00         : PHIN         - NEUTRON POROSITY (SANDSTONE)
ILD .OHMM     00 120 00 00         : RESD         - DEEP RESISTIVITY (DIL)
~PARAMETER INFORMATION
#MNEM.UNIT           DATA             DESCRIPTION OF MNEMONIC
#---------         -----------     ------------------------------
GL  .M        660.38               : gl           - GROUND LEVEL ELEVATION
EREF.M        661.416              : kb           - ELEVATION OF DEPTH REFERENCE
DATM.M        661.416              : datum        - DATUM ELEVATION
TDD .M        475.488              : tdd          - TOTAL DEPTH DRILLER
RUN .         ONE                  : Run          - RUN NUMBER
ENG .         BILL                 : Engineer     - RECORDING ENGINEER
WIT .         JIM                  : Witness      - WITNESSED BY
MUD .         GEL                  : Mud_type     - MUD TYPE
MATR.         SANDSTONE            : Logunit      - NEUTRON MATRIX
TMAX.C        60                   : BHT          - MAXIMUM RECORDED TEMPERATURE
BHTD.M        475.488              : BHTDEP       - MAXIMUM RECORDED TEMPERATURE
MATR.         1                    : LOGUNIT      - NEUTRON MATRIX
RMT .C        25                   : MDTP         - TEMPERATURE OF MUD
NEUT.         1                    : NEUTRON      - NEUTRON TYPE
RESI.         0                    : RESIST       - RESISTIVITY TYPE
RMC .OHMM     0.25                 : RMC          - RESISTIVITY OF MUD CAKE
RMF .OHMM     0.25                 : RMF          - RESISTIVITY OF MUD FILTRATE
SUFT.C        15                   : SUFT         - SURFACE TEMPERATURE
~A  DEPTH     DENS       GR     PHID     PHIN     RESD
# ...
  265.100    0.000  101.155    0.223    0.429   11.562
  265.350    0.000  106.540    0.203    0.439   10.516
  265.600    0.000  112.382    0.189    0.460    9.390
  265.850    0.000  123.078    0.203    0.479    7.538
  266.100    0.000  132.881    0.212    0.519    6.468
  266.350    0.000  134.029    0.212    0.532    5.980
  266.600    0.000  132.059    0.228    0.532    5.993
  266.850    0.000  127.811    0.219    0.519    6.390
  267.100    0.000  132.565    0.219    0.508    7.034
  267.350    0.000  132.571    0.221    0.507    8.115
  267.600    0.000  126.446    0.226    0.498    9.889
  267.850    0.000  118.093    0.259    0.494   11.886
  268.100    0.000  113.160    0.281    0.466   13.845
  268.350    0.000  116.847    0.283    0.462   15.713
  268.600    0.000  119.373    0.291    0.477   16.144
  268.850    0.000  116.870    0.315    0.476   15.765
  269.100    0.000  112.034    0.326    0.447   13.963
  269.350    0.000  107.387    0.268    0.435   12.541
  269.600    0.000  104.965    0.256    0.435   11.624
  269.850    0.000  103.101    0.248    0.442   11.773
  270.100    0.000   94.593    0.262    0.457   12.543
  270.350    0.000   84.156    0.274    0.444   13.434
  270.600    0.000   77.157    0.285    0.433   15.764
  270.850    0.000   69.551    0.300    0.447   17.398
  271.100    0.000   63.677    0.327    0.464   18.172
  271.350    0.000   63.339    0.332    0.465   17.831
  271.600    0.000   65.496    0.317    0.439   17.420
  271.850    0.000   69.791    0.318    0.442   16.637
  272.100    0.000   70.681    0.318    0.446   15.779
  272.350    0.000   71.383    0.306    0.433   14.890
  272.600    0.000   80.610    0.295    0.427   13.850
  272.850    0.000   90.184    0.269    0.435   13.013
  273.100    0.000   98.308    0.246    0.458   11.799
  273.350    0.000  100.534    0.227    0.477   10.543
  273.600    0.000  100.452    0.198    0.464   10.083
  273.850    0.000  105.217    0.190    0.451    9.184
  274.100    0.000  110.336    0.205    0.449    8.377
  274.350    0.000  107.547    0.229    0.459    8.027
  274.600    0.000  108.157    0.239    0.471    7.902
  274.850    0.000  111.468    0.233    0.482    8.136
  275.100    0.000  111.568    0.241    0.477    8.594
  275.350    0.000  108.152    0.250    0.495    9.611
  275.600    0.000  103.811    0.264    0.478   10.288
  275.850    0.000   93.378    0.269    0.421   11.294
  276.100    0.000   92.076    0.276    0.420   12.135
  276.350    0.000   94.194    0.257    0.454   11.852
  276.600    0.000   98.251    0.243    0.464   11.542
  276.850    0.000  102.918    0.241    0.453   10.333
  277.100    0.000  108.291    0.242    0.448    9.435
  277.350    0.000  117.569    0.241    0.450    8.772
  277.600    0.000  121.725    0.237    0.481    8.832
  277.850    0.000  121.791    0.214    0.484    9.330
  278.100    0.000  118.326    0.223    0.466   10.082
  278.350    0.000  111.637    0.237    0.475   10.832
  278.600    0.000  106.859    0.263    0.477   11.642
  278.850    0.000  100.133    0.276    0.480   12.621
  279.100    0.000   96.584    0.273    0.497   12.912
  279.350    0.000   98.369    0.266    0.507   12.757
  279.600    0.000   99.537    0.265    0.503   11.992
  279.850    0.000   96.330    0.265    0.498   11.542
  280.100    0.000   97.104    0.260    0.487   11.249
  280.350    0.000  101.214    0.235    0.485   11.389
  280.600    0.000  106.442    0.228    0.504   11.539
  280.850    0.000  104.729    0.238    0.500   12.123
  281.100    0.000  101.709    0.286    0.466   12.598
  281.350    0.000   99.500    0.295    0.451   13.101
  281.600    0.000   98.462    0.285    0.462   13.105
  281.850    0.000   99.537    0.289    0.483   13.063
  282.100    0.000  100.876    0.285    0.456   12.413
  282.350    0.000  104.759    0.279    0.425   11.914
  282.600    0.000  106.562    0.278    0.428   11.552
  282.850    0.000  106.225    0.277    0.467   11.795
  283.100    0.000  104.936    0.262    0.486   11.896
  283.350    0.000   99.538    0.247    0.500   12.575
  283.600    0.000   87.204    0.236    0.461   12.733
  283.850    0.000   79.846    0.264    0.441   12.667
  284.100    0.000   81.225    0.275    0.421   11.691
  284.350    0.000   86.604    0.289    0.412   10.101
  284.600   -0.000   95.640    0.278    0.423    7.491
  284.850   -0.000  101.092    0.262    0.455    5.738
  285.100    0.000  106.621    0.244    0.484    4.893
  285.350    0.000  105.343    0.241    0.491    4.496
  285.600    0.000   95.946    0.262    0.521    4.504
  285.850   -0.000   85.403    0.252    0.547    4.834
  286.100   -0.000   80.421    0.279    0.565    5.942
  286.350    0.000   74.656    0.296    0.579    7.457
  286.600    0.000   67.576    0.337    0.596    9.827
  286.850    0.000   64.481    0.375    0.599   13.333
  287.100   -0.000   63.526    0.362    0.480   16.959
  287.350   -0.000   63.462    0.336    0.477   20.185
  287.600   -0.000   64.259    0.346    0.466   23.940
  287.850    0.000   66.491    0.347    0.456   25.867
  288.100    0.000   65.692    0.358    0.462   26.055
  288.350    0.000   63.374    0.384    0.468   25.574
  288.600   -0.000   60.748    0.412    0.478   25.613
  288.850   -0.000   60.976    0.439    0.500   25.599
  289.100    0.000   62.873    0.476    0.549   26.120
  289.350    0.000   61.632    0.380    0.517   26.098
  289.600    0.000   58.950    0.356    0.468   26.744
  289.850   -0.000   59.605    0.358    0.473   26.243
  290.100   -0.000   62.145    0.358    0.467   25.983
  290.350   -0.000   61.673    0.353    0.455   25.742
  290.600    0.000   62.160    0.356    0.447   24.926
  290.850    0.000   63.656    0.356    0.451   24.780
  291.100    0.000   66.058    0.358    0.473   23.528
  291.350   -0.000   69.731    0.365    0.473   22.864
  291.600   -0.000   70.508    0.364    0.451   22.042
  291.850   -0.000   70.100    0.348    0.453   21.583
  292.100    0.000   68.030    0.346    0.464   20.912
  292.350    0.000   66.817    0.340    0.472   20.846
  292.600   -0.000   64.734    0.355    0.454   20.857
  292.850   -0.000   64.987    0.349    0.434   20.887
  293.100   -0.000   66.923    0.346    0.437   20.904
  293.350    0.000   71.076    0.357    0.445   20.930
  293.600    0.000   72.221    0.343    0.441   20.940
  293.850    0.000   73.363    0.346    0.436   20.970
  294.100   -0.000   77.091    0.347    0.434   20.658
  294.350   -0.000   76.946    0.347    0.430   20.383
  294.600   -0.000   74.215    0.343    0.435   19.148
  294.850    0.000   69.677    0.341    0.445   18.673
  295.100    0.000   68.466    0.331    0.435   17.327
  295.350   -0.000   69.509    0.336    0.429   17.226
  295.600   -0.000   71.201    0.349    0.438   16.708
  295.850   -0.000   73.326    0.341    0.448   16.626
  296.100    0.000   73.353    0.343    0.454   16.940
  296.350    0.000   68.380    0.345    0.462   16.935
  296.600    0.000   65.695    0.329    0.477   17.335
  296.850   -0.000   62.630    0.310    0.483   17.319
  297.100   -0.000   62.865    0.296    0.503   17.343
  297.350   -0.000   68.767    0.301    0.468   17.355
  297.600    0.000   72.537    0.343    0.439   17.410
  297.850    0.000   72.387    0.356    0.435   17.059
  298.100    0.000   71.338    0.346    0.449   16.769
  298.350   -0.000   73.948    0.328    0.463   16.484
  298.600   -0.000   72.363    0.329    0.455   16.561
  298.850    0.000   69.628    0.337    0.465   17.416
  299.100    0.000   66.094    0.334    0.439   19.540
  299.350    0.000   62.702    0.290    0.417   21.140
  299.600   -0.000   60.216    0.210    0.386   21.078
  299.850   -0.000   58.450    0.128    0.319   20.714
  300.100   -0.000   67.101    0.109    0.294   19.914
  300.350    0.000   76.070    0.182    0.409   19.070
  300.600    0.000   79.644    0.315    0.459   17.313
  300.850    0.000   76.609    0.334    0.477   15.984
  301.100   -0.000   71.530    0.343    0.474   14.836
  301.350   -0.000   68.569    0.355    0.462   15.314
