~VERSION INFORMATION
 VERS.                 2.0:   CWLS LOG ASCII STANDARD -VERSION 2.0
 WRAP.                  NO:   ONE LINE PER DEPTH STEP
~WELL INFORMATION BLOCK
#MNEM.UNIT           DATA                    DESCRIPTION OF MNEMONIC
#---------    -------------------            -------------------------------
# Generated from Intellog Unique Number	CS_67_68/WELL/620
WELL.         AEC FISH CREEK                 : Well_name    - WELL
LOC .         00/01-26-068-08W4/0            : Location     - LOCATION
UWI .         00/01-26-068-08W4/0            : Uwi          - UNIQUE WELL ID
ENTR.         SP                             : Entered      - ENTERED BY
SRVC.         SCHLUMBERGER                   : Scn          - SERVICE COMPANY
STRT.M        270                            : top_depth    - START DEPTH
STOP.M        495                            : bot_depth    - STOP DEPTH
STEP.M        0.25                           : increment    - STEP LENGTH
 NULL. -999.2500:NULL Value
~CURVE INFORMATION BLOCK
#MNEM UNIT       ERCB CURVE CODE    CURVE DESCRIPTION
#-----------   ------------------   ----------------------------------
DEPT.M        00 001 00 00         : DEPTH        - DEPTH
ILD .OHMM     00 120 00 00         : RESD         - DEEP RESISTIVITY (DIL)
DPHI.V/V      00 890 00 00         : PHID         - DENSITY POROSITY (LIMESTONE)
NPHI.V/V      00 330 00 00         : PHIN         - NEUTRON POROSITY (LIMESTONE)
GR  .API      00 310 00 00         : GR           - GAMMA RAY
~PARAMETER INFORMATION
#MNEM.UNIT           DATA             DESCRIPTION OF MNEMONIC
#---------         -----------     ------------------------------
GL  .M        602.15               : gl           - GROUND LEVEL ELEVATION
EREF.M        605.73               : kb           - ELEVATION OF DEPTH REFERENCE
DATM.M        602.15               : datum        - DATUM ELEVATION
TDD .M        505                  : tdd          - TOTAL DEPTH DRILLER
RUN .         ONE                  : Run          - RUN NUMBER
ENG .         BILL                 : Engineer     - RECORDING ENGINEER
WIT .         JIM                  : Witness      - WITNESSED BY
MUD .         GEL                  : Mud_type     - MUD TYPE
MATR.         LIMESTONE            : Logunit      - NEUTRON MATRIX
TMAX.C        22                   : BHT          - MAXIMUM RECORDED TEMPERATURE
BHTD.M        505                  : BHTDEP       - MAXIMUM RECORDED TEMPERATURE
MATR.         1                    : LOGUNIT      - NEUTRON MATRIX
RMT .C        25                   : MDTP         - TEMPERATURE OF MUD
NEUT.         1                    : NEUTRON      - NEUTRON TYPE
RESI.         0                    : RESIST       - RESISTIVITY TYPE
RMC .OHMM     0.25                 : RMC          - RESISTIVITY OF MUD CAKE
RMF .OHMM     0.25                 : RMF          - RESISTIVITY OF MUD FILTRATE
SUFT.C        15                   : SUFT         - SURFACE TEMPERATURE
~A  DEPTH     RESD     PHID     PHIN       GR
  270.000    2.912    0.288    0.443  109.060
  270.250    3.018    0.303    0.444  111.958
  270.500    3.111    0.325    0.447  111.597
  270.750    3.170    0.306    0.446  109.270
  271.000    3.182    0.313    0.455  107.188
  271.250    3.146    0.336    0.461  105.415
  271.500    3.082    0.341    0.459  106.098
  271.750    2.968    0.343    0.462  109.857
  272.000    2.852    0.345    0.489  113.985
  272.250    2.747    0.344    0.485  117.006
  272.500    2.695    0.347    0.468  119.043
  272.750    2.660    0.351    0.461  117.946
  273.000    2.665    0.328    0.464  115.679
  273.250    2.685    0.301    0.496  112.000
  273.500    2.736    0.293    0.517  108.012
  273.750    2.788    0.300    0.514  105.193
  274.000    2.820    0.294    0.487  114.238
  274.250    2.869    0.287    0.478  118.796
  274.500    2.929    0.293    0.478  113.763
  274.750    2.951    0.300    0.466  108.669
  275.000    2.985    0.296    0.454  103.330
  275.250    3.007    0.278    0.450   99.526
  275.500    3.013    0.270    0.461  106.851
  275.750    2.968    0.347    0.470  111.470
  276.000    2.929    0.372    0.468  107.545
  276.250    2.918    0.392    0.480  104.418
  276.500    2.934    0.406    0.500  104.795
  276.750    2.968    0.416    0.488   99.886
  277.000    3.076    0.368    0.456   96.759
  277.250    3.653    0.296    0.436   91.050
  277.500    4.217    0.244    0.389   86.694
  277.750    5.171    0.204    0.332   90.084
  278.000    5.946    0.224    0.303   87.633
  278.250    6.572    0.277    0.264   71.596
  278.500    6.982    0.335    0.238   36.686
  278.750    6.597    0.313    0.285   36.574
  279.000    6.060    0.291    0.329   41.868
  279.250    5.737    0.291    0.372   46.365
  279.500    5.401    0.312    0.374   51.230
  279.750    5.027    0.315    0.374   50.438
  280.000    4.795    0.313    0.374   45.590
  280.250    4.661    0.315    0.378   48.427
  280.500    4.591    0.313    0.391   54.215
  280.750    4.582    0.306    0.408   59.695
  281.000    4.582    0.298    0.423   64.868
  281.250    4.574    0.303    0.416   68.380
  281.500    4.574    0.310    0.407   68.819
  281.750    4.582    0.314    0.400   64.095
  282.000    4.591    0.316    0.390   60.352
  282.250    4.609    0.320    0.376   62.083
  282.500    4.661    0.312    0.352   61.600
  282.750    4.759    0.277    0.347   58.596
  283.000    4.886    0.255    0.378   77.662
  283.250    5.027    0.240    0.395   90.027
  283.500    5.132    0.232    0.408  103.253
  283.750    5.191    0.245    0.420  111.929
  284.000    5.260    0.248    0.421  115.873
  284.250    5.330    0.259    0.415  115.021
  284.500    5.391    0.272    0.414  111.341
  284.750    5.442    0.279    0.406  105.386
  285.000    5.494    0.284    0.398  109.144
  285.250    5.546    0.280    0.393  105.280
  285.500    5.535    0.273    0.398  110.455
  285.750    5.422    0.291    0.414  113.166
  286.000    5.230    0.312    0.424   88.031
  286.250    5.152    0.324    0.409   60.129
  286.500    5.104    0.304    0.398   59.648
  286.750    5.152    0.289    0.395   66.786
  287.000    5.250    0.274    0.401   74.909
  287.250    5.340    0.262    0.403   84.631
  287.500    5.463    0.253    0.410   92.756
  287.750    5.556    0.277    0.419   98.789
  288.000    5.578    0.302    0.403  100.335
  288.250    5.391    0.316    0.398   95.671
  288.500    5.094    0.326    0.430   91.929
  288.750    4.933    0.332    0.459   89.294
  289.000    4.841    0.341    0.433   89.241
  289.250    4.742    0.349    0.439   89.495
  289.500    4.688    0.358    0.453   75.918
  289.750    4.644    0.366    0.463   67.136
  290.000    4.662    0.372    0.477   65.730
  290.250    4.814    0.373    0.446   68.936
  290.500    5.056    0.369    0.438   73.495
  290.750    5.221    0.364    0.451   76.023
  291.000    5.391    0.344    0.443   76.216
  291.250    5.515    0.332    0.410   70.876
  291.500    5.631    0.321    0.383   67.749
  291.750    5.652    0.314    0.390   73.600
  292.000    5.610    0.312    0.418   76.681
  292.250    5.474    0.306    0.435   80.623
  292.500    5.351    0.293    0.423   88.255
  292.750    5.202    0.275    0.415   94.657
  293.000    5.066    0.262    0.417  101.735
  293.250    4.915    0.250    0.404  106.969
  293.500    4.778    0.240    0.409  102.121
  293.750    4.627    0.244    0.422   98.382
  294.000    4.566    0.257    0.428   96.667
  294.250    4.540    0.264    0.428   93.172
  294.500    4.540    0.296    0.445   92.565
  294.750    4.592    0.347    0.464   94.788
  295.000    4.627    0.401    0.492   91.599
  295.250    4.814    0.389    0.505   87.121
  295.500    4.915    0.354    0.481   83.993
  295.750    5.047    0.332    0.466   81.850
  296.000    5.143    0.317    0.453   86.223
  296.250    5.163    0.321    0.444   90.905
  296.500    5.163    0.324    0.435   95.032
  296.750    5.114    0.325    0.436   97.253
  297.000    5.085    0.326    0.447   86.688
  297.250    5.066    0.326    0.455   78.459
  297.500    5.066    0.330    0.450   72.198
  297.750    5.057    0.338    0.446   69.316
  298.000    5.066    0.340    0.442   72.829
  298.250    5.076    0.339    0.436   76.403
  298.500    5.085    0.337    0.431   80.346
  298.750    5.085    0.337    0.428   83.736
  299.000    5.057    0.338    0.433   86.203
  299.250    5.047    0.339    0.446   87.503
  299.500    5.057    0.340    0.442   80.626
  299.750    5.076    0.337    0.440   83.094
  300.000    5.095    0.331    0.430   86.422
  300.250    5.124    0.325    0.425   82.189
  300.500    5.153    0.329    0.443   79.186
  300.750    5.173    0.323    0.450   86.633
  301.000    5.252    0.294    0.430   93.219
  301.250    5.301    0.276    0.420   97.838
  301.500    5.372    0.260    0.408   94.957
  301.750    5.423    0.241    0.420   90.232
  302.000    5.474    0.225    0.415   93.807
  302.250    5.547    0.281    0.409   93.877
  302.500    5.611    0.300    0.412   90.136
  302.750    5.632    0.301    0.410   88.116
  303.000    5.696    0.304    0.414   91.752
  303.250    5.739    0.310    0.443   94.711
  303.500    5.783    0.319    0.455   96.564
  303.750    5.805    0.322    0.447   93.990
  304.000    5.794    0.320    0.445   90.004
  304.250    5.772    0.315    0.459   85.217
  304.500    5.739    0.313    0.465   80.553
  304.750    5.718    0.314    0.448   84.680
  305.000    5.675    0.315    0.442   89.178
  305.250    5.664    0.313    0.454   92.813
  305.500    5.643    0.310    0.441   96.633
  305.750    5.893    0.299    0.427   99.961
  306.000    5.927    0.282    0.425  102.675
  306.250    6.017    0.300    0.432  104.588
  306.500    6.190    0.332    0.434  106.995
  306.750    6.332    0.365    0.437  109.709
  307.000    6.143    0.155    0.436  111.622
  307.250    6.392    0.110    0.416   98.967
  307.500    6.650    0.077    0.401   88.955
  307.750    6.803    0.063    0.393   81.463
  308.000    6.829    0.239    0.430   80.488
  308.250    6.440    0.266    0.452   88.858
  308.500    6.017    0.267    0.462   95.075
  308.750    5.697    0.264    0.453   97.912
  309.000    5.506    0.261    0.459   96.752
  309.250    5.403    0.270    0.465   96.822
  309.500    5.332    0.276    0.469  100.642
  309.750    5.322    0.275    0.466  105.200
  310.000    5.373    0.266    0.454  108.652
  310.250    5.434    0.271    0.450  103.619
  310.500    5.455    0.306    0.463  104.058
  310.750    5.373    0.349    0.475  105.420
  311.000    5.154    0.390    0.460  105.736
  311.250    4.852    0.412    0.444  105.007
  311.500    4.663    0.369    0.431  104.215
  311.750    4.542    0.338    0.426  103.671
  312.000    4.516    0.319    0.428  106.753
  312.250    4.628    0.300    0.424  110.204
  312.500    4.761    0.282    0.431  105.049
  312.750    4.917    0.287    0.434  102.414
  313.000    5.029    0.296    0.418  101.810
  313.250    5.154    0.285    0.414  100.464
