~VERSION INFORMATION
 VERS.                 2.0:   CWLS LOG ASCII STANDARD -VERSION 2.0
 WRAP.                  NO:   ONE LINE PER DEPTH STEP
~WELL INFORMATION BLOCK
#MNEM.UNIT           DATA                    DESCRIPTION OF MNEMONIC
#---------    -------------------            -------------------------------
# Generated from Intellog Unique Number	CS_69_70/WELL/838
WELL.         PARAMOUNT RESOURCES LTD        : Well_name    - WELL
LOC .         00/07-18-070-17W4/0            : Location     - LOCATION
UWI .         00/07-18-070-17W4/0            : Uwi          - UNIQUE WELL ID
ENTR.         SP                             : Entered      - ENTERED BY
SRVC.         SCHLUMBERGER                   : Scn          - SERVICE COMPANY
STRT.M        275                            : top_depth    - START DEPTH
STOP.M        445                            : bot_depth    - STOP DEPTH
STEP.M        0.25                           : increment    - STEP LENGTH
 NULL. -999.2500:NULL Value
~CURVE INFORMATION BLOCK
#MNEM UNIT       ERCB CURVE CODE    CURVE DESCRIPTION
#-----------   ------------------   ----------------------------------
DEPT.M        00 001 00 00         : DEPTH        - DEPTH
ILD .OHMM     00 120 00 00         : RESD         - DEEP RESISTIVITY (DIL)
GR  .API      00 310 00 00         : GR           - GAMMA RAY
NPHI.V/V      00 330 00 00         : PHIN         - NEUTRON POROSITY (LIMESTONE)
DPHI.V/V      00 890 00 00         : PHID         - DENSITY POROSITY (LIMESTONE)
~PARAMETER INFORMATION
#MNEM.UNIT           DATA             DESCRIPTION OF MNEMONIC
#---------         -----------     ------------------------------
GL  .M        554.2                : gl           - GROUND LEVEL ELEVATION
EREF.M        557.2                : kb           - ELEVATION OF DEPTH REFERENCE
DATM.M        554.2                : datum        - DATUM ELEVATION
TDD .M        446                  : tdd          - TOTAL DEPTH DRILLER
RUN .         ONE                  : Run          - RUN NUMBER
ENG .         BILL                 : Engineer     - RECORDING ENGINEER
WIT .         JIM                  : Witness      - WITNESSED BY
MUD .         GEL                  : Mud_type     - MUD TYPE
MATR.         LIMESTONE            : Logunit      - NEUTRON MATRIX
TMAX.C        22                   : BHT          - MAXIMUM RECORDED TEMPERATURE
BHTD.M        446                  : BHTDEP       - MAXIMUM RECORDED TEMPERATURE
MATR.         1                    : LOGUNIT      - NEUTRON MATRIX
RMT .C        25                   : MDTP         - TEMPERATURE OF MUD
NEUT.         1                    : NEUTRON      - NEUTRON TYPE
RESI.         0                    : RESIST       - RESISTIVITY TYPE
RMC .OHMM     0.25                 : RMC          - RESISTIVITY OF MUD CAKE
RMF .OHMM     0.25                 : RMF          - RESISTIVITY OF MUD FILTRATE
SUFT.C        15                   : SUFT         - SURFACE TEMPERATURE
~A  DEPTH     RESD       GR     PHIN     PHID
  275.000    2.881  112.229    0.519    0.248
  275.250    3.099  113.989    0.509    0.239
  275.500    3.248  116.294    0.500    0.234
  275.750    3.429  117.387    0.489    0.227
  276.000    3.554  117.752    0.478    0.225
  276.250    3.589  116.723    0.475    0.234
  276.500    3.604  113.996    0.481    0.243
  276.750    3.580  112.906    0.487    0.243
  277.000    3.463  112.059    0.494    0.233
  277.250    3.394  110.302    0.493    0.244
  277.500    3.265  108.060    0.470    0.246
  277.750    3.148  106.303    0.456    0.263
  278.000    3.080  105.820    0.470    0.295
  278.250    3.070  107.277    0.482    0.294
  278.500    3.187  110.067    0.466    0.179
  278.750    3.454  112.736    0.426    0.172
  279.000    3.702  114.072    0.435    0.209
  279.250    3.975  114.922    0.455    0.227
  279.500    4.181  115.348    0.452    0.220
  279.750    4.334  116.744    0.458    0.208
  280.000    4.542  119.232    0.445    0.226
  280.250    4.725  121.477    0.439    0.216
  280.500    4.843  122.994    0.435    0.219
  280.750    4.747  120.691    0.436    0.227
  281.000    4.584  120.571    0.443    0.237
  281.250    4.501  122.998    0.442    0.221
  281.500    4.387  124.031    0.460    0.203
  281.750    4.245  124.457    0.479    0.211
  282.000    4.077  124.155    0.467    0.217
  282.250    4.026  122.519    0.452    0.202
  282.500    4.057  119.792    0.437    0.213
  282.750    4.045  117.732    0.427    0.217
  283.000    4.039  117.006    0.421    0.214
  283.250    4.004  115.674    0.431    0.219
  283.500    3.997  113.432    0.445    0.207
  283.750    3.962  110.281    0.455    0.204
  284.000    3.884  106.584    0.456    0.220
  284.250    3.828  100.825    0.462    0.233
  284.500    3.766   95.976    0.454    0.228
  284.750    3.692   90.157    0.429    0.232
  285.000    3.666   84.763    0.407    0.244
  285.250    3.708   81.672    0.401    0.257
  285.500    3.676   78.339    0.402    0.269
  285.750    3.616   76.279    0.403    0.268
  286.000    3.532   86.951    0.417    0.249
  286.250    3.500   95.866    0.424    0.218
  286.500    3.521  103.385    0.419    0.203
  286.750    3.670  107.692    0.416    0.211
  287.000    3.882  111.210    0.424    0.218
  287.250    4.247  113.940    0.431    0.206
  287.500    4.393  115.518    0.429    0.205
  287.750    4.623  117.459    0.436    0.214
  288.000    4.684  119.583    0.442    0.219
  288.250    4.730  119.221    0.429    0.202
  288.500    4.741  116.130    0.420    0.205
  288.750    4.778  115.707    0.425    0.209
  289.000    4.718  116.436    0.434    0.220
  289.250    4.574  116.862    0.440    0.237
  289.500    4.442  117.410    0.460    0.229
  289.750    4.314  117.047    0.454    0.214
  290.000    4.275  114.320    0.456    0.206
  290.250    4.439  112.685    0.464    0.214
  290.500    4.524  113.353    0.467    0.219
  290.750    4.612  115.537    0.465    0.229
  291.000    4.571  117.722    0.460    0.237
  291.250    4.261  119.785    0.478    0.248
  291.500    3.942  121.726    0.500    0.258
  291.750    3.581  122.698    0.521    0.286
  292.000    3.240  121.426    0.530    0.305
  292.250    3.020  124.641    0.535    0.314
  292.500    2.999  116.821    0.516    0.327
  292.750    3.250  105.727    0.463    0.267
  293.000    3.542   99.726    0.444    0.240
  293.250    3.782   96.635    0.434    0.238
  293.500    4.084   93.181    0.418    0.248
  293.750    4.217   90.090    0.404    0.236
  294.000    4.338   87.849    0.401    0.217
  294.250    4.356   92.519    0.406    0.198
  294.500    4.317   97.553    0.416    0.234
  294.750    4.368  100.586    0.426    0.251
  295.000    4.394  101.072    0.418    0.240
  295.250    4.470  102.165    0.408    0.223
  295.500    4.531  104.835    0.405    0.221
  295.750    4.542  106.352    0.423    0.196
  296.000    4.561  108.475    0.443    0.176
  296.250    4.589  107.992    0.473    0.174
  296.500    4.513  111.085    0.492    0.178
  296.750    4.391  115.271    0.500    0.190
  297.000    4.217  116.909    0.501    0.211
  297.250    4.180  112.303    0.458    0.229
  297.500    4.174  107.272    0.437    0.246
  297.750    4.215  103.150    0.426    0.247
  298.000    4.289  101.030    0.419    0.259
  298.250    4.363  100.001    0.415    0.279
  298.500    4.415  101.336    0.416    0.263
  298.750    4.431  103.460    0.419    0.268
  299.000    4.533  104.310    0.422    0.240
  299.250    4.824  102.917    0.424    0.231
  299.500    4.870   99.280    0.413    0.241
  299.750    5.104   99.464    0.400    0.244
  300.000    5.301  104.559    0.394    0.237
  300.250    5.473  110.078    0.394    0.231
  300.500    5.694  112.443    0.401    0.229
  300.750    5.770  113.536    0.398    0.222
  301.000    5.860  111.658    0.400    0.218
  301.250    5.894  110.387    0.415    0.232
  301.500    5.810  110.085    0.425    0.242
  301.750    5.663  110.511    0.419    0.233
  302.000    5.438  112.331    0.425    0.221
  302.250    5.098  117.972    0.434    0.213
  302.500    4.950  120.823    0.415    0.221
  302.750    5.036  123.856    0.407    0.218
  303.000    5.240  132.709    0.408    0.224
  303.250    5.320  127.497    0.414    0.231
  303.500    5.293  123.133    0.426    0.234
  303.750    5.237  118.041    0.433    0.238
  304.000    5.278  114.587    0.417    0.242
  304.250    5.461  113.254    0.405    0.219
  304.500    5.555  114.590    0.397    0.204
  304.750    5.506  117.987    0.392    0.198
  305.000    5.009  121.687    0.382    0.204
  305.250    4.367  122.658    0.426    0.198
  305.500    3.850  122.296    0.448    0.202
  305.750    3.445  122.358    0.450    0.191
  306.000    3.447  123.148    0.463    0.186
  306.250    3.436  119.875    0.470    0.233
  306.500    2.796  110.903    0.458    0.240
  306.750    2.301  101.386    0.452    0.231
  307.000    2.098   94.111    0.443    0.233
  307.250    2.110   89.202    0.428    0.192
  307.500    2.287   89.203    0.421    0.164
  307.750    3.301   92.479    0.416    0.231
  308.000    4.029   92.905    0.408    0.279
  308.250    4.507   90.906    0.396    0.296
  308.500    4.749   90.786    0.387    0.301
  308.750    4.656   88.787    0.402    0.296
  309.000    4.571   84.241    0.418    0.294
  309.250    4.668   79.816    0.411    0.286
  309.500    5.068   75.998    0.400    0.296
  309.750    5.873   73.574    0.392    0.304
  310.000    6.643   70.241    0.400    0.294
  310.250    7.093   67.938    0.414    0.286
  310.500    7.420   66.545    0.427    0.281
  310.750    7.507   64.849    0.406    0.280
  311.000    7.399   64.790    0.390    0.280
  311.250    7.361   67.035    0.386    0.282
  311.500    7.435   68.067    0.386    0.288
  311.750    7.576   67.523    0.384    0.284
  312.000    8.650   64.978    0.377    0.265
  312.250    9.217   60.190    0.346    0.212
  312.500   11.148   55.886    0.176    0.172
  312.750   13.837   50.674    0.145    0.000
  313.000   24.049   47.886    0.131    0.003
  313.250   30.299   47.463    0.127    0.008
  313.500   32.291   48.495    0.130    0.005
  313.750   31.534   50.255    0.141    0.012
  314.000   27.138   53.228    0.154    0.030
  314.250   17.800   55.594    0.171    0.074
  314.500   11.166   57.960    0.196    0.102
  314.750    9.591   61.114    0.237    0.135
  315.000    8.361   63.662    0.289    0.195
  315.250    7.344   63.118    0.338    0.236
  315.500    6.523   65.363    0.375    0.267
  315.750    6.081   67.547    0.408    0.303
  316.000    5.764   69.732    0.431    0.307
  316.250    5.618   70.460    0.439    0.296
  316.500    5.590   70.523    0.452    0.301
  316.750    5.602   70.585    0.448    0.313
  317.000    5.874   69.677    0.437    0.317
  317.250    5.897   68.708    0.433    0.312
  317.500    5.910   68.043    0.449    0.308
  317.750    5.814   67.862    0.463    0.305
  318.000    5.795   67.925    0.446    0.307
  318.250    5.660   68.411    0.441    0.307
