~VERSION INFORMATION
 VERS.                 2.0:   CWLS LOG ASCII STANDARD -VERSION 2.0
 WRAP.                  NO:   ONE LINE PER DEPTH STEP
~WELL INFORMATION BLOCK
#MNEM.UNIT           DATA                    DESCRIPTION OF MNEMONIC
#---------    -------------------            -------------------------------
# Generated from Intellog Unique Number	CC_80_83/WELL/2305
NULL.         -999.25                        : NULL_VALUE
WELL.         HOMESTEAD ET AL COWPAR         : WELL_NAME
LOC .         07-29-080-04W4                 : Location     - LOCATION          
UWI .         00/07-29-080-04W400            : Uwi          - UNIQUE WELL ID    
ENTR.         DW                             : Entered      - ENTERED BY        
SRVC.         SCHLUMBERGER                   : Scn          - SERVICE COMPANY   
DATE.         18 JAN 74                      : Date         - LOG DATE
STRT.M        64.008                         : top_depth    - START DEPTH       
STOP.M        277.367                        : bot_depth    - STOP DEPTH        
STEP.M        0.3048                         : increment    - STEP LENGTH       
~CURVE INFORMATION BLOCK
#MNEM UNIT       ERCB CURVE CODE    CURVE DESCRIPTION
#-----------   ------------------   ----------------------------------
DEPT.M        00 001 00 00         : DEPTH        - DEPTH                       
DPHI.V/V      00 890 00 00         : PHID         - DENSITY POROSITY (LIMESTONE)
GR  .API      00 310 00 00         : GR           - GAMMA RAY                   
NPHI.V/V      00 330 00 00         : PHIN         - NEUTRON POROSITY (LIMESTONE)
ILD .OHMM     00 120 00 00         : RESD         - DEEP RESISTIVITY (DIL)      
~PARAMETER INFORMATION       
#MNEM.UNIT           DATA             DESCRIPTION OF MNEMONIC
#---------         -----------     ------------------------------
GL  .M        461.498              : gl           - GROUND LEVEL ELEVATION      
EREF.M        465.033              : kb           - ELEVATION OF DEPTH REFERENCE
DATM.M        465.033              : datum        - DATUM ELEVATION             
TDD .M        292.608              : tdd          - TOTAL DEPTH DRILLER         
RUN .         ONE                  : Run          - RUN NUMBER                  
ENG .         BILL                 : Engineer     - RECORDING ENGINEER          
WIT .         JIM                  : Witness      - WITNESSED BY                
MUD .         GEL                  : Mud_type     - MUD TYPE                    
MATR.         LIMESTONE            : Logunit      - NEUTRON MATRIX              
TMAX.C        25                   : BHT          - MAXIMUM RECORDED TEMPERATURE
BHTD.M        292.608              : BHTDEP       - MAXIMUM RECORDED TEMPERATURE
MATR.         1                    : LOGUNIT      - NEUTRON MATRIX              
RMT .C        25                   : MDTP         - TEMPERATURE OF MUD          
NEUT.         0                    : NEUTRON      - NEUTRON TYPE                
RESI.         0                    : RESIST       - RESISTIVITY TYPE            
RMC .OHMM     0.25                 : RMC          - RESISTIVITY OF MUD CAKE     
RMF .OHMM     0.25                 : RMF          - RESISTIVITY OF MUD FILTRATE 
SUFT.C        15                   : SUFT         - SURFACE TEMPERATURE         
~A  DEPTH     PHID       GR     PHIN     RESD
   64.008    0.333   62.876    0.373   10.770
   64.313    0.312   63.692    0.362   10.379
   64.618    0.321   59.664    0.389   10.774
   64.922    0.340   55.636    0.413   11.183
   65.227    0.356   49.591    0.452   11.608
   65.532    0.351   47.984    0.479   12.049
   65.837    0.363   50.011    0.493   12.507
   66.142    0.385   51.636    0.443   12.278
   66.446    0.346   56.487    0.417   10.585
   66.751    0.334   57.302    0.418    8.793
   67.056    0.340   64.981    0.398    7.867
   67.361    0.341   75.079    0.413    6.910
   67.666    0.328   84.372    0.428    5.848
   67.970    0.312   87.207    0.424    5.635
   68.275    0.312   85.198    0.396    5.532
   68.580    0.317   85.207    0.422    5.637
   68.885    0.302   83.196    0.404    5.960
   69.190    0.294   80.378    0.378    6.541
   69.494    0.307   83.213    0.376    6.666
   69.799    0.303   83.625    0.377    6.667
   70.104    0.291   78.790    0.407    6.545
   70.409    0.305   82.432    0.386    6.307
   70.714    0.309   83.652    0.371    6.078
   71.018    0.318   86.081    0.390    5.857
   71.323    0.308   86.494    0.391    5.858
   71.628    0.291   82.466    0.388    6.195
   71.933    0.285   81.667    0.364    6.551
   72.238    0.301   84.099    0.360    6.800
   72.543    0.300   89.354    0.369    6.801
   72.847    0.289   88.959    0.385    6.677
   73.152    0.279   86.950    0.371    6.555
   73.457    0.292   84.537    0.362    6.436
   73.762    0.301   80.508    0.377    6.202
   74.067    0.290   78.499    0.366    6.203
   74.371    0.284   85.369    0.367    6.204
   74.676    0.265   91.029    0.391    6.321
   74.981    0.278   90.633    0.407    6.206
   75.286    0.295   85.396    0.381    5.981
   75.591    0.302   84.597    0.390    5.871
   75.895    0.271   87.027    0.375    5.872
   76.200    0.281   91.476    0.364    5.983
   76.505    0.282   91.483    0.369    6.097
   76.810    0.279   85.439    0.362    6.328
   77.115    0.255   83.025    0.357    6.448
   77.419    0.238   83.036    0.362    6.330
   77.724    0.249   85.059    0.367    6.100
   78.029    0.274   90.320    0.374    5.561
   78.334    0.271   92.343    0.391    5.459
   78.638    0.277   91.948    0.376    5.261
   78.943    0.294   93.168    0.396    5.165
   79.248    0.286   92.368    0.391    4.977
   79.553    0.284   92.378    0.364    4.978
   79.858    0.273   91.174    0.361    5.072
   80.162    0.282   92.396    0.379    5.168
   80.467    0.294   94.017    0.399    5.465
   80.772    0.281   92.816    0.368    5.466
   81.077    0.286   98.071    0.373    5.569
   81.382    0.294   95.658    0.402    5.570
   81.686    0.300   91.630    0.385    5.676
   81.991    0.317   86.795    0.395    5.783
   82.296    0.321   92.050    0.424    6.115
   82.601    0.312   93.675    0.374    6.347
   82.906    0.300   86.821    0.364    6.712
   83.210    0.281   82.389    0.390    6.714
   83.515    0.290   84.820    0.407    6.591
   83.820    0.306   76.756    0.375    6.351
   84.125    0.310   88.470    0.403    6.352
   84.430    0.295   83.635    0.431    6.843
   84.734    0.304   71.535    0.456    7.794
   85.039    0.322   69.121    0.410    8.878
   85.344    0.316   75.590    0.416   10.112
   85.649    0.331   68.332    0.349   10.893
   85.954    0.314   65.112    0.324   11.735
   86.258    0.307   75.614    0.332   11.956
   86.563    0.295   86.118    0.344   12.412
   86.868    0.292   96.620    0.361   12.413
   87.173    0.295   97.034    0.376   12.187
   87.478    0.273   92.604    0.397   11.744
   87.783    0.278   90.189    0.340   11.317
   88.087    0.276   87.776    0.350   11.111
   88.392    0.306   82.939    0.398   10.707
   88.697    0.315   74.070    0.408    9.760
   89.002    0.319   80.131    0.354    8.414
   89.307    0.298   83.369    0.376    8.108
   89.611    0.307   73.287    0.391    9.585
   89.916    0.324   65.627    0.406   11.121
   90.221    0.326   57.967    0.397   12.667
   90.526    0.371   62.417    0.423   13.149
   90.831    0.382   67.268    0.431   12.909
   91.135    0.338   77.367    0.404   12.441
   91.440    0.332   79.394    0.403   12.676
   91.745    0.346   76.980    0.386   12.915
   92.050    0.361   73.357    0.362   13.914
   92.355    0.324   72.558    0.341   14.177
   92.659    0.311   75.393    0.351   14.178
   92.964    0.303   69.347    0.361   13.166
   93.269    0.300   64.511    0.354   12.225
   93.574    0.292   61.694    0.353   11.565
   93.879    0.270   58.070    0.354   11.353
   94.183    0.263   64.940    0.350   11.568
   94.488    0.249   62.124    0.326   11.787
   94.793    0.228   58.096    0.270   10.945
   95.098    0.199   56.087    0.304   10.745
   95.403    0.226   66.186    0.360    9.978
   95.707    0.303   72.249    0.372    9.265
   96.012    0.299   75.487    0.376    8.603
   96.317    0.297   72.671    0.353    7.989
   96.622    0.299   68.240    0.374    7.557
   96.927    0.290   68.651    0.361    7.559
   97.231    0.300   73.099    0.363    8.142
   97.536    0.304   73.109    0.388    9.274
   97.841    0.316   65.447    0.391    9.990
   98.146    0.327   55.770    0.379   12.031
   98.451    0.334   52.954    0.354   16.499
   98.755    0.344   45.292    0.348   18.447
   99.060    0.334   38.440    0.331   18.449
   99.365    0.308   32.393    0.316   18.113
   99.670    0.299   43.705    0.341   16.819
   99.975    0.312   48.153    0.414   15.910
  100.279    0.338   48.163    0.393   15.051
  100.584    0.350   46.554    0.377   14.237
  100.889    0.358   44.545    0.388   13.221
  101.194    0.353   44.960    0.397   13.470
  101.499    0.368   43.351    0.383   16.836
  101.803    0.340   32.059    0.396   18.822
  102.108    0.334   30.453    0.400   20.276
  102.413    0.333   33.691    0.357   19.180
  102.718    0.367   44.597    0.371   16.536
  103.023    0.360   53.083    0.391   13.993
  103.327    0.349   56.319    0.420   11.410
  103.632    0.358   59.962    0.436   10.996
  103.937    0.352   59.566    0.396   11.203
  104.242    0.352   54.730    0.385   12.297
  104.547    0.342   50.703    0.380   13.003
  104.851    0.360   50.308    0.400   13.004
  105.156    0.353   52.739    0.394   13.751
  105.461    0.353   49.114    0.401   14.012
  105.766    0.348   47.913    0.377   14.013
  106.071    0.354   49.536    0.389   14.278
  106.375    0.374   53.986    0.381   14.281
  106.680    0.382   55.204    0.386   14.283
  106.985    0.375   55.213    0.368   13.511
  107.290    0.344   55.220    0.357   13.513
  107.595    0.314   43.524    0.335   14.290
  107.899    0.242   38.287    0.241   15.111
  108.204    0.236   47.578    0.233   15.114
  108.509    0.263   52.432    0.303   15.399
  108.814    0.347   52.440    0.385   15.402
  109.119    0.387   51.237    0.359   15.404
  109.423    0.390   51.244    0.353   14.845
  109.728    0.372   48.833    0.386   14.573
  110.033    0.379   52.472    0.396   14.308
  110.338    0.392   54.096    0.385   14.579
  110.643    0.393   56.930    0.406   15.132
  110.948    0.382   56.535    0.398   15.418
  111.252    0.374   49.279    0.384   16.005
  111.557    0.396   46.059    0.392   16.007
  111.862    0.379   47.278    0.401   15.715
  112.167    0.376   50.515    0.359   15.145
  112.472    0.382   49.719    0.364   14.594
  112.776    0.389   51.341    0.399   14.064
  113.081    0.397   53.771    0.416   13.810
  113.386    0.397   53.377    0.398   14.875
  113.691    0.386   51.770    0.418   14.071
  113.996    0.374   52.585    0.410   13.815
  114.300    0.378   52.192    0.374   13.563
  114.605    0.381   50.183    0.382   13.819
  114.910    0.380   48.574    0.390   14.344
  115.215    0.377   43.741    0.371   15.742
  115.520    0.352   41.732    0.392   16.958
  115.824    0.373   38.914    0.368   17.603
  116.129    0.357   34.885    0.359   16.652
  116.434    0.374   36.510    0.361   15.463
  116.739    0.383   42.572    0.389   14.358
