~VERSION INFORMATION
 VERS.                 2.0:   CWLS LOG ASCII STANDARD -VERSION 2.0
 WRAP.                  NO:   ONE LINE PER DEPTH STEP
~WELL INFORMATION BLOCK
#MNEM.UNIT           DATA                    DESCRIPTION OF MNEMONIC
#---------    -------------------            -------------------------------
# Generated from Intellog Unique Number	CW_82_90/WELL/3059
WELL.         TOTAL ET AL LIVOCK             : Well_name    - WELL
LOC .         00/06-36-085-23W4/0            : Location     - LOCATION
UWI .         00/06-36-085-23W4/0            : Uwi          - UNIQUE WELL ID
ENTR.         JAYE                           : Entered      - ENTERED BY
SRVC.         SCHLUMBERGER                   : Scn          - SERVICE COMPANY
DATE.         16 JAN 78                      : Date         - LOG DATE
STRT.M        188.976                        : top_depth    - START DEPTH
STOP.M        393.226                        : bot_depth    - STOP DEPTH
STEP.M        0.25                           : increment    - STEP LENGTH
 NULL. -999.2500:NULL Value
~CURVE INFORMATION BLOCK
#MNEM UNIT       ERCB CURVE CODE    CURVE DESCRIPTION
#-----------   ------------------   ----------------------------------
DEPT.M        00 001 00 00         : DEPTH        - DEPTH
CALI.MM       00 280 01 00         : CAL          - CALIPER
GR  .API      00 310 00 00         : GR           - GAMMA RAY
NPHI.V/V      00 330 00 00         : PHIN         - NEUTRON POROSITY (SANDSTONE)
DPHI.V/V      00 890 00 00         : PHID         - DENSITY POROSITY (SANDSTONE)
ILD .OHMM     00 120 00 00         : RESD         - DEEP RESISTIVITY (DIL)
~PARAMETER INFORMATION
#MNEM.UNIT           DATA             DESCRIPTION OF MNEMONIC
#---------         -----------     ------------------------------
GL  .M        565.404              : gl           - GROUND LEVEL ELEVATION
EREF.M        568.452              : kb           - ELEVATION OF DEPTH REFERENCE
DATM.M        565.404              : datum        - DATUM ELEVATION
TDD .M        408.432              : tdd          - TOTAL DEPTH DRILLER
RUN .         ONE                  : Run          - RUN NUMBER
ENG .         BUSHMAN              : Engineer     - RECORDING ENGINEER
WIT .         KIRKPATRICK          : Witness      - WITNESSED BY
BASE.         EDMONTON             : Branch       - HOME BASE OF LOGGING UNIT
MUD .         GEL CHEM             : Mud_type     - MUD TYPE
MATR.         SANDSTONE            : Logunit      - NEUTRON MATRIX
TMAX.C        21.1111              : BHT          - MAXIMUM RECORDED TEMPERATURE
BHTD.M        408.432              : BHTDEP       - MAXIMUM RECORDED TEMPERATURE
RMT .C        -17.7778             : MDTP         - TEMPERATURE OF MUD
MUDD.KG/M     8700                 : MWT          - MUD DENSITY
NEUT.         1                    : NEUTRON      - NEUTRON TYPE
RESI.         0                    : RESIST       - RESISTIVITY TYPE
RM  .OHMM     2.5                  : RM           - RESISTIVITY OF MUD
RMC .OHMM     2.5                  : RMC          - RESISTIVITY OF MUD CAKE
RMF .OHMM     6.28                 : RMF          - RESISTIVITY OF MUD FILTRATE
SUFT.C        4                    : SUFT         - SURFACE TEMPERATURE
~A  DEPTH      CAL       GR     PHIN     PHID     RESD
  188.976  217.781   56.444    0.457    0.327   21.300
  189.226  217.987   57.317    0.456    0.335   16.381
  189.476  217.661   59.191    0.464    0.338   13.059
  189.726  217.550   62.879    0.466    0.325   11.465
  189.976  217.861   66.943    0.459    0.310    9.990
  190.226  218.067   72.008    0.453    0.272    8.738
  190.476  220.182   77.824    0.475    0.256    8.322
  190.726  222.826   82.076    0.493    0.303    8.247
  190.976  223.138   83.512    0.502    0.314    8.391
  191.226  223.343   80.692    0.502    0.351    8.221
  191.476  223.125   77.872    0.502    0.372    7.829
  191.726  223.649   76.867    0.474    0.361    7.414
  191.976  225.233   78.240    0.462    0.308    7.416
  192.226  226.817   80.240    0.467    0.293    7.942
  192.476  228.402   80.236    0.465    0.290    8.933
  192.726  234.759   77.104    0.465    0.298   10.278
  192.976  224.995   70.655    0.474    0.356   11.716
  193.226  222.654   57.635    0.468    0.362   13.303
  193.476  222.437   56.567    0.435    0.349   14.408
  193.726  222.324   56.563    0.433    0.351   14.883
  193.976  222.106   56.122    0.442    0.343   15.551
  194.226  222.629   54.742    0.449    0.315   16.248
  194.476  222.834   54.113    0.451    0.284   16.976
  194.726  220.708   54.485    0.392    0.221   18.008
  194.976  220.064   52.165    0.327    0.128   19.542
  195.226  222.074   49.471    0.339    0.209   20.572
  195.476  231.081   45.087    0.366    0.262   21.576
  195.726  234.362   43.455    0.401    0.334   22.120
  195.976  237.326   43.078    0.455    0.389   22.551
  196.226  239.970   42.135    0.450    0.384   22.947
  196.476  240.494   42.194    0.443    0.373   23.438
  196.726  241.865   43.192    0.440    0.380   23.622
  196.976  242.814   44.440    0.445    0.384   23.945
  197.226  244.187   47.314    0.443    0.384   24.228
  197.476  246.513   48.750    0.433    0.382   24.420
  197.726  248.628   50.249    0.428    0.384   24.755
  197.976  250.000   52.372    0.442    0.388   24.623
  198.226  251.585   53.433    0.450    0.402   24.868
  198.476  252.107   53.805    0.460    0.417   25.017
  198.726  251.571   51.924    0.464    0.405   25.167
  198.976  251.141   52.731    0.458    0.389   25.319
  199.226  250.814   53.668    0.451    0.381   25.185
  199.476  251.444   52.789    0.446    0.386   25.336
  199.726  251.758   50.408    0.454    0.387   25.442
  199.976  252.387   54.096    0.453    0.382   25.402
  200.226  253.123   55.156    0.455    0.373   25.363
  200.476  253.753   52.774    0.447    0.377   25.276
  200.726  254.064   51.831    0.446    0.373   25.237
  200.976  254.376   52.705    0.450    0.374   25.537
  201.226  254.900   55.580    0.444    0.375   25.447
  201.476  254.894   59.018    0.452    0.369   25.408
  201.726  253.719   61.141    0.475    0.363   25.322
  201.976  252.017   58.260    0.488    0.356   25.377
  202.226  244.269   51.623    0.484    0.346   25.290
  202.476  240.338   50.242    0.477    0.324   25.204
  202.726  239.801   51.491    0.470    0.304   25.024
  202.976  240.324   51.112    0.453    0.321   24.797
  203.226  240.531   51.045    0.450    0.353   24.481
  203.476  240.312   50.791    0.454    0.364   24.258
  203.726  240.305   51.289    0.448    0.372   23.993
  203.976  239.982   51.035    0.441    0.373   23.685
  204.226  239.020   50.531    0.446    0.365   23.513
  204.476  238.696   50.839    0.470    0.366   23.345
  204.726  238.477   51.649    0.495    0.366   23.309
  204.976  238.363   52.334    0.502    0.363   23.184
  205.226  238.252   53.269    0.473    0.362   23.017
  205.476  237.820   54.517    0.470    0.362   23.157
  205.726  237.815   55.015    0.479    0.357   23.430
  205.976  237.914   53.822    0.483    0.361   23.841
  206.226  238.968   51.128    0.469    0.361   24.120
  206.476  242.673   49.872    0.463    0.352   24.404
  206.726  247.652   49.618    0.443    0.339   24.414
  206.976  252.630   49.990    0.452    0.336   24.283
  207.226  260.259   50.299    0.468    0.346   23.658
  207.476  266.086   51.110    0.488    0.354   23.266
  207.726  251.762   52.106    0.499    0.374   22.667
  207.976  241.681   53.166    0.505    0.368   22.207
  208.226  239.340   53.664    0.516    0.342   21.675
  208.476  243.471   53.786    0.507    0.355   21.195
  208.726  249.296   54.533    0.485    0.376   20.416
  208.976  252.048   55.531    0.475    0.360   19.814
  209.226  254.375   56.654    0.479    0.359   19.085
  209.476  256.595   56.838    0.470    0.350   18.177
  209.726  256.482   56.897    0.452    0.353   17.674
  209.976  260.506   57.018    0.440    0.362   17.782
  210.226  268.772   56.452    0.457    0.373   18.265
  210.476  271.310   54.258    0.463    0.362   18.903
  210.726  284.879   53.879    0.485    0.356   20.052
  210.976  288.478   54.813    0.502    0.372   20.991
  211.226  261.322   56.750    0.541    0.388   21.560
  211.476  245.938   59.437    0.564    0.390   21.940
  211.726  235.644   63.188    0.561    0.355   21.864
  211.976  233.834   70.131    0.488    0.364   21.665
  212.226  235.313   65.434    0.471    0.366   21.510
  212.476  237.003   61.112    0.472    0.364   21.195
  212.726  237.845   60.608    0.478    0.359   20.844
  212.976  241.868   59.603    0.478    0.350   20.616
  213.226  249.180   57.660    0.458    0.350   20.351
  213.476  251.719   55.717    0.470    0.358   20.205
  213.726  233.153   57.965    0.493    0.363   19.871
  213.976  232.723   63.719    0.508    0.336   19.323
  214.226  236.322   66.344    0.511    0.359   18.967
  214.476  237.270   65.401    0.466    0.362   18.583
  214.726  236.096   65.648    0.478    0.342   18.137
  214.976  236.089   66.896    0.469    0.356   17.738
  215.226  236.296   65.578    0.460    0.358   17.510
  215.476  236.819   64.260    0.455    0.359   17.287
  215.726  237.768   62.692    0.466    0.355   17.226
  215.976  238.716   62.940    0.471    0.347   17.070
  216.226  243.269   67.629    0.480    0.350   16.725
  216.476  248.671   71.881    0.477    0.363   16.385
  216.726  253.967   75.694    0.477    0.378   15.813
  216.976  258.416   75.941    0.479    0.389   14.528
  217.226  261.803   72.871    0.483    0.386   12.397
  217.476  265.614   72.054    0.499    0.373    8.464
  217.726  269.532   78.058    0.521    0.367    6.583
  217.976  263.373   85.000    0.528    0.358    5.461
  218.226  252.974   91.067    0.513    0.351    4.804
  218.476  230.060   91.689    0.513    0.298    4.178
  218.726  218.282   87.180    0.520    0.232    3.738
  218.976  214.776   80.731    0.524    0.203    3.587
  219.226  216.678   89.425    0.431    0.162    3.508
  219.476  228.443  101.124    0.419    0.265    3.482
  219.726  241.058  114.261    0.459    0.293    3.564
  219.976  254.732  112.818    0.567    0.316    3.702
  220.226  253.028  111.939    0.594    0.317    3.861
  220.476  254.188  111.997    0.593    0.305    4.080
  220.726  253.121  112.494    0.579    0.302    4.271
  220.976  260.115  112.992    0.572    0.282    4.421
  221.226  255.654  114.115    0.560    0.269    4.498
  221.476  254.163  115.363    0.562    0.262    4.577
  221.726  260.732  112.793    0.573    0.235    4.684
  221.976  244.605  106.469    0.590    0.245    4.739
  222.226  236.645  102.023    0.583    0.270    4.803
  222.476  231.972   97.639    0.529    0.293    4.943
  222.726  227.617   94.381    0.507    0.311    5.107
  222.976  223.474   91.624    0.518    0.304    5.306
  223.226  221.453   88.179    0.545    0.321    5.543
  223.476  217.735   81.730    0.542    0.373    5.925
  223.726  217.092   79.098    0.513    0.373    6.249
  223.976  212.419   79.157    0.501    0.354    6.604
  224.226  208.170   81.406    0.528    0.340    7.220
  224.476  208.482   83.906    0.531    0.332    7.984
  224.726  209.005   87.469    0.503    0.309    9.101
  224.976  208.998   83.648    0.505    0.310   10.102
  225.226  209.204   79.702    0.508    0.315   11.024
