~VERSION INFORMATION
 VERS.                 2.0:   CWLS LOG ASCII STANDARD -VERSION 2.0
 WRAP.                  NO:   ONE LINE PER DEPTH STEP
~WELL INFORMATION BLOCK
#MNEM.UNIT           DATA                    DESCRIPTION OF MNEMONIC
#---------    -------------------            -------------------------------
# Generated from Intellog Unique Number	CW_73_75/WELL/3518
WELL.         PINNACLE RT AL NARTINHILL      : Well_name    - WELL
LOC .         00/03-05-075-02W5/0            : Location     - LOCATION
UWI .         00/03-05-075-02W5/0            : Uwi          - UNIQUE WELL ID
ENTR.         TIM                            : Entered      - ENTERED BY
SRVC.         SCHLUMBERGER                   : Scn          - SERVICE COMPANY
DATE.         05/25/92                       : Date         - LOG DATE
STRT.M        405                            : top_depth    - START DEPTH
STOP.M        650                            : bot_depth    - STOP DEPTH
STEP.M        0.25                           : increment    - STEP LENGTH
 NULL. -999.2500:NULL Value
~CURVE INFORMATION BLOCK
#MNEM UNIT       ERCB CURVE CODE    CURVE DESCRIPTION
#-----------   ------------------   ----------------------------------
DEPT.M        00 001 00 00         : DEPTH        - DEPTH
ILD .OHMM     00 120 00 00         : RESD         - DEEP RESISTIVITY (DIL)
DPHI.V/V      00 890 00 00         : PHID         - DENSITY POROSITY (SANDSTONE)
NPHI.V/V      00 330 00 00         : PHIN         - NEUTRON POROSITY (SANDSTONE)
GR  .API      00 310 00 00         : GR           - GAMMA RAY
~PARAMETER INFORMATION
#MNEM.UNIT           DATA             DESCRIPTION OF MNEMONIC
#---------         -----------     ------------------------------
GL  .M        702                  : gl           - GROUND LEVEL ELEVATION
EREF.M        706                  : kb           - ELEVATION OF DEPTH REFERENCE
DATM.M        706                  : datum        - DATUM ELEVATION
TDD .M        659                  : tdd          - TOTAL DEPTH DRILLER
RUN .         ONE                  : Run          - RUN NUMBER
ENG .         BILL                 : Engineer     - RECORDING ENGINEER
WIT .         JIM                  : Witness      - WITNESSED BY
MUD .         GEL                  : Mud_type     - MUD TYPE
MATR.         SANDSTONE            : Logunit      - NEUTRON MATRIX
TMAX.C        36                   : BHT          - MAXIMUM RECORDED TEMPERATURE
BHTD.M        658                  : BHTDEP       - MAXIMUM RECORDED TEMPERATURE
RMT .C        16                   : MDTP         - TEMPERATURE OF MUD
MUDD.KG/M     1045                 : MWT          - MUD DENSITY
NEUT.         1                    : NEUTRON      - NEUTRON TYPE
RESI.         0                    : RESIST       - RESISTIVITY TYPE
RM  .OHMM     9.2                  : RM           - RESISTIVITY OF MUD
RMC .OHMM     6.78                 : RMC          - RESISTIVITY OF MUD CAKE
RMF .OHMM     7.28                 : RMF          - RESISTIVITY OF MUD FILTRATE
SUFT.C        4                    : SUFT         - SURFACE TEMPERATURE
~A  DEPTH     RESD     PHID     PHIN       GR
# ...
  579.000    4.943    0.185    0.421   83.921
  579.250    5.018    0.184    0.436   84.423
  579.500    5.004    0.193    0.437   86.738
  579.750    4.632    0.201    0.432   90.188
  580.000    4.050    0.204    0.427   90.100
  580.250    3.894    0.205    0.438   90.602
  580.500    3.739    0.199    0.446   92.283
  580.750    3.733    0.195    0.432   88.612
  581.000    3.723    0.198    0.415   86.187
  581.250    3.848    0.207    0.404   86.099
  581.500    3.979    0.216    0.395   87.168
  581.750    4.048    0.222    0.411   84.743
  582.000    4.110    0.219    0.417   84.066
  582.250    4.181    0.210    0.428   87.494
  582.500    4.327    0.210    0.448   87.428
  582.750    4.472    0.211    0.465   85.549
  583.000    4.466    0.193    0.420   77.794
  583.250    4.288    0.164    0.321   62.351
  583.500    3.822    0.137    0.246   53.985
  583.750    3.885    0.088    0.325   49.769
  584.000    4.097    0.189    0.357   47.300
  584.250    4.567    0.212    0.393   51.340
  584.500    4.998    0.222    0.412   51.863
  584.750    5.896    0.230    0.405   49.984
  585.000    6.447    0.250    0.393   48.127
  585.250    5.443    0.317    0.386   48.606
  585.500    4.500    0.312    0.402   50.921
  585.750    4.488    0.305    0.413   53.192
  586.000    4.478    0.314    0.425   51.291
  586.250    4.632    0.311    0.436   52.404
  586.500    5.068    0.290    0.405   51.136
  586.750    5.550    0.222    0.321   38.620
  587.000    6.427    0.175    0.222   38.554
  587.250   10.012    0.077    0.144   40.825
  587.500   10.564    0.071    0.148   43.641
  587.750   11.347    0.063    0.151   44.187
  588.000   12.180    0.069    0.222   45.278
  588.250   13.083    0.152    0.240   46.959
  588.500   15.149    0.145    0.257   48.641
  588.750   15.379    0.265    0.380   50.933
  589.000   15.336    0.275    0.385   53.772
  589.250   14.735    0.281    0.396   53.684
  589.500    9.762    0.288    0.413   53.006
  589.750    6.707    0.302    0.431   54.119
  590.000    5.658    0.315    0.440   58.749
  590.250    4.950    0.311    0.444   59.840
  590.500    4.756    0.302    0.434   62.111
  590.750    4.740    0.294    0.414   67.331
  591.000    4.812    0.292    0.386   69.579
  591.250    4.895    0.287    0.370   66.564
  591.500    5.258    0.278    0.355   61.759
  591.750    5.544    0.245    0.357   66.978
  592.000    5.528    0.232    0.398   78.073
  592.250    4.931    0.232    0.439   81.545
  592.500    4.398    0.241    0.431   84.427
  592.750    3.920    0.241    0.423   86.698
  593.000    3.764    0.234    0.433   80.669
  593.250    3.687    0.229    0.436   77.654
  593.500    3.676    0.225    0.421   72.848
  593.750    3.800    0.227    0.408   66.819
  594.000    3.863    0.237    0.431   64.394
  594.250    3.998    0.248    0.430   69.591
  594.500    4.212    0.261    0.440   71.272
  594.750    4.212    0.264    0.441   70.617
  595.000    4.509    0.258    0.429   69.939
  595.250    4.761    0.243    0.415   68.671
  595.500    5.020    0.229    0.422   69.763
  595.750    5.392    0.232    0.439   67.316
  596.000    5.685    0.237    0.429   63.645
  596.250    5.669    0.245    0.423   64.147
  596.500    5.657    0.249    0.451   65.238
  596.750    5.641    0.252    0.451   65.762
  597.000    5.522    0.258    0.446   66.831
  597.250    5.306    0.258    0.448   69.102
  597.500    4.476    0.255    0.444   71.984
  597.750    3.841    0.258    0.434   74.255
  598.000    4.203    0.266    0.422   74.757
  598.250    4.518    0.261    0.411   69.951
  598.500    5.037    0.251    0.393   65.735
  598.750    5.721    0.244    0.396   62.698
  599.000    6.378    0.240    0.425   62.566
  599.250    6.729    0.247    0.415   64.247
  599.500    7.223    0.255    0.413   66.562
  599.750    7.476    0.244    0.406   70.012
  600.000    7.460    0.236    0.405   71.103
  600.250    7.302    0.229    0.410   69.836
  600.500    6.887    0.225    0.390   72.107
  600.750    6.254    0.223    0.380   74.377
  601.000    5.898    0.227    0.367   77.216
  601.250    5.663    0.218    0.390   79.487
  601.500    5.643    0.214    0.379   80.010
  601.750    5.627    0.213    0.362   79.922
  602.000    5.724    0.198    0.335   78.655
  602.250    6.036    0.104    0.305   69.677
  602.500    6.729    0.074    0.294   67.252
  602.750    7.786    0.083    0.304   62.992
  603.000    8.686    0.074    0.293   64.673
  603.250   10.232    0.054    0.266   66.944
  603.500   11.621    0.032    0.253   68.057
  603.750   12.709    0.061    0.242   65.610
  604.000   12.929    0.111    0.366   61.983
  604.250   11.111    0.136    0.395   67.793
  604.500    8.378    0.203    0.402   81.290
  604.750    6.937    0.199    0.389   88.279
  605.000    5.958    0.191    0.393   91.139
  605.250    5.515    0.182    0.404   87.491
  605.500    5.292    0.181    0.415   89.172
  605.750    5.280    0.182    0.406   91.465
  606.000    5.269    0.184    0.393   91.376
  606.250    5.255    0.192    0.401   87.160
  606.500    5.236    0.192    0.389   84.713
  606.750    5.225    0.176    0.381   85.193
  607.000    5.308    0.161    0.393   85.695
  607.250    5.385    0.160    0.404   87.987
  607.500    5.377    0.181    0.390   90.236
  607.750    5.359    0.193    0.383   91.328
  608.000    5.448    0.189    0.370   92.419
  608.250    5.530    0.156    0.362   91.763
  608.500    5.515    0.127    0.371   84.576
  608.750    5.603    0.134    0.383   80.950
  609.000    5.587    0.173    0.381   85.579
  609.250    5.676    0.186    0.378   89.030
  609.500    5.552    0.181    0.372   91.300
  609.750    5.540    0.174    0.380   94.139
  610.000    5.524    0.168    0.386   95.252
  610.250    5.934    0.178    0.378   89.267
  610.500    6.620    0.198    0.366   85.051
  610.750    8.251    0.213    0.358   77.274
  611.000    9.902    0.206    0.355   71.857
  611.250   10.256    0.182    0.349   75.307
  611.500   11.008    0.159    0.346   75.241
  611.750   11.825    0.188    0.365   76.922
  612.000   12.940    0.215    0.363   75.654
  612.250   13.165    0.225    0.346   74.933
  612.500   12.170    0.217    0.350   76.046
  612.750   11.258    0.200    0.360   80.108
  613.000   10.832    0.186    0.367   88.866
  613.250   10.014    0.184    0.365   91.726
  613.500    9.815    0.180    0.362   93.407
  613.750    9.086    0.185    0.357   91.550
  614.000    8.563    0.190    0.363   88.513
  614.250    8.382    0.166    0.371   79.557
  614.500    8.515    0.153    0.370   75.931
  614.750    8.651    0.187    0.368   74.030
  615.000    8.947    0.199    0.366   74.575
  615.250    9.266    0.195    0.364   76.256
  615.500    9.763    0.191    0.361   76.758
  615.750   10.112    0.191    0.357   75.490
  616.000   10.654    0.192    0.349   78.329
  616.250   10.831    0.183    0.344   78.831
  616.500   11.004    0.173    0.337   78.742
  616.750   10.763    0.161    0.329   79.244
  617.000    9.964    0.155    0.381   81.537
  617.250    9.060    0.166    0.396   89.115
  617.500    7.359    0.172    0.397   95.514
  617.750    5.981    0.165    0.393  100.755
  618.000    5.431    0.154    0.376  104.206
  618.250    5.431    0.090    0.356   82.844
  618.500    6.617    0.034    0.295   72.730
  618.750   78.625   -0.062    0.222   43.112
  619.000    3.989   -0.048    0.187   49.511
  619.250    3.122    0.014    0.337   58.858
  619.500    2.400    0.099    0.353   67.638
  619.750    1.475    0.139    0.345   76.374
  620.000   25.837    0.136    0.327   72.180
  620.250   86.432    0.051    0.240   69.733
  620.500   50.203    0.035    0.362   70.234
  620.750   33.859    0.073    0.416   73.684
  621.000    1.784    0.144    0.401   78.904
  621.250    1.422    0.148    0.382   79.951
  621.500    2.097    0.133    0.357   79.317
  621.750    3.092    0.126    0.357   78.050
  622.000    8.583    0.136    0.361   80.276
  622.250   76.955    0.144    0.366   81.412
