~VERSION INFORMATION
 VERS.                 2.0:   CWLS LOG ASCII STANDARD -VERSION 2.0
 WRAP.                  NO:   ONE LINE PER DEPTH STEP
~WELL INFORMATION BLOCK
#MNEM.UNIT           DATA                    DESCRIPTION OF MNEMONIC
#---------    -------------------            -------------------------------
# Generated from Intellog Unique Number	CS_69_70/WELL/769
WELL.         INTER-CITY CITY GAS            : Well_name    - WELL
LOC .         00/06-08-070-16W4/0            : Location     - LOCATION
UWI .         00/06-08-070-16W4/0            : Uwi          - UNIQUE WELL ID
ENTR.         SP                             : Entered      - ENTERED BY
SRVC.         SCHLUMBERGER                   : Scn          - SERVICE COMPANY
STRT.M        285                            : top_depth    - START DEPTH
STOP.M        485                            : bot_depth    - STOP DEPTH
STEP.M        0.25                           : increment    - STEP LENGTH
 NULL. -999.2500:NULL Value
~CURVE INFORMATION BLOCK
#MNEM UNIT       ERCB CURVE CODE    CURVE DESCRIPTION
#-----------   ------------------   ----------------------------------
DEPT.M        00 001 00 00         : DEPTH        - DEPTH
ILD .OHMM     00 120 00 00         : RESD         - DEEP RESISTIVITY (DIL)
DPHI.V/V      00 890 00 00         : PHID         - DENSITY POROSITY (LIMESTONE)
NPHI.V/V      00 330 00 00         : PHIN         - NEUTRON POROSITY (LIMESTONE)
GR  .API      00 310 00 00         : GR           - GAMMA RAY
~PARAMETER INFORMATION
#MNEM.UNIT           DATA             DESCRIPTION OF MNEMONIC
#---------         -----------     ------------------------------
GL  .M        569.4                : gl           - GROUND LEVEL ELEVATION
EREF.M        573                  : kb           - ELEVATION OF DEPTH REFERENCE
DATM.M        569.4                : datum        - DATUM ELEVATION
TDD .M        493.5                : tdd          - TOTAL DEPTH DRILLER
RUN .         ONE                  : Run          - RUN NUMBER
ENG .         BILL                 : Engineer     - RECORDING ENGINEER
WIT .         JIM                  : Witness      - WITNESSED BY
MUD .         GEL                  : Mud_type     - MUD TYPE
MATR.         LIMESTONE            : Logunit      - NEUTRON MATRIX
TMAX.C        22.5                 : BHT          - MAXIMUM RECORDED TEMPERATURE
BHTD.M        493.5                : BHTDEP       - MAXIMUM RECORDED TEMPERATURE
MATR.         1                    : LOGUNIT      - NEUTRON MATRIX
RMT .C        25                   : MDTP         - TEMPERATURE OF MUD
NEUT.         1                    : NEUTRON      - NEUTRON TYPE
RESI.         0                    : RESIST       - RESISTIVITY TYPE
RMC .OHMM     0.25                 : RMC          - RESISTIVITY OF MUD CAKE
RMF .OHMM     0.25                 : RMF          - RESISTIVITY OF MUD FILTRATE
SUFT.C        15                   : SUFT         - SURFACE TEMPERATURE
~A  DEPTH     RESD     PHID     PHIN       GR
# ...
  372.000    4.145    0.246    0.451   83.150
  372.250    4.276    0.234    0.457   84.730
  372.500    4.342    0.223    0.443   86.069
  372.750    4.287    0.213    0.444   86.078
  373.000    4.183    0.212    0.456   85.664
  373.250    4.048    0.202    0.452   85.374
  373.500    3.928    0.197    0.440   85.501
  373.750    3.752    0.196    0.428   85.811
  374.000    3.665    0.197    0.442   85.941
  374.250    3.610    0.205    0.458   86.251
  374.500    3.515    0.219    0.463   86.864
  374.750    3.443    0.227    0.467   86.149
  375.000    3.348    0.237    0.472   83.256
  375.250    3.728    0.258    0.477   79.820
  375.500    4.423    0.280    0.472   74.813
  375.750    5.569    0.273    0.443   72.222
  376.000    7.046    0.233    0.398   70.538
  376.250    8.829    0.168    0.369   68.070
  376.500    9.564    0.076    0.318   65.358
  376.750    8.929    0.071    0.217   61.680
  377.000    7.479    0.113    0.225   60.783
  377.250    5.836    0.143    0.285   64.540
  377.500    4.838    0.174    0.341   68.960
  377.750    4.259    0.205    0.382   74.711
  378.000    3.889    0.242    0.436   78.345
  378.250    3.882    0.251    0.445   81.680
  378.500    4.077    0.234    0.436   83.925
  378.750    4.192    0.219    0.431   85.323
  379.000    4.209    0.212    0.441   85.936
  379.250    4.203    0.217    0.466   85.885
  379.500    4.220    0.222    0.471   85.469
  379.750    4.294    0.217    0.450   83.606
  380.000    4.368    0.206    0.465   81.921
  380.250    4.450    0.209    0.474   80.117
  380.500    4.500    0.209    0.463   79.944
  380.750    4.493    0.209    0.449   82.793
  381.000    4.479    0.209    0.447   81.534
  381.250    4.457    0.210    0.447   78.400
  381.500    4.457    0.211    0.447   77.624
  381.750    4.475    0.218    0.445   79.505
  382.000    4.267    0.226    0.447   80.662
  382.250    4.293    0.221    0.450   80.793
  382.500    4.334    0.224    0.441   80.379
  382.750    4.376    0.215    0.445   79.543
  383.000    4.458    0.207    0.441   78.764
  383.250    4.532    0.208    0.442   79.074
  383.500    4.582    0.211    0.449   79.869
  383.750    4.655    0.215    0.451   80.120
  384.000    4.753    0.222    0.453   79.887
  384.250    4.916    0.225    0.450   78.807
  384.500    5.022    0.217    0.436   76.701
  384.750    5.081    0.207    0.429   75.864
  385.000    5.082    0.204    0.428   78.411
  385.250    4.914    0.211    0.438   80.414
  385.500    4.810    0.203    0.448   81.451
  385.750    4.780    0.196    0.464   82.247
  386.000    4.797    0.194    0.446   82.799
  386.250    4.880    0.201    0.449   83.352
  386.500    4.930    0.206    0.453   83.480
  386.750    4.930    0.201    0.452   81.918
  387.000    4.916    0.212    0.438   82.772
  387.250    4.861    0.203    0.432   84.958
  387.500    4.806    0.196    0.443   85.268
  387.750    4.799    0.203    0.447   83.766
  388.000    4.784    0.206    0.448   83.050
  388.250    4.697    0.217    0.451   83.181
  388.500    4.578    0.224    0.457   83.490
  388.750    4.426    0.220    0.463   83.076
  389.000    4.274    0.218    0.448   80.184
  389.250    4.139    0.221    0.444   76.868
  389.500    4.035    0.227    0.444   74.036
  389.750    3.981    0.235    0.444   73.260
  390.000    3.965    0.239    0.443   73.935
  390.250    3.943    0.245    0.446   72.976
  390.500    3.944    0.238    0.455   71.474
  390.750    3.946    0.246    0.454   71.482
  391.000    3.947    0.232    0.449   72.157
  391.250    3.989    0.219    0.448   72.829
  391.500    4.014    0.220    0.454   74.046
  391.750    4.048    0.225    0.448   74.660
  392.000    4.049    0.224    0.439   74.789
  392.250    4.043    0.228    0.430   73.287
  392.500    3.979    0.237    0.428   71.786
  392.750    3.900    0.229    0.438   73.366
  393.000    3.781    0.218    0.454   75.430
  393.250    3.621    0.228    0.465   77.009
  393.500    3.486    0.237    0.472   76.173
  393.750    3.382    0.247    0.464   75.455
  394.000    3.166    0.260    0.455   77.641
  394.250    2.990    0.248    0.447   80.248
  394.500    2.685    0.246    0.441   82.856
  394.750    2.332    0.257    0.454   86.249
  395.000    2.131    0.244    0.499   90.308
  395.250    1.939    0.222    0.530   93.761
  395.500    1.820    0.223    0.560   96.066
  395.750    1.757    0.246    0.585   98.010
  396.000    1.798    0.265    0.585   98.200
  396.250    1.993    0.259    0.604   95.670
  396.500    2.213    0.248    0.614   92.839
  396.750    2.561    0.249    0.597   92.727
  397.000    2.876    0.237    0.556   91.042
  397.250    3.192    0.222    0.515   87.245
  397.500    3.525    0.211    0.462   84.049
  397.750    3.663    0.211    0.450   80.976
  398.000    3.931    0.211    0.447   79.232
  398.250    4.012    0.207    0.453   77.065
  398.500    4.135    0.200    0.450   81.911
  398.750    4.192    0.194    0.442   85.182
  399.000    4.137    0.205    0.451   88.274
  399.250    4.122    0.216    0.468   89.732
  399.500    4.180    0.211    0.466   86.416
  399.750    4.263    0.219    0.449   84.915
  400.000    4.288    0.223    0.440   85.166
  400.250    4.306    0.219    0.444   84.811
  400.500    4.363    0.211    0.460   82.402
  400.750    4.502    0.211    0.465   77.758
  401.000    4.568    0.195    0.459   75.469
  401.250    4.594    0.172    0.438   74.390
  401.500    4.595    0.160    0.369   74.158
  401.750    4.338    0.176    0.389   75.013
  402.000    3.993    0.203    0.443   77.258
  402.250    3.616    0.233    0.468   78.959
  402.500    3.254    0.249    0.473   76.792
  402.750    2.942    0.258    0.462   74.081
  403.000    2.710    0.286    0.455   69.317
  403.250    2.638    0.305    0.445   64.791
  403.500    2.494    0.314    0.426   60.206
  403.750    2.407    0.306    0.415   57.253
  404.000    2.312    0.294    0.415   55.088
  404.250    2.249    0.285    0.417   54.733
  404.500    2.250    0.281    0.425   54.500
  404.750    2.340    0.286    0.429   54.268
  405.000    2.478    0.291    0.426   54.276
  405.250    2.931    0.285    0.401   53.983
  405.500    3.352    0.204    0.273   53.146
  405.750    3.853    0.160    0.164   51.705
  406.000    4.306    0.116    0.156   51.229
  406.250    4.662    0.073    0.169   50.754
  406.500    4.792    0.070    0.191   50.642
  406.750    4.286    0.099    0.246   51.679
  407.000    3.642    0.131    0.290   55.676
  407.250    3.192    0.158    0.332   60.219
  407.500    2.879    0.193    0.391   62.827
  407.750    2.712    0.230    0.415   65.798
  408.000    2.600    0.297    0.430   67.377
  408.250    2.537    0.281    0.418   69.320
  408.500    2.659    0.270    0.414   70.961
  408.750    2.846    0.263    0.423   72.904
  409.000    3.082    0.268    0.431   75.452
  409.250    3.212    0.234    0.442   78.424
  409.500    3.367    0.211    0.456   79.578
  409.750    3.513    0.200    0.469   81.037
  410.000    3.603    0.195    0.472   78.386
  410.250    3.734    0.208    0.467   75.313
  410.500    3.784    0.230    0.442   74.295
  410.750    3.825    0.252    0.430   75.451
  411.000    3.867    0.238    0.426   75.943
  411.250    3.884    0.228    0.416   74.924
  411.500    3.942    0.224    0.413   73.724
  411.750    4.081    0.221    0.414   74.157
  412.000    4.187    0.231    0.416   75.858
  412.250    4.318    0.229    0.412   77.740
  412.500    4.473    0.224    0.410   78.837
  412.750    4.514    0.220    0.417   77.154
  413.000    4.652    0.208    0.412   76.678
  413.250    4.750    0.197    0.406   78.319
  413.500    4.865    0.179    0.404   81.533
  413.750    4.922    0.155    0.408   83.293
  414.000    4.956    0.152    0.420   84.812
  414.250    4.981    0.163    0.430   83.310
  414.500    4.975    0.171    0.421   80.116
  414.750    4.856    0.167    0.417   77.104
  415.000    4.559    0.177    0.412   76.447
  415.250    4.157    0.201    0.419   79.115
