~VERSION INFORMATION
 VERS.                 2.0:   CWLS LOG ASCII STANDARD -VERSION 2.0
 WRAP.                  NO:   ONE LINE PER DEPTH STEP
~WELL INFORMATION BLOCK
#MNEM.UNIT           DATA                    DESCRIPTION OF MNEMONIC
#---------    -------------------            -------------------------------
# Generated from Intellog Unique Number	CW_70_72/WELL/502
NULL.         -999.25                        : NULL_VALUE
WELL.         NORCEN ET AL VICTOR 05-07      : Well_name    - WELL              
LOC .         05-07-071-01W5                 : Location     - LOCATION          
UWI .         00/05-07-071-01W5/0            : Uwi          - UNIQUE WELL ID    
ENTR.         JAYE                           : Entered      - ENTERED BY        
SRVC.         COMPUTALOG                     : Scn          - SERVICE COMPANY   
DATE.         16 MAR 82                      : Date         - LOG DATE          
STRT.M        390                            : top_depth    - START DEPTH       
STOP.M        626                            : bot_depth    - STOP DEPTH        
STEP.M        0.25                           : increment    - STEP LENGTH       
~CURVE INFORMATION BLOCK
#MNEM UNIT       ERCB CURVE CODE    CURVE DESCRIPTION
#-----------   ------------------   ----------------------------------
DEPT.M        00 001 00 00         : DEPTH        - DEPTH                       
DPHI.V/V      00 890 00 00         : PHID         - DENSITY POROSITY (SANDSTONE)
NPHI.V/V      00 330 00 00         : PHIN         - NEUTRON POROSITY (SANDSTONE)
GR  .API      00 310 00 00         : GR           - GAMMA RAY                   
CALI.MM       00 280 01 00         : CAL          - CALIPER                     
ILD .OHMM     00 120 00 00         : RESD         - DEEP RESISTIVITY (DIL)      
~PARAMETER INFORMATION       
#MNEM.UNIT           DATA             DESCRIPTION OF MNEMONIC
#---------         -----------     ------------------------------
GL  .M        591.23               : gl           - GROUND LEVEL ELEVATION      
EREF.M        595.33               : kb           - ELEVATION OF DEPTH REFERENCE
DATM.M        591.23               : datum        - DATUM ELEVATION             
TDD .M        642                  : tdd          - TOTAL DEPTH DRILLER         
RUN .         ONE                  : Run          - RUN NUMBER                  
ENG .         DROMLEWICZ/MURRAY    : Engineer     - RECORDING ENGINEER          
WIT .         BOGNER               : Witness      - WITNESSED BY                
BASE.         EDM                  : Branch       - HOME BASE OF LOGGING UNIT   
MUD .         GEL CHEM             : Mud_type     - MUD TYPE                    
MATR.         SANDSTONE            : Logunit      - NEUTRON MATRIX              
TMAX.C        30                   : BHT          - MAXIMUM RECORDED TEMPERATURE
BHTD.M        643                  : BHTDEP       - MAXIMUM RECORDED TEMPERATURE
RMT .C        10                   : MDTP         - TEMPERATURE OF MUD          
MUDD.KG/M     1140                 : MWT          - MUD DENSITY                 
NEUT.         1                    : NEUTRON      - NEUTRON TYPE                
RESI.         0                    : RESIST       - RESISTIVITY TYPE            
RM  .OHMM     3.2                  : RM           - RESISTIVITY OF MUD          
RMC .OHMM     2.2                  : RMC          - RESISTIVITY OF MUD CAKE     
RMF .OHMM     1.8                  : RMF          - RESISTIVITY OF MUD FILTRATE 
SUFT.C        0                    : SUFT         - SURFACE TEMPERATURE         
~A  DEPTH     PHID     PHIN       GR      CAL     RESD
# ...
  463.000    0.284    0.374   63.254  189.989    2.049
  463.250    0.283    0.388   62.423  188.501    2.034
  463.500    0.285    0.369   64.329  188.361    2.023
  463.750    0.290    0.350   65.427  189.978    2.008
  464.000    0.290    0.351   65.097  191.089    2.027
  464.250    0.278    0.354   63.830  193.228    2.162
  464.500    0.260    0.331   62.005  194.334    2.301
  464.750    0.174    0.267   59.184  194.605    2.520
  465.000    0.140    0.229   55.242  194.879    2.877
  465.250    0.149    0.228   51.365  195.263    3.272
  465.500    0.211    0.230   51.033  195.533    3.523
  465.750    0.239    0.280   57.293  195.602    3.457
  466.000    0.275    0.315   66.540  195.984    3.001
  466.250    0.293    0.349   72.118  195.936    2.689
  466.500    0.293    0.373   77.757  195.802    2.401
  466.750    0.281    0.352   74.377  195.463    2.218
  467.000    0.280    0.372   65.334  194.493    2.128
  467.250    0.281    0.386   59.902  193.005    2.129
  467.500    0.268    0.344   59.566  192.031    2.153
  467.750    0.258    0.329   64.214  191.691    2.158
  468.000    0.253    0.315   70.411  191.649    2.170
  468.250    0.265    0.318   75.741  192.029    2.170
  468.500    0.275    0.356   71.114  192.611    2.154
  468.750    0.280    0.379   68.979  192.990    2.082
  469.000    0.285    0.397   68.523  193.578    1.968
  469.250    0.291    0.352   66.696  193.856    1.832
  469.500    0.295    0.334   63.877  194.135    1.705
  469.750    0.299    0.348   66.217  194.202    1.617
  470.000    0.300    0.354   66.444  194.685    1.581
  470.250    0.296    0.354   63.623  195.063    1.570
  470.500    0.296    0.363   65.468  194.611    1.564
  470.750    0.297    0.372   67.812  194.368    1.561
  471.000    0.295    0.374   64.867  194.433    1.555
  471.250    0.292    0.358   63.661  194.600    1.559
  471.500    0.296    0.370   63.765  195.090    1.562
  471.750    0.290    0.367   64.242  196.093    1.562
  472.000    0.287    0.375   62.788  193.771    1.562
  472.250    0.288    0.374   62.706  192.911    1.562
  472.500    0.291    0.357   64.426  191.940    1.568
  472.750    0.303    0.360   66.395  190.762    1.584
  473.000    0.309    0.372   67.926  189.997    1.599
  473.250    0.310    0.370   68.654  190.066    1.611
  473.500    0.308    0.365   68.135  191.071    1.627
  473.750    0.303    0.365   65.127  192.381    1.649
  474.000    0.294    0.361   67.221  193.590    1.677
  474.250    0.287    0.359   70.621  194.280    1.716
  474.500    0.284    0.339   74.144  195.072    1.742
  474.750    0.283    0.350   71.387  195.348    1.786
  475.000    0.281    0.374   71.800  195.416    1.817
  475.250    0.276    0.406   72.276  195.583    1.869
  475.500    0.263    0.365   70.513  195.754    1.938
  475.750    0.237    0.342   69.122  196.036    2.001
  476.000    0.216    0.329   68.602  196.308    2.090
  476.250    0.219    0.321   67.213  196.376    2.200
  476.500    0.238    0.298   65.948  195.921    2.316
  476.750    0.258    0.323   63.810  190.279    2.378
  477.000    0.271    0.341   61.610  190.670    2.387
  477.250    0.258    0.351   62.460  190.321    2.374
  477.500    0.248    0.355   71.833  190.704    2.317
  477.750    0.248    0.351   83.072  191.702    2.295
  478.000    0.252    0.332   81.992  191.666    2.270
  478.250    0.255    0.322   75.501  192.566    2.261
  478.500    0.251    0.353   74.857  192.945    2.253
  478.750    0.249    0.383   77.260  190.003    2.271
  479.000    0.254    0.401   77.239  187.998    2.288
  479.250    0.255    0.398   77.655  187.031    2.306
  479.500    0.251    0.345   80.370  186.269    2.319
  479.750    0.237    0.315   79.478  185.610    2.337
  480.000    0.236    0.293   79.642  186.505    2.382
  480.250    0.238    0.310   82.854  189.167    2.432
  480.500    0.231    0.343   85.819  192.241    2.512
  480.750    0.209    0.357   88.284  194.588    2.599
  481.000    0.192    0.366   90.380  195.282    2.705
  481.250    0.205    0.349   91.665  194.829    2.836
  481.500    0.212    0.339   89.714  192.514    2.991
  481.750    0.215    0.332   85.837  192.162    3.124
  482.000    0.209    0.346   86.749  192.440    3.166
  482.250    0.198    0.353   92.575  193.960    3.084
  482.500    0.194    0.342   86.706  195.168    2.981
  482.750    0.204    0.374   79.031  194.302    2.915
  483.000    0.219    0.400   75.278  192.710    2.898
  483.250    0.236    0.368   72.954  190.915    2.904
  483.500    0.232    0.304   76.790  189.528    2.921
  483.750    0.220    0.292   83.238  190.428    2.960
  484.000    0.207    0.286   88.439  192.466    3.000
  484.250    0.201    0.302   89.914  195.117    2.984
  484.500    0.211    0.323   89.207  196.230    3.001
  484.750    0.199    0.307   87.818  197.645    3.053
  485.000    0.198    0.296   90.098  198.955    3.106
  485.250    0.195    0.295   91.632  199.955    3.147
  485.500    0.192    0.327   88.624  199.922    3.172
  485.750    0.184    0.343   89.410  199.779    3.190
  486.000    0.175    0.355   90.137  199.117    3.227
  486.250    0.179    0.352   90.363  198.465    3.258
  486.500    0.182    0.323   88.600  197.285    3.283
  486.750    0.182    0.293   86.152  196.007    3.284
  487.000    0.180    0.287   86.814  195.140    3.266
  487.250    0.179    0.301   88.348  194.693    3.285
  487.500    0.194    0.338   89.072  194.651    3.329
  487.750    0.200    0.354   89.239  195.552    3.367
  488.000    0.200    0.297   86.107  195.827    3.368
  488.250    0.192    0.309   87.078  195.376    3.330
  488.500    0.190    0.324   89.172  194.408    3.305
  488.750    0.193    0.331   90.895  193.753    3.262
  489.000    0.194    0.326   92.988  193.093    3.214
  489.250    0.200    0.332   95.018  193.058    3.166
  489.500    0.206    0.342   91.452  194.052    3.143
  489.750    0.201    0.380   89.249  195.163    3.119
  490.000    0.196    0.390   88.232  196.578    3.114
  490.250    0.199    0.364   87.592  197.888    3.114
  490.500    0.215    0.365   86.575  198.788    3.115
  490.750    0.228    0.369   85.742  199.577    3.097
  491.000    0.225    0.354   85.538  200.168    3.086
  491.250    0.217    0.335   85.701  200.444    3.063
  491.500    0.206    0.316   86.364  200.408    3.046
  491.750    0.197    0.305   87.526  200.164    3.041
  492.000    0.193    0.303   90.552  200.018    3.053
  492.250    0.200    0.297   91.650  199.988    3.053
  492.500    0.195    0.316   91.628  199.536    3.019
  492.750    0.192    0.333   91.793  199.395    2.991
  493.000    0.195    0.343   91.209  199.875    2.952
  493.250    0.205    0.351   90.567  199.740    2.919
  493.500    0.216    0.353   88.805  199.391    2.870
  493.750    0.226    0.344   82.001  198.944    2.822
  494.000    0.215    0.328   77.751  198.180    2.802
  494.250    0.199    0.321   78.163  198.243    2.855
  494.500    0.177    0.313   83.057  198.830    2.921
  494.750    0.184    0.308   92.056  199.629    2.977
  495.000    0.190    0.301   90.169  200.216    3.146
  495.250    0.193    0.305   87.783  201.009    3.298
  495.500    0.196    0.297   86.454  201.698    3.387
  495.750    0.205    0.295   88.674  202.176    3.280
  496.000    0.217    0.313   94.313  202.665    3.165
  496.250    0.231    0.344  104.742  202.628    3.008
  496.500    0.233    0.374  114.613  201.344    2.902
  496.750    0.237    0.368  103.953  199.447    2.790
  497.000    0.247    0.370   89.001  197.127    2.687
  497.250    0.260    0.369   79.212  195.223    2.558
  497.500    0.273    0.344   69.237  194.358    2.399
  497.750    0.283    0.357   70.956  193.695    2.319
  498.000    0.281    0.387   76.161  193.355    2.355
  498.250    0.245    0.404   78.193  192.799    2.593
  498.500    0.216    0.364   76.181  192.249    3.157
  498.750    0.183    0.228   70.311  191.277    3.722
  499.000    0.138    0.234   63.758  191.341    4.363
  499.250    0.166    0.279   60.129  192.344    4.298
