~VERSION INFORMATION
 VERS.                 2.0:   CWLS LOG ASCII STANDARD -VERSION 2.0
 WRAP.                  NO:   ONE LINE PER DEPTH STEP
~WELL INFORMATION BLOCK
#MNEM.UNIT           DATA                    DESCRIPTION OF MNEMONIC
#---------    -------------------            -------------------------------
# Generated from Intellog Unique Number	CS_73_76/WELL/2001
WELL.         BOW VALLEY INDUSTRIES LTD.     : Well_name    - WELL
LOC .         00/07-03-075-14W4/0            : Location     - LOCATION
UWI .         00/07-03-075-14W4/0            : Uwi          - UNIQUE WELL ID
ENTR.         SP                             : Entered      - ENTERED BY
SRVC.         SCHLUMBERGER                   : Scn          - SERVICE COMPANY
STRT.M        410                            : top_depth    - START DEPTH
STOP.M        640                            : bot_depth    - STOP DEPTH
STEP.M        0.25                           : increment    - STEP LENGTH
 NULL. -999.2500:NULL Value
~CURVE INFORMATION BLOCK
#MNEM UNIT       ERCB CURVE CODE    CURVE DESCRIPTION
#-----------   ------------------   ----------------------------------
DEPT.M        00 001 00 00         : DEPTH        - DEPTH
ILD .OHMM     00 120 00 00         : RESD         - DEEP RESISTIVITY (DIL)
DPHI.V/V      00 890 00 00         : PHID         - DENSITY POROSITY (LIMESTONE)
NPHI.V/V      00 330 00 00         : PHIN         - NEUTRON POROSITY (LIMESTONE)
GR  .API      00 310 00 00         : GR           - GAMMA RAY
~PARAMETER INFORMATION
#MNEM.UNIT           DATA             DESCRIPTION OF MNEMONIC
#---------         -----------     ------------------------------
GL  .M        774.5                : gl           - GROUND LEVEL ELEVATION
EREF.M        777.8                : kb           - ELEVATION OF DEPTH REFERENCE
DATM.M        774.5                : datum        - DATUM ELEVATION
TDD .M        653.4                : tdd          - TOTAL DEPTH DRILLER
RUN .         ONE                  : Run          - RUN NUMBER
ENG .         BILL                 : Engineer     - RECORDING ENGINEER
WIT .         JIM                  : Witness      - WITNESSED BY
MUD .         GEL                  : Mud_type     - MUD TYPE
MATR.         LIMESTONE            : Logunit      - NEUTRON MATRIX
TMAX.C        27.1                 : BHT          - MAXIMUM RECORDED TEMPERATURE
BHTD.M        653.4                : BHTDEP       - MAXIMUM RECORDED TEMPERATURE
MATR.         1                    : LOGUNIT      - NEUTRON MATRIX
RMT .C        25                   : MDTP         - TEMPERATURE OF MUD
NEUT.         1                    : NEUTRON      - NEUTRON TYPE
RESI.         0                    : RESIST       - RESISTIVITY TYPE
RMC .OHMM     0.25                 : RMC          - RESISTIVITY OF MUD CAKE
RMF .OHMM     0.25                 : RMF          - RESISTIVITY OF MUD FILTRATE
SUFT.C        15                   : SUFT         - SURFACE TEMPERATURE
~A  DEPTH     RESD     PHID     PHIN       GR
  410.000    3.133    0.213    0.542  103.847
  410.250    3.250    0.207    0.540  102.633
  410.500    3.249    0.203    0.558  101.419
  410.750    3.130    0.210    0.577  103.242
  411.000    3.129    0.223    0.570  104.457
  411.250    2.960    0.220    0.578  105.672
  411.500    2.852    0.212    0.586  103.851
  411.750    2.748    0.206    0.595  102.030
  412.000    2.697    0.215    0.606  100.816
  412.250    2.697    0.217    0.593  101.424
  412.500    2.746    0.218    0.571  101.425
  412.750    2.901    0.221    0.561  105.677
  413.000    2.954    0.210    0.558  107.499
  413.250    3.008    0.201    0.576  108.714
  413.500    3.063    0.197    0.599  109.930
  413.750    3.062    0.218    0.601  109.323
  414.000    3.061    0.233    0.604  108.716
  414.250    3.060    0.219    0.622  105.681
  414.500    3.003    0.215    0.630  102.038
  414.750    3.003    0.213    0.618  100.216
  415.000    3.002    0.224    0.608   98.395
  415.250    3.056    0.214    0.594  100.825
  415.500    3.170    0.203    0.584  101.433
  415.750    3.228    0.209    0.550  102.649
  416.000    3.348    0.230    0.553  103.257
  416.250    3.347    0.233    0.566  103.257
  416.500    3.347    0.230    0.577  100.829
  416.750    3.166    0.207    0.595   95.971
  417.000    3.164    0.193    0.571   91.114
  417.250    3.282    0.174    0.514   86.863
  417.500    3.733    0.198    0.472   80.791
  417.750    4.324    0.230    0.467   88.079
  418.000    5.010    0.225    0.478   89.294
  418.250    6.602    0.212    0.476   92.332
  418.500    7.237    0.232    0.487   95.369
  418.750    7.369    0.222    0.493   98.406
  419.000    6.971    0.208    0.494  101.443
  419.250    6.355    0.209    0.487  103.873
  419.500    6.012    0.214    0.513  101.445
  419.750    5.900    0.209    0.523   95.373
  420.000    5.899    0.220    0.507   93.551
  420.250    6.006    0.235    0.471   98.410
  420.500    6.116    0.235    0.473  105.091
  420.750    6.228    0.221    0.503  111.772
  421.000    6.342    0.220    0.518  114.809
  421.250    6.111    0.198    0.525  119.061
  421.500    5.888    0.186    0.532  119.669
  421.750    5.570    0.180    0.538  113.597
  422.000    5.367    0.176    0.547  110.561
  422.250    5.171    0.191    0.553  106.311
  422.500    5.364    0.181    0.547  103.275
  422.750    5.772    0.203    0.533   95.988
  423.000    6.326    0.233    0.517   89.308
  423.250    6.684    0.279    0.506   83.844
  423.500    7.062    0.284    0.498   81.415
  423.750    7.460    0.268    0.491   81.416
  424.000    7.739    0.284    0.485   77.773
  424.250    7.880    0.294    0.488   75.344
  424.500    7.878    0.303    0.491   79.596
  424.750    7.874    0.301    0.496   83.241
  425.000    7.873    0.289    0.486   88.100
  425.250    7.870    0.283    0.477   91.137
  425.500    7.869    0.271    0.486   94.781
  425.750    7.865    0.271    0.498   97.211
  426.000    7.864    0.262    0.507   97.819
  426.250    7.861    0.256    0.500   92.354
  426.500    7.858    0.239    0.497   83.853
  426.750    7.856    0.231    0.489   75.352
  427.000    7.855    0.255    0.502   67.457
  427.250    7.852    0.283    0.489   60.778
  427.500    7.994    0.300    0.471   51.669
  427.750    7.991    0.305    0.453   45.597
  428.000    7.990    0.305    0.461   44.383
  428.250    8.137    0.312    0.457   48.028
  428.500    8.134    0.282    0.460   51.065
  428.750    8.131    0.266    0.474   52.887
  429.000    8.129    0.234    0.472   54.710
  429.250    8.127    0.225    0.466   58.355
  429.500    8.124    0.283    0.478   61.392
  429.750    8.122    0.279    0.455   66.251
  430.000    7.972    0.261    0.447   68.680
  430.250    7.681    0.244    0.451   71.718
  430.500    7.539    0.231    0.453   74.755
  430.750    7.677    0.234    0.450   75.970
  431.000    7.815    0.225    0.447   77.185
  431.250    7.813    0.218    0.439   77.793
  431.500    7.811    0.213    0.443   79.009
  431.750    7.810    0.214    0.454   78.402
  432.000    7.388    0.221    0.461   75.974
  432.250    7.250    0.238    0.475   72.938
  432.500    7.249    0.254    0.473   69.295
  432.750    7.518    0.259    0.471   65.045
  433.000    7.656    0.247    0.468   65.045
  433.250    7.654    0.231    0.467   68.082
  433.500    7.650    0.222    0.473   73.549
  433.750    7.649    0.237    0.480   77.193
  434.000    7.370    0.244    0.483   80.231
  434.250    6.971    0.236    0.483   82.660
  434.500    6.970    0.234    0.478   83.876
  434.750    6.968    0.224    0.475   84.483
  435.000    6.237    0.230    0.483   86.306
  435.250    5.686    0.217    0.497   92.987
  435.500    4.728    0.213    0.517  105.133
  435.750    4.079    0.204    0.548  117.280
  436.000    3.455    0.194    0.596  125.175
  436.250    3.208    0.187    0.601  119.711
  436.500    3.390    0.199    0.567  116.675
  436.750    4.000    0.217    0.536  114.247
  437.000    4.634    0.238    0.504  111.210
  437.250    5.672    0.237    0.515  112.426
  437.500    6.693    0.231    0.521  113.641
  437.750    7.474    0.222    0.511  114.249
  438.000    7.751    0.226    0.504  112.428
  438.250    7.893    0.210    0.536  110.607
  438.500    7.747    0.219    0.537  108.178
  438.750    7.603    0.238    0.523  106.357
  439.000    7.326    0.243    0.511  104.536
  439.250    6.929    0.231    0.519  102.107
  439.500    6.802    0.233    0.522  100.894
  439.750    6.554    0.215    0.526  106.360
  440.000    6.199    0.130    0.525  113.041
  440.250    6.198    0.106    0.531  119.722
  440.500    6.083    0.159    0.534  116.686
  440.750    6.309    0.199    0.514  111.828
  441.000    6.544    0.202    0.499  102.720
  441.250    7.306    0.200    0.493  100.899
  441.500    7.719    0.237    0.494  103.936
  441.750    8.307    0.238    0.510  108.188
  442.000    8.616    0.232    0.513  110.010
  442.250    8.612    0.237    0.497  109.403
  442.500    8.454    0.236    0.488  108.797
  442.750    7.997    0.214    0.505  109.405
  443.000    7.290    0.223    0.519  109.406
  443.250    7.156    0.216    0.531  111.835
  443.500    6.894    0.221    0.529  115.480
  443.750    6.767    0.228    0.528  120.339
  444.000    6.642    0.228    0.516  124.591
  444.250    6.639    0.238    0.510  118.518
  444.500    6.638    0.240    0.515  111.839
  444.750    6.759    0.214    0.528  102.730
  445.000    7.011    0.203    0.525   96.658
  445.250    7.972    0.205    0.503   84.513
  445.500    8.270    0.202    0.486   74.797
  445.750    9.065    0.200    0.479   69.332
  446.000    9.231    0.249    0.484   72.977
  446.250    9.059    0.277    0.470   75.406
  446.500    8.729    0.266    0.459   78.444
  446.750    8.566    0.260    0.445   80.266
  447.000    8.407    0.256    0.438   83.303
  447.250    8.405    0.261    0.434   86.948
  447.500    8.403    0.246    0.433   89.985
  447.750    8.248    0.254    0.451   91.808
  448.000    7.382    0.262    0.477   96.059
  448.250    6.983    0.204    0.475  101.525
  448.500    6.250    0.182    0.492  100.919
  448.750    5.804    0.182    0.508   93.632
  449.000    5.697    0.221    0.516   86.953
  449.250    5.591    0.244    0.511   89.990
  449.500    5.590    0.226    0.514   95.456
  449.750    5.486    0.223    0.512  102.137
  450.000    5.287    0.238    0.499  108.818
  450.250    4.910    0.239    0.498  113.070
  450.500    4.908    0.227    0.517  113.678
  450.750    4.997    0.214    0.516  112.464
  451.000    5.183    0.223    0.501  111.857
  451.250    5.376    0.234    0.495  111.858
  451.500    5.576    0.222    0.493  111.859
  451.750    5.679    0.214    0.509  109.430
  452.000    6.111    0.222    0.507  107.609
  452.250    6.698    0.243    0.495  101.537
  452.500    6.821    0.238    0.477   99.108
  452.750    6.945    0.229    0.487   94.858
  453.000    6.817    0.218    0.493   94.251
  453.250    6.689    0.226    0.492   93.037
