~VERSION INFORMATION
 VERS.                 2.0:   CWLS LOG ASCII STANDARD -VERSION 2.0
 WRAP.                  NO:   ONE LINE PER DEPTH STEP
~WELL INFORMATION BLOCK
#MNEM.UNIT           DATA                    DESCRIPTION OF MNEMONIC
#---------    -------------------            -------------------------------
# Generated from Intellog Unique Number	CW_70_72/WELL/2901
NULL.         -999.25                        : NULL_VALUE
COMP .        HOME OIL CO LTD                :  COMPANY
WELL.         SCURRY ET AL DOUCETTE          : Well_name    - WELL              
LOC .         06-29-077-02W5                 : Location     - LOCATION          
UWI .         00/06-29-077-02W5/0            : Uwi          - UNIQUE WELL ID    
ENTR.         MAX                            : Entered      - ENTERED BY        
SRVC.         COMPUTALOG                     : Scn          - SERVICE COMPANY   
DATE.         24 NOV 77                      : Date         - LOG DATE
STRT.M        375                            : top_depth    - START DEPTH       
STOP.M        625                            : bot_depth    - STOP DEPTH        
STEP.M        0.25                           : increment    - STEP LENGTH       
~CURVE INFORMATION BLOCK
#MNEM UNIT       ERCB CURVE CODE    CURVE DESCRIPTION
#-----------   ------------------   ----------------------------------
DEPT.M        00 001 00 00         : DEPTH        - DEPTH                       
ILD .OHMM     00 120 00 00         : RESD         - DEEP RESISTIVITY (DIL)      
NPHI.V/V      00 330 00 00         : PHIN         - NEUTRON POROSITY (SANDSTONE)
DPHI.V/V      00 890 00 00         : PHID         - DENSITY POROSITY (SANDSTONE)
CALI.MM       00 280 01 00         : CAL          - CALIPER                     
GR  .API      00 310 00 00         : GR           - GAMMA RAY                   
~PARAMETER INFORMATION       
#MNEM.UNIT           DATA             DESCRIPTION OF MNEMONIC
#---------         -----------     ------------------------------
GL  .M        678.3                : gl           - GROUND LEVEL ELEVATION      
EREF.M        683.7                : kb           - ELEVATION OF DEPTH REFERENCE
DATM.M        678.3                : datum        - DATUM ELEVATION             
TDD .M        639                  : tdd          - TOTAL DEPTH DRILLER         
RUN .         ONE                  : Run          - RUN NUMBER                  
ENG .         BILL                 : Engineer     - RECORDING ENGINEER          
WIT .         JIM                  : Witness      - WITNESSED BY                
MUD .         GEL                  : Mud_type     - MUD TYPE                    
MATR.         SANDSTONE            : Logunit      - NEUTRON MATRIX              
TMAX.C        36                   : BHT          - MAXIMUM RECORDED TEMPERATURE
BHTD.M        639                  : BHTDEP       - MAXIMUM RECORDED TEMPERATURE
RMT .C        12.5                 : MDTP         - TEMPERATURE OF MUD          
MUDD.KG/M     1160                 : MWT          - MUD DENSITY                 
NEUT.         1                    : NEUTRON      - NEUTRON TYPE                
RESI.         0                    : RESIST       - RESISTIVITY TYPE            
RM  .OHMM     5.1                  : RM           - RESISTIVITY OF MUD          
RMC .OHMM     5                    : RMC          - RESISTIVITY OF MUD CAKE     
RMF .OHMM     4                    : RMF          - RESISTIVITY OF MUD FILTRATE 
SUFT.C        -10                  : SUFT         - SURFACE TEMPERATURE         
~A  DEPTH     RESD     PHIN     PHID      CAL       GR
# ...
  448.000    5.685    0.438    0.277  206.176   82.118
  448.250    5.739    0.438    0.277  208.124   80.646
  448.500    5.794    0.434    0.274  208.605   82.402
  448.750    5.797    0.440    0.272  205.660   86.210
  449.000    5.799    0.433    0.275  200.762   87.672
  449.250    5.750    0.430    0.276  196.352   85.907
  449.500    5.599    0.425    0.276  194.389   83.555
  449.750    5.451    0.420    0.275  199.271   83.255
  450.000    5.357    0.419    0.279  209.042   82.371
  450.250    5.408    0.422    0.278  212.457   83.538
  450.500    5.559    0.420    0.261  213.427   78.546
  450.750    5.663    0.415    0.248  212.438   80.008
  451.000    5.666    0.422    0.240  211.453   83.818
  451.250    5.517    0.437    0.248  208.998   83.812
  451.500    5.134    0.441    0.249  207.524   83.806
  451.750    4.865    0.431    0.256  204.580   83.215
  452.000    4.695    0.436    0.263  203.105   84.970
  452.250    4.697    0.440    0.269  203.096   87.606
  452.500    4.697    0.443    0.272  203.574   89.068
  452.750    4.702    0.438    0.269  203.567   90.822
  453.000    4.704    0.434    0.256  204.048   91.992
  453.250    4.706    0.437    0.242  205.019   91.400
  453.500    4.666    0.445    0.235  207.453   92.275
  453.750    4.543    0.451    0.232  208.914   96.084
  454.000    4.344    0.455    0.234  209.393   97.546
  454.250    4.007    0.454    0.236  211.340   96.367
  454.500    3.831    0.454    0.241  214.755   91.667
  454.750    3.764    0.463    0.257  215.726   89.315
  455.000    4.160    0.464    0.267  215.227   85.496
  455.250    5.361    0.442    0.269  213.752   77.275
  455.500    6.908    0.404    0.253  210.320   70.815
  455.750    8.357    0.325    0.228  208.845   65.821
  456.000    8.591    0.308    0.173  211.280   66.108
  456.250    7.924    0.279    0.134  212.250   68.452
  456.500    7.177    0.354    0.189  208.818   74.022
  456.750    6.442    0.404    0.233  205.875   80.765
  457.000    5.941    0.421    0.247  204.400   84.280
  457.250    5.785    0.429    0.240  203.902   85.155
  457.500    5.788    0.423    0.238  203.895   82.217
  457.750    5.896    0.413    0.243  203.886   77.809
  458.000    6.061    0.405    0.248  202.900   78.392
  458.250    6.009    0.411    0.250  202.890   82.787
  458.500    5.905    0.421    0.248  202.882   85.129
  458.750    5.801    0.422    0.248  202.874   87.766
  459.000    5.804    0.421    0.249  203.353   91.575
  459.250    5.807    0.417    0.249  204.323   94.504
  459.500    5.915    0.416    0.248  205.781   91.857
  459.750    5.972    0.419    0.248  207.239   87.745
  460.000    5.868    0.424    0.245  208.211   86.860
  460.250    5.817    0.429    0.241  207.709   88.909
  460.500    5.665    0.428    0.239  207.703   90.077
  460.750    5.566    0.429    0.236  207.693   93.592
  461.000    5.518    0.428    0.235  208.664   90.945
  461.250    5.373    0.435    0.232  208.654   86.834
  461.500    5.373    0.447    0.229  207.180   83.895
  461.750    5.330    0.453    0.226  205.216   83.596
  462.000    5.284    0.451    0.222  204.717   87.992
  462.250    5.240    0.445    0.222  205.688   86.520
  462.500    5.240    0.442    0.225  208.124   85.927
  462.750    5.245    0.438    0.227  207.627   87.976
  463.000    5.199    0.430    0.234  206.639   91.492
  463.250    5.249    0.427    0.242  206.631   92.661
  463.500    5.299    0.431    0.237  206.623   89.134
  463.750    5.350    0.431    0.238  204.657   87.956
  464.000    5.450    0.430    0.242  204.650   86.777
  464.250    5.653    0.436    0.255  202.196   85.892
  464.500    6.025    0.438    0.263  203.166   85.299
  464.750    6.842    0.433    0.256  207.559   83.827
  465.000    8.128    0.422    0.246  211.462   79.715
  465.250   11.570    0.291    0.232  209.985   64.453
  465.500   18.026    0.254    0.178  208.021   57.405
  465.750   24.525    0.191    0.124  207.034   56.813
  466.000   29.939    0.170    0.012  208.981   64.730
  466.250   31.054    0.154   -0.062  210.928   69.126
  466.500   28.129    0.169   -0.037  210.922   70.294
  466.750   25.941    0.171   -0.019  211.890   65.007
  467.000   24.363    0.171   -0.010  212.860   58.255
  467.250   23.510    0.186    0.010  210.895   49.739
  467.500   22.481    0.218    0.034  207.951   51.496
  467.750   21.497    0.245    0.061  208.434   53.545
  468.000   20.555    0.261    0.096  208.914   54.126
  468.250   18.959    0.276    0.103  207.927   55.001
  468.500   17.328    0.298    0.116  206.451   55.876
  468.750   15.694    0.322    0.142  203.997   56.752
  469.000   14.087    0.352    0.177  203.987   57.920
  469.250   12.419    0.389    0.232  204.470   60.556
  469.500   11.454    0.406    0.257  205.440   61.430
  469.750   11.356    0.421    0.282  205.431   62.599
  470.000   11.260    0.436    0.297  201.997   64.355
  470.250   11.471    0.448    0.326  201.989   65.816
  470.500   11.475    0.453    0.332  201.004   67.865
  470.750   11.174    0.452    0.327  199.527   70.793
  471.000   10.494    0.429    0.307  199.520   70.202
  471.250    9.678    0.417    0.285  199.020   65.795
  471.500    8.765    0.411    0.256  199.012   65.790
  471.750    7.727    0.398    0.240  199.003   66.960
  472.000    7.126    0.365    0.234  199.485   72.235
  472.250    6.573    0.394    0.247  199.476   82.206
  472.500    6.228    0.419    0.245  200.445   85.135
  472.750    5.850    0.430    0.237  201.905   87.770
  473.000    5.800    0.436    0.233  202.874   89.820
  473.250    5.750    0.444    0.229  206.288   87.761
  473.500    5.599    0.448    0.226  206.278   85.115
  473.750    5.601    0.435    0.231  205.293   83.935
  474.000    5.706    0.431    0.253  200.884   82.464
  474.250    5.814    0.427    0.262  199.407   83.045
  474.500    5.764    0.428    0.262  198.909   85.093
  474.750    5.663    0.429    0.255  199.879   84.796
  475.000    5.464    0.427    0.247  202.315   84.497
  475.250    5.179    0.427    0.241  209.643   83.905
  475.500    5.088    0.427    0.235  214.035   86.247
  475.750    5.183    0.425    0.227  214.515   89.763
  476.000    5.377    0.427    0.221  213.529   92.105
  476.250    5.477    0.433    0.233  210.097   90.046
  476.500    5.477    0.434    0.243  204.220   88.574
  476.750    5.533    0.434    0.244  201.277   86.514
  477.000    5.535    0.441    0.242  199.802   86.216
  477.250    5.535    0.442    0.244  199.793   85.037
  477.500    5.541    0.440    0.244  200.764   84.445
  477.750    5.643    0.434    0.241  201.731   84.147
  478.000    5.749    0.427    0.238  203.191   84.729
  478.250    5.752    0.421    0.235  206.605   88.244
  478.500    5.755    0.423    0.234  208.064   86.478
  478.750    5.810    0.436    0.235  204.142   85.593
  479.000    5.972    0.444    0.252  200.710   85.881
  479.250    6.251    0.444    0.258  200.213   86.757
  479.500    6.972    0.440    0.255  203.629   86.165
  479.750    7.231    0.433    0.286  205.087   80.585
  480.000    7.434    0.421    0.309  199.209   73.831
  480.250    7.437    0.413    0.328  198.224   66.784
  480.500    7.113    0.403    0.312  198.215   66.192
  480.750    6.801    0.406    0.302  201.140   65.600
  481.000    6.444    0.419    0.290  205.045   68.529
  481.250    6.107    0.426    0.274  206.014   73.219
  481.500    6.110    0.422    0.241  205.516   77.615
  481.750    6.224    0.420    0.235  205.508   81.717
  482.000    6.575    0.420    0.241  204.031   78.777
  482.250    7.008    0.416    0.241  199.622   75.252
  482.500    7.401    0.395    0.216  201.569   69.966
  482.750    7.608    0.310    0.129  206.939   68.493
  483.000    7.408    0.345    0.154  207.420   72.009
  483.250    7.149    0.375    0.216  204.966   74.350
  483.500    7.088    0.410    0.280  202.512   70.531
  483.750    7.156    0.423    0.288  202.015   69.352
  484.000    7.422    0.425    0.294  202.008   69.347
  484.250    7.769    0.421    0.295  201.997   69.636
