~VERSION INFORMATION
 VERS.                 2.0:   CWLS LOG ASCII STANDARD -VERSION 2.0
 WRAP.                  NO:   ONE LINE PER DEPTH STEP
~WELL INFORMATION BLOCK
#MNEM.UNIT           DATA                    DESCRIPTION OF MNEMONIC
#---------    -------------------            -------------------------------
# Generated from Intellog Unique Number	CS_67_68/WELL/786
WELL.         DOME PETROLEUM LIMITED         : Well_name    - WELL
LOC .         00/09-05-068-03W4/0            : Location     - LOCATION
UWI .         00/09-05-068-03W4/0            : Uwi          - UNIQUE WELL ID
ENTR.         SP                             : Entered      - ENTERED BY
SRVC.         SCHLUMBERGER                   : Scn          - SERVICE COMPANY
STRT.M        345                            : top_depth    - START DEPTH
STOP.M        577                            : bot_depth    - STOP DEPTH
STEP.M        0.25                           : increment    - STEP LENGTH
 NULL. -999.2500:NULL Value
~CURVE INFORMATION BLOCK
#MNEM UNIT       ERCB CURVE CODE    CURVE DESCRIPTION
#-----------   ------------------   ----------------------------------
DEPT.M        00 001 00 00         : DEPTH        - DEPTH
ILD .OHMM     00 120 00 00         : RESD         - DEEP RESISTIVITY (DIL)
DPHI.V/V      00 890 00 00         : PHID         - DENSITY POROSITY (LIMESTONE)
NPHI.V/V      00 330 00 00         : PHIN         - NEUTRON POROSITY (LIMESTONE)
GR  .API      00 310 00 00         : GR           - GAMMA RAY
~PARAMETER INFORMATION
#MNEM.UNIT           DATA             DESCRIPTION OF MNEMONIC
#---------         -----------     ------------------------------
GL  .M        705.08               : gl           - GROUND LEVEL ELEVATION
EREF.M        709                  : kb           - ELEVATION OF DEPTH REFERENCE
DATM.M        705.08               : datum        - DATUM ELEVATION
TDD .M        583                  : tdd          - TOTAL DEPTH DRILLER
RUN .         ONE                  : Run          - RUN NUMBER
ENG .         BILL                 : Engineer     - RECORDING ENGINEER
WIT .         JIM                  : Witness      - WITNESSED BY
MUD .         GEL                  : Mud_type     - MUD TYPE
MATR.         LIMESTONE            : Logunit      - NEUTRON MATRIX
TMAX.C        23.3                 : BHT          - MAXIMUM RECORDED TEMPERATURE
BHTD.M        583                  : BHTDEP       - MAXIMUM RECORDED TEMPERATURE
MATR.         1                    : LOGUNIT      - NEUTRON MATRIX
RMT .C        25                   : MDTP         - TEMPERATURE OF MUD
NEUT.         1                    : NEUTRON      - NEUTRON TYPE
RESI.         0                    : RESIST       - RESISTIVITY TYPE
RMC .OHMM     0.25                 : RMC          - RESISTIVITY OF MUD CAKE
RMF .OHMM     0.25                 : RMF          - RESISTIVITY OF MUD FILTRATE
SUFT.C        15                   : SUFT         - SURFACE TEMPERATURE
~A  DEPTH     RESD     PHID     PHIN       GR
# ...
  388.500    6.622    0.283    0.448   92.300
  388.750    6.697    0.286    0.450   87.133
  389.000    6.861    0.288    0.441   87.982
  389.250    7.081    0.288    0.436   89.926
  389.500    7.295    0.295    0.428   90.897
  389.750    7.391    0.307    0.423   90.106
  390.000    7.420    0.298    0.420   90.530
  390.250    7.448    0.288    0.431   93.447
  390.500    7.449    0.279    0.442   96.788
  390.750    7.437    0.281    0.452   94.295
  391.000    7.451    0.286    0.452   88.338
  391.250    7.480    0.289    0.449   84.143
  391.500    7.494    0.288    0.447   86.573
  391.750    7.495    0.284    0.452   87.240
  392.000    7.414    0.279    0.462   89.123
  392.250    7.319    0.280    0.473   91.918
  392.500    7.213    0.290    0.456   88.088
  392.750    7.094    0.301    0.443   81.097
  393.000    7.017    0.277    0.436   87.903
  393.250    7.057    0.276    0.472   93.068
  393.500    7.310    0.276    0.491   86.381
  393.750    7.714    0.198    0.420   80.484
  394.000    8.171    0.177    0.380   77.688
  394.250    8.512    0.199    0.393   72.338
  394.500    8.529    0.228    0.429   77.867
  394.750    8.327    0.249    0.457   81.209
  395.000    8.026    0.261    0.460   81.573
  395.250    7.997    0.255    0.454   77.985
  395.500    9.037    0.270    0.464   71.177
  395.750   11.735    0.290    0.463   64.004
  396.000   13.813    0.309    0.457   59.019
  396.250   15.902    0.331    0.462   60.720
  396.500   18.206    0.348    0.468   68.316
  396.750   20.651    0.357    0.472   71.961
  397.000   22.365    0.348    0.482   68.374
  397.250   23.777    0.343    0.477   62.478
  397.500   25.846    0.340    0.469   60.228
  397.750   29.756    0.343    0.467   59.862
  398.000   33.318    0.347    0.471   58.767
  398.250   37.237    0.344    0.478   60.163
  398.500   39.956    0.344    0.475   69.400
  398.750   41.932    0.347    0.454   77.057
  399.000   43.198    0.354    0.444   82.769
  399.250   41.633    0.358    0.447   75.049
  399.500   38.027    0.358    0.461   63.683
  399.750   34.223    0.359    0.452   55.598
  400.000   32.080    0.359    0.455   50.491
  400.250   30.803    0.354    0.470   50.065
  400.500   28.555    0.350    0.473   52.130
  400.750   24.131    0.349    0.446   57.234
  401.000   21.358    0.349    0.432   62.460
  401.250   18.284    0.350    0.436   65.680
  401.500   16.004    0.349    0.442   68.231
  401.750   14.087    0.345    0.449   69.325
  402.000   12.819    0.342    0.456   70.782
  402.250   11.709    0.346    0.463   74.610
  402.500   10.854    0.349    0.470   76.736
  402.750    9.951    0.342    0.479   77.099
  403.000    9.449    0.335    0.467   75.214
  403.250    9.124    0.327    0.455   75.274
  403.500    8.842    0.328    0.446   77.096
  403.750    8.633    0.321    0.439   76.365
  404.000    8.555    0.314    0.428   70.894
  404.250    8.524    0.318    0.423   65.909
  404.500    8.510    0.323    0.421   63.781
  404.750    8.448    0.312    0.424   64.813
  405.000    8.187    0.307    0.433   66.574
  405.250    7.760    0.301    0.442   68.518
  405.500    7.141    0.278    0.448   75.689
  405.750    6.743    0.264    0.448   82.981
  406.000    6.368    0.250    0.447   85.958
  406.250    6.172    0.252    0.470   89.603
  406.500    6.161    0.273    0.488   91.972
  406.750    6.253    0.295    0.513   92.701
  407.000    6.673    0.283    0.483   74.162
  407.250    7.081    0.249    0.453   61.702
  407.500    7.188    0.258    0.436   56.109
  407.750    7.202    0.273    0.412   64.130
  408.000    7.045    0.284    0.398   77.135
  408.250    6.891    0.241    0.406   79.201
  408.500    6.828    0.243    0.413   68.077
  408.750    6.854    0.274    0.419   59.324
  409.000    6.996    0.292    0.423   54.582
  409.250    7.208    0.302    0.422   51.663
  409.500    7.235    0.312    0.419   51.480
  409.750    7.183    0.324    0.414   52.391
  410.000    7.131    0.336    0.419   57.191
  410.250    7.118    0.338    0.425   60.776
  410.500    7.133    0.338    0.435   64.603
  410.750    7.186    0.339    0.445   66.122
  411.000    7.227    0.350    0.446   67.822
  411.250    7.228    0.352    0.440   66.180
  411.500    7.229    0.347    0.437   62.532
  411.750    7.230    0.342    0.441   60.100
  412.000    7.178    0.356    0.441   59.066
  412.250    7.139    0.361    0.441   57.666
  412.500    7.061    0.353    0.450   56.268
  412.750    6.984    0.350    0.451   53.896
  413.000    6.895    0.352    0.446   52.436
  413.250    6.820    0.356    0.442   52.739
  413.500    6.783    0.345    0.442   53.771
  413.750    6.746    0.335    0.449   53.891
  414.000    6.760    0.336    0.452   53.465
  414.250    6.811    0.344    0.453   51.762
  414.500    6.862    0.350    0.450   49.451
  414.750    6.876    0.353    0.447   48.113
  415.000    6.876    0.352    0.443   46.349
  415.250    6.877    0.350    0.438   45.132
  415.500    6.929    0.351    0.431   46.164
  415.750    6.943    0.354    0.424   48.290
  416.000    6.931    0.345    0.430   50.295
  416.250    6.919    0.351    0.433   54.244
  416.500    6.920    0.355    0.429   60.078
  416.750    6.946    0.352    0.439   65.303
  417.000    6.973    0.359    0.451   68.767
  417.250    6.961    0.354    0.457   71.075
  417.500    6.911    0.349    0.452   72.472
  417.750    6.722    0.346    0.446   66.575
  418.000    6.384    0.349    0.435   60.861
  418.250    6.209    0.349    0.410   57.699
  418.500    6.130    0.338    0.402   62.317
  418.750    6.019    0.309    0.438   69.184
  419.000    5.457    0.287    0.460   73.133
  419.250    4.920    0.305    0.455   72.038
  419.500    4.612    0.329    0.430   80.607
  419.750    4.453    0.299    0.412   88.324
  420.000    4.537    0.253    0.511   93.854
  420.250    5.184    0.229    0.538   80.360
  420.500    5.980    0.284    0.564   69.966
  420.750    6.597    0.327    0.447   61.638
  421.000    7.346    0.331    0.432   53.857
  421.250    7.926    0.330    0.435   49.115
  421.500    8.364    0.325    0.438   47.960
  421.750    8.585    0.322    0.427   52.638
  422.000    8.586    0.321    0.423   54.096
  422.250    8.245    0.329    0.433   53.244
  422.500    8.005    0.340    0.437   52.574
  422.750    7.815    0.347    0.437   51.539
  423.000    7.673    0.352    0.446   51.417
  423.250    7.575    0.355    0.455   52.571
  423.500    7.506    0.363    0.443   52.569
  423.750    7.383    0.355    0.434   51.657
  424.000    7.303    0.344    0.429   52.020
  424.250    7.236    0.336    0.419   53.842
  424.500    7.210    0.344    0.408   53.841
  424.750    7.172    0.357    0.412   52.746
  425.000    7.146    0.352    0.423   51.103
  425.250    7.121    0.347    0.427   50.616
  425.500    7.095    0.345    0.430   50.980
  425.750    7.070    0.345    0.432   52.437
  426.000    7.032    0.344    0.439   53.651
  426.250    7.006    0.354    0.453   55.291
  426.500    6.956    0.349    0.469   56.323
  426.750    6.944    0.343    0.485   55.593
  427.000    6.919    0.340    0.477   54.315
  427.250    6.869    0.338    0.455   54.497
  427.500    6.857    0.335    0.438   55.589
  427.750    6.820    0.337    0.432   56.439
  428.000    6.808    0.338    0.424   56.256
  428.250    6.809    0.335    0.418   56.255
  428.500    6.810    0.328    0.431   58.320
  428.750    6.785    0.317    0.442   59.048
  429.000    6.786    0.313    0.451   59.047
  429.250    6.800    0.317    0.457   58.924
  429.500    6.801    0.321    0.447   58.740
  429.750    6.789    0.322    0.437   58.800
  430.000    6.777    0.325    0.427   58.556
  430.250    6.753    0.329    0.428   57.643
  430.500    6.766    0.333    0.437   55.454
  430.750    6.792    0.339    0.446   53.629
  431.000    6.793    0.344    0.442   53.385
  431.250    6.756    0.347    0.445   53.505
  431.500    6.720    0.350    0.461   53.626
  431.750    6.708    0.352    0.471   52.713
