~VERSION INFORMATION
 VERS.                 2.0:   CWLS LOG ASCII STANDARD -VERSION 2.0
 WRAP.                  NO:   ONE LINE PER DEPTH STEP
~WELL INFORMATION BLOCK
#MNEM.UNIT           DATA                    DESCRIPTION OF MNEMONIC
#---------    -------------------            -------------------------------
# Generated from Intellog Unique Number	CS_71_72/WELL/644
WELL.         AMOCO AEC IPIATIK              : Well_name    - WELL
LOC .         00/05-05-072-04W4/0            : Location     - LOCATION
UWI .         00/05-05-072-04W4/0            : Uwi          - UNIQUE WELL ID
ENTR.         SP                             : Entered      - ENTERED BY
SRVC.         SCHLUMBERGER                   : Scn          - SERVICE COMPANY
STRT.M        295                            : top_depth    - START DEPTH
STOP.M        500                            : bot_depth    - STOP DEPTH
STEP.M        0.25                           : increment    - STEP LENGTH
 NULL. -999.2500:NULL Value
~CURVE INFORMATION BLOCK
#MNEM UNIT       ERCB CURVE CODE    CURVE DESCRIPTION
#-----------   ------------------   ----------------------------------
DEPT.M        00 001 00 00         : DEPTH        - DEPTH
DPHI.V/V      00 890 00 00         : PHID         - DENSITY POROSITY (LIMESTONE)
NPHI.V/V      00 330 00 00         : PHIN         - NEUTRON POROSITY (LIMESTONE)
GR  .API      00 310 00 00         : GR           - GAMMA RAY
ILD .OHMM     00 120 00 00         : RESD         - DEEP RESISTIVITY (DIL)
~PARAMETER INFORMATION
#MNEM.UNIT           DATA             DESCRIPTION OF MNEMONIC
#---------         -----------     ------------------------------
GL  .M        673.5                : gl           - GROUND LEVEL ELEVATION
EREF.M        677.76               : kb           - ELEVATION OF DEPTH REFERENCE
DATM.M        673.5                : datum        - DATUM ELEVATION
TDD .M        519                  : tdd          - TOTAL DEPTH DRILLER
RUN .         ONE                  : Run          - RUN NUMBER
ENG .         BILL                 : Engineer     - RECORDING ENGINEER
WIT .         JIM                  : Witness      - WITNESSED BY
MUD .         GEL                  : Mud_type     - MUD TYPE
MATR.         LIMESTONE            : Logunit      - NEUTRON MATRIX
TMAX.C        19.5                 : BHT          - MAXIMUM RECORDED TEMPERATURE
BHTD.M        549                  : BHTDEP       - MAXIMUM RECORDED TEMPERATURE
MATR.         1                    : LOGUNIT      - NEUTRON MATRIX
RMT .C        25                   : MDTP         - TEMPERATURE OF MUD
NEUT.         1                    : NEUTRON      - NEUTRON TYPE
RESI.         0                    : RESIST       - RESISTIVITY TYPE
RMC .OHMM     0.25                 : RMC          - RESISTIVITY OF MUD CAKE
RMF .OHMM     0.25                 : RMF          - RESISTIVITY OF MUD FILTRATE
SUFT.C        15                   : SUFT         - SURFACE TEMPERATURE
~A  DEPTH     PHID     PHIN       GR     RESD
  295.000    0.237    0.535   93.149    4.459
  295.250    0.234    0.541   94.371    4.544
  295.500    0.243    0.560   93.781    4.465
  295.750    0.237    0.558   91.977    4.468
  296.000    0.241    0.550   91.987    4.472
  296.250    0.255    0.547   92.002    4.394
  296.500    0.241    0.541   90.806    4.318
  296.750    0.218    0.527   90.815    4.481
  297.000    0.209    0.527   91.433    4.651
  297.250    0.207    0.548   92.051    4.654
  297.500    0.224    0.561   93.273    4.574
  297.750    0.238    0.577   93.894    4.333
  298.000    0.223    0.571   92.694    4.106
  298.250    0.245    0.568   94.521    4.110
  298.500    0.256    0.567   93.928    4.188
  298.750    0.242    0.556   92.731    4.346
  299.000    0.229    0.539   93.953    4.680
  299.250    0.234    0.559   93.361    4.857
  299.500    0.228    0.568   91.561    4.949
  299.750    0.201    0.561   90.965    4.952
  300.000    0.161    0.522   89.772    4.955
  300.250    0.175    0.513   90.385    4.781
  300.500    0.205    0.520   91.607    4.614
  300.750    0.223    0.541   92.227    4.618
  301.000    0.228    0.538   90.423    4.970
  301.250    0.222    0.485   83.785    6.191
  301.500    0.236    0.382   78.352    7.299
  301.750    0.273    0.366   71.713    9.090
  302.000    0.304    0.353   69.912   10.914
  302.250    0.323    0.347   68.716   14.358
  302.500    0.338    0.341   66.913   16.623
  302.750    0.349    0.378   63.900   17.893
  303.000    0.382    0.457   62.096   18.571
  303.250    0.398    0.509   63.928   16.666
  303.500    0.411    0.539   66.359   16.077
  303.750    0.420    0.356   68.182   14.424
  304.000    0.284    0.320   71.829   14.430
  304.250    0.294    0.301   71.837   15.535
  304.500    0.301    0.266   69.431   17.342
  304.750    0.347    0.242   68.234   21.212
  305.000    0.361    0.259   69.454   22.423
  305.250    0.362    0.287   71.889   22.432
  305.500    0.362    0.308   73.713   20.492
  305.750    0.338    0.330   73.120   15.605
  306.000    0.325    0.351   73.135   13.015
  306.250    0.302    0.380   70.123   11.887
  306.500    0.293    0.437   68.320   10.470
  306.750    0.295    0.450   68.941    9.395
  307.000    0.281    0.462   70.159    9.063
  307.250    0.257    0.449   73.200    9.071
  307.500    0.235    0.445   75.023    9.076
  307.750    0.220    0.445   77.456    9.088
  308.000    0.264    0.435   81.103    9.094
  308.250    0.268    0.451   82.321    8.933
  308.500    0.284    0.463   84.147    8.780
  308.750    0.276    0.460   83.555    8.787
  309.000    0.284    0.457   85.990    8.792
  309.250    0.290    0.454   87.818    8.800
  309.500    0.292    0.452   88.434    8.806
  309.750    0.281    0.454   88.445    8.653
  310.000    0.287    0.457   89.664    8.502
  310.250    0.293    0.468   92.102    8.354
  310.500    0.280    0.475   93.930    7.917
  310.750    0.251    0.480   95.756    7.636
  311.000    0.231    0.492   96.976    7.237
  311.250    0.214    0.501   96.988    7.376
  311.500    0.217    0.488   93.974    7.653
  311.750    0.211    0.467   90.356    7.945
  312.000    0.208    0.451   87.950    8.244
  312.250    0.197    0.462   89.777    8.405
  312.500    0.206    0.470   91.000    8.410
  312.750    0.211    0.468   91.012    8.569
  313.000    0.217    0.451   90.421    8.579
  313.250    0.242    0.439   94.671    8.741
  313.500    0.266    0.458  100.729    8.749
  313.750    0.282    0.480  107.998    8.752
  314.000    0.255    0.491  114.058    8.446
  314.250    0.242    0.487  108.025    7.860
  314.500    0.235    0.487  103.199    7.584
  314.750    0.188    0.495   98.978    7.316
  315.000    0.151    0.503   97.172    6.934
  315.250    0.124    0.491  108.080    6.690
  315.500    0.132    0.504  109.901    6.337
  315.750    0.177    0.519  112.333    5.687
  316.000    0.202    0.534  111.741    5.387
  316.250    0.204    0.544  111.147    5.197
  316.500    0.186    0.559  112.369    4.836
  316.750    0.203    0.568  108.150    4.501
  317.000    0.222    0.569  107.557    4.342
  317.250    0.222    0.554  107.573    4.189
  317.500    0.220    0.537  106.979    3.968
  317.750    0.240    0.531  106.383    3.830
  318.000    0.242    0.546  100.954    3.903
  318.250    0.258    0.549   94.917    4.357
  318.500    0.268    0.496   84.045    5.527
  318.750    0.276    0.423   79.215    6.169
  319.000    0.333    0.379   69.552    7.273
  319.250    0.402    0.359   63.517    7.831
  319.500    0.385    0.360   65.951    7.979
  319.750    0.352    0.384   68.377    7.700
  320.000    0.334    0.398   73.840    7.566
  320.250    0.316    0.415   76.873    7.434
  320.500    0.286    0.425   82.336    7.444
  320.750    0.273    0.434   83.555    7.448
  321.000    0.273    0.443   84.774    7.590
  321.250    0.279    0.427   84.179    7.594
  321.500    0.316    0.401   74.516    7.601
  321.750    0.335    0.386   66.664    7.467
  322.000    0.364    0.370   58.209    7.339
  322.250    0.345    0.427   47.334    7.083
  322.500    0.330    0.426   54.610    6.959
  322.750    0.317    0.419   58.246    6.963
  323.000    0.295    0.427   65.520    6.967
  323.250    0.283    0.443   69.159    7.104
  323.500    0.265    0.444   74.015    7.239
  323.750    0.248    0.428   75.232    7.243
  324.000    0.240    0.416   75.247    7.248
  324.250    0.275    0.405   72.837    7.124
  324.500    0.306    0.400   67.407    7.000
  324.750    0.328    0.406   61.370    7.003
  325.000    0.341    0.421   57.756    6.760
  325.250    0.328    0.432   57.161    6.641
  325.500    0.316    0.430   56.575    6.770
  325.750    0.304    0.419   56.582    6.898
  326.000    0.278    0.415   59.014    7.160
  326.250    0.256    0.419   65.683    7.296
  326.500    0.247    0.419   70.536    7.435
  326.750    0.235    0.410   72.968    7.444
  327.000    0.226    0.404   71.162    7.448
  327.250    0.214    0.404   66.339    7.452
  327.500    0.224    0.418   63.929    7.322
  327.750    0.229    0.429   62.125    7.068
  328.000    0.260    0.429   66.979    6.944
  328.250    0.244    0.429   73.647    6.700
  328.500    0.231    0.429   77.284    6.704
  328.750    0.214    0.430   80.929    6.708
  329.000    0.202    0.438   79.125    6.837
  329.250    0.215    0.435   74.902    6.968
  329.500    0.224    0.415   69.474    6.973
  329.750    0.243    0.409   67.672    6.979
  330.000    0.265    0.412   68.893    6.860
  330.250    0.243    0.435   70.114    6.865
  330.500    0.238    0.449   68.918    6.745
  330.750    0.243    0.423   67.721    6.749
  331.000    0.244    0.413   73.185    6.753
  331.250    0.243    0.410   75.614    6.636
  331.500    0.237    0.427   76.831    6.640
  331.750    0.234    0.435   78.052    6.529
  332.000    0.234    0.441   75.646    6.533
  332.250    0.241    0.427   74.452    6.419
  332.500    0.240    0.414   74.461    6.422
  332.750    0.223    0.408   76.898    6.429
  333.000    0.226    0.420   78.117    6.317
  333.250    0.232    0.425   78.128    6.320
  333.500    0.245    0.414   76.930    6.214
  333.750    0.241    0.402   76.342    6.218
  334.000    0.232    0.408   75.747    6.109
  334.250    0.240    0.414   76.363    6.113
  334.500    0.245    0.426   76.981    6.007
  334.750    0.233    0.437   78.207    6.011
  335.000    0.221    0.441   78.820    6.014
  335.250    0.207    0.443   78.230    5.912
  335.500    0.210    0.435   77.033    5.915
  335.750    0.213    0.433   75.832    5.812
  336.000    0.231    0.438   74.640    5.711
  336.250    0.242    0.439   73.439    5.821
  336.500    0.254    0.434   74.056    5.618
  336.750    0.261    0.439   73.464    5.419
  337.000    0.251    0.432   71.661    5.044
  337.250    0.265    0.418   68.651    4.866
  337.500    0.271    0.424   65.035    4.694
  337.750    0.270    0.432   59.603    4.448
  338.000    0.295    0.451   54.171    4.292
  338.250    0.325    0.475   52.370    4.141
