~VERSION INFORMATION
 VERS.                 2.0:   CWLS LOG ASCII STANDARD -VERSION 2.0
 WRAP.                  NO:   ONE LINE PER DEPTH STEP
~WELL INFORMATION BLOCK
#MNEM.UNIT           DATA                    DESCRIPTION OF MNEMONIC
#---------    -------------------            -------------------------------
# Generated from Intellog Unique Number	CS_73_76/WELL/2241
WELL.         MAYNARD ENERGY INCORPORATE     : Well_name    - WELL
LOC .         00/07-21-076-09W4/0            : Location     - LOCATION
UWI .         00/07-21-076-09W4/0            : Uwi          - UNIQUE WELL ID
ENTR.         SP                             : Entered      - ENTERED BY
SRVC.         SCHLUMBERGER                   : Scn          - SERVICE COMPANY
STRT.M        290                            : top_depth    - START DEPTH
STOP.M        500                            : bot_depth    - STOP DEPTH
STEP.M        0.25                           : increment    - STEP LENGTH
 NULL. -999.2500:NULL Value
~CURVE INFORMATION BLOCK
#MNEM UNIT       ERCB CURVE CODE    CURVE DESCRIPTION
#-----------   ------------------   ----------------------------------
DEPT.M        00 001 00 00         : DEPTH        - DEPTH
ILD .OHMM     00 120 00 00         : RESD         - DEEP RESISTIVITY (DIL)
DPHI.V/V      00 890 00 00         : PHID         - DENSITY POROSITY (LIMESTONE)
NPHI.V/V      00 330 00 00         : PHIN         - NEUTRON POROSITY (LIMESTONE)
GR  .API      00 310 00 00         : GR           - GAMMA RAY
~PARAMETER INFORMATION
#MNEM.UNIT           DATA             DESCRIPTION OF MNEMONIC
#---------         -----------     ------------------------------
GL  .M        683.33               : gl           - GROUND LEVEL ELEVATION
EREF.M        686.74               : kb           - ELEVATION OF DEPTH REFERENCE
DATM.M        683.33               : datum        - DATUM ELEVATION
TDD .M        508                  : tdd          - TOTAL DEPTH DRILLER
RUN .         ONE                  : Run          - RUN NUMBER
ENG .         BILL                 : Engineer     - RECORDING ENGINEER
WIT .         JIM                  : Witness      - WITNESSED BY
MUD .         GEL                  : Mud_type     - MUD TYPE
MATR.         LIMESTONE            : Logunit      - NEUTRON MATRIX
TMAX.C        20                   : BHT          - MAXIMUM RECORDED TEMPERATURE
BHTD.M        508                  : BHTDEP       - MAXIMUM RECORDED TEMPERATURE
MATR.         1                    : LOGUNIT      - NEUTRON MATRIX
RMT .C        25                   : MDTP         - TEMPERATURE OF MUD
NEUT.         1                    : NEUTRON      - NEUTRON TYPE
RESI.         0                    : RESIST       - RESISTIVITY TYPE
RMC .OHMM     0.25                 : RMC          - RESISTIVITY OF MUD CAKE
RMF .OHMM     0.25                 : RMF          - RESISTIVITY OF MUD FILTRATE
SUFT.C        15                   : SUFT         - SURFACE TEMPERATURE
~A  DEPTH     RESD     PHID     PHIN       GR
  290.000    8.934    0.210    0.385   83.536
  290.250    9.179    0.212    0.389   80.499
  290.500    9.261    0.218    0.394   81.116
  290.750    9.260    0.228    0.404   83.566
  291.000    9.178    0.227    0.412   86.011
  291.250    9.013    0.210    0.427   92.119
  291.500    8.520    0.177    0.432   95.175
  291.750    8.274    0.167    0.435   97.621
  292.000    7.863    0.166    0.438  102.508
  292.250    7.453    0.177    0.434  106.175
  292.500    7.124    0.195    0.427  109.237
  292.750    6.959    0.201    0.422  109.851
  293.000    6.713    0.206    0.427  108.641
  293.250    6.630    0.205    0.436  108.039
  293.500    6.712    0.192    0.440  108.658
  293.750    6.793    0.197    0.448  108.060
  294.000    6.874    0.184    0.448  106.239
  294.250    6.873    0.186    0.436  104.417
  294.500    6.791    0.187    0.422  100.766
  294.750    6.790    0.158    0.413   97.727
  295.000    6.953    0.148    0.402   92.857
  295.250    7.445    0.148    0.394   82.500
  295.500    8.100    0.234    0.385   73.972
  295.750    9.165    0.256    0.379   61.786
  296.000   12.524    0.291    0.373   51.428
  296.250   16.540    0.302    0.367   45.949
  296.500   22.041    0.306    0.363   45.959
  296.750   24.490    0.321    0.362   47.801
  297.000   25.306    0.318    0.367   49.026
  297.250   25.306    0.309    0.374   49.647
  297.500   25.306    0.297    0.377   49.042
  297.750   24.490    0.301    0.381   48.441
  298.000   23.674    0.307    0.382   50.280
  298.250   22.857    0.313    0.382   53.340
  298.500   22.041    0.318    0.384   55.786
  298.750   21.224    0.304    0.383   57.011
  299.000   21.224    0.304    0.379   58.850
  299.250   20.408    0.305    0.381   59.468
  299.500   20.408    0.324    0.387   58.867
  299.750   21.224    0.350    0.391   60.099
  300.000   21.224    0.352    0.397   60.713
  300.250   21.224    0.363    0.399   63.162
  300.500   22.041    0.348    0.396   66.831
  300.750   22.041    0.335    0.391   69.277
  301.000   21.224    0.327    0.396   74.165
  301.250   19.067    0.317    0.399   79.660
  301.500   17.427    0.304    0.406   84.546
  301.750   15.951    0.282    0.415   95.531
  302.000   13.656    0.236    0.419  102.856
  302.250   10.622    0.212    0.428  112.012
  302.500    8.081    0.199    0.432  119.947
  302.750    7.096    0.199    0.437  122.396
  303.000    6.276    0.177    0.440  123.014
  303.250    5.865    0.170    0.442  125.460
  303.500    5.865    0.193    0.442  131.567
  303.750    6.028    0.210    0.434  134.015
  304.000    6.355    0.220    0.427  131.586
  304.250    6.928    0.220    0.420  125.497
  304.500    7.747    0.221    0.416  120.626
  304.750    9.058    0.232    0.412  116.368
  305.000   10.369    0.235    0.410  113.326
  305.250   11.680    0.246    0.407  110.287
  305.500   12.826    0.254    0.405  107.857
  305.750   13.891    0.254    0.404  104.817
  306.000   14.218    0.238    0.404  102.388
  306.250   13.890    0.244    0.404  101.785
  306.500   13.315    0.259    0.402  107.284
  306.750   12.495    0.267    0.400  109.732
  307.000   12.003    0.271    0.397  111.567
  307.250   11.756    0.260    0.397  112.186
  307.500   11.428    0.257    0.399  114.633
  307.750   11.181    0.244    0.401  117.690
  308.000   11.180    0.229    0.400  113.430
  308.250   11.425    0.223    0.399  104.903
  308.500   12.326    0.219    0.389   90.278
  308.750   13.309    0.266    0.389   82.360
  309.000   14.620    0.295    0.392   78.712
  309.250   15.685    0.310    0.397   79.330
  309.500   16.258    0.302    0.400   82.997
  309.750   15.274    0.290    0.400   86.052
  310.000   13.880    0.275    0.406   98.257
  310.250   11.092    0.244    0.417  110.461
  310.500    9.452    0.223    0.420  113.521
  310.750    8.550    0.206    0.424  112.924
  311.000    8.057    0.181    0.428  112.318
  311.250    8.138    0.169    0.425  109.887
  311.500    8.630    0.175    0.401  105.020
  311.750    9.858    0.198    0.386  102.586
  312.000   10.514    0.214    0.387   98.326
  312.250   11.251    0.239    0.395   95.899
  312.500   11.332    0.237    0.403   98.954
  312.750   10.594    0.241    0.412  106.889
  313.000    9.609    0.228    0.419  120.923
  313.250    8.871    0.231    0.425  125.810
  313.500    8.050    0.226    0.427  125.817
  313.750    7.968    0.235    0.429  123.996
  314.000    7.885    0.235    0.430  118.519
  314.250    8.212    0.240    0.426  109.990
  314.500    8.704    0.237    0.426  101.465
  314.750   10.096    0.219    0.429   99.641
  315.000   11.243    0.197    0.427   95.384
  315.250   12.554    0.169    0.430   97.836
  315.500   13.209    0.164    0.435   98.453
  315.750   13.126    0.175    0.436   98.457
  316.000   12.470    0.209    0.433  101.515
  316.250   11.896    0.254    0.428  104.574
  316.500   11.894    0.278    0.425  103.973
  316.750   12.222    0.259    0.414  102.150
  317.000   12.631    0.249    0.408   99.113
  317.250   12.958    0.232    0.402   98.512
  317.500   13.367    0.236    0.399   98.522
  317.750   13.530    0.244    0.398   98.526
  318.000   13.284    0.252    0.400   99.149
  318.250   12.218    0.248    0.405   99.156
  318.500   11.233    0.237    0.411   99.163
  318.750   10.495    0.243    0.416   99.171
  319.000    9.839    0.232    0.416   96.746
  319.250    9.428    0.217    0.403   95.534
  319.500    9.510    0.165    0.383   94.320
  319.750   10.246    0.171    0.373   88.840
  320.000   17.143    0.182    0.364   82.142
  320.250   19.592    0.289    0.359   75.443
  320.500   22.041    0.333    0.360   68.134
  320.750   25.306    0.342    0.362   65.096
  321.000   27.755    0.331    0.361   63.888
  321.250   28.571    0.316    0.357   63.287
  321.500   28.571    0.288    0.354   63.292
  321.750   26.939    0.290    0.351   63.301
  322.000   26.122    0.281    0.352   62.702
  322.250   25.306    0.277    0.354   62.098
  322.500   25.306    0.269    0.354   61.499
  322.750   26.122    0.272    0.351   60.286
  323.000   27.755    0.279    0.349   59.079
  323.250   27.755    0.278    0.350   59.087
  323.500   26.939    0.282    0.352   59.704
  323.750   26.939    0.282    0.357   60.934
  324.000   26.122    0.296    0.361   62.771
  324.250   26.939    0.294    0.362   63.998
  324.500   28.571    0.291    0.361   64.010
  324.750   30.204    0.291    0.362   63.406
  325.000   31.837    0.286    0.364   63.419
  325.250   31.020    0.296    0.366   64.036
  325.500   29.388    0.313    0.368   65.263
  325.750   28.571    0.308    0.370   67.100
  326.000   27.755    0.305    0.370   67.106
  326.250   28.571    0.306    0.369   64.066
  326.500   29.388    0.308    0.368   60.418
  326.750   29.388    0.320    0.368   57.378
  327.000   29.388    0.303    0.367   56.168
  327.250   30.204    0.295    0.365   56.177
  327.500   31.837    0.279    0.364   60.456
  327.750   32.653    0.278    0.364   61.681
  328.000   32.653    0.284    0.368   61.688
  328.250   31.837    0.302    0.369   61.697
  328.500   32.653    0.320    0.370   60.488
  328.750   32.653    0.336    0.368   59.277
  329.000   31.020    0.337    0.358   61.114
  329.250   30.204    0.331    0.356   59.299
  329.500   29.388    0.332    0.354   58.694
  329.750   29.388    0.325    0.354   59.311
  330.000   29.388    0.326    0.356   62.371
  330.250   29.388    0.335    0.356   64.819
  330.500   29.388    0.341    0.355   66.046
  330.750   28.571    0.343    0.357   66.665
  331.000   29.388    0.340    0.358   66.673
  331.250   29.388    0.340    0.362   66.683
  331.500   29.388    0.330    0.363   66.078
  331.750   30.204    0.330    0.361   63.649
  332.000   30.204    0.330    0.358   62.438
  332.250   31.020    0.336    0.358   63.059
  332.500   31.020    0.352    0.359   64.897
  332.750   33.469    0.344    0.360   66.733
  333.000   34.286    0.331    0.364   68.571
  333.250   34.286    0.316    0.365   69.801
