~VERSION INFORMATION
 VERS.                 2.0:   CWLS LOG ASCII STANDARD -VERSION 2.0
 WRAP.                  NO:   ONE LINE PER DEPTH STEP
~WELL INFORMATION BLOCK
#MNEM.UNIT           DATA                    DESCRIPTION OF MNEMONIC
#---------    -------------------            -------------------------------
# Generated from Intellog Unique Number	CS_67_68/WELL/778
WELL.         ICG RESOURCES LTD.             : Well_name    - WELL
LOC .         00/07-28-068-09W4/0            : Location     - LOCATION
UWI .         00/07-28-068-09W4/0            : Uwi          - UNIQUE WELL ID
ENTR.         SP                             : Entered      - ENTERED BY
SRVC.         SCHLUMBERGER                   : Scn          - SERVICE COMPANY
STRT.M        515                            : top_depth    - START DEPTH
STOP.M        735                            : bot_depth    - STOP DEPTH
STEP.M        0.25                           : increment    - STEP LENGTH
 NULL. -999.2500:NULL Value
~CURVE INFORMATION BLOCK
#MNEM UNIT       ERCB CURVE CODE    CURVE DESCRIPTION
#-----------   ------------------   ----------------------------------
DEPT.M        00 001 00 00         : DEPTH        - DEPTH
ILD .OHMM     00 120 00 00         : RESD         - DEEP RESISTIVITY (DIL)
DPHI.V/V      00 890 00 00         : PHID         - DENSITY POROSITY (LIMESTONE)
NPHI.V/V      00 330 00 00         : PHIN         - NEUTRON POROSITY (LIMESTONE)
GR  .API      00 310 00 00         : GR           - GAMMA RAY
~PARAMETER INFORMATION
#MNEM.UNIT           DATA             DESCRIPTION OF MNEMONIC
#---------         -----------     ------------------------------
GL  .M        839.1                : gl           - GROUND LEVEL ELEVATION
EREF.M        842.3                : kb           - ELEVATION OF DEPTH REFERENCE
DATM.M        839.1                : datum        - DATUM ELEVATION
TDD .M        739                  : tdd          - TOTAL DEPTH DRILLER
RUN .         ONE                  : Run          - RUN NUMBER
ENG .         BILL                 : Engineer     - RECORDING ENGINEER
WIT .         JIM                  : Witness      - WITNESSED BY
MUD .         GEL                  : Mud_type     - MUD TYPE
MATR.         LIMESTONE            : Logunit      - NEUTRON MATRIX
TMAX.C        23.8                 : BHT          - MAXIMUM RECORDED TEMPERATURE
BHTD.M        739                  : BHTDEP       - MAXIMUM RECORDED TEMPERATURE
MATR.         1                    : LOGUNIT      - NEUTRON MATRIX
RMT .C        25                   : MDTP         - TEMPERATURE OF MUD
NEUT.         1                    : NEUTRON      - NEUTRON TYPE
RESI.         0                    : RESIST       - RESISTIVITY TYPE
RMC .OHMM     0.25                 : RMC          - RESISTIVITY OF MUD CAKE
RMF .OHMM     0.25                 : RMF          - RESISTIVITY OF MUD FILTRATE
SUFT.C        15                   : SUFT         - SURFACE TEMPERATURE
~A  DEPTH     RESD     PHID     PHIN       GR
# ...
  645.500    1.228    0.295    0.569   89.694
  645.750    1.227    0.322    0.576   87.742
  646.000    1.236    0.360    0.588   89.332
  646.250    1.259    0.379    0.598   90.677
  646.500    1.280    0.387    0.616   88.847
  646.750    1.309    0.371    0.632   89.094
  647.000    1.338    0.369    0.624   90.500
  647.250    1.371    0.374    0.583   91.051
  647.500    1.415    0.379    0.550   89.344
  647.750    1.468    0.383    0.538   87.331
  648.000    1.506    0.361    0.538   85.685
  648.250    1.534    0.334    0.548   84.405
  648.500    1.581    0.311    0.562   82.758
  648.750    1.662    0.294    0.568   83.432
  649.000    1.737    0.322    0.587   87.585
  649.250    1.823    0.338    0.599   91.433
  649.500    1.942    0.321    0.582   93.999
  649.750    2.061    0.312    0.526   89.484
  650.000    2.245    0.279    0.491   86.800
  650.250    2.511    0.243    0.481   85.519
  650.500    2.771    0.218    0.473   84.422
  650.750    3.053    0.214    0.464   84.058
  651.000    3.282    0.209    0.457   84.243
  651.250    3.470    0.204    0.466   83.330
  651.500    3.555    0.198    0.469   81.256
  651.750    3.587    0.190    0.466   78.328
  652.000    3.647    0.160    0.436   75.155
  652.250    3.749    0.120    0.346   70.944
  652.500    3.840    0.097    0.297   76.319
  652.750    3.883    0.152    0.340   81.693
  653.000    3.747    0.179    0.376   85.358
  653.250    3.476    0.198    0.425   86.704
  653.500    3.274    0.207    0.439   87.072
  653.750    3.194    0.198    0.453   88.234
  654.000    3.206    0.209    0.460   83.169
  654.250    3.247    0.207    0.446   81.095
  654.500    3.326    0.198    0.438   85.493
  654.750    3.381    0.192    0.459   88.181
  655.000    3.450    0.195    0.465   89.648
  655.250    3.495    0.197    0.453   89.101
  655.500    3.547    0.199    0.442   86.722
  655.750    3.586    0.198    0.424   81.901
  656.000    3.605    0.183    0.408   77.934
  656.250    3.584    0.170    0.417   80.378
  656.500    3.537    0.192    0.447   83.433
  656.750    3.490    0.201    0.470   85.144
  657.000    3.444    0.201    0.460   82.765
  657.250    3.392    0.205    0.441   83.378
  657.500    3.385    0.213    0.434   85.456
  657.750    3.384    0.218    0.453   87.228
  658.000    3.485    0.212    0.453   88.817
  658.250    3.504    0.211    0.449   90.712
  658.500    3.325    0.216    0.447   91.691
  658.750    3.143    0.212    0.442   90.411
  659.000    3.286    0.205    0.444   91.207
  659.250    3.620    0.196    0.449   91.269
  659.500    4.003    0.187    0.444   77.596
  659.750    4.304    0.095    0.300   63.617
  660.000    4.568    0.051    0.260   57.453
  660.250    4.740    0.056    0.240   65.026
  660.500    4.523    0.156    0.354   74.735
  660.750    3.759    0.195    0.407   86.031
  661.000    3.286    0.223    0.439   92.383
  661.250    2.942    0.233    0.467   95.864
  661.500    2.802    0.229    0.454   92.081
  661.750    2.729    0.232    0.426   87.321
  662.000    2.739    0.235    0.407   87.324
  662.250    2.785    0.233    0.414   87.203
  662.500    2.842    0.222    0.420   89.831
  662.750    2.883    0.210    0.411   93.923
  663.000    2.921    0.201    0.408   99.114
  663.250    2.964    0.194    0.419   98.200
  663.500    3.002    0.210    0.425   91.914
  663.750    3.030    0.222    0.421   87.765
  664.000    3.057    0.233    0.422   84.714
  664.250    3.073    0.237    0.437   84.289
  664.500    3.073    0.226    0.448   84.901
  664.750    3.072    0.215    0.443   85.087
  665.000    3.111    0.223    0.433   84.966
  665.250    3.146    0.223    0.429   81.855
  665.500    3.127    0.183    0.410   74.592
  665.750    2.990    0.142    0.375   69.649
  666.000    2.858    0.110    0.314   67.392
  666.250    2.512    0.138    0.365   71.973
  666.500    2.084    0.187    0.422   75.149
  666.750    1.748    0.232    0.467   78.448
  667.000    1.520    0.263    0.525   78.267
  667.250    1.275    0.272    0.566   77.842
  667.500    1.185    0.291    0.578   78.149
  667.750    1.172    0.318    0.577   79.494
  668.000    1.207    0.338    0.571   81.938
  668.250    1.259    0.308    0.545   86.336
  668.500    1.312    0.279    0.500   90.367
  668.750    1.374    0.260    0.512   93.971
  669.000    1.421    0.251    0.525   93.668
  669.250    1.452    0.233    0.532   86.222
  669.500    1.485    0.219    0.525   87.384
  669.750    1.510    0.250    0.515   90.682
  670.000    1.538    0.275    0.519   93.676
  670.250    1.549    0.267    0.533   95.814
  670.500    1.572    0.262    0.543   96.305
  670.750    1.598    0.265    0.537   95.697
  671.000    1.661    0.257    0.516   95.027
  671.250    1.718    0.237    0.501   93.747
  671.500    1.816    0.248    0.500   90.086
  671.750    1.960    0.232    0.437   85.021
  672.000    2.155    0.205    0.382   79.040
  672.250    2.428    0.209    0.369   73.913
  672.500    2.887    0.124    0.351   71.656
  672.750    3.713    0.025    0.331   69.705
  673.000    4.508    0.007    0.310   72.393
  673.250    4.820   -0.004    0.348   80.515
  673.500    4.548    0.178    0.382   86.744
  673.750    4.012    0.204    0.404   90.653
  674.000    3.481    0.217    0.413   93.647
  674.250    3.100    0.210    0.428   96.885
  674.500    2.786    0.187    0.445   93.956
  674.750    2.523    0.173    0.454   97.560
  675.000    2.341    0.187    0.469  100.553
  675.250    2.148    0.206    0.480   97.625
  675.500    2.004    0.226    0.482   95.735
  675.750    1.870    0.207    0.489   97.690
  676.000    1.742    0.205    0.498  101.721
  676.250    1.693    0.216    0.514  102.090
  676.500    1.705    0.200    0.535   96.537
  676.750    1.721    0.178    0.530   94.401
  677.000    1.750    0.155    0.527   98.616
  677.250    1.799    0.243    0.538  102.098
  677.500    1.877    0.265    0.534  105.763
  677.750    1.916    0.238    0.515  108.268
  678.000    1.951    0.215    0.499  110.712
  678.250    2.002    0.218    0.494  106.318
  678.500    2.086    0.207    0.479   91.241
  678.750    2.398    0.181    0.422   79.644
  679.000    2.753    0.165    0.396   82.271
  679.250    3.292    0.149    0.408   84.226
  679.500    3.893    0.164    0.409   80.992
  679.750    4.452    0.175    0.407   70.799
  680.000    5.119    0.170    0.382   59.812
  680.250    5.692    0.016    0.303   56.944
  680.500    6.189   -0.005    0.268   57.557
  680.750    6.593    0.015    0.282   61.100
  681.000    6.766    0.131    0.317   64.582
  681.250    6.348    0.214    0.354   68.613
  681.500    5.601    0.184    0.385   69.592
  681.750    4.941    0.130    0.367   68.190
  682.000    4.417    0.105    0.346   79.853
  682.250    3.970    0.128    0.371   90.783
  682.500    3.616    0.194    0.423  101.957
  682.750    3.690    0.227    0.481   97.014
  683.000    3.865    0.242    0.449   91.705
  683.250    4.064    0.218    0.363  100.803
  683.500    4.313    0.185    0.362  111.306
  683.750    4.602    0.170    0.387  108.621
  684.000    4.857    0.224    0.404   94.093
  684.250    5.154    0.265    0.370   79.382
  684.500    5.419    0.279    0.349   68.090
  684.750    5.816    0.272    0.380   76.212
  685.000    6.360    0.286    0.398   72.062
  685.250    6.762    0.293    0.388   75.300
  685.500    7.056    0.286    0.366   80.369
  685.750    7.028    0.276    0.360   83.424
  686.000    6.166    0.271    0.357   85.807
  686.250    5.637    0.266    0.354   83.978
  686.500    5.191    0.273    0.367   83.002
  686.750    4.953    0.271    0.384   94.665
  687.000    4.753    0.257    0.396  109.136
  687.250    4.655    0.218    0.410  115.304
  687.500    4.619    0.203    0.426  115.856
  687.750    4.847    0.209    0.446  105.845
  688.000    5.174    0.218    0.437   96.934
  688.250    5.678    0.228    0.419   85.275
  688.500    6.116    0.230    0.395   74.166
  688.750    6.613    0.146    0.370   68.368
