~VERSION INFORMATION
 VERS.                 2.0:   CWLS LOG ASCII STANDARD -VERSION 2.0
 WRAP.                  NO:   ONE LINE PER DEPTH STEP
~WELL INFORMATION BLOCK
#MNEM.UNIT           DATA                    DESCRIPTION OF MNEMONIC
#---------    -------------------            -------------------------------
# Generated from Intellog Unique Number	CS_71_72/WELL/811
WELL.         BVX ET AL NIXON                : Well_name    - WELL
LOC .         00/07-13-072-17W4/0            : Location     - LOCATION
UWI .         00/07-13-072-17W4/0            : Uwi          - UNIQUE WELL ID
ENTR.         SP                             : Entered      - ENTERED BY
SRVC.         SCHLUMBERGER                   : Scn          - SERVICE COMPANY
STRT.M        250                            : top_depth    - START DEPTH
STOP.M        421                            : bot_depth    - STOP DEPTH
STEP.M        0.25                           : increment    - STEP LENGTH
 NULL. -999.2500:NULL Value
~CURVE INFORMATION BLOCK
#MNEM UNIT       ERCB CURVE CODE    CURVE DESCRIPTION
#-----------   ------------------   ----------------------------------
DEPT.M        00 001 00 00         : DEPTH        - DEPTH
GR  .API      00 310 00 00         : GR           - GAMMA RAY
DPHI.V/V      00 890 00 00         : PHID         - DENSITY POROSITY (LIMESTONE)
NPHI.V/V      00 330 00 00         : PHIN         - NEUTRON POROSITY (LIMESTONE)
ILD .OHMM     00 120 00 00         : RESD         - DEEP RESISTIVITY (DIL)
~PARAMETER INFORMATION
#MNEM.UNIT           DATA             DESCRIPTION OF MNEMONIC
#---------         -----------     ------------------------------
GL  .M        572.9                : gl           - GROUND LEVEL ELEVATION
EREF.M        576                  : kb           - ELEVATION OF DEPTH REFERENCE
DATM.M        572.9                : datum        - DATUM ELEVATION
TDD .M        426                  : tdd          - TOTAL DEPTH DRILLER
RUN .         ONE                  : Run          - RUN NUMBER
ENG .         BILL                 : Engineer     - RECORDING ENGINEER
WIT .         JIM                  : Witness      - WITNESSED BY
MUD .         GEL                  : Mud_type     - MUD TYPE
MATR.         LIMESTONE            : Logunit      - NEUTRON MATRIX
TMAX.C        20                   : BHT          - MAXIMUM RECORDED TEMPERATURE
BHTD.M        426                  : BHTDEP       - MAXIMUM RECORDED TEMPERATURE
MATR.         1                    : LOGUNIT      - NEUTRON MATRIX
RMT .C        25                   : MDTP         - TEMPERATURE OF MUD
NEUT.         1                    : NEUTRON      - NEUTRON TYPE
RESI.         0                    : RESIST       - RESISTIVITY TYPE
RMC .OHMM     0.25                 : RMC          - RESISTIVITY OF MUD CAKE
RMF .OHMM     0.25                 : RMF          - RESISTIVITY OF MUD FILTRATE
SUFT.C        15                   : SUFT         - SURFACE TEMPERATURE
~A  DEPTH       GR     PHID     PHIN     RESD
# ...
  337.000   86.544    0.351    0.406    5.702
  337.250   85.366    0.340    0.419    5.705
  337.500   83.590    0.337    0.431    5.814
  337.750   85.424    0.339    0.441    5.714
  338.000   86.038    0.342    0.445    5.718
  338.250   87.258    0.341    0.455    5.721
  338.500   83.085    0.327    0.448    5.831
  338.750   84.310    0.321    0.434    5.836
  339.000   85.546    0.314    0.425    5.950
  339.250   86.157    0.311    0.420    5.956
  339.500   83.781    0.335    0.418    6.070
  339.750   85.020    0.345    0.418    6.074
  340.000   85.038    0.351    0.417    6.193
  340.250   85.057    0.347    0.423    6.431
  340.500   83.282    0.343    0.427    6.554
  340.750   80.303    0.358    0.431    6.933
  341.000   83.938    0.360    0.425    7.201
  341.250   85.757    0.352    0.421    7.338
  341.500   85.783    0.361    0.416    7.344
  341.750   85.208    0.360    0.411    6.955
  342.000   85.827    0.334    0.422    6.585
  342.250   86.451    0.320    0.431    6.351
  342.500   81.680    0.303    0.438    6.013
  342.750   81.700    0.329    0.429    5.693
  343.000   82.934    0.345    0.425    5.492
  343.250   82.351    0.355    0.421    5.395
  343.500   80.575    0.360    0.432    5.299
  343.750   79.400    0.357    0.441    5.208
  344.000   83.633    0.353    0.442    5.212
  344.250   86.052    0.346    0.431    5.215
  344.500   89.073    0.342    0.426    5.218
  344.750   87.898    0.333    0.421    5.221
  345.000   87.325    0.322    0.437    5.227
  345.250   84.355    0.321    0.438    5.229
  345.500   84.971    0.327    0.432    5.330
  345.750   90.397    0.346    0.423    5.435
  346.000   92.825    0.353    0.418    5.541
  346.250   90.443    0.343    0.418    5.546
  346.500   91.676    0.329    0.417    5.549
  346.750   89.894    0.323    0.416    5.552
  347.000   85.128    0.317    0.419    5.456
  347.250   83.941    0.317    0.423    5.460
  347.500   89.370    0.320    0.416    5.363
  347.750   91.190    0.321    0.406    5.369
  348.000   93.624    0.318    0.431    5.274
  348.250   94.840    0.310    0.443    5.277
  348.500   94.865    0.305    0.430    5.186
  348.750   93.092    0.319    0.431    5.189
  349.000   91.313    0.332    0.438    5.099
  349.250   94.349    0.331    0.441    5.101
  349.500   97.368    0.319    0.443    5.107
  349.750   99.787    0.312    0.431    5.018
  350.000  102.211    0.301    0.452    5.021
  350.250   97.443    0.318    0.460    5.023
  350.500   95.065    0.324    0.466    5.028
  350.750   93.289    0.329    0.456    4.941
  351.000   92.719    0.335    0.446    4.943
  351.250   92.742    0.339    0.440    4.945
  351.500   91.561    0.324    0.438    4.949
  351.750   89.782    0.314    0.432    5.047
  352.000   93.413    0.306    0.421    5.051
  352.250   95.240    0.317    0.416    5.342
  352.500   97.065    0.320    0.439    5.445
  352.750   98.286    0.325    0.440    5.760
  353.000   95.916    0.326    0.445    5.980
  353.250   93.531    0.308    0.436    6.097
  353.500   88.762    0.286    0.425    5.990
  353.750   88.186    0.243    0.411    5.776
  354.000   88.817    0.199    0.375    5.572
  354.250   90.028    0.264    0.402    5.375
  354.500   90.653    0.298    0.416    5.279
  354.750   85.886    0.336    0.432    5.188
  355.000   84.102    0.310    0.442    5.095
  355.250   83.533    0.311    0.443    5.006
  355.500   86.561    0.316    0.434    5.010
  355.750   91.984    0.322    0.431    4.921
  356.000   98.007    0.333    0.438    4.926
  356.250  101.026    0.335    0.433    4.930
  356.500   99.850    0.326    0.419    4.933
  356.750   97.477    0.328    0.426    4.938
  357.000   95.703    0.316    0.439    4.941
  357.250   98.129    0.312    0.443    4.945
  357.500  100.546    0.330    0.427    4.949
  357.750  104.175    0.321    0.437    4.952
  358.000  105.404    0.317    0.442    4.957
  358.250  105.426    0.312    0.434    5.052
  358.500  103.052    0.302    0.421    5.150
  358.750  101.277    0.313    0.426    5.251
  359.000  100.704    0.314    0.415    5.351
  359.250  101.333    0.318    0.422    5.356
  359.500  101.348    0.332    0.427    5.459
  359.750   98.971    0.325    0.429    5.464
  360.000  103.798    0.312    0.421    5.469
  360.250  104.423    0.298    0.427    5.371
  360.500  103.846    0.299    0.430    5.280
  360.750  105.075    0.313    0.434    5.283
  361.000  106.293    0.315    0.424    5.286
  361.250  106.319    0.298    0.429    5.195
  361.500  104.544    0.284    0.447    5.197
  361.750  102.775    0.277    0.459    5.201
  362.000  102.188    0.283    0.458    5.205
  362.250  101.613    0.292    0.461    5.020
  362.500  102.840    0.297    0.448    4.665
  362.750  108.269    0.276    0.433    4.028
  363.000  111.891    0.294    0.432    3.608
  363.250  114.914    0.299    0.439    3.292
  363.500  117.338    0.275    0.449    2.949
  363.750  124.564    0.254    0.459    2.844
  364.000  131.792    0.238    0.479    2.846
  364.250  136.017    0.246    0.494    3.011
  364.500  137.835    0.233    0.503    3.184
  364.750  140.865    0.244    0.490    3.628
  365.000  143.891    0.259    0.487    3.836
  365.250  147.514    0.247    0.495    4.370
  365.500  143.341    0.228    0.468    4.797
  365.750  139.762    0.226    0.451    4.979
  366.000  136.784    0.238    0.434    5.268
  366.250  133.209    0.251    0.418    5.370
  366.500  132.032    0.232    0.406    5.475
  366.750  129.059    0.217    0.407    5.478
  367.000  127.882    0.228    0.406    5.484
  367.250  129.109    0.212    0.402    5.489
  367.500  133.333    0.184    0.409    5.393
  367.750  135.756    0.219    0.412    5.396
  368.000  138.781    0.238    0.418    5.399
  368.250  136.404    0.227    0.425    5.302
  368.500  132.834    0.210    0.418    5.309
  368.750  133.456    0.233    0.425    5.313
  369.000  136.476    0.245    0.424    5.316
  369.250  137.706    0.255    0.421    5.321
  369.500  136.526    0.245    0.419    5.226
  369.750  136.550    0.257    0.419    5.231
  370.000  135.977    0.232    0.437    5.234
  370.250  133.605    0.218    0.443    5.239
  370.500  130.030    0.206    0.454    5.242
  370.750  125.254    0.196    0.438    5.245
  371.000  124.072    0.206    0.426    5.249
  371.250  126.501    0.216    0.428    5.253
  371.500  125.920    0.228    0.437    5.357
  371.750  120.545    0.243    0.440    5.361
  372.000  113.975    0.260    0.432    5.363
  372.250  109.199    0.246    0.436    5.570
  372.500  106.222    0.248    0.429    5.678
  372.750  106.847    0.275    0.415    5.896
  373.000  108.677    0.261    0.411    6.840
  373.250  109.292    0.223    0.405    8.233
  373.500  108.118    0.235    0.401   10.872
  373.750   99.141    0.243    0.389   14.351
  374.000   88.365    0.220    0.363   19.301
  374.250   77.589    0.052    0.226   23.232
  374.500   75.215    0.034    0.193   22.831
  374.750   76.445    0.022    0.178   21.219
  375.000   80.071    0.025    0.184   17.981
  375.250   82.498    0.045    0.208   14.686
  375.500   84.314    0.097    0.225   12.444
  375.750   85.535    0.128    0.245    9.796
  376.000   84.362    0.144    0.274    7.855
  376.250   85.596    0.174    0.305    6.907
  376.500   87.414    0.189    0.336    6.187
  376.750   91.049    0.231    0.371    5.543
  377.000   92.263    0.266    0.406    5.248
  377.250   89.284    0.295    0.415    5.155
  377.500   90.508    0.308    0.421    4.882
  377.750   90.537    0.317    0.432    4.796
  378.000   91.156    0.290    0.421    4.799
  378.250   91.788    0.309    0.413    4.716
  378.500   91.211    0.319    0.411    4.718
  378.750   88.833    0.306    0.425    4.811
  379.000   85.257    0.310    0.431    4.904
  379.250   84.683    0.320    0.439    4.998
  379.500   86.513    0.313    0.429    5.287
  379.750   87.129    0.302    0.417    5.697
  380.000   87.161    0.291    0.407    6.488
  380.250   86.581    0.302    0.402    7.955
