~VERSION INFORMATION
 VERS.                 2.0:   CWLS LOG ASCII STANDARD -VERSION 2.0
 WRAP.                  NO:   ONE LINE PER DEPTH STEP
~WELL INFORMATION BLOCK
#MNEM.UNIT           DATA                    DESCRIPTION OF MNEMONIC
#---------    -------------------            -------------------------------
# Generated from Intellog Unique Number	CS_71_72/WELL/840
WELL.         MAYNARD ET AL TWEEDIE          : Well_name    - WELL
LOC .         00/09-13-072-12W4/0            : Location     - LOCATION
UWI .         00/09-13-072-12W4/0            : Uwi          - UNIQUE WELL ID
ENTR.         SP                             : Entered      - ENTERED BY
SRVC.         SCHLUMBERGER                   : Scn          - SERVICE COMPANY
STRT.M        290                            : top_depth    - START DEPTH
STOP.M        525                            : bot_depth    - STOP DEPTH
STEP.M        0.25                           : increment    - STEP LENGTH
 NULL. -999.2500:NULL Value
~CURVE INFORMATION BLOCK
#MNEM UNIT       ERCB CURVE CODE    CURVE DESCRIPTION
#-----------   ------------------   ----------------------------------
DEPT.M        00 001 00 00         : DEPTH        - DEPTH
GR  .API      00 310 00 00         : GR           - GAMMA RAY
NPHI.V/V      00 330 00 00         : PHIN         - NEUTRON POROSITY (LIMESTONE)
DPHI.V/V      00 890 00 00         : PHID         - DENSITY POROSITY (LIMESTONE)
ILD .OHMM     00 120 00 00         : RESD         - DEEP RESISTIVITY (DIL)
~PARAMETER INFORMATION
#MNEM.UNIT           DATA             DESCRIPTION OF MNEMONIC
#---------         -----------     ------------------------------
GL  .M        639.4                : gl           - GROUND LEVEL ELEVATION
EREF.M        642.75               : kb           - ELEVATION OF DEPTH REFERENCE
DATM.M        639.4                : datum        - DATUM ELEVATION
TDD .M        540                  : tdd          - TOTAL DEPTH DRILLER
RUN .         ONE                  : Run          - RUN NUMBER
ENG .         BILL                 : Engineer     - RECORDING ENGINEER
WIT .         JIM                  : Witness      - WITNESSED BY
MUD .         GEL                  : Mud_type     - MUD TYPE
MATR.         LIMESTONE            : Logunit      - NEUTRON MATRIX
TMAX.C        10                   : BHT          - MAXIMUM RECORDED TEMPERATURE
BHTD.M        540                  : BHTDEP       - MAXIMUM RECORDED TEMPERATURE
MATR.         1                    : LOGUNIT      - NEUTRON MATRIX
RMT .C        25                   : MDTP         - TEMPERATURE OF MUD
NEUT.         1                    : NEUTRON      - NEUTRON TYPE
RESI.         0                    : RESIST       - RESISTIVITY TYPE
RMC .OHMM     0.25                 : RMC          - RESISTIVITY OF MUD CAKE
RMF .OHMM     0.25                 : RMF          - RESISTIVITY OF MUD FILTRATE
SUFT.C        15                   : SUFT         - SURFACE TEMPERATURE
~A  DEPTH       GR     PHIN     PHID     RESD
# ...
  464.000  113.172    0.507    0.291    3.036
  464.250  110.176    0.463    0.287    3.036
  464.500  107.186    0.447    0.278    3.358
  464.750  104.789    0.421    0.257    3.921
  465.000  100.590    0.404    0.244    5.127
  465.250   99.406    0.389    0.237    5.850
  465.500   97.616    0.363    0.218    6.734
  465.750   94.617    0.311    0.116    7.458
  466.000   86.200    0.282    0.092    7.940
  466.250   79.589    0.269    0.089    8.664
  466.500   80.215    0.320    0.197    8.986
  466.750   82.640    0.341    0.224    9.228
  467.000   82.056    0.363    0.253    8.907
  467.250   80.865    0.386    0.276    8.426
  467.500   76.070    0.388    0.288    8.025
  467.750   74.876    0.386    0.297    7.865
  468.000   75.493    0.386    0.301    8.267
  468.250   77.931    0.391    0.304    8.750
  468.500   77.943    0.394    0.298    9.072
  468.750   77.358    0.402    0.295    9.394
  469.000   77.371    0.405    0.289    9.555
  469.250   77.988    0.407    0.284    9.395
  469.500   79.217    0.398    0.277    9.315
  469.750   79.228    0.386    0.266    9.155
  470.000   79.247    0.375    0.253    9.076
  470.250   78.666    0.363    0.237    9.076
  470.500   78.683    0.332    0.225    9.238
  470.750   74.483    0.318    0.212    9.560
  471.000   71.484    0.313    0.203    9.721
  471.250   73.914    0.336    0.213   10.123
  471.500   79.352    0.363    0.248   10.284
  471.750   85.392    0.381    0.280   10.285
  472.000   90.829    0.393    0.289    9.483
  472.250   95.668    0.399    0.282    8.680
  472.500   93.277    0.402    0.284    8.199
  472.750   95.701    0.403    0.289    8.039
  473.000  102.947    0.406    0.290    7.478
  473.250  109.592    0.408    0.286    7.237
  473.500  116.236    0.415    0.261    7.077
  473.750  121.069    0.421    0.243    6.917
  474.000  122.293    0.427    0.229    6.837
  474.250  115.087    0.431    0.227    6.999
  474.500  111.485    0.428    0.259    7.160
  474.750  107.887    0.421    0.287    7.401
  475.000  117.549    0.415    0.294    7.804
  475.250  119.968    0.408    0.288    8.206
  475.500  121.192    0.401    0.281    8.689
  475.750  107.957    0.382    0.280    9.412
  476.000   98.939    0.376    0.286    9.975
  476.250   92.929    0.363    0.291   10.618
  476.500   86.922    0.358    0.291   11.181
  476.750   71.276    0.351    0.291   11.664
  477.000   64.064    0.347    0.297   11.745
  477.250   69.509    0.358    0.304   11.746
  477.500   73.743    0.370    0.310   11.184
  477.750   75.561    0.379    0.309   10.783
  478.000   79.195    0.380    0.301   10.222
  478.250   82.227    0.378    0.298    9.901
  478.500   84.651    0.378    0.299    9.661
  478.750   86.475    0.380    0.299    9.581
  479.000   87.095    0.376    0.299    9.742
  479.250   84.100    0.367    0.289   10.145
  479.500   79.899    0.352    0.288   10.948
  479.750   73.893    0.347    0.285   11.431
  480.000   70.295    0.350    0.296   12.315
  480.250   66.698    0.354    0.309   13.762
  480.500   61.294    0.364    0.320   14.003
  480.750   58.900    0.368    0.324   14.004
  481.000   60.725    0.370    0.325   12.398
  481.250   78.212    0.372    0.319   10.471
  481.500   86.061    0.367    0.300    9.428
  481.750   91.503    0.361    0.279    8.465
  482.000   93.323    0.359    0.257    8.224
  482.250   89.124    0.359    0.244    7.823
  482.500   79.502    0.358    0.251    7.182
  482.750   68.078    0.358    0.272    7.021
  483.000   62.069    0.355    0.310    6.781
  483.250   57.265    0.352    0.328    6.621
  483.500   57.285    0.350    0.339    6.461
  483.750   59.710    0.347    0.349    6.381
  484.000   60.932    0.354    0.335    6.302
  484.250   62.757    0.368    0.323    6.142
  484.500   63.376    0.398    0.314    6.062
  484.750   70.621    0.424    0.309    5.902
  485.000   83.293    0.448    0.297    5.822
  485.250   95.355    0.498    0.258    5.582
  485.500  121.877    0.530    0.192    5.422
  485.750  127.316    0.550    0.165    5.262
  486.000  123.719    0.542    0.136    5.183
  486.250  120.724    0.544    0.118    5.103
  486.500  124.359    0.518    0.140    4.863
  486.750  120.157    0.459    0.166    4.703
  487.000  103.307    0.420    0.217    4.623
  487.250   84.650    0.384    0.283    4.463
  487.500   73.219    0.374    0.323    4.303
  487.750   58.782    0.376    0.343    4.223
  488.000   52.772    0.377    0.354    4.063
  488.250   47.971    0.377    0.354    3.984
  488.500   55.219    0.380    0.359    3.904
  488.750   58.852    0.386    0.366    3.905
  489.000   60.072    0.389    0.369    3.825
  489.250   61.292    0.385    0.375    3.746
  489.500   63.116    0.379    0.373    3.746
  489.750   63.135    0.377    0.368    3.827
  490.000   63.151    0.374    0.361    3.828
  490.250   68.598    0.376    0.354    3.828
  490.500   70.415    0.384    0.336    4.392
  490.750   73.447    0.382    0.326    4.874
  491.000   75.872    0.369    0.306    5.357
  491.250   80.111    0.359    0.266    5.759
  491.500   82.533    0.368    0.254    5.920
  491.750   86.765    0.380    0.262    6.001
  492.000   92.205    0.393    0.267    6.163
  492.250   95.234    0.391    0.275    6.164
  492.500   96.461    0.388    0.267    6.084
  492.750   97.076    0.386    0.250    6.084
  493.000   98.908    0.386    0.236    6.085
  493.250  100.124    0.386    0.230    6.085
  493.500  102.550    0.383    0.230    6.408
  493.750  109.197    0.381    0.228    6.488
  494.000  111.620    0.380    0.223    6.489
  494.250  114.651    0.393    0.222    6.490
  494.500  118.281    0.392    0.225    6.410
  494.750  120.104    0.386    0.234    6.491
  495.000  105.061    0.377    0.243    6.653
  495.250   87.607    0.371    0.266    6.814
  495.500   76.179    0.375    0.284    6.975
  495.750   71.979    0.379    0.301    7.056
  496.000   73.803    0.379    0.305    7.057
  496.250   80.448    0.374    0.144    6.977
  496.500   86.489    0.372    0.133    6.897
  496.750   93.738    0.367    0.125    6.818
  497.000   97.366    0.364    0.121    6.738
  497.250   99.193    0.373    0.134    6.739
  497.500  104.029    0.383    0.163    6.820
  497.750  103.448    0.391    0.195    6.901
  498.000  100.457    0.383    0.210    7.142
  498.250   99.263    0.372    0.225    7.384
  498.500   98.076    0.366    0.216    7.465
  498.750   93.875    0.362    0.204    7.546
  499.000   89.075    0.369    0.189    7.547
  499.250   84.268    0.379    0.207    7.467
  499.500   83.081    0.387    0.236    7.387
  499.750   75.868    0.395    0.263    7.147
  500.000   74.107    0.388    0.289    6.427
  500.250   74.133    0.376    0.279    6.189
  500.500   81.384    0.369    0.267    5.951
  500.750   77.793    0.353    0.287    5.553
  501.000   69.984    0.345    0.303    5.235
  501.250   60.367    0.342    0.325    4.837
  501.500   50.152    0.350    0.347    4.598
  501.750   44.751    0.359    0.351    4.360
  502.000   53.828    0.360    0.332    4.204
  502.250   56.854    0.362    0.310    4.286
  502.500   64.713    0.362    0.296    4.611
  502.750   67.738    0.360    0.281    4.855
  503.000   73.186    0.360    0.272    5.179
  503.250   76.227    0.357    0.260    5.504
  503.500   79.261    0.351    0.246    5.829
  503.750   84.100    0.361    0.235    6.233
  504.000   91.355    0.369    0.222    6.638
  504.250  105.232    0.378    0.211    6.964
  504.500  110.077    0.382    0.202    7.046
  504.750  110.101    0.385    0.192    7.131
  505.000  108.322    0.389    0.187    7.133
  505.250  106.536    0.390    0.180    7.055
  505.500  107.161    0.395    0.172    6.898
  505.750  108.990    0.400    0.168    6.741
  506.000  109.616    0.403    0.164    6.743
  506.250  110.849    0.397    0.173    6.747
  506.500  112.682    0.391    0.193    6.832
  506.750  109.689    0.382    0.202    6.835
  507.000   95.859    0.378    0.229    6.917
  507.250   88.649    0.378    0.242    7.001
