~VERSION INFORMATION
 VERS.                 2.0:   CWLS LOG ASCII STANDARD -VERSION 2.0
 WRAP.                  NO:   ONE LINE PER DEPTH STEP
~WELL INFORMATION BLOCK
#MNEM.UNIT           DATA                    DESCRIPTION OF MNEMONIC
#---------    -------------------            -------------------------------
# Generated from Intellog Unique Number	CS_69_70/WELL/783
WELL.         PARAMOUNT RESOURCES            : Well_name    - WELL
LOC .         00/06-30-069-17W4/0            : Location     - LOCATION
UWI .         00/06-30-069-17W4/0            : Uwi          - UNIQUE WELL ID
ENTR.         SP                             : Entered      - ENTERED BY
SRVC.         SCHLUMBERGER                   : Scn          - SERVICE COMPANY
STRT.M        300                            : top_depth    - START DEPTH
STOP.M        495                            : bot_depth    - STOP DEPTH
STEP.M        0.25                           : increment    - STEP LENGTH
 NULL. -999.2500:NULL Value
~CURVE INFORMATION BLOCK
#MNEM UNIT       ERCB CURVE CODE    CURVE DESCRIPTION
#-----------   ------------------   ----------------------------------
DEPT.M        00 001 00 00         : DEPTH        - DEPTH
ILD .OHMM     00 120 00 00         : RESD         - DEEP RESISTIVITY (DIL)
DPHI.V/V      00 890 00 00         : PHID         - DENSITY POROSITY (LIMESTONE)
NPHI.V/V      00 330 00 00         : PHIN         - NEUTRON POROSITY (LIMESTONE)
GR  .API      00 310 00 00         : GR           - GAMMA RAY
~PARAMETER INFORMATION
#MNEM.UNIT           DATA             DESCRIPTION OF MNEMONIC
#---------         -----------     ------------------------------
GL  .M        564.5                : gl           - GROUND LEVEL ELEVATION
EREF.M        567.5                : kb           - ELEVATION OF DEPTH REFERENCE
DATM.M        564.5                : datum        - DATUM ELEVATION
TDD .M        497                  : tdd          - TOTAL DEPTH DRILLER
RUN .         ONE                  : Run          - RUN NUMBER
ENG .         BILL                 : Engineer     - RECORDING ENGINEER
WIT .         JIM                  : Witness      - WITNESSED BY
MUD .         GEL                  : Mud_type     - MUD TYPE
MATR.         LIMESTONE            : Logunit      - NEUTRON MATRIX
TMAX.C        28                   : BHT          - MAXIMUM RECORDED TEMPERATURE
BHTD.M        597                  : BHTDEP       - MAXIMUM RECORDED TEMPERATURE
MATR.         1                    : LOGUNIT      - NEUTRON MATRIX
RMT .C        25                   : MDTP         - TEMPERATURE OF MUD
NEUT.         1                    : NEUTRON      - NEUTRON TYPE
RESI.         0                    : RESIST       - RESISTIVITY TYPE
RMC .OHMM     0.25                 : RMC          - RESISTIVITY OF MUD CAKE
RMF .OHMM     0.25                 : RMF          - RESISTIVITY OF MUD FILTRATE
SUFT.C        15                   : SUFT         - SURFACE TEMPERATURE
~A  DEPTH     RESD     PHID     PHIN       GR
# ...
  387.000    3.603    0.193    0.328   74.571
  387.250    3.559    0.197    0.338   78.602
  387.500    3.563    0.206    0.352   81.425
  387.750    3.606    0.222    0.377   82.417
  388.000    3.650    0.243    0.393   70.423
  388.250    3.709    0.270    0.365   64.134
  388.500    3.719    0.284    0.333   58.332
  388.750    3.694    0.267    0.329   62.790
  389.000    3.643    0.260    0.337   69.617
  389.250    3.572    0.267    0.367   71.463
  389.500    3.509    0.270    0.371   69.245
  389.750    3.468    0.268    0.364   63.926
  390.000    3.451    0.265    0.357   65.412
  390.250    3.441    0.259    0.346   68.774
  390.500    3.477    0.249    0.339   74.392
  390.750    3.506    0.241    0.345   76.961
  391.000    3.509    0.243    0.349   70.917
  391.250    3.505    0.235    0.349   72.340
  391.500    3.515    0.222    0.350   76.315
  391.750    3.539    0.212    0.361   75.242
  392.000    3.561    0.207    0.380   71.082
  392.250    3.604    0.217    0.396   75.901
  392.500    3.731    0.223    0.345   72.588
  392.750    3.797    0.212    0.333   69.397
  393.000    3.836    0.203    0.342   73.187
  393.250    3.912    0.198    0.346   74.183
  393.500    3.974    0.196    0.348   67.653
  393.750    4.007    0.189    0.349   71.200
  394.000    3.996    0.184    0.348   71.288
  394.250    3.978    0.189    0.352   68.887
  394.500    3.974    0.193    0.357   74.130
  394.750    3.926    0.195    0.359   78.042
  395.000    3.900    0.194    0.363   80.436
  395.250    3.912    0.191    0.367   78.761
  395.500    3.880    0.192    0.371   80.672
  395.750    3.861    0.194    0.376   81.607
  396.000    3.836    0.195    0.358   82.482
  396.250    3.824    0.195    0.346   79.291
  396.500    3.834    0.198    0.331   79.257
  396.750    3.852    0.206    0.322   81.041
  397.000    3.778    0.214    0.322   76.150
  397.250    3.704    0.220    0.336   68.041
  397.500    3.548    0.229    0.341   70.739
  397.750    3.510    0.234    0.332   67.546
  398.000    3.257    0.235    0.323   69.454
  398.250    3.209    0.235    0.333   73.305
  398.500    3.129    0.240    0.346   69.324
  398.750    3.001    0.256    0.361   64.736
  399.000    2.921    0.269    0.358   65.914
  399.250    2.848    0.274    0.350   61.388
  399.500    2.793    0.271    0.347   60.867
  399.750    2.729    0.272    0.347   65.568
  400.000    2.861    0.273    0.340   62.132
  400.250    2.869    0.271    0.341   67.200
  400.500    2.909    0.263    0.341   66.560
  400.750    2.940    0.267    0.341   64.704
  401.000    2.915    0.273    0.341   63.816
  401.250    2.901    0.277    0.345   71.314
  401.500    2.787    0.272    0.353   76.011
  401.750    2.628    0.262    0.337   71.969
  402.000    2.405    0.249    0.319   64.469
  402.250    2.230    0.247    0.318   66.130
  402.500    2.008    0.259    0.351   79.635
  402.750    1.961    0.258    0.378   80.817
  403.000    1.860    0.266    0.398   77.196
  403.250    1.800    0.280    0.398   72.122
  403.500    1.775    0.282    0.392   77.674
  403.750    1.776    0.265    0.392   76.606
  404.000    2.026    0.249    0.404   78.394
  404.250    2.349    0.237    0.391   82.306
  404.500    2.639    0.220    0.365   84.940
  404.750    2.949    0.210    0.353   87.879
  405.000    3.121    0.211    0.343   82.383
  405.250    3.323    0.210    0.338   77.433
  405.500    3.432    0.195    0.337   73.326
  405.750    3.526    0.168    0.340   68.497
  406.000    3.575    0.154    0.357   67.916
  406.250    3.599    0.176    0.347   72.014
  406.500    3.623    0.189    0.355   74.887
  406.750    3.625    0.199    0.367   78.436
  407.000    3.575    0.204    0.369   80.888
  407.250    3.473    0.211    0.354   80.004
  407.500    3.311    0.217    0.335   83.126
  407.750    3.152    0.224    0.349   81.028
  408.000    2.936    0.235    0.364   74.860
  408.250    2.877    0.239    0.376   70.395
  408.500    2.713    0.202    0.377   67.869
  408.750    2.587    0.205    0.377   62.189
  409.000    2.504    0.250    0.364   60.879
  409.250    2.446    0.272    0.378   64.125
  409.500    2.541    0.283    0.384   66.333
  409.750    2.690    0.291    0.395   67.270
  410.000    2.927    0.136    0.396   63.653
  410.250    3.658    0.063    0.330   56.033
  410.500    4.622    0.036    0.191   50.410
  410.750    5.646    0.010    0.144   41.389
  411.000    6.285    0.089    0.169   33.401
  411.250    5.471    0.134    0.237   33.854
  411.500    5.054    0.174    0.281   38.371
  411.750    4.818    0.211    0.246   44.407
  412.000    5.275    0.043    0.198   54.511
  412.250    5.914    0.017    0.162   52.356
  412.500    6.719    0.031    0.134   45.825
  412.750    7.508    0.039    0.137   42.750
  413.000    7.226    0.040    0.134   44.357
  413.250    6.104    0.031    0.136   40.496
  413.500    4.895    0.075    0.198   40.100
  413.750    3.984    0.155    0.254   42.068
  414.000    3.297    0.200    0.300   39.419
  414.250    2.780    0.261    0.336   42.359
  414.500    2.401    0.317    0.357   49.371
  414.750    2.150    0.307    0.350   50.852
  415.000    2.020    0.291    0.353   50.754
  415.250    2.007    0.290    0.344   53.755
  415.500    2.016    0.286    0.332   50.683
  415.750    2.036    0.273    0.325   53.382
  416.000    2.069    0.265    0.323   58.447
  416.250    2.090    0.270    0.350   60.536
  416.500    2.108    0.288    0.371   59.711
  416.750    2.118    0.298    0.381   55.792
  417.000    2.119    0.308    0.371   53.753
  417.250    2.117    0.296    0.365   52.869
  417.500    2.103    0.290    0.372   64.370
  417.750    2.105    0.292    0.365   74.780
  418.000    2.115    0.305    0.355   76.988
  418.250    2.133    0.311    0.351   66.938
  418.500    2.179    0.313    0.354   61.134
  418.750    2.239    0.319    0.357   56.242
  419.000    2.304    0.320    0.359   61.730
  419.250    2.372    0.299    0.362   65.096
  419.500    2.450    0.276    0.365   60.508
  419.750    2.579    0.261    0.364   63.084
  420.000    2.765    0.245    0.346   60.924
  420.250    2.999    0.243    0.332   66.843
  420.500    3.152    0.239    0.330   72.695
  420.750    3.201    0.232    0.340   74.722
  421.000    3.276    0.232    0.346   64.918
  421.250    3.341    0.235    0.339   63.300
  421.500    3.439    0.228    0.330   66.301
  421.750    3.519    0.222    0.325   68.330
  422.000    3.630    0.219    0.324   70.603
  422.250    3.694    0.217    0.321   74.756
  422.500    3.760    0.212    0.313   66.528
  422.750    3.827    0.204    0.319   62.121
  423.000    3.910    0.202    0.336   73.255
  423.250    3.973    0.198    0.341   82.570
  423.500    3.990    0.199    0.347   81.687
  423.750    3.987    0.203    0.353   73.758
  424.000    3.953    0.194    0.358   75.181
  424.250    3.862    0.180    0.367   70.227
  424.500    3.822    0.170    0.377   75.353
  424.750    3.812    0.184    0.362   71.615
  425.000    3.851    0.197    0.344   76.013
  425.250    3.927    0.206    0.333   80.348
  425.500    3.836    0.214    0.327   75.944
  425.750    3.518    0.216    0.325   72.386
  426.000    3.219    0.223    0.340   72.290
  426.250    2.952    0.233    0.338   70.799
  426.500    2.687    0.242    0.326   77.199
  426.750    2.432    0.248    0.340   83.539
  427.000    2.332    0.256    0.372   79.072
  427.250    2.334    0.264    0.385   82.498
  427.500    2.411    0.251    0.377   90.477
  427.750    2.464    0.233    0.371   90.384
  428.000    2.498    0.220    0.374   84.093
  428.250    2.529    0.223    0.376   81.510
  428.500    2.448    0.232    0.375   81.049
  428.750    2.382    0.238    0.376   83.502
  429.000    2.314    0.240    0.374   88.022
  429.250    2.269    0.239    0.371   84.224
  429.500    2.246    0.243    0.368   84.976
  429.750    2.265    0.247    0.370   88.403
  430.000    2.353    0.259    0.380   83.329
  430.250    2.445    0.273    0.355   78.679
