~VERSION INFORMATION
 VERS.                 2.0:   CWLS LOG ASCII STANDARD -VERSION 2.0
 WRAP.                  NO:   ONE LINE PER DEPTH STEP
~WELL INFORMATION BLOCK
#MNEM.UNIT           DATA                    DESCRIPTION OF MNEMONIC
#---------    -------------------            -------------------------------
# Generated from Intellog Unique Number	CX_WELLS/WELL/3268
WELL.         DA/OIL ET AL GRANOR            : Well_name    - WELL
LOC .         00/06-27-083-18W4/0            : Location     - LOCATION
UWI .         00/06-27-083-18W400            : Uwi          - UNIQUE WELL ID
ENTR.         T                              : Entered      - ENTERED BY
SRVC.         SCHLUMBERGER                   : Scn          - SERVICE COMPANY
DATE.         03/04/92                       : Date         - LOG DATE
STRT.F        600                            : top_depth    - START DEPTH
STOP.F        1029.79                        : bot_depth    - STOP DEPTH
STEP.F        0.82                           : increment    - STEP LENGTH
 NULL. -999.2500:NULL Value
~CURVE INFORMATION BLOCK
#MNEM UNIT       ERCB CURVE CODE    CURVE DESCRIPTION
#-----------   ------------------   ----------------------------------
DEPT.F        00 001 00 00         : DEPTH        - DEPTH
GR  .API      00 310 00 00         : GR           - GAMMA RAY
NPHI.V/V      00 330 00 00         : PHIN         - NEUTRON POROSITY (SANDSTONE)
DPHI.V/V      00 890 00 00         : PHID         - DENSITY POROSITY (SANDSTONE)
ILD .OHMM     00 120 00 00         : RESD         - DEEP RESISTIVITY (DIL)
~PARAMETER INFORMATION
#MNEM.UNIT           DATA             DESCRIPTION OF MNEMONIC
#---------         -----------     ------------------------------
GL  .F        1831                 : gl           - GROUND LEVEL ELEVATION
EREF.F        1838                 : kb           - ELEVATION OF DEPTH REFERENCE
DATM.F        1838                 : datum        - DATUM ELEVATION
TDD .F        1058                 : tdd          - TOTAL DEPTH DRILLER
RUN .         ONE                  : Run          - RUN NUMBER
ENG .         JO                   : Engineer     - RECORDING ENGINEER
WIT .         TIM                  : Witness      - WITNESSED BY
MUD .         GEL                  : Mud_type     - MUD TYPE
MATR.         SANDSTONE            : Logunit      - NEUTRON MATRIX
TMAX.F        72                   : BHT          - MAXIMUM RECORDED TEMPERATURE
BHTD.F        1058                 : BHTDEP       - MAXIMUM RECORDED TEMPERATURE
RMT .F        72                   : MDTP         - TEMPERATURE OF MUD
MUDD.LB/G     1                    : MWT          - MUD DENSITY
NEUT.         1                    : NEUTRON      - NEUTRON TYPE
RESI.         4.4                  : RESIST       - RESISTIVITY TYPE
RM  .OHMM     4.4                  : RM           - RESISTIVITY OF MUD
RMC .OHMM     4.4                  : RMC          - RESISTIVITY OF MUD CAKE
RMF .OHMM     4.4                  : RMF          - RESISTIVITY OF MUD FILTRATE
SUFT.F        32                   : SUFT         - SURFACE TEMPERATURE
~A  DEPTH       GR     PHIN     PHID     RESD
# ...
  885.433   93.175    0.418    0.226   16.416
  886.253   90.150    0.422    0.254   16.173
  887.073   88.337    0.423    0.258   15.687
  887.894   87.127    0.423    0.265   15.282
  888.714   84.710    0.425    0.271   14.877
  889.534   83.500    0.427    0.271   14.715
  890.354   82.285    0.431    0.264   14.873
  891.175   82.282    0.436    0.254   16.637
  891.995   82.276    0.445    0.245   17.197
  892.815   82.269    0.448    0.217   18.961
  893.635   82.866    0.440    0.188   20.645
  894.455   82.862    0.429    0.186   22.732
  895.276   82.253    0.417    0.199   23.854
  896.096   80.438    0.417    0.211   22.725
  896.916   77.417    0.417    0.207   21.196
  897.736   78.015    0.406    0.177   20.952
  898.556   79.816    0.359    0.129   19.262
  899.377   81.619    0.328    0.123   19.018
  900.197   81.614    0.300    0.172   18.292
  901.017   79.799    0.335    0.192   16.923
  901.837   79.190    0.360    0.190   16.439
  902.657   79.182    0.387    0.186   15.712
  903.478   80.384    0.410    0.177   15.147
  904.298   82.186    0.418    0.170   14.421
  905.118   83.987    0.426    0.177   13.936
  905.938   85.190    0.433    0.202   13.291
  906.759   86.991    0.439    0.216   12.885
  907.579   88.191    0.441    0.228   12.561
  908.399   89.992    0.443    0.238   12.237
  909.219   90.590    0.446    0.244   11.912
  910.039   90.581    0.448    0.239   11.669
  910.860   91.181    0.449    0.232   11.425
  911.680   91.175    0.447    0.228   11.100
  912.500   91.771    0.444    0.222   10.775
  913.320   91.765    0.441    0.212   10.613
  914.140   92.362    0.439    0.211   10.367
  914.961   92.356    0.441    0.206   10.285
  915.781   92.348    0.442    0.201   10.282
  916.601   92.346    0.443    0.200   10.199
  917.421   92.340    0.444    0.196   10.115
  918.241   91.729    0.446    0.190    9.952
  919.062   91.725    0.447    0.189    9.788
  919.882   89.909    0.447    0.183    9.625
  920.702   88.699    0.447    0.183    9.381
  921.522   87.487    0.446    0.184    9.137
  922.343   89.290    0.446    0.188    8.892
  923.163   92.901    0.445    0.191    8.810
  923.983   98.319    0.445    0.188    8.566
  924.803   99.520    0.443    0.161    8.403
  925.623  101.924    0.442    0.152    8.158
  926.444  104.328    0.440    0.121    8.076
  927.264  104.928    0.439    0.142    7.750
  928.084  106.729    0.439    0.174    7.586
  928.904  107.324    0.441    0.182    7.584
  929.724  107.923    0.442    0.184    7.501
  930.545  108.518    0.446    0.188    7.899
  931.365  109.117    0.446    0.182    8.620
  932.185  110.318    0.446    0.168   10.304
  933.005  108.502    0.445    0.156   12.069
  933.825  104.879    0.442    0.148   13.111
  934.646  101.861    0.435    0.106   19.053
  935.466   98.238    0.431    0.085   20.657
  936.286   94.012    0.376    0.079   21.136
  937.106   90.389    0.357    0.072   20.972
  937.927   86.764    0.389    0.146   20.889
  938.747   87.966    0.418    0.186   21.046
  939.567   93.385    0.424    0.193   21.285
  940.387   97.599    0.423    0.197   21.683
  941.207   99.402    0.420    0.194   21.841
  942.028   97.587    0.423    0.194   21.839
  942.848   84.319    0.427    0.199   21.594
  943.668   81.299    0.433    0.225   21.431
  944.488   66.822    0.429    0.229   21.507
  945.308   56.570    0.422    0.255   21.585
  946.129   53.547    0.414    0.285   21.663
  946.949   52.338    0.407    0.291   21.739
  947.769   48.714    0.408    0.295   21.818
  948.589   47.501    0.409    0.296   21.896
  949.409   48.099    0.409    0.295   21.896
  950.230   48.094    0.409    0.292   21.567
  951.050   49.294    0.413    0.292   21.243
  951.870   51.095    0.422    0.290   21.241
  952.690   52.898    0.432    0.287   21.239
  953.510   55.305    0.429    0.287   21.236
  954.331   58.313    0.426    0.285   21.152
  955.151   62.527    0.422    0.279   20.989
  955.971   66.741    0.422    0.271   20.665
  956.791   72.763    0.424    0.242   14.395
  957.612   79.388    0.427    0.218   13.107
  958.432   85.411    0.426    0.185   11.497
  959.252   92.639    0.426    0.174    8.360
  960.072   97.454    0.428    0.180    6.831
  960.892   98.654    0.432    0.186    5.944
  961.713   99.854    0.437    0.197    5.539
  962.533  101.656    0.447    0.205    5.294
  963.353  104.062    0.470    0.202    5.212
  964.173  107.673    0.481    0.194    5.289
  964.993  107.665    0.490    0.186    5.287
  965.814  107.058    0.494    0.166    5.525
  966.634  105.846    0.498    0.159    6.245
  967.454  107.046    0.499    0.165    6.643
  968.274  110.053    0.493    0.169    6.802
  969.094  111.858    0.458    0.176    6.960
  969.915  114.264    0.452    0.183    6.795
  970.735  116.066    0.462    0.191    6.713
  971.555  116.059    0.470    0.196    6.226
  972.375  115.452    0.474    0.204    5.983
  973.196  113.033    0.469    0.202    5.739
  974.016  110.617    0.466    0.200    5.574
  974.836  106.994    0.463    0.207    5.734
  975.656  102.166    0.459    0.211    7.498
  976.476   92.513    0.453    0.216   17.860
  977.297   88.289    0.435    0.214   20.668
  978.117   83.460    0.430    0.204   20.987
  978.937   86.467    0.431    0.206   22.511
  979.757   83.448    0.432    0.232   25.721
  980.577   78.017    0.425    0.257   26.763
  981.398   71.378    0.416    0.283   27.563
  982.218   70.165    0.414    0.297   21.776
  983.038   73.776    0.410    0.304   20.728
  983.858   77.389    0.415    0.257   20.966
  984.678   88.835    0.430    0.247   21.124
  985.499   93.051    0.445    0.224   20.799
  986.319   99.676    0.454    0.218   20.556
  987.139  103.888    0.455    0.223   20.392
  987.959  100.870    0.451    0.249   20.308
  988.780   95.438    0.444    0.271   20.305
  989.600   95.431    0.434    0.278   20.383
  990.420   96.029    0.430    0.284   20.541
  991.240   97.228    0.424    0.279   20.779
  992.060   97.222    0.417    0.256   20.857
  992.881   96.009    0.404    0.231   20.292
  993.701   94.197    0.397    0.210   19.806
  994.521   90.574    0.370    0.204   19.402
  995.341   85.141    0.366    0.196   19.078
  996.161   74.889    0.354    0.189   18.672
  996.982   73.677    0.336    0.192   18.671
  997.802   70.053    0.327    0.203   18.587
  998.622   67.034    0.315    0.213   18.584
  999.442   59.794    0.317    0.218   18.501
 1000.260   54.363    0.325    0.222   18.418
 1001.080   50.739    0.332    0.222   18.254
 1001.900   53.145    0.340    0.216   18.171
 1002.720   58.565    0.349    0.218   17.846
 1003.540   65.190    0.358    0.225   17.683
 1004.360   73.624    0.369    0.230   17.438
 1005.180   87.483    0.397    0.203   17.194
 1006.000  106.165    0.424    0.177   17.030
 1006.820  117.010    0.453    0.170   16.948
 1007.640  150.160    0.478    0.156   16.622
 1008.460  161.005    0.523    0.143   16.541
 1009.280  173.056    0.532    0.133   16.376
 1010.100  181.489    0.548    0.121   16.132
 1010.930  156.767    0.536    0.100   15.809
 1011.750  142.293    0.505    0.071   15.485
 1012.570  130.231    0.453    0.044   15.080
 1013.390  116.360    0.431    0.032   14.916
 1014.210  106.106    0.432    0.014   14.511
 1015.030   97.057    0.453    0.016   14.267
 1015.850   86.803    0.460    0.039   14.264
 1016.670   76.549    0.469    0.044   14.904
 1017.490   56.648    0.464    0.045   16.428
 1018.310   48.203    0.415    0.050   17.148
 1019.130   38.552    0.386    0.058   19.154
 1019.950   35.530    0.328    0.086   20.436
 1020.770   34.921    0.320    0.099   18.666
 1021.590   35.520    0.326    0.095   15.128
 1022.410   36.719    0.327    0.089   13.277
 1023.230   38.522    0.330    0.074   11.748
 1024.050   40.927    0.333    0.057   10.299
 1024.870   42.728    0.341    0.041    9.010
 1025.690   43.327    0.348    0.051    7.721
 1026.510   43.922    0.359    0.080    7.477
 1027.330   43.918    0.384    0.091    7.153
