~VERSION INFORMATION
 VERS.                 2.0:   CWLS LOG ASCII STANDARD -VERSION 2.0
 WRAP.                  NO:   ONE LINE PER DEPTH STEP
~WELL INFORMATION BLOCK
#MNEM.UNIT           DATA                    DESCRIPTION OF MNEMONIC
#---------    -------------------            -------------------------------
# Generated from Intellog Unique Number	CN_94_101/WELL/2610
WELL.         PARAMOUNT RESOURCES LTD.       : Well_name    - WELL
LOC .         00/08-16-094-18W4/0            : Location     - LOCATION
UWI .         00/08-16-094-18W400            : Uwi          - UNIQUE WELL ID
ENTR.         JOETTE                         : Entered      - ENTERED BY
SRVC.         COMPUTALOG                     : Scn          - SERVICE COMPANY
DATE.         06/18/92                       : Date         - LOG DATE
STRT.M        90                             : top_depth    - START DEPTH
STOP.M        268                            : bot_depth    - STOP DEPTH
STEP.M        0.25                           : increment    - STEP LENGTH
 NULL. -999.2500:NULL Value
~CURVE INFORMATION BLOCK
#MNEM UNIT       ERCB CURVE CODE    CURVE DESCRIPTION
#-----------   ------------------   ----------------------------------
DEPT.M        00 001 00 00         : DEPTH        - DEPTH
CALI.MM       00 280 01 00         : CAL          - CALIPER
GR  .API      00 310 00 00         : GR           - GAMMA RAY
NPHI.V/V      00 330 00 00         : PHIN         - NEUTRON POROSITY (SANDSTONE)
DPHI.V/V      00 890 00 00         : PHID         - DENSITY POROSITY (SANDSTONE)
ILD .OHMM     00 120 00 00         : RESD         - DEEP RESISTIVITY (DIL)
~PARAMETER INFORMATION
#MNEM.UNIT           DATA             DESCRIPTION OF MNEMONIC
#---------         -----------     ------------------------------
GL  .M        537.5                : gl           - GROUND LEVEL ELEVATION
EREF.M        541.3                : kb           - ELEVATION OF DEPTH REFERENCE
DATM.M        541.3                : datum        - DATUM ELEVATION
TDD .M        269                  : tdd          - TOTAL DEPTH DRILLER
RUN .         ONE                  : Run          - RUN NUMBER
ENG .         JO                   : Engineer     - RECORDING ENGINEER
WIT .         TIM                  : Witness      - WITNESSED BY
MUD .         GEL                  : Mud_type     - MUD TYPE
MATR.         SANDSTONE            : Logunit      - NEUTRON MATRIX
TMAX.C        26                   : BHT          - MAXIMUM RECORDED TEMPERATURE
BHTD.M        269                  : BHTDEP       - MAXIMUM RECORDED TEMPERATURE
RMT .C        14.4                 : MDTP         - TEMPERATURE OF MUD
MUDD.KG/M     1080                 : MWT          - MUD DENSITY
NEUT.         1                    : NEUTRON      - NEUTRON TYPE
RESI.         0                    : RESIST       - RESISTIVITY TYPE
RM  .OHMM     3                    : RM           - RESISTIVITY OF MUD
RMC .OHMM     3                    : RMC          - RESISTIVITY OF MUD CAKE
RMF .OHMM     3                    : RMF          - RESISTIVITY OF MUD FILTRATE
SUFT.C        4                    : SUFT         - SURFACE TEMPERATURE
~A  DEPTH      CAL       GR     PHIN     PHID     RESD
# ...
  199.500  171.168   98.491    0.448    0.230    8.657
  199.750  171.272  100.952    0.453    0.226    9.348
  200.000  166.353  100.415    0.394    0.228    9.713
  200.250  157.462   93.881    0.327    0.243   10.283
  200.500  153.594   87.363    0.343    0.267   10.894
  200.750  155.671   89.224    0.373    0.268   11.320
  201.000  158.773   91.086    0.396    0.247   11.767
  201.250  161.876   91.748    0.405    0.226   12.240
  201.500  164.005   90.611    0.371    0.210   12.249
  201.750  163.083   89.474    0.352    0.196   12.505
  202.000  161.188   90.136    0.338    0.206   12.514
  202.250  160.293   91.382    0.352    0.234   13.013
  202.500  160.423   92.644    0.398    0.248   13.272
  202.750  161.500   92.722    0.406    0.253   13.290
  203.000  161.630   92.184    0.414    0.248   12.821
  203.250  161.734   92.231    0.417    0.255   11.915
  203.500  160.865   88.711    0.415    0.272   11.494
  203.750  159.943   87.559    0.396    0.242   11.731
  204.000  159.048   93.034    0.397    0.226   11.108
  204.250  160.177   96.694    0.414    0.221   10.326
  204.500  163.279   99.155    0.431    0.220    9.955
  204.750  166.382  100.417    0.441    0.218    9.610
  205.000  168.485  100.479    0.433    0.236    9.617
  205.250  168.563   99.942    0.400    0.253    9.996
  205.500  166.668   95.806    0.388    0.244   10.398
  205.750  163.773   89.872    0.395    0.231   10.034
  206.000  159.880   93.533    0.417    0.218    9.677
  206.250  158.984  100.791    0.427    0.216    9.159
  206.500  163.086  105.666    0.467    0.211    8.515
  206.750  167.188  106.344    0.430    0.201    8.530
  207.000  167.318  102.793    0.360    0.146    8.860
  207.250  165.423   97.442    0.328    0.092    9.741
  207.500  161.503   89.110    0.330    0.219   10.510
  207.750  159.608   81.377    0.340    0.225   10.334
  208.000  161.711   83.238    0.347    0.226    9.781
  208.250  163.814   92.295    0.360    0.227    8.760
  208.500  164.917  100.768    0.393    0.228    7.840
  208.750  165.073   99.032    0.422    0.245    7.024
  209.000  162.179   95.496    0.429    0.251    6.774
  209.250  158.259   93.775    0.413    0.254    6.783
  209.500  154.365   93.838    0.401    0.255    7.051
  209.750  150.472   96.883    0.445    0.264    6.802
  210.000  150.576  102.942    0.469    0.283    5.864
  210.250  155.677  106.002    0.508    0.273    4.963
  210.500  160.778  106.065    0.475    0.242    4.201
  210.750  163.906  100.131    0.442    0.234    5.072
  211.000  165.010   94.196    0.431    0.247    6.354
  211.250  164.114   86.463    0.383    0.240    8.739
  211.500  161.194   81.129    0.358    0.181    9.973
  211.750  160.324   82.391    0.326    0.116   10.971
  212.000  161.402   90.848    0.424    0.225   11.189
  212.250  163.505   99.306    0.461    0.219   10.802
  212.500  167.606  103.013    0.463    0.215   10.035
  212.750  169.709  103.044    0.468    0.218    9.147
  213.000  170.839  105.505    0.480    0.214    8.041
  213.250  168.970  107.366    0.476    0.206    7.757
  213.500  166.101   99.633    0.453    0.191    7.765
  213.750  164.155   90.085    0.353    0.096    7.765
  214.000  160.261   87.150    0.325    0.196    8.246
  214.250  158.392   93.240    0.384    0.216   10.713
  214.500  158.444   92.702    0.390    0.238   11.999
  214.750  160.573   90.966    0.394    0.232   12.707
  215.000  161.702   94.042    0.399    0.223   13.462
  215.250  161.780   95.273    0.394    0.214   13.730
  215.500  160.911   95.935    0.376    0.189   14.008
  215.750  161.041   93.614    0.362    0.165   14.037
  216.000  161.093   93.676    0.351    0.163   14.047
  216.250  160.249   95.538    0.378    0.200   14.072
  216.500  160.301   94.401    0.396    0.214   13.575
  216.750  160.431   93.864    0.393    0.217   13.338
  217.000  160.561   95.725    0.387    0.213   12.867
  217.250  160.613   98.170    0.387    0.209   12.646
  217.500  160.769   97.633    0.394    0.208   12.907
  217.750  160.821   97.111    0.396    0.208   12.920
  218.000  160.951   98.973    0.387    0.206   13.440
  218.250  161.055  101.434    0.379    0.207   13.453
  218.500  161.159  102.111    0.380    0.209   13.985
  218.750  163.288  100.974    0.389    0.199   14.537
  219.000  163.340   99.222    0.398    0.170   15.116
  219.250  164.469   92.704    0.397    0.132   15.712
  219.500  164.599   89.737    0.391    0.106   16.327
  219.750  163.704   85.618    0.377    0.110   17.949
  220.000  161.835   84.481    0.361    0.144   19.739
  220.250  160.888   83.328    0.346    0.170   20.518
  220.500  160.044   82.806    0.352    0.183   20.546
  220.750  160.096   82.869    0.357    0.210   19.095
  221.000  161.199   82.931    0.345    0.204   18.761
  221.250  161.355   83.009    0.327    0.173   18.099
  221.500  161.407   84.286    0.310    0.126   17.148
  221.750  161.511   84.917    0.327    0.127   16.849
  222.000  161.641   86.179    0.348    0.203   16.260
  222.250  161.771   89.240    0.373    0.241   15.970
  222.500  161.849   90.501    0.415    0.256   15.406
  222.750  161.953   86.966    0.432    0.269   16.020
  223.000  161.032   82.231    0.421    0.280   16.652
  223.250  160.188   83.493    0.410    0.274   16.681
  223.500  159.267   87.753    0.418    0.235   16.395
  223.750  159.345   89.014    0.414    0.253   15.822
  224.000  158.476   88.477    0.408    0.260   15.545
  224.250  158.554   86.740    0.407    0.262   15.290
  224.500  159.657   85.004    0.426    0.270   15.017
  224.750  162.785   83.883    0.433    0.258   15.033
  225.000  165.913   82.146    0.416    0.241   14.502
  225.250  167.017   85.191    0.416    0.227   13.736
  225.500  170.119   88.867    0.428    0.216   13.251
  225.750  168.198   88.929    0.424    0.200   14.842
  226.000  163.305   81.181    0.264    0.055   16.009
  226.250  163.461   73.448    0.235    0.028   19.321
  226.500  163.539   67.513    0.220    0.023   25.126
  226.750  163.617   62.810    0.224    0.021   34.568
  227.000  163.617   62.872    0.234    0.014   40.191
  227.250  161.878   65.302    0.247    0.018   37.351
  227.500  159.957   70.761    0.278    0.073   31.035
  227.750  161.035   75.621    0.356    0.137   23.054
  228.000  164.189   85.293    0.428    0.163   18.447
  228.250  165.240   94.950    0.435    0.177   14.225
  228.500  168.343  101.040    0.429    0.186   11.386
  228.750  168.473   98.704    0.427    0.197    9.820
  229.000  166.578   99.366    0.426    0.203    9.480
  229.250  164.683  100.612    0.439    0.207    9.665
  229.500  164.787  100.690    0.456    0.203   10.236
  229.750  166.916   98.954    0.459    0.186   11.689
  230.000  168.045   95.402    0.430    0.084   12.146
  230.250  167.124   95.480    0.426    0.139   12.167
  230.500  166.202   99.125    0.439    0.151   11.950
  230.750  164.333  103.985    0.459    0.174   11.319
  231.000  166.410  107.645    0.455    0.186   10.916
  231.250  168.539  105.940    0.451    0.181   10.152
  231.500  168.643  104.772    0.440    0.189    9.978
  231.750  168.721  102.435    0.418    0.184    9.803
  232.000  165.879  102.513    0.422    0.148    9.820
  232.250  165.931  102.576    0.435    0.150    9.827
  232.500  165.061  102.654    0.431    0.179   10.033
  232.750  164.192  103.316    0.422    0.193   10.040
  233.000  164.244  105.177    0.423    0.205   10.057
  233.250  164.348  105.824    0.443    0.204   10.068
  233.500  164.478  101.704    0.440    0.183   10.465
  233.750  164.582   95.754    0.420    0.070   11.300
  234.000  164.712   88.605    0.332    0.018   12.423
  234.250  165.789   81.472    0.305    0.056   12.678
  234.500  165.893   86.931    0.378    0.078   12.453
  234.750  168.022   96.004    0.415    0.110   11.367
  235.000  170.151  103.262    0.431    0.139   10.759
  235.250  171.202  108.721    0.448    0.170   10.191
  235.500  170.307  115.995    0.449    0.169    9.646
  235.750  169.411  113.674    0.448    0.175    9.302
