~VERSION INFORMATION
 VERS.                 2.0:   CWLS LOG ASCII STANDARD -VERSION 2.0
 WRAP.                  NO:   ONE LINE PER DEPTH STEP
~WELL INFORMATION BLOCK
#MNEM.UNIT           DATA                    DESCRIPTION OF MNEMONIC
#---------    -------------------            -------------------------------
# Generated from Intellog Unique Number	CW_70_72/WELL/702
NULL.         -999.25                        : NULL_VALUE
WELL.         LANDBANK ET AL VICTOR 06-26    : Well_name    - WELL              
LOC .         06-26-071-01W5                 : Location     - LOCATION          
UWI .         00/06-26-071-01W5/0            : Uwi          - UNIQUE WELL ID    
ENTR.         JAYE                           : Entered      - ENTERED BY        
SRVC.         SCHLUMBERGER                   : Scn          - SERVICE COMPANY   
DATE.         20 NOV 79                      : Date         - LOG DATE          
STRT.M        410                            : top_depth    - START DEPTH       
STOP.M        665                            : bot_depth    - STOP DEPTH        
STEP.M        0.25                           : increment    - STEP LENGTH       
~CURVE INFORMATION BLOCK
#MNEM UNIT       ERCB CURVE CODE    CURVE DESCRIPTION
#-----------   ------------------   ----------------------------------
DEPT.M        00 001 00 00         : DEPTH        - DEPTH                       
DPHI.V/V      00 890 00 00         : PHID         - DENSITY POROSITY (SANDSTONE)
NPHI.V/V      00 330 00 00         : PHIN         - NEUTRON POROSITY (SANDSTONE)
GR  .API      00 310 00 00         : GR           - GAMMA RAY                   
CALI.MM       00 280 01 00         : CAL          - CALIPER                     
ILD .OHMM     00 120 00 00         : RESD         - DEEP RESISTIVITY (DIL)      
~PARAMETER INFORMATION       
#MNEM.UNIT           DATA             DESCRIPTION OF MNEMONIC
#---------         -----------     ------------------------------
GL  .M        603.9                : gl           - GROUND LEVEL ELEVATION      
EREF.M        607.7                : kb           - ELEVATION OF DEPTH REFERENCE
DATM.M        603.9                : datum        - DATUM ELEVATION             
TDD .M        679                  : tdd          - TOTAL DEPTH DRILLER         
RUN .         ONE                  : Run          - RUN NUMBER                  
ENG .         WALTERHOUSE          : Engineer     - RECORDING ENGINEER          
WIT .         LOWTHER              : Witness      - WITNESSED BY                
BASE.         EDM                  : Branch       - HOME BASE OF LOGGING UNIT   
MUD .         GEL CHEM             : Mud_type     - MUD TYPE                    
MATR.         SANDSTONE            : Logunit      - NEUTRON MATRIX              
TMAX.C        41.7                 : BHT          - MAXIMUM RECORDED TEMPERATURE
BHTD.M        680                  : BHTDEP       - MAXIMUM RECORDED TEMPERATURE
RMT .C        20                   : MDTP         - TEMPERATURE OF MUD          
MUDD.KG/M     1090                 : MWT          - MUD DENSITY                 
NEUT.         1                    : NEUTRON      - NEUTRON TYPE                
RESI.         0                    : RESIST       - RESISTIVITY TYPE            
RM  .OHMM     2.97                 : RM           - RESISTIVITY OF MUD          
RMC .OHMM     0                    : RMC          - RESISTIVITY OF MUD CAKE     
RMF .OHMM     3.58                 : RMF          - RESISTIVITY OF MUD FILTRATE 
SUFT.C        0                    : SUFT         - SURFACE TEMPERATURE         
~A  DEPTH     PHID     PHIN       GR      CAL     RESD
# ...
  519.500    0.240    0.384   67.124  150.945    2.247
  519.750    0.211    0.380   66.563  150.115    2.222
  520.000    0.241    0.421   70.050  148.661    2.178
  520.250    0.269    0.460   71.357  146.066    2.126
  520.500    0.293    0.451   71.793  143.056    2.080
  520.750    0.288    0.441   73.100  142.329    2.034
  521.000    0.286    0.458   76.026  142.329    2.005
  521.250    0.289    0.466   77.894  143.055    2.002
  521.500    0.295    0.454   78.392  144.092    2.057
  521.750    0.307    0.439   78.703  144.818    2.215
  522.000    0.300    0.434   78.703  146.374    2.655
  522.250    0.281    0.429   77.768  147.412    3.112
  522.500    0.257    0.425   76.274  149.072    3.911
  522.750    0.245    0.417   73.783  150.005    4.906
  523.000    0.222    0.382   71.354  151.042    6.343
  523.250    0.195    0.236   68.925  153.014    6.987
  523.500    0.115    0.221   66.248  154.051    7.218
  523.750    0.064    0.209   64.255  153.843    6.722
  524.000    0.074    0.238   62.947  152.286    5.817
  524.250    0.107    0.274   62.947  149.276    4.930
  524.500    0.100    0.303   64.005  151.247    4.179
  524.750    0.088    0.328   66.682  154.152    3.549
  525.000    0.108    0.370   70.854  155.397    3.147
  525.250    0.215    0.419   76.208  154.151    2.931
  525.500    0.246    0.455   78.014  152.594    2.988
  525.750    0.249    0.427   75.149  151.452    3.291
  526.000    0.235    0.390   73.094  150.518    3.851
  526.250    0.210    0.364   72.160  150.517    4.249
  526.500    0.179    0.320   72.284  151.970    4.180
  526.750    0.157    0.326   73.654  152.903    3.672
  527.000    0.148    0.340   75.335  153.422    3.318
  527.250    0.177    0.395   78.136  153.006    2.976
  527.500    0.237    0.420   81.436  151.657    2.862
  527.750    0.256    0.426   84.736  150.307    2.912
  528.000    0.237    0.410   88.409  149.580    3.101
  528.250    0.217    0.402   91.771  150.099    3.314
  528.500    0.219    0.410   94.200  152.070    3.449
  528.750    0.221    0.431   96.752  153.107    3.728
  529.000    0.191    0.434   99.056  153.833    3.970
  529.250    0.179    0.426   97.810  154.248    4.148
  529.500    0.172    0.418   94.448  154.974    4.197
  529.750    0.168    0.410   90.960  155.077    4.175
  530.000    0.172    0.408   87.660  155.388    4.092
  530.250    0.183    0.412   86.228  155.699    3.950
  530.500    0.192    0.414   87.161  155.387    3.813
  530.750    0.199    0.409   87.597  153.934    3.619
  531.000    0.199    0.402   87.659  152.065    3.402
  531.250    0.204    0.399   89.028  150.923    3.180
  531.500    0.217    0.427   94.383  151.649    2.951
  531.750    0.211    0.445   97.371  152.686    2.753
  532.000    0.219    0.458   94.133  151.648    2.708
  532.250    0.231    0.447   90.957  149.883    2.808
  532.500    0.246    0.433   91.455  148.534    3.135
  532.750    0.228    0.428   89.898  149.156    3.395
  533.000    0.211    0.421   86.598  149.882    3.655
  533.250    0.195    0.396   82.613  150.504    3.877
  533.500    0.178    0.386   81.741  151.541    3.975
  533.750    0.159    0.399   84.729  151.645    3.730
  534.000    0.162    0.409   93.508  151.956    3.442
  534.250    0.182    0.416   99.112  151.644    3.146
  534.500    0.197    0.434  100.980  150.398    2.869
  534.750    0.221    0.439  102.598  149.567    2.693
  535.000    0.215    0.441  106.085  149.359    2.694
  535.250    0.214    0.445  104.902  149.463    2.794
  535.500    0.227    0.466  102.473  149.981    2.886
  535.750    0.219    0.476   99.173  150.084    2.976
  536.000    0.207    0.469   97.242  149.876    3.040
  536.250    0.209    0.458   96.681  149.772    3.117
  536.500    0.216    0.450   93.319  149.149    3.172
  536.750    0.218    0.449   91.886  148.526    3.203
  537.000    0.214    0.441   94.252  149.459    3.241
  537.250    0.204    0.439   99.545  150.912    3.249
  537.500    0.202    0.441  103.903  152.779    3.238
  537.750    0.193    0.441   98.112  152.571    3.228
  538.000    0.212    0.445   97.427  151.637    3.223
  538.250    0.220    0.452   98.111  150.391    3.225
  538.500    0.205    0.459   99.356  149.560    3.233
  538.750    0.195    0.451  100.228  149.041    3.240
  539.000    0.213    0.446  102.096  148.625    3.266
  539.250    0.221    0.444  102.842  148.625    3.305
  539.500    0.214    0.444  100.601  149.143    3.370
  539.750    0.202    0.452  102.406  150.596    3.468
  540.000    0.196    0.458  105.893  153.190    3.489
  540.250    0.188    0.447  110.064  154.850    3.472
  540.500    0.175    0.429  106.702  154.330    3.370
  540.750    0.175    0.416  103.650  152.462    3.272
  541.000    0.186    0.410  100.350  150.490    3.123
  541.250    0.205    0.423   98.295  147.895    2.936
  541.500    0.219    0.441  100.349  147.064    2.765
  541.750    0.217    0.433  104.894  147.998    2.624
  542.000    0.197    0.429  105.330  149.554    2.815
  542.250    0.199    0.423  102.154  151.629    3.054
  542.500    0.209    0.416  100.410  153.704    3.283
  542.750    0.203    0.418   98.168  154.326    3.522
  543.000    0.197    0.449   96.425  153.184    3.708
  543.250    0.190    0.437   96.674  151.627    3.640
  543.500    0.184    0.420   98.853  151.108    3.527
  543.750    0.160    0.410  101.592  151.626    3.437
  544.000    0.211    0.423  105.764  153.182    3.452
  544.250    0.216    0.435  109.499  156.087    3.499
  544.500    0.200    0.451  112.799  158.578    3.574
  544.750    0.192    0.452  108.191  160.134    3.672
  545.000    0.192    0.441  103.894  159.718    3.991
  545.250    0.192    0.447  101.030  157.123    4.438
  545.500    0.193    0.462   98.601  153.802    4.742
  545.750    0.194    0.453   99.535  151.000    5.021
  546.000    0.200    0.450  101.403  149.754    5.187
  546.250    0.222    0.449  103.270  149.338    5.318
  546.500    0.214    0.447  105.014  149.026    5.443
  546.750    0.184    0.446  105.885  149.545    5.623
  547.000    0.155    0.405  102.086  152.035    5.787
  547.250    0.162    0.375   87.080  153.695    5.823
  547.500    0.142    0.348   76.681  152.657    5.695
  547.750    0.100    0.382   85.585  151.203    5.477
  548.000    0.126    0.417   94.925  152.552    4.996
  548.250    0.151    0.433   98.287  154.523    4.389
  548.500    0.157    0.448  101.587  155.353    3.959
  548.750    0.161    0.462  104.202  155.768    3.764
  549.000    0.168    0.475  105.882  155.871    3.802
  549.250    0.181    0.456  104.450  156.078    4.056
  549.500    0.179    0.440  102.893  156.078    4.425
  549.750    0.182    0.431  101.710  155.870    4.563
  550.000    0.181    0.447  102.457  155.350    4.608
  550.250    0.168    0.463  103.951  154.623    4.567
  550.500    0.168    0.461  105.383  154.208    4.450
  550.750    0.174    0.439  105.320  153.688    4.224
  551.000    0.160    0.417  105.133  153.376    4.069
  551.250    0.152    0.420  104.821  153.584    3.966
  551.500    0.161    0.434   98.844  154.102    3.923
  551.750    0.151    0.432   97.411  154.620    3.903
  552.000    0.147    0.415   99.092  155.243    3.942
  552.250    0.143    0.410  101.396  155.865    3.951
  552.500    0.146    0.421  103.886  156.279    3.908
  552.750    0.158    0.440  106.688  156.383    3.948
  553.000    0.167    0.460  108.431  156.175    4.017
  553.250    0.169    0.460  108.617  156.382    4.103
  553.500    0.168    0.424  107.310  156.589    4.160
  553.750    0.166    0.424  107.807  156.070    4.209
  554.000    0.156    0.424  108.056  155.550    4.275
  554.250    0.135    0.427  108.429  155.342    4.450
  554.500    0.142    0.416  101.269  155.549    4.676
  554.750    0.138    0.389   98.279  155.341    4.714
  555.000    0.139    0.404   98.902  155.341    4.707
  555.250    0.137    0.422  101.143  154.925    4.710
  555.500    0.166    0.412  102.450  154.613    4.712
  555.750    0.143    0.409  101.392  154.613    4.688
