~VERSION INFORMATION
 VERS.                 2.0:   CWLS LOG ASCII STANDARD -VERSION 2.0
 WRAP.                  NO:   ONE LINE PER DEPTH STEP
~WELL INFORMATION BLOCK
#MNEM.UNIT           DATA                    DESCRIPTION OF MNEMONIC
#---------    -------------------            -------------------------------
# Generated from Intellog Unique Number	CS_77_79/WELL/865
WELL.         CWWE THORNBURY                 : Well_name    - WELL
LOC .         00/05-31-079-13W4/0            : Location     - LOCATION
UWI .         00/05-31-079-13W4/0            : Uwi          - UNIQUE WELL ID
ENTR.         JHS                            : Entered      - ENTERED BY
SRVC.         SCHLUMBERGER                   : Scn          - SERVICE COMPANY
STRT.M        245                            : top_depth    - START DEPTH
STOP.M        510                            : bot_depth    - STOP DEPTH
STEP.M        0.25                           : increment    - STEP LENGTH
 NULL. -999.2500:NULL Value
~CURVE INFORMATION BLOCK
#MNEM UNIT       ERCB CURVE CODE    CURVE DESCRIPTION
#-----------   ------------------   ----------------------------------
DEPT.M        00 001 00 00         : DEPTH        - DEPTH
DPHI.V/V      00 890 00 00         : PHID         - DENSITY POROSITY (LIMESTONE)
NPHI.V/V      00 330 00 00         : PHIN         - NEUTRON POROSITY (LIMESTONE)
GR  .API      00 310 00 00         : GR           - GAMMA RAY
ILD .OHMM     00 120 00 00         : RESD         - DEEP RESISTIVITY (DIL)
RHOB.KG/M3    00 350 00 00         : DENS         - BULK DENSITY
~PARAMETER INFORMATION
#MNEM.UNIT           DATA             DESCRIPTION OF MNEMONIC
#---------         -----------     ------------------------------
GL  .M        694.2                : gl           - GROUND LEVEL ELEVATION
EREF.M        698                  : kb           - ELEVATION OF DEPTH REFERENCE
DATM.M        698                  : datum        - DATUM ELEVATION
TDD .M        510                  : tdd          - TOTAL DEPTH DRILLER
RUN .         ONE                  : Run          - RUN NUMBER
ENG .         BILL                 : Engineer     - RECORDING ENGINEER
WIT .         JIM                  : Witness      - WITNESSED BY
MUD .         GEL                  : Mud_type     - MUD TYPE
MATR.         LIMESTONE            : Logunit      - NEUTRON MATRIX
TMAX.C        22                   : BHT          - MAXIMUM RECORDED TEMPERATURE
BHTD.M        510                  : BHTDEP       - MAXIMUM RECORDED TEMPERATURE
MATR.         1                    : LOGUNIT      - NEUTRON MATRIX
RMT .C        25                   : MDTP         - TEMPERATURE OF MUD
NEUT.         1                    : NEUTRON      - NEUTRON TYPE
RESI.         0                    : RESIST       - RESISTIVITY TYPE
RMC .OHMM     0.25                 : RMC          - RESISTIVITY OF MUD CAKE
RMF .OHMM     0.25                 : RMF          - RESISTIVITY OF MUD FILTRATE
SUFT.C        15                   : SUFT         - SURFACE TEMPERATURE
~A  DEPTH     PHID     PHIN       GR     RESD     DENS
# ...
  354.500    0.333    0.432   61.366   14.942    0.000
  354.750    0.327    0.451   63.814   14.948    0.000
  355.000    0.328    0.459   63.214   14.685    0.000
  355.250    0.323    0.451   63.829   14.691    0.000
  355.500    0.321    0.436   66.277   14.431    0.000
  355.750    0.326    0.424   66.896   14.169    0.000
  356.000    0.313    0.424   66.293   14.181    0.000
  356.250    0.307    0.437   63.861   14.193    0.000
  356.500    0.306    0.449   62.651   14.201    0.000
  356.750    0.309    0.449   62.658   13.949    0.000
  357.000    0.318    0.453   62.665   13.963    0.000
  357.250    0.333    0.462   64.502   13.969    0.000
  357.500    0.344    0.451   66.340   13.985    0.000
  357.750    0.340    0.446   65.737   13.991    0.000
  358.000    0.331    0.441   59.647   13.999    0.000
  358.250    0.328    0.422   57.825   14.013    0.000
  358.500    0.325    0.421   66.373   14.026    0.000
  358.750    0.318    0.441   68.208   14.031    0.000
  359.000    0.315    0.444   68.218   13.782    0.000
  359.250    0.308    0.442   71.272   13.534    0.000
  359.500    0.306    0.444   76.769   13.045    0.000
  359.750    0.317    0.452   69.459   12.572    0.000
  360.000    0.322    0.434   60.319   12.582    0.000
  360.250    0.312    0.426   60.329   12.833    0.000
  360.500    0.306    0.426   67.653   13.085    0.000
  360.750    0.301    0.434   74.368   13.599    0.000
  361.000    0.302    0.449   69.497   13.606    0.000
  361.250    0.308    0.438   63.410   13.623    0.000
  361.500    0.313    0.422   63.418   13.375    0.000
  361.750    0.314    0.426   65.863   12.892    0.000
  362.000    0.312    0.433   70.138   12.423    0.000
  362.250    0.302    0.429   75.026   11.751    0.000
  362.500    0.299    0.443   74.424   11.116    0.000
  362.750    0.291    0.454   73.820   10.710    0.000
  363.000    0.285    0.448   76.268   10.324    0.000
  363.250    0.278    0.437   81.156    9.951    0.000
  363.500    0.282    0.446   81.162    9.955    0.000
  363.750    0.293    0.459   80.560    9.964    0.000
  364.000    0.303    0.464   82.398    9.604    0.000
  364.250    0.300    0.477   79.358    9.430    0.000
  364.500    0.299    0.498   73.876    9.261    0.000
  364.750    0.321    0.492   64.738    9.445    0.000
  365.000    0.334    0.475   57.428   10.384    0.000
  365.250    0.333    0.437   55.606   11.859    0.000
  365.500    0.333    0.412   55.006   12.320    0.000
  365.750    0.337    0.405   53.183   13.046    0.000
  366.000    0.330    0.419   51.971   13.819    0.000
  366.250    0.330    0.443   55.031   13.828    0.000
  366.500    0.332    0.441   56.869   13.834    0.000
  366.750    0.328    0.441   57.483   13.591    0.000
  367.000    0.330    0.421   58.710   13.345    0.000
  367.250    0.336    0.412   59.937   13.359    0.000
  367.500    0.330    0.429   60.556   13.367    0.000
  367.750    0.324    0.418   60.562   13.632    0.000
  368.000    0.321    0.411   59.352   13.638    0.000
  368.250    0.319    0.412   59.359   13.912    0.000
  368.500    0.309    0.417   58.148   13.660    0.000
  368.750    0.304    0.413   56.326   13.416    0.000
  369.000    0.311    0.413   56.944   12.692    0.000
  369.250    0.325    0.431   59.391   12.228    0.000
  369.500    0.322    0.458   60.617   10.527    0.000
  369.750    0.321    0.512   61.236    9.236    0.000
  370.000    0.323    0.507   55.147    9.242    0.000
  370.250    0.315    0.472   57.594    9.972    0.000
  370.500    0.315    0.451   60.649   10.763    0.000
  370.750    0.310    0.440   63.097   10.972    0.000
  371.000    0.274    0.428   69.813   10.378    0.000
  371.250    0.262    0.423   77.138    9.105    0.000
  371.500    0.266    0.426   80.195    8.139    0.000
  371.750    0.296    0.434   77.764    7.698    0.000
  372.000    0.278    0.441   82.039    7.013    0.000
  372.250    0.257    0.447   96.071    6.268    0.000
  372.500    0.247    0.489  106.446    5.196    0.000
  372.750    0.247    0.526  109.504    4.071    0.000
  373.000    0.251    0.543  109.512    3.073    0.000
  373.250    0.248    0.542  108.298    2.799    0.000
  373.500    0.251    0.534  111.355    2.647    0.000
  373.750    0.246    0.529  110.754    2.551    0.000
  374.000    0.231    0.556  105.273    2.506    0.000
  374.250    0.226    0.587  101.623    2.461    0.000
  374.500    0.226    0.566  102.240    2.462    0.000
  374.750    0.240    0.561  105.906    2.419    0.000
  375.000    0.257    0.566  106.527    2.420    0.000
  375.250    0.275    0.556  105.923    2.468    0.000
  375.500    0.281    0.549  106.542    2.564    0.000
  375.750    0.285    0.532  107.157    2.715    0.000
  376.000    0.289    0.516  105.336    2.986    0.000
  376.250    0.269    0.532  101.076    3.346    0.000
  376.500    0.251    0.490   96.208    3.966    0.000
  376.750    0.243    0.457   94.994    4.790    0.000
  377.000    0.237    0.447   95.002    5.788    0.000
  377.250    0.232    0.463   96.231    6.485    0.000
  377.500    0.228    0.474   96.237    6.738    0.000
  377.750    0.236    0.464   96.245    6.872    0.000
  378.000    0.237    0.466   95.032    6.750    0.000
  378.250    0.230    0.497   95.042    6.627    0.000
  378.500    0.231    0.485   98.708    6.388    0.000
  378.750    0.237    0.482  101.156    6.041    0.000
  379.000    0.239    0.476   98.115    5.300    0.000
  379.250    0.234    0.470   96.291    4.919    0.000
  379.500    0.234    0.485   95.080    4.832    0.000
  379.750    0.241    0.481   96.917    4.835    0.000
  380.000    0.247    0.471  102.412    5.218    0.000
  380.250    0.255    0.461  103.640    5.420    0.000
  380.500    0.265    0.465   92.672    5.635    0.000
  380.750    0.272    0.480   84.142    5.638    0.000
  381.000    0.269    0.470   76.224    5.538    0.000
  381.250    0.267    0.465   79.890    5.437    0.000
  381.500    0.270    0.466   85.385    5.442    0.000
  381.750    0.270    0.470   91.492    5.655    0.000
  382.000    0.282    0.466   93.938    5.877    0.000
  382.250    0.288    0.461   90.288    5.880    0.000
  382.500    0.302    0.472   87.856    5.775    0.000
  382.750    0.308    0.512   89.084    5.360    0.000
  383.000    0.288    0.512   88.484    5.265    0.000
  383.250    0.270    0.494   90.929    5.170    0.000
  383.500    0.260    0.473   97.645    4.890    0.000
  383.750    0.251    0.488  104.969    4.454    0.000
  384.000    0.253    0.574  114.124    3.763    0.000
  384.250    0.276    0.563  112.302    3.120    0.000
  384.500    0.283    0.556  108.651    2.686    0.000
  384.750    0.267    0.569  106.220    2.447    0.000
  385.000    0.252    0.552  109.886    2.271    0.000
  385.250    0.243    0.541  111.114    2.030    0.000
  385.500    0.243    0.531  108.073    1.683    0.000
  385.750    0.251    0.510  105.643    1.319    0.000
  386.000    0.257    0.479  106.872    0.764    0.000
  386.250    0.259    0.516  105.048    0.545    0.000
  386.500    0.270    0.538  101.398    0.567    0.000
  386.750    0.277    0.542  102.016    0.697    0.000
  387.000    0.281    0.554  103.245    1.056    0.000
  387.250    0.283    0.517  103.251    1.967    0.000
  387.500    0.277    0.509  100.820    2.514    0.000
  387.750    0.271    0.525   99.607    2.924    0.000
  388.000    0.262    0.553   94.126    3.156    0.000
  388.250    0.260    0.553   97.793    3.218    0.000
  388.500    0.263    0.570  100.241    3.220    0.000
  388.750    0.273    0.576   97.808    3.163    0.000
  389.000    0.277    0.543   99.648    3.166    0.000
  389.250    0.268    0.528  102.705    3.227    0.000
  389.500    0.261    0.515  101.491    3.417    0.000
  389.750    0.257    0.493   97.843    3.976    0.000
  390.000    0.247    0.474   97.847    4.455    0.000
  390.250    0.244    0.468   97.246    4.629    0.000
  390.500    0.248    0.477   92.985    4.721    0.000
  390.750    0.248    0.490   94.213    4.637    0.000
