~VERSION INFORMATION
 VERS.                 2.0:   CWLS LOG ASCII STANDARD -VERSION 2.0
 WRAP.                  NO:   ONE LINE PER DEPTH STEP
~WELL INFORMATION BLOCK
#MNEM.UNIT           DATA                    DESCRIPTION OF MNEMONIC
#---------    -------------------            -------------------------------
# Generated from Intellog Unique Number	CS_77_79/WELL/916
WELL.         PCI PCEJ CHARD                 : Well_name    - WELL
LOC .         00/08-04-079-06W4/0            : Location     - LOCATION
UWI .         00/08-04-079-06W4/0            : Uwi          - UNIQUE WELL ID
ENTR.         JHS                            : Entered      - ENTERED BY
SRVC.         SCHLUMBERGER                   : Scn          - SERVICE COMPANY
STRT.M        80                             : top_depth    - START DEPTH
STOP.M        325                            : bot_depth    - STOP DEPTH
STEP.M        0.25                           : increment    - STEP LENGTH
 NULL. -999.2500:NULL Value
~CURVE INFORMATION BLOCK
#MNEM UNIT       ERCB CURVE CODE    CURVE DESCRIPTION
#-----------   ------------------   ----------------------------------
DEPT.M        00 001 00 00         : DEPTH        - DEPTH
DPHI.V/V      00 890 00 00         : PHID         - DENSITY POROSITY (LIMESTONE)
NPHI.V/V      00 330 00 00         : PHIN         - NEUTRON POROSITY (LIMESTONE)
GR  .API      00 310 00 00         : GR           - GAMMA RAY
ILD .OHMM     00 120 00 00         : RESD         - DEEP RESISTIVITY (DIL)
RHOB.KG/M3    00 350 00 00         : DENS         - BULK DENSITY
~PARAMETER INFORMATION
#MNEM.UNIT           DATA             DESCRIPTION OF MNEMONIC
#---------         -----------     ------------------------------
GL  .M        509.4                : gl           - GROUND LEVEL ELEVATION
EREF.M        512.4                : kb           - ELEVATION OF DEPTH REFERENCE
DATM.M        512.4                : datum        - DATUM ELEVATION
TDD .M        331                  : tdd          - TOTAL DEPTH DRILLER
RUN .         ONE                  : Run          - RUN NUMBER
ENG .         BILL                 : Engineer     - RECORDING ENGINEER
WIT .         JIM                  : Witness      - WITNESSED BY
MUD .         GEL                  : Mud_type     - MUD TYPE
MATR.         LIMESTONE            : Logunit      - NEUTRON MATRIX
TMAX.C        22                   : BHT          - MAXIMUM RECORDED TEMPERATURE
BHTD.M        331                  : BHTDEP       - MAXIMUM RECORDED TEMPERATURE
MATR.         1                    : LOGUNIT      - NEUTRON MATRIX
RMT .C        25                   : MDTP         - TEMPERATURE OF MUD
NEUT.         1                    : NEUTRON      - NEUTRON TYPE
RESI.         0                    : RESIST       - RESISTIVITY TYPE
RMC .OHMM     0.25                 : RMC          - RESISTIVITY OF MUD CAKE
RMF .OHMM     0.25                 : RMF          - RESISTIVITY OF MUD FILTRATE
SUFT.C        15                   : SUFT         - SURFACE TEMPERATURE
~A  DEPTH     PHID     PHIN       GR     RESD     DENS
# ...
  299.000    0.281    0.371   61.682    5.483 2228.980
  299.250    0.314    0.365   44.527    5.281 2172.310
  299.500    0.339    0.360   49.416    5.183 2130.310
  299.750    0.317    0.357   53.692    4.992 2168.040
  300.000    0.297    0.357   53.068    4.809 2201.580
  300.250    0.306    0.360   48.773    4.720 2186.860
  300.500    0.329    0.364   42.643    4.720 2146.960
  300.750    0.340    0.380   37.734    4.633 2128.040
  301.000    0.308    0.366   41.396    4.547 2182.560
  301.250    0.268    0.370   38.938    4.547 2251.760
  301.500    0.320    0.441   35.254    4.547 2163.600
  301.750    0.351    0.416   33.407    4.463 2109.020
  302.000    0.382    0.387   34.623    4.380 2056.540
  302.250    0.351    0.363   43.796    4.381 2108.950
  302.500    0.333    0.356   46.233    4.299 2140.390
  302.750    0.329    0.361   43.160    4.300 2146.640
  303.000    0.343    0.370   43.764    4.300 2123.530
  303.250    0.347    0.382   50.487    4.300 2117.200
  303.500    0.336    0.388   51.090    4.300 2136.050
  303.750    0.332    0.393   50.468    4.382 2142.300
  304.000    0.339    0.402   48.010    4.465 2129.690
  304.250    0.353    0.402   42.489    4.466 2106.570
  304.500    0.363    0.395   37.582    4.383 2089.760
  304.750    0.360    0.377   41.246    4.383 2093.920
  305.000    0.332    0.380   54.092    4.551 2142.140
  305.250    0.320    0.377   69.999    4.726 2163.080
  305.500    0.289    0.364   78.560    5.000 2215.500
  305.750    0.272    0.359   70.591    5.191 2244.840
  306.000    0.273    0.368   54.663    5.191 2242.690
  306.250    0.303    0.401   44.856    4.908 2192.320
  306.500    0.337    0.396   38.725    4.553 2133.540
  306.750    0.358    0.376   30.144    4.304 2097.840
  307.000    0.367    0.369   25.847    4.068 2083.120
  307.250    0.369    0.378   25.222    3.993 2078.880
  307.500    0.362    0.390   28.275    3.919 2091.430
  307.750    0.362    0.392   33.776    3.919 2091.410
  308.000    0.372    0.389   39.888    3.994 2074.590
  308.250    0.363    0.372   45.998    3.994 2089.240
  308.500    0.359    0.368   45.991    3.994 2095.500
  308.750    0.370    0.372   45.978    3.995 2076.580
  309.000    0.375    0.378   49.030    3.995 2068.160
  309.250    0.364    0.380   52.080    3.995 2087.000
  309.500    0.345    0.396   52.685    3.921 2120.540
  309.750    0.345    0.399   53.286    3.921 2120.500
  310.000    0.352    0.377   52.051    3.921 2107.870
  310.250    0.340    0.372   52.042    3.996 2128.820
  310.500    0.337    0.396   50.806    3.996 2132.990
  310.750    0.347    0.418   44.063    3.997 2116.170
  311.000    0.363    0.385   31.196    3.997 2088.850
  311.250    0.368    0.367   29.350    3.997 2080.430
  311.500    0.358    0.361   39.747    4.150 2097.180
  311.750    0.338    0.394   41.572    4.229 2132.810
  312.000    0.335    0.404   36.664    4.229 2136.970
  312.250    0.354    0.392   31.757    4.151 2105.460
  312.500    0.363    0.379   30.521    4.151 2088.650
  312.750    0.367    0.374   36.020    4.230 2082.320
  313.000    0.343    0.360   40.909    4.311 2124.240
  313.250    0.328    0.355   45.797    4.476 2149.390
  313.500    0.321    0.376   45.787    4.647 2161.940
  313.750    0.313    0.363   43.940    4.648 2174.500
  314.000    0.310    0.357   39.645    4.648 2180.750
  314.250    0.317    0.377   33.512    4.562 2168.130
  314.500    0.345    0.397   30.442    4.477 2119.840
  314.750    0.361    0.392   27.368    4.312 2092.530
  315.000    0.368    0.389   26.747    4.313 2079.910
  315.250    0.350    0.389   26.126    4.313 2111.350
  315.500    0.346    0.378   27.952    4.478 2117.600
  315.750    0.339    0.371   42.024    4.650 2130.160
  316.000    0.322    0.366   51.809    4.828 2159.500
  316.250    0.306    0.345   56.697    5.013 2186.720
  316.500    0.302    0.386   49.952    5.013 2192.990
  316.750    0.308    0.401   37.696    4.739 2182.470
  317.000    0.340    0.391   29.116    4.565 2127.880
  317.250    0.345    0.380   26.656    4.480 2119.460
  317.500    0.348    0.363   27.257    4.315 2115.230
  317.750    0.350    0.348   29.080    4.316 2110.980
  318.000    0.349    0.344   29.074    4.316 2113.060
  318.250    0.344    0.349   29.674    4.316 2121.420
  318.500    0.334    0.345   30.274    4.316 2138.160
  318.750    0.327    0.332   30.267    4.567 2150.730
  319.000    0.301    0.323   30.258    4.923 2194.750
  319.250    0.284    0.316   30.250    5.209 2224.080
  319.500    0.296    0.327   29.627    5.408 2203.070
  319.750    0.311    0.352   27.168    5.409 2177.860
  320.000    0.315    0.362   22.872    5.210 2171.530
  320.250    0.330    0.366   24.087    5.113    0.000
  320.500    0.207    0.332   39.382    5.512    0.000
  320.750    0.003    0.301   51.615    7.444    0.000
  321.000    0.000    0.290   60.789   10.436    0.000
  321.250    0.011    0.287   63.839   14.360    0.000
  321.500    0.054    0.275   58.930   18.678    0.000
  321.750    0.017    0.272   51.574   21.705    0.000
  322.000    0.000    0.266   46.666   23.399    0.000
  322.250    0.002    0.253   47.882   24.757    0.000
  322.500    0.019    0.237   50.931   27.709    0.000
  322.750    0.016    0.223   50.920   29.872    0.000
  323.000    0.008    0.215   52.749   30.440    0.000
  323.250    0.007    0.210   53.963   30.442    0.000
  323.500    0.012    0.208   52.727   31.020    0.000
  323.750    0.020    0.207   51.493   32.820    0.000
  324.000    0.022    0.207   50.870   33.444    0.000
  324.250    0.026    0.209   50.247   31.615    0.000
  324.500    0.029    0.213   49.628   31.029    0.000
  324.750    0.023    0.221   49.617   29.888    0.000
  325.000    0.022    0.226   49.606   29.333    0.000
