~VERSION INFORMATION
 VERS.                 2.0:   CWLS LOG ASCII STANDARD -VERSION 2.0
 WRAP.                  NO:   ONE LINE PER DEPTH STEP
~WELL INFORMATION BLOCK
#MNEM.UNIT           DATA                    DESCRIPTION OF MNEMONIC
#---------    -------------------            -------------------------------
# Generated from Intellog Unique Number	CW_73_75/WELL/468
WELL.         COSEKA ET AL MITSIK            : Well_name    - WELL
LOC .         00/04-21-074-05W5/0            : Location     - LOCATION
UWI .         00/04-21-074-05W5/0            : Uwi          - UNIQUE WELL ID
ENTR.         JAYE                           : Entered      - ENTERED BY
SRVC.         WESTERN ATLAS                  : Scn          - SERVICE COMPANY
DATE.         21 NOV 82                      : Date         - LOG DATE
STRT.M        465                            : top_depth    - START DEPTH
STOP.M        685                            : bot_depth    - STOP DEPTH
STEP.M        0.25                           : increment    - STEP LENGTH
 NULL. -999.2500:NULL Value
~CURVE INFORMATION BLOCK
#MNEM UNIT       ERCB CURVE CODE    CURVE DESCRIPTION
#-----------   ------------------   ----------------------------------
DEPT.M        00 001 00 00         : DEPTH        - DEPTH
ILD .OHMM     00 120 00 00         : RESD         - DEEP RESISTIVITY (DIL)
CALI.MM       00 280 01 00         : CAL          - CALIPER
GR  .API      00 310 00 00         : GR           - GAMMA RAY
NPHI.V/V      00 330 00 00         : PHIN         - NEUTRON POROSITY (SANDSTONE)
DPHI.V/V      00 890 00 00         : PHID         - DENSITY POROSITY (SANDSTONE)
~PARAMETER INFORMATION
#MNEM.UNIT           DATA             DESCRIPTION OF MNEMONIC
#---------         -----------     ------------------------------
GL  .M        700.46               : gl           - GROUND LEVEL ELEVATION
EREF.M        705.26               : kb           - ELEVATION OF DEPTH REFERENCE
DATM.M        700.46               : datum        - DATUM ELEVATION
TDD .M        1779                 : tdd          - TOTAL DEPTH DRILLER
RUN .         ONE                  : Run          - RUN NUMBER
ENG .         LAMBORN              : Engineer     - RECORDING ENGINEER
WIT .         JONES                : Witness      - WITNESSED BY
BASE.         EDM                  : Branch       - HOME BASE OF LOGGING UNIT
MUD .         GEL CHEM             : Mud_type     - MUD TYPE
MATR.         SANDSTONE            : Logunit      - NEUTRON MATRIX
TMAX.C        44                   : BHT          - MAXIMUM RECORDED TEMPERATURE
BHTD.M        1779.9               : BHTDEP       - MAXIMUM RECORDED TEMPERATURE
RMT .C        13                   : MDTP         - TEMPERATURE OF MUD
MUDD.KG/M     1100                 : MWT          - MUD DENSITY
NEUT.         1                    : NEUTRON      - NEUTRON TYPE
RESI.         0                    : RESIST       - RESISTIVITY TYPE
RM  .OHMM     0.65                 : RM           - RESISTIVITY OF MUD
RMC .OHMM     1.31                 : RMC          - RESISTIVITY OF MUD CAKE
RMF .OHMM     1.9                  : RMF          - RESISTIVITY OF MUD FILTRATE
SUFT.C        0                    : SUFT         - SURFACE TEMPERATURE
~A  DEPTH     RESD      CAL       GR     PHIN     PHID
# ...
  647.500    4.459  298.402   82.547    0.409    0.289
  647.750    4.353  298.971   81.459    0.444    0.315
  648.000    4.233  299.973   80.612    0.470    0.331
  648.250    4.243  300.747   78.773    0.489    0.342
  648.500    4.292  299.240   81.305    0.507    0.351
  648.750    4.416  296.074   82.962    0.461    0.294
  649.000    4.509  294.151   82.999    0.425    0.235
  649.250    4.683  293.581   82.347    0.429    0.203
  649.500    4.855  294.786   81.750    0.465    0.229
  649.750    4.874  297.023   81.288    0.458    0.257
  650.000    4.688  298.332   81.444    0.449    0.279
  650.250    4.474  296.719   81.605    0.449    0.305
  650.500    4.246  293.449   82.260    0.448    0.343
  650.750    4.176  290.074   83.604    0.449    0.405
  651.000    4.411  286.275   86.822    0.442    0.451
  651.250    5.118  281.234   84.423    0.422    0.472
  651.500    5.860  275.460   82.208    0.398    0.320
  651.750    6.812  265.321   79.808    0.377    0.295
  652.000    8.471  258.415   77.405    0.357    0.274
  652.250   10.242  258.566   75.191    0.335    0.242
  652.500   10.578  263.516   76.475    0.323    0.191
  652.750    9.366  269.091   79.004    0.319    0.103
  653.000    8.402  272.469   84.157    0.323    0.122
  653.250    7.637  275.551   89.872    0.326    0.171
  653.500    7.154  277.478   90.592    0.331    0.181
  653.750    6.726  278.992   88.878    0.340    0.190
  654.000    6.456  279.768   88.662    0.346    0.205
  654.250    6.185  280.969   90.633    0.352    0.219
  654.500    5.959  282.174   94.409    0.363    0.211
  654.750    5.817  283.683   97.439    0.370    0.198
  655.000    5.678  285.820   95.598    0.356    0.182
  655.250    5.606  288.270   92.011    0.344    0.171
  655.500    5.576  289.369   87.425    0.364    0.191
  655.750    5.726  289.423   83.151    0.411    0.219
  656.000    6.003  289.066   80.812    0.393    0.245
  656.250    6.246  290.779   81.285    0.352    0.265
  656.500    6.536  295.934   80.254    0.362    0.256
  656.750    6.955  294.532   77.859    0.378    0.247
  657.000    7.585  286.992   76.082    0.392    0.236
  657.250    8.349  279.038   74.246    0.333    0.227
  657.500    8.969  275.138   72.773    0.330    0.220
  657.750    9.617  271.036   71.497    0.331    0.206
  658.000   10.007  268.488   70.968    0.314    0.162
  658.250    9.515  267.199   71.564    0.291    0.148
  658.500    8.747  266.936   73.477    0.300    0.113
  658.750    8.086  268.136   74.940    0.317    0.122
  659.000    7.350  270.384   76.283    0.351    0.132
  659.250    6.769  272.928   78.440    0.348    0.129
  659.500    6.130  277.982   81.223    0.340    0.126
  659.750    5.614  283.137   83.316    0.345    0.136
  660.000    5.132  288.183   85.157    0.360    0.169
  660.250    4.834  292.404   87.193    0.411    0.223
  660.500    4.520  296.103   88.035    0.494    0.273
  660.750    4.233  298.962   89.002    0.483    0.333
  661.000    4.003  300.267   90.161    0.456    0.314
  661.250    3.799  295.850   91.758    0.439    0.341
  661.500    3.633  285.189   91.791    0.450    0.484
  661.750    3.500  275.465   91.263    0.491    0.508
  662.000    3.481  274.277   92.106    0.541    0.512
  662.250    3.650  274.330   97.323    0.531    0.497
  662.500    4.203  274.805  100.165    0.492    0.471
  662.750    5.386  275.273  100.509    0.465    0.431
  663.000    6.512  275.849   93.738    0.396    0.384
  663.250    7.304  276.961   80.848    0.361    0.257
  663.500    7.403  277.730   85.565    0.357    0.116
  663.750    7.392  279.143   86.534    0.362    0.122
  664.000    7.068  281.279   84.947    0.371    0.143
  664.250    6.746  284.873   84.986    0.386    0.162
  664.500    6.499  288.776   85.578    0.404    0.183
  664.750    6.309  293.309   86.606    0.406    0.198
  665.000    6.228  297.003   87.514    0.400    0.205
  665.250    6.230  297.994   86.116    0.392    0.215
  665.500    6.255  297.536   85.772    0.411    0.226
  665.750    6.316  296.650   85.305    0.429    0.236
  666.000    6.389  295.767   84.719    0.413    0.248
  666.250    6.586  295.110   84.250    0.396    0.253
  666.500    6.853  294.740   83.782    0.385    0.243
  666.750    7.131  294.172   82.442    0.374    0.215
  667.000    7.241  292.660   83.412    0.360    0.172
  667.250    7.189  286.371   84.321    0.345    0.167
  667.500    7.031  283.208   85.355    0.361    0.172
  667.750    6.915  282.741   87.205    0.376    0.182
  668.000    6.763  283.418   88.670    0.378    0.199
  668.250    6.664  284.416   88.950    0.391    0.216
  668.500    6.604  285.093   88.547    0.401    0.214
  668.750    6.544  285.879   85.457    0.390    0.211
  669.000    6.485  287.385   83.430    0.368    0.231
  669.250    6.343  289.633   84.088    0.379    0.250
  669.500    6.203  291.764   85.560    0.372    0.231
  669.750    6.032  295.154   87.153    0.349    0.203
  670.000    5.736  297.600   89.377    0.392    0.162
  670.250    5.465  300.050   90.155    0.451    0.184
  670.500    5.255  303.122   86.316    0.484    0.244
  670.750    4.821  306.299   81.793    0.471    0.318
  671.000    3.953  312.703   81.954    0.471    0.359
  671.250    3.168  326.281   77.116    0.605    0.499
  671.500    2.378  343.196   65.289    0.613    0.623
  671.750    1.864  347.618   58.392    0.585    0.653
  672.000    1.542  355.580   51.496    0.569    0.659
  672.250    1.293  374.158   46.286    0.549    0.657
  672.500    1.209  379.933   51.440    0.574    0.651
  672.750    1.275  365.007   64.958    0.567    0.631
  673.000    1.449  335.726   71.920    0.516    0.546
  673.250    1.822  275.331   76.634    0.495    0.356
  673.500    2.262  274.454   77.110    0.462    0.306
  673.750    2.915  276.278   78.450    0.437    0.240
  674.000    3.401  279.564   80.984    0.421    0.206
  674.250    4.182  282.841   82.264    0.402    0.164
  674.500    5.142  287.371   84.107    0.380    0.143
  674.750    6.665  292.215   85.763    0.357    0.150
  675.000    6.974  296.012   86.233    0.374    0.163
  675.250    7.162  300.333   86.392    0.409    0.212
  675.500    6.978  305.278   84.490    0.425    0.230
  675.750    6.524  308.664   83.027    0.433    0.241
  676.000    6.111  311.217   82.060    0.446    0.253
  676.250    5.988  315.022   82.157    0.446    0.217
  676.500    5.890  319.032   82.877    0.376    0.226
  676.750    5.738  322.935   83.409    0.421    0.283
  677.000    5.518  325.382   80.508    0.452    0.359
  677.250    5.367  325.961   77.173    0.491    0.392
  677.500    5.239  323.207   79.890    0.547    0.414
  677.750    5.143  318.789   83.668    0.558    0.444
  678.000    5.020  312.291   83.764    0.548    0.473
  678.250    4.873  304.020   80.740    0.510    0.494
  678.500    4.539  299.607   77.280    0.470    0.510
  678.750    4.268  301.739   73.754    0.443    0.515
  679.000    4.066  308.662   70.791    0.463    0.564
  679.250    3.866  327.445   69.326    0.477    0.576
  679.500    3.690  333.437   71.168    0.472    0.517
  679.750    3.609  326.829   77.884    0.459    0.433
  680.000    3.563  307.740   87.966    0.442    0.345
  680.250    3.590  281.371   93.991    0.432    0.252
  680.500    3.687  277.370   96.398    0.430    0.213
  680.750    3.737  276.383   95.371    0.435    0.219
  681.000    3.816  276.335   95.968    0.422    0.248
  681.250    3.948  276.391   94.315    0.401    0.265
  681.500    4.108  276.447   93.476    0.363    0.277
  681.750    4.299  275.157   96.066    0.402    0.288
  682.000    4.532  272.509  101.219    0.448    0.300
  682.250    4.769  269.021  104.751    0.427    0.303
  682.500    5.123  264.713  104.219    0.372    0.291
  682.750    5.768  259.670  103.255    0.345    0.250
  683.000    7.406  249.835  102.728    0.296    0.220
  683.250    9.420  233.141   46.578    0.267    0.192
  683.500   12.027  227.474   45.860    0.233    0.167
  683.750   16.899  209.949   46.393    0.194    0.127
