~VERSION INFORMATION
 VERS.                 2.0:   CWLS LOG ASCII STANDARD -VERSION 2.0
 WRAP.                  NO:   ONE LINE PER DEPTH STEP
~WELL INFORMATION BLOCK
#MNEM.UNIT           DATA                    DESCRIPTION OF MNEMONIC
#---------    -------------------            -------------------------------
# Generated from Intellog Unique Number	CW_73_75/WELL/2731
WELL.         RIVA KELLY 07-22               : Well_name    - WELL
LOC .         00/07-22-073-19W4/0            : Location     - LOCATION
UWI .         00/07-22-073-19W4/0            : Uwi          - UNIQUE WELL ID
ENTR.         JAYE                           : Entered      - ENTERED BY
SRVC.         SCHLUMBERGER                   : Scn          - SERVICE COMPANY
DATE.         16 DEC 77                      : Date         - LOG DATE
STRT.M        365.76                         : top_depth    - START DEPTH
STOP.M        570.01                         : bot_depth    - STOP DEPTH
STEP.M        0.25                           : increment    - STEP LENGTH
 NULL. -999.2500:NULL Value
~CURVE INFORMATION BLOCK
#MNEM UNIT       ERCB CURVE CODE    CURVE DESCRIPTION
#-----------   ------------------   ----------------------------------
DEPT.M        00 001 00 00         : DEPTH        - DEPTH
ILD .OHMM     00 120 00 00         : RESD         - DEEP RESISTIVITY (DIL)
NPHI.V/V      00 330 00 00         : PHIN         - NEUTRON POROSITY (SANDSTONE)
DPHI.V/V      00 890 00 00         : PHID         - DENSITY POROSITY (SANDSTONE)
GR  .API      00 310 00 00         : GR           - GAMMA RAY
CALI.MM       00 280 01 00         : CAL          - CALIPER
~PARAMETER INFORMATION
#MNEM.UNIT           DATA             DESCRIPTION OF MNEMONIC
#---------         -----------     ------------------------------
GL  .M        670.865              : gl           - GROUND LEVEL ELEVATION
EREF.M        673.913              : kb           - ELEVATION OF DEPTH REFERENCE
DATM.M        670.865              : datum        - DATUM ELEVATION
TDD .M        567.842              : tdd          - TOTAL DEPTH DRILLER
RUN .         ONE                  : Run          - RUN NUMBER
ENG .         DALY                 : Engineer     - RECORDING ENGINEER
WIT .         STEIDEL              : Witness      - WITNESSED BY
BASE.         EDM                  : Branch       - HOME BASE OF LOGGING UNIT
MUD .         DAPP                 : Mud_type     - MUD TYPE
MATR.         SANDSTONE            : Logunit      - NEUTRON MATRIX
TMAX.C        23.3333              : BHT          - MAXIMUM RECORDED TEMPERATURE
BHTD.M        566.318              : BHTDEP       - MAXIMUM RECORDED TEMPERATURE
RMT .C        18.8889              : MDTP         - TEMPERATURE OF MUD
MUDD.KG/M     1176                 : MWT          - MUD DENSITY
NEUT.         1                    : NEUTRON      - NEUTRON TYPE
RESI.         0                    : RESIST       - RESISTIVITY TYPE
RM  .OHMM     0.99                 : RM           - RESISTIVITY OF MUD
RMC .OHMM     0                    : RMC          - RESISTIVITY OF MUD CAKE
RMF .OHMM     0                    : RMF          - RESISTIVITY OF MUD FILTRATE
SUFT.C        -17.7778             : SUFT         - SURFACE TEMPERATURE
~A  DEPTH     RESD     PHIN     PHID       GR      CAL
# ...
  438.760    6.071    0.445    0.377   51.203  141.583
  439.010    6.027    0.457    0.374   54.281  142.136
  439.260    5.939    0.470    0.371   56.294  143.013
  439.510    5.808    0.468    0.365   53.002  143.675
  439.760    5.680    0.459    0.355   54.142  144.336
  440.010    5.565    0.474    0.347   55.408  145.847
  440.260    5.494    0.485    0.331   57.797  148.199
  440.510    5.496    0.491    0.281   61.186  152.036
  440.760    5.529    0.490    0.315   66.387  151.216
  441.010    5.604    0.460    0.346   68.901  148.283
  441.260    5.821    0.461    0.336   65.795  146.201
  441.510    6.047    0.468    0.326   65.813  144.218
  441.760    6.188    0.471    0.316   67.203  142.658
  442.010    6.249    0.478    0.308   70.404  142.368
  442.260    6.286    0.487    0.303   73.668  143.880
  442.510    6.324    0.477    0.300   70.502  146.129
  442.760    6.338    0.467    0.301   67.582  147.846
  443.010    6.305    0.463    0.309   64.976  148.511
  443.260    6.259    0.466    0.327   65.744  146.528
  443.510    6.238    0.481    0.323   67.632  144.445
  443.760    6.228    0.484    0.314   69.772  145.529
  444.010    6.195    0.479    0.309   72.286  146.613
  444.260    6.174    0.473    0.304   74.177  147.910
  444.510    6.129    0.475    0.313   75.505  148.791
  444.760    6.120    0.472    0.326   76.148  148.815
  445.010    6.110    0.456    0.331   75.663  148.737
  445.260    6.078    0.443    0.335   73.746  148.340
  445.510    6.046    0.438    0.338   71.263  147.418
  445.760    6.013    0.446    0.334   67.344  146.599
  446.010    5.847    0.454    0.323   65.175  145.887
  446.260    7.104    0.448    0.277   65.504  146.660
  446.510    7.958    0.400    0.238   68.019  147.536
  446.760    8.798    0.349    0.199   71.470  149.358
  447.010    9.764    0.299    0.141   72.925  153.194
  447.260   10.454    0.342    0.207   70.754  156.923
  447.510   11.024    0.400    0.258   67.400  155.575
  447.760   11.539    0.431    0.286   64.604  151.056
  448.010   11.987    0.435    0.221   61.249  147.912
  448.260   13.078    0.303    0.101   58.580  144.871
  448.510   14.931    0.208    0.070   56.225  148.497
  448.760   18.105    0.163    0.038   54.241  152.861
  449.010   23.365    0.147    0.010   52.074  157.751
  449.260   28.874    0.141    0.001   50.590  158.738
  449.510   33.845    0.145   -0.002   49.172  159.185
  449.760   37.772    0.148    0.001   48.189  159.637
  450.010   42.394    0.156    0.013   47.517  159.453
  450.260   39.847    0.208    0.046   47.097  158.742
  450.510   28.115    0.250    0.181   50.424  157.606
  450.760   19.950    0.331    0.205   54.374  154.142
  451.010   15.645    0.384    0.234   61.511  149.095
  451.260   12.361    0.417    0.303   63.465  145.317
  451.510    9.897    0.442    0.293   64.167  144.922
  451.760    8.433    0.446    0.271   65.121  145.269
  452.010    7.562    0.434    0.240   69.136  146.356
  452.260    6.935    0.406    0.265   73.335  148.075
  452.510    6.361    0.418    0.301   79.286  149.584
  452.760    5.823    0.431    0.239   86.484  150.670
  453.010    5.341    0.428    0.219   90.247  151.758
  453.260    5.010    0.425    0.209   92.451  152.523
  453.510    4.544    0.446    0.200   93.529  153.505
  453.760    4.295    0.457    0.188   94.170  154.062
  454.010    4.007    0.456    0.171   94.376  154.299
  454.260    3.773    0.466    0.212   93.703  154.964
  454.510    3.520    0.469    0.216   91.347  155.834
  454.760    3.278    0.463    0.218   88.678  157.028
  455.010    3.058    0.460    0.223   86.759  158.115
  455.260    2.842    0.473    0.231   87.150  158.671
  455.510    2.671    0.465    0.240   88.603  159.226
  455.760    2.632    0.478    0.250   88.619  159.573
  456.010    2.673    0.495    0.264   83.890  159.282
  456.260    2.883    0.476    0.287   74.226  157.511
  456.510    3.310    0.447    0.305   68.497  152.041
  456.760    3.764    0.429    0.317   61.144  148.053
  457.010    4.306    0.425    0.325   61.412  147.239
  457.260    5.085    0.429    0.328   62.053  146.943
  457.510    5.697    0.438    0.335   62.195  146.762
  457.760    5.940    0.438    0.337   62.272  146.577
  458.010    5.864    0.430    0.333   62.416  146.605
  458.260    5.767    0.435    0.321   62.370  146.847
  458.510    5.629    0.434    0.313   62.136  147.088
  458.760    5.578    0.432    0.313   63.338  147.433
  459.010    5.517    0.426    0.315   66.041  147.989
  459.260    5.447    0.424    0.304   68.306  148.866
  459.510    5.397    0.434    0.302   69.822  149.949
  459.760    5.349    0.447    0.312   69.838  150.292
  460.010    5.270    0.454    0.322   69.542  150.007
  460.260    5.212    0.445    0.335   65.812  149.610
  460.510    5.165    0.436    0.340   61.208  149.005
  460.760    5.128    0.431    0.336   60.974  148.398
  461.010    5.120    0.434    0.328   61.803  148.004
  461.260    5.141    0.433    0.335   63.694  147.608
  461.510    5.211    0.434    0.342   66.333  147.529
  461.760    5.263    0.439    0.348   68.160  147.980
  462.010    5.294    0.438    0.347   68.239  148.648
  462.260    5.257    0.431    0.343   68.255  149.623
  462.510    5.209    0.426    0.342   69.085  150.500
  462.760    5.161    0.419    0.344   69.914  150.949
  463.010    5.144    0.414    0.336   70.243  151.084
  463.260    5.155    0.411    0.339   70.945  150.899
  463.510    5.157    0.407    0.344   71.401  150.404
  463.760    5.139    0.405    0.334   70.668  150.110
  464.010    5.160    0.418    0.327   69.684  149.720
  464.260    5.211    0.436    0.326   69.013  149.744
  464.510    5.413    0.433    0.310   68.156  149.772
  464.760    5.873    0.377    0.231   64.364  149.908
  465.010    6.641    0.293    0.135   61.694  150.995
  465.260    7.829    0.234    0.056   57.526  152.923
  465.510    8.937    0.207    0.036   55.544  155.065
  465.760    9.955    0.206    0.038   57.060  157.526
  466.010   10.719    0.218    0.090   59.137  159.457
  466.260    9.794    0.234    0.112   60.216  160.227
  466.510    8.949    0.243    0.125   61.233  159.938
  466.760    8.162    0.254    0.135   62.435  159.756
  467.010    7.599    0.273    0.153   63.451  158.512
  467.260    7.211    0.292    0.235   63.655  156.743
  467.510    6.946    0.341    0.268   62.797  153.810
  467.760    6.691    0.367    0.266   62.502  151.195
  468.010    6.470    0.338    0.238   63.955  143.714
  468.260    6.220    0.365    0.262   67.969  140.676
  468.510    5.858    0.399    0.339   71.919  140.811
  468.760    5.558    0.428    0.348   71.189  142.742
  469.010    5.304    0.434    0.344   69.642  145.524
  469.260    5.023    0.434    0.340   65.974  147.878
  469.510    4.876    0.441    0.341   61.182  148.961
  469.760    4.831    0.448    0.351   60.886  147.403
  470.010    4.833    0.449    0.360   62.215  144.363
  470.260    4.889    0.451    0.361   64.168  142.171
  470.510    4.966    0.447    0.362   65.745  141.776
  470.760    5.014    0.443    0.362   68.198  142.020
  471.010    5.016    0.440    0.359   69.650  142.574
  471.260    5.046    0.443    0.348   66.858  144.190
  471.510    5.077    0.447    0.349   64.562  145.698
  471.760    5.126    0.453    0.350   63.206  147.100
  472.010    5.255    0.461    0.346   61.098  147.656
  472.260    5.388    0.470    0.337   59.304  147.683
  472.510    5.430    0.479    0.332   60.196  143.482
  472.760    5.442    0.487    0.328   62.148  139.491
  473.010    5.444    0.495    0.336   65.099  143.644
  473.260    5.446    0.493    0.333   68.739  146.635
  473.510    5.469    0.484    0.328   70.316  147.190
  473.760    5.491    0.468    0.326   68.772  147.432
  474.010    5.524    0.453    0.325   66.668  147.670
  474.260    5.536    0.439    0.322   64.746  147.491
  474.510    5.601    0.432    0.322   61.889  147.201
  474.760    5.635    0.428    0.327   59.097  146.592
  475.010    5.626    0.433    0.326   57.427  144.295
