~VERSION INFORMATION
 VERS.                 2.0:   CWLS LOG ASCII STANDARD -VERSION 2.0
 WRAP.                  NO:   ONE LINE PER DEPTH STEP
~WELL INFORMATION BLOCK
#MNEM.UNIT           DATA                    DESCRIPTION OF MNEMONIC
#---------    -------------------            -------------------------------
# Generated from Intellog Unique Number	CC_80_83/WELL/1184
NULL.         -999.25                        : NULL_VALUE
WELL.         CWWE KEANE                     : Well_name    - WELL
LOC .         07-15-080-14W4                 : Location     - LOCATION          
UWI .         00/07-15-080-14W4/0            : Uwi          - UNIQUE WELL ID    
ENTR.         DW                             : Entered      - ENTERED BY        
SRVC.         SCHLUMBERGER                   : Scn          - SERVICE COMPANY   
DATE.         23 DEC 84                      : Date         - LOG DATE
STRT.M        255                            : top_depth    - START DEPTH       
STOP.M        494.99                         : bot_depth    - STOP DEPTH        
STEP.M        0.3                            : increment    - STEP LENGTH       
~CURVE INFORMATION BLOCK
#MNEM UNIT       ERCB CURVE CODE    CURVE DESCRIPTION
#-----------   ------------------   ----------------------------------
DEPT.M        00 001 00 00         : DEPTH        - DEPTH                       
DPHI.V/V      00 890 00 00         : PHID         - DENSITY POROSITY (LIMESTONE)
NPHI.V/V      00 330 00 00         : PHIN         - NEUTRON POROSITY (LIMESTONE)
GR  .API      00 310 00 00         : GR           - GAMMA RAY                   
ILD .OHMM     00 120 00 00         : RESD         - DEEP RESISTIVITY (DIL)      
~PARAMETER INFORMATION       
#MNEM.UNIT           DATA             DESCRIPTION OF MNEMONIC
#---------         -----------     ------------------------------
GL  .M        674.75               : gl           - GROUND LEVEL ELEVATION      
EREF.M        678.8                : kb           - ELEVATION OF DEPTH REFERENCE
DATM.M        678.8                : datum        - DATUM ELEVATION             
TDD .M        504                  : tdd          - TOTAL DEPTH DRILLER         
RUN .         ONE                  : Run          - RUN NUMBER                  
ENG .         BILL                 : Engineer     - RECORDING ENGINEER          
WIT .         JIM                  : Witness      - WITNESSED BY                
MUD .         GEL                  : Mud_type     - MUD TYPE                    
MATR.         LIMESTONE            : Logunit      - NEUTRON MATRIX              
TMAX.C        20                   : BHT          - MAXIMUM RECORDED TEMPERATURE
BHTD.M        503                  : BHTDEP       - MAXIMUM RECORDED TEMPERATURE
MATR.         1                    : LOGUNIT      - NEUTRON MATRIX              
RMT .C        25                   : MDTP         - TEMPERATURE OF MUD          
NEUT.         1                    : NEUTRON      - NEUTRON TYPE                
RESI.         0                    : RESIST       - RESISTIVITY TYPE            
RMC .OHMM     0.25                 : RMC          - RESISTIVITY OF MUD CAKE     
RMF .OHMM     0.25                 : RMF          - RESISTIVITY OF MUD FILTRATE 
SUFT.C        15                   : SUFT         - SURFACE TEMPERATURE         
~A  DEPTH     PHID     PHIN       GR     RESD
# ...
  411.594    0.201    0.474   86.527    4.731
  411.894    0.186    0.399   80.323    5.724
  412.194    0.160    0.406   72.259    7.619
  412.494    0.128    0.414   69.154    8.705
  412.794    0.165    0.396   74.104    9.042
  413.094    0.181    0.414   76.574    9.040
  413.394    0.191    0.421   79.046    9.038
  413.694    0.179    0.412   85.855    9.037
  413.994    0.186    0.397   80.890    9.034
  414.294    0.195    0.374   75.925    9.033
  414.594    0.185    0.379   77.775    9.382
  414.894    0.175    0.389   77.769    9.380
  415.194    0.164    0.408   77.141    9.930
  415.494    0.155    0.406   80.233   10.314
  415.794    0.154    0.413   74.648   10.313
  416.094    0.170    0.419   75.880   10.510
  416.393    0.194    0.409   81.449   10.507
  416.693    0.195    0.365   79.582   10.708
  416.993    0.149    0.326   75.237   11.122
  417.293    0.120    0.317   78.328   11.334
  417.593    0.143    0.352   85.757   10.701
  417.893    0.153    0.383   90.707    8.674
  418.193    0.181    0.373   93.798    7.304
  418.493    0.173    0.378   91.311    6.269
  418.793    0.175    0.388   87.585    5.179
  419.093    0.189    0.388   82.619    4.530
  419.393    0.196    0.402   80.135    3.963
  419.693    0.218    0.416   76.407    3.275
  419.993    0.246    0.426   75.162    2.193
  420.293    0.275    0.519   73.293    1.955
  420.593    0.295    0.537   72.046    1.955
  420.893    0.300    0.547   71.421    2.110
  421.193    0.273    0.514   71.413    3.398
  421.493    0.204    0.425   74.504    5.474
  421.793    0.180    0.397   72.636    6.498
  422.093    0.200    0.391   68.910    7.284
  422.393    0.207    0.409   68.903    8.166
  422.693    0.197    0.411   64.558    9.155
  422.993    0.099    0.386   61.453    9.692
  423.293    0.093    0.340   68.881    9.507
  423.593    0.137    0.335   73.212    5.065
  423.893    0.184    0.372   78.162    4.264
  424.193    0.203    0.397   84.351    4.104
  424.493    0.192    0.420   77.527    3.950
  424.793    0.162    0.420   70.083    4.025
  425.093    0.189    0.384   73.794    4.181
  425.393    0.214    0.393   83.701    4.180
  425.693    0.230    0.469   82.454    3.799
  425.993    0.228    0.502   81.207    3.452
  426.293    0.191    0.450   84.918    3.387
  426.593    0.217    0.435   89.867    3.518
  426.893    0.219    0.442   97.296    3.796
  427.193    0.193    0.485   91.092    4.175
  427.493    0.171    0.494   91.083    4.336
  427.793    0.131    0.415   94.796    4.419
  428.093    0.155    0.426   99.745    4.335
  428.393    0.221    0.507  104.075    4.334
  428.693    0.231    0.485  102.208    4.501
  428.993    0.217    0.440   93.526    4.857
  429.293    0.175    0.424   81.744    5.445
  429.593    0.107    0.392   65.005    6.845
  429.893    0.203    0.288   64.996    7.673
  430.193    0.246    0.307   69.947   12.598
  430.493    0.252    0.328   61.263   13.855
  430.793    0.241    0.314   62.496   13.853
  431.093    0.213    0.321   71.164   12.833
  431.393    0.198    0.337   75.493   10.402
  431.693    0.191    0.350   73.007    9.274
  431.993    0.170    0.367   68.043    9.451
  432.293    0.137    0.294   64.935   10.595
  432.593    0.202    0.306   67.408   12.340
  432.893    0.261    0.313   55.007   16.115
  433.193    0.311    0.250   42.606   23.596
  433.493    0.338    0.189   26.487   29.660
  433.793    0.326    0.200   33.294   33.891
  434.093    0.323    0.252   40.103   33.884
  434.393    0.255    0.316   58.067   21.027
  434.693    0.225    0.321   71.693   17.371
  434.993    0.209    0.329   84.699   16.092
  435.293    0.179    0.346   85.309   15.784
  435.593    0.201    0.333   82.825   17.360
  435.893    0.261    0.315   63.607   21.005
  436.193    0.305    0.271   46.249   27.959
  436.493    0.393    0.095   29.510   91.226
  436.793    0.444    0.077   32.601  114.668
  437.093    0.428    0.101   36.311  116.853
  437.393    0.383    0.111   38.781  102.224
  437.693    0.397    0.126   43.731   54.458
  437.993    0.399    0.199   51.160   32.529
  438.293    0.380    0.256   51.152   19.805
  438.593    0.295    0.317   35.653   15.452
  438.893    0.272    0.325   39.364   13.261
  439.193    0.256    0.323   45.552   12.285
  439.493    0.255    0.330   42.446   11.380
  439.793    0.280    0.330   34.383   10.343
  440.093    0.295    0.326   30.038    9.765
  440.393    0.307    0.326   28.791    9.397
  440.693    0.316    0.344   26.305    9.396
  440.992    0.319    0.358   23.819    9.575
  441.292    0.309    0.365   23.192   10.332
  441.592    0.316    0.366   20.085   12.502
  441.892    0.307    0.346   19.457   20.526
  442.192    0.295    0.345   19.448   39.256
  442.492    0.297    0.352   21.302   75.076
  442.792    0.300    0.331   26.251  116.407
  443.092    0.299    0.332   33.061  138.180
  443.392    0.275    0.337   46.067  143.528
  443.692    0.274    0.347   59.072  149.077
  443.992    0.286    0.356   57.826  149.042
  444.292    0.289    0.351   57.197  143.435
  444.592    0.288    0.342   58.431  125.483
  444.892    0.274    0.336   56.563   63.130
  445.192    0.242    0.341   50.358   60.754
  445.492    0.262    0.399   47.873   64.319
  445.792    0.289    0.397   54.682   79.320
  446.092    0.283    0.372   67.068  137.905
  446.392    0.187    0.361   68.300  176.685
  446.692    0.127    0.321   64.574  183.510
  446.992    0.181    0.235   49.694  176.611
  447.292    0.283    0.305   49.067  157.479
  447.592    0.292    0.345   58.974   45.561
  447.892    0.250    0.343   71.361   35.547
  448.192    0.245    0.358   80.028   28.268
  448.492    0.231    0.355   76.921   24.730
  448.792    0.218    0.351   72.578   22.475
  449.092    0.209    0.358   76.288   22.046
  449.392    0.199    0.366   79.379   22.898
  449.692    0.216    0.361   68.837   25.184
  449.992    0.256    0.370   52.675   41.534
  450.292    0.321    0.393   41.517   43.188
  450.592    0.279    0.405   52.048   40.806
  450.892    0.247    0.381   66.917   34.379
  451.192    0.240    0.360   86.123   27.353
  451.492    0.213    0.339   89.839   22.182
  451.792    0.168    0.324   97.891   18.690
  452.092    0.182    0.313  114.000   17.329
  452.392    0.210    0.313  123.911   18.719
  452.692    0.233    0.310   97.260   21.409
  452.992    0.269    0.296   89.819   29.090
  453.292    0.281    0.276   87.955   38.776
  453.592    0.344    0.176   80.516   46.965
  453.892    0.398    0.125   53.244   60.263
  454.192    0.323    0.196   48.282   67.630
  454.492    0.299    0.252   86.701   73.055
  454.792    0.325    0.232   90.416   81.984
  455.092    0.366    0.162   60.045   97.446
  455.392    0.352    0.197   56.943  109.353
  455.692    0.339    0.223   64.376  118.104
  455.992    0.329    0.232   84.823  130.035
  456.292    0.338    0.170   85.438  143.186
  456.592    0.359    0.167   65.604  146.033
  456.892    0.331    0.329   70.557  135.378
  457.192    0.296    0.345   82.948   56.249
  457.492    0.262    0.288   99.675   49.242
  457.792    0.344    0.189   97.193   51.192
  458.092    0.380    0.162   70.541   75.079
  458.392    0.389    0.152   66.819  133.287
  458.692    0.371    0.140   71.153  206.995
  458.992    0.386    0.125   63.093  340.447
  459.292    0.397    0.127   56.892  382.045
  459.592    0.407    0.125   51.931  490.180
  459.892    0.442    0.106   35.194  641.019
  460.192    0.421    0.104   28.374  719.312
  460.492    0.399    0.107   31.467  777.067
  460.792    0.411    0.101   33.942  748.360
  461.092    0.450    0.086   29.601  655.188
  461.392    0.463    0.070   21.541  631.120
  461.692    0.477    0.051   22.777  631.447
  461.992    0.442    0.069   53.139  669.246
  462.292    0.412    0.126   61.191  682.610
  462.592    0.429    0.141   47.554  709.593
  462.892    0.483    0.134   37.014  827.390
  463.192    0.468    0.074   34.532  946.481
  463.492    0.444    0.080   32.669 1285.940
