~VERSION INFORMATION
 VERS.                 2.0:   CWLS LOG ASCII STANDARD -VERSION 2.0
 WRAP.                  NO:   ONE LINE PER DEPTH STEP
~WELL INFORMATION BLOCK
#MNEM.UNIT           DATA                    DESCRIPTION OF MNEMONIC
#---------    -------------------            -------------------------------
# Generated from Intellog Unique Number	CX_WELLS/WELL/2567
WELL.         SIEBENS COWFAR                 : Well_name    - WELL
LOC .         00/06-34-080-03W4/0            : Location     - LOCATION
UWI .         00/06-34-080-03W400            : Uwi          - UNIQUE WELL ID
ENTR.         T                              : Entered      - ENTERED BY
SRVC.         SCHLUMBERGER                   : Scn          - SERVICE COMPANY
STRT.F        300                            : top_depth    - START DEPTH
STOP.F        970.112                        : bot_depth    - STOP DEPTH
STEP.F        0.82                           : increment    - STEP LENGTH
 NULL. -999.2500:NULL Value
~CURVE INFORMATION BLOCK
#MNEM UNIT       ERCB CURVE CODE    CURVE DESCRIPTION
#-----------   ------------------   ----------------------------------
DEPT.F        00 001 00 00         : DEPTH        - DEPTH
GR  .API      00 310 00 00         : GR           - GAMMA RAY
NPHI.V/V      00 330 00 00         : PHIN         - NEUTRON POROSITY (SANDSTONE)
DPHI.V/V      00 890 00 00         : PHID         - DENSITY POROSITY (SANDSTONE)
ILD .OHMM     00 120 00 00         : RESD         - DEEP RESISTIVITY (DIL)
~PARAMETER INFORMATION
#MNEM.UNIT           DATA             DESCRIPTION OF MNEMONIC
#---------         -----------     ------------------------------
GL  .F        1635                 : gl           - GROUND LEVEL ELEVATION
EREF.F        1647                 : kb           - ELEVATION OF DEPTH REFERENCE
DATM.F        1647                 : datum        - DATUM ELEVATION
TDD .F        1018                 : tdd          - TOTAL DEPTH DRILLER
RUN .         ONE                  : Run          - RUN NUMBER
ENG .         BILL                 : Engineer     - RECORDING ENGINEER
WIT .         JIM                  : Witness      - WITNESSED BY
MUD .         GEL                  : Mud_type     - MUD TYPE
MATR.         SANDSTONE            : Logunit      - NEUTRON MATRIX
TMAX.F        71.6                 : BHT          - MAXIMUM RECORDED TEMPERATURE
BHTD.F        1018                 : BHTDEP       - MAXIMUM RECORDED TEMPERATURE
MATR.         1                    : LOGUNIT      - NEUTRON MATRIX
RMT .F        77                   : MDTP         - TEMPERATURE OF MUD
NEUT.         1                    : NEUTRON      - NEUTRON TYPE
RESI.         6.29                 : RESIST       - RESISTIVITY TYPE
RMC .OHMM     7.15                 : RMC          - RESISTIVITY OF MUD CAKE
RMF .OHMM     7.15                 : RMF          - RESISTIVITY OF MUD FILTRATE
SUFT.F        32                   : SUFT         - SURFACE TEMPERATURE
~A  DEPTH       GR     PHIN     PHID     RESD
# ...
  870.866   66.364    0.392    0.276    1.370
  871.686   62.875    0.395    0.296    1.420
  872.507   57.645    0.398    0.302    1.472
  873.327   51.830    0.409    0.306    1.525
  874.147   46.600    0.411    0.312    1.552
  874.967   43.105    0.414    0.316    1.608
  875.787   39.609    0.415    0.323    1.666
  876.608   36.681    0.414    0.326    1.664
  877.428   37.813    0.414    0.329    1.542
  878.248   38.938    0.413    0.330    1.457
  879.068   38.926    0.413    0.331    1.350
  879.888   37.732    0.408    0.330    1.299
  880.709   37.136    0.401    0.329    1.226
  881.529   37.111    0.401    0.325    1.224
  882.349   37.080    0.404    0.325    1.200
  883.169   35.898    0.407    0.330    1.198
  883.990   35.295    0.407    0.335    1.197
  884.810   35.271    0.405    0.336    1.195
  885.630   36.397    0.403    0.336    1.193
  886.450   37.529    0.401    0.338    1.192
  887.270   38.661    0.401    0.336    1.146
  888.091   40.371    0.402    0.336    1.123
  888.911   43.226    0.398    0.333    1.102
  889.731   44.371    0.396    0.331    1.099
  890.551   44.924    0.390    0.324    1.118
  891.371   46.050    0.385    0.307    1.138
  892.192   46.604    0.392    0.298    1.179
  893.012   45.995    0.401    0.297    1.200
  893.832   44.807    0.405    0.305    1.266
  894.652   44.216    0.402    0.312    1.312
  895.472   43.029    0.393    0.317    1.335
  896.293   41.835    0.388    0.320    1.334
  897.113   40.660    0.391    0.317    1.282
  897.933   40.641    0.397    0.311    1.234
  898.753   40.610    0.397    0.312    1.187
  899.573   40.573    0.398    0.319    1.186
  900.394   39.976    0.402    0.329    1.162
  901.214   39.958    0.413    0.334    1.181
  902.034   39.933    0.406    0.334    1.180
  902.854   41.053    0.401    0.328    1.179
  903.675   41.034    0.397    0.323    1.155
  904.495   42.160    0.397    0.327    1.153
  905.315   43.286    0.394    0.332    1.152
  906.135   43.274    0.391    0.340    1.150
  906.955   43.237    0.389    0.345    1.148
  907.776   42.640    0.393    0.348    1.147
  908.596   41.446    0.405    0.352    1.145
  909.416   41.434    0.414    0.350    1.165
  910.236   41.987    0.414    0.338    1.185
  911.056   43.114    0.411    0.337    1.206
  911.877   45.975    0.407    0.331    1.249
  912.697   50.583    0.407    0.326    1.294
  913.517   58.078    0.409    0.310    1.317
  914.337   66.729    0.407    0.233    1.365
  915.157   75.374    0.403    0.216    1.414
  915.978   76.506    0.401    0.221    1.522
  916.798   74.174    0.388    0.231    1.764
  917.618   69.510    0.386    0.238    2.044
  918.438   67.750    0.387    0.277    2.198
  919.259   68.888    0.375    0.295    2.114
  920.079   71.177    0.343    0.301    1.923
  920.899   73.466    0.350    0.271    1.850
  921.719   76.905    0.355    0.242    1.848
  922.539   81.508    0.365    0.217    1.845
  923.360   86.104    0.372    0.202    1.912
  924.180   90.134    0.379    0.190    2.018
  925.000   92.423    0.389    0.178    2.093
  925.820   94.706    0.392    0.167    2.425
  926.640   95.838    0.397    0.162    2.708
  927.461   94.072    0.403    0.158    2.911
  928.281   92.318    0.412    0.157    3.017
  929.101   88.811    0.422    0.155    3.068
  929.921   87.642    0.433    0.154    3.066
  930.741   74.886    0.437    0.170    3.062
  931.562   71.391    0.408    0.204    3.001
  932.382   65.004    0.400    0.226    2.833
  933.202   60.925    0.381    0.220    2.626
  934.022   63.207    0.389    0.212    2.527
  934.843   64.918    0.396    0.211    2.340
  935.663   63.158    0.400    0.207    2.295
  936.483   60.241    0.392    0.215    2.251
  937.303   57.325    0.374    0.227    2.246
  938.123   61.349    0.380    0.243    2.243
  938.944   67.108    0.399    0.229    2.198
  939.764   71.704    0.418    0.219    2.155
  940.584   68.794    0.420    0.226    1.997
  941.404   63.551    0.423    0.249    1.886
  942.224   61.798    0.423    0.276    1.815
  943.045   62.923    0.416    0.301    1.746
  943.865   65.791    0.402    0.309    1.680
  944.685   69.237    0.386    0.294    1.587
  945.505   74.996    0.386    0.203    1.497
  946.325   83.647    0.418    0.177    1.495
  947.146   88.828    0.447    0.112    1.579
  947.966   88.803    0.466    0.112    1.731
  948.786   86.465    0.478    0.112    2.160
  949.606   69.082    0.475    0.112    2.747
  950.427   58.647    0.441    0.119    3.304
  951.247   45.313    0.255    0.127    3.900
  952.067   38.926    0.235    0.119    4.604
  952.887   38.316    0.230    0.112    5.335
  953.707   40.021    0.231    0.117    6.182
  954.528   42.316    0.265    0.130    6.775
  955.348   45.761    0.283    0.136    7.998
  956.168   44.002    0.289    0.095    9.093
  956.988   40.507    0.248    0.078    9.962
  957.808   36.433    0.235    0.071   10.328
  958.629   31.775    0.170    0.077   10.901
  959.449   31.166    0.152    0.066   11.094
  960.269   32.870    0.144    0.040   11.498
  961.089   33.436    0.143    0.027   13.328
  961.909   33.977    0.144    0.016   16.942
  962.730   33.953    0.151    0.011   17.560
  963.550   33.350    0.164    0.011   17.541
  964.370   33.891    0.173    0.011   17.510
  965.190   34.457    0.172    0.013   17.473
  966.010   35.589    0.171    0.014   17.460
  966.831   36.715    0.169    0.016   17.430
  967.651   37.269    0.168    0.016   17.405
  968.471   37.250    0.168    0.016   17.700
  969.291   37.226    0.171    0.015   17.688
  970.112   36.610    0.175    0.015   18.312
