~VERSION INFORMATION
 VERS.                 2.0:   CWLS LOG ASCII STANDARD -VERSION 2.0
 WRAP.                  NO:   ONE LINE PER DEPTH STEP
~WELL INFORMATION BLOCK
#MNEM.UNIT           DATA                    DESCRIPTION OF MNEMONIC
#---------    -------------------            -------------------------------
# Generated from Intellog Unique Number	CW_76_78/WELL/185
WELL.         AMOCO 78 MARTEN HILLS 02-05    : Well_name    - WELL
LOC .         00/02-05-076-26W4/0            : Location     - LOCATION
UWI .         00/02-05-076-26W4/0            : Uwi          - UNIQUE WELL ID
ENTR.         JAYE                           : Entered      - ENTERED BY
SRVC.         SCHLUMBERGER                   : Scn          - SERVICE COMPANY
DATE.         23 FEB 76                      : Date         - LOG DATE
STRT.M        612.648                        : top_depth    - START DEPTH
STOP.M        804.148                        : bot_depth    - STOP DEPTH
STEP.M        0.25                           : increment    - STEP LENGTH
 NULL. -999.2500:NULL Value
~CURVE INFORMATION BLOCK
#MNEM UNIT       ERCB CURVE CODE    CURVE DESCRIPTION
#-----------   ------------------   ----------------------------------
DEPT.M        00 001 00 00         : DEPTH        - DEPTH
CALI.MM       00 280 01 00         : CAL          - CALIPER
ILD .OHMM     00 120 00 00         : RESD         - DEEP RESISTIVITY (DIL)
NPHI.V/V      00 330 00 00         : PHIN         - NEUTRON POROSITY (SANDSTONE)
DPHI.V/V      00 890 00 00         : PHID         - DENSITY POROSITY (SANDSTONE)
GR  .API      00 310 00 00         : GR           - GAMMA RAY
~PARAMETER INFORMATION
#MNEM.UNIT           DATA             DESCRIPTION OF MNEMONIC
#---------         -----------     ------------------------------
GL  .M        899.77               : gl           - GROUND LEVEL ELEVATION
EREF.M        903.427              : kb           - ELEVATION OF DEPTH REFERENCE
DATM.M        899.77               : datum        - DATUM ELEVATION
TDD .M        806.196              : tdd          - TOTAL DEPTH DRILLER
RUN .         ONE                  : Run          - RUN NUMBER
ENG .         LAZOR                : Engineer     - RECORDING ENGINEER
WIT .         HUCULAK              : Witness      - WITNESSED BY
MUD .         GEL                  : Mud_type     - MUD TYPE
MATR.         SANDSTONE            : Logunit      - NEUTRON MATRIX
TMAX.C        29.4444              : BHT          - MAXIMUM RECORDED TEMPERATURE
BHTD.M        805.282              : BHTDEP       - MAXIMUM RECORDED TEMPERATURE
RMT .C        15.5556              : MDTP         - TEMPERATURE OF MUD
MUDD.KG/M     1080                 : MWT          - MUD DENSITY
NEUT.         1                    : NEUTRON      - NEUTRON TYPE
RESI.         0                    : RESIST       - RESISTIVITY TYPE
RM  .OHMM     5.07                 : RM           - RESISTIVITY OF MUD
RMC .OHMM     0                    : RMC          - RESISTIVITY OF MUD CAKE
RMF .OHMM     7.19                 : RMF          - RESISTIVITY OF MUD FILTRATE
SUFT.C        -17.7778             : SUFT         - SURFACE TEMPERATURE
~A  DEPTH      CAL     RESD     PHIN     PHID       GR
# ...
  685.648  230.472    4.950    0.485    0.126  102.099
  685.898  230.944    4.907    0.474    0.122  101.893
  686.148  230.807    4.821    0.455    0.133  101.687
  686.398  230.248    4.736    0.453    0.142  102.336
  686.648  229.803    4.670    0.452    0.141  103.534
  686.898  229.658    4.604    0.447    0.141  105.463
  687.148  231.480    4.591    0.456    0.158  109.286
  687.398  233.095    4.602    0.459    0.174  111.337
  687.648  233.679    4.656    0.454    0.178  111.621
  687.898  229.923    4.754    0.445    0.156  105.923
  688.148  228.954    4.872    0.448    0.130  104.435
  688.398  231.293    4.974    0.468    0.181  103.504
  688.648  232.805    5.117    0.474    0.161  101.890
  688.898  229.669    5.167    0.458    0.150   99.736
  689.148  228.701    5.180    0.450    0.151   97.514
  689.398  230.108    5.183    0.452    0.181   99.384
  689.648  224.286    5.120    0.458    0.192  103.266
  689.898  225.284    5.067    0.473    0.149   99.465
  690.148  232.887    5.042    0.481    0.159   97.610
  690.398  223.247    5.027    0.471    0.146   98.075
  690.648  220.417    5.030    0.475    0.133  100.553
  690.898  220.692    5.034    0.481    0.121  103.281
  691.148  222.923    5.036    0.489    0.128  105.513
  691.398  227.224    5.105    0.493    0.120  109.334
  691.648  227.496    5.232    0.484    0.161  111.507
  691.898  229.213    5.381    0.459    0.157  110.751
  692.148  219.778    5.689    0.447    0.162  108.778
  692.398  219.950    6.241    0.437    0.137  100.031
  692.648  216.086    6.562    0.424    0.118   98.972
  692.898  214.399    6.627    0.409    0.163   95.173
  693.148  220.248    6.522    0.392    0.163   91.487
  693.398  222.893    6.291    0.376    0.119   86.950
  693.648  222.651    5.958    0.394    0.097   89.063
  693.898  222.719    5.590    0.408    0.133   95.874
  694.148  224.746    5.216    0.422    0.157   99.632
  694.398  225.017    5.050    0.424    0.169   98.147
  694.648  221.259    5.725    0.435    0.156   94.712
  694.898  222.153    6.974    0.439    0.148   91.758
  695.148  227.176    7.935    0.430    0.132   85.942
  695.398  227.144    9.665    0.403    0.114   80.123
  695.648  224.943   10.858    0.327    0.093   72.413
  695.898  223.355   10.473    0.313    0.059   66.352
  696.148  222.481    9.595    0.346    0.032   65.418
  696.398  221.307    8.742    0.365    0.093   67.224
  696.648  220.131    8.053    0.375    0.127   69.581
  696.898  217.724    7.883    0.383    0.178   72.363
  697.148  216.441    7.975    0.403    0.225   74.908
  697.398  216.304    8.054    0.416    0.234   75.796
  697.648  216.681    8.119    0.430    0.218   76.572
  697.898  217.472    8.168    0.422    0.203   77.521
  698.148  219.289    8.204    0.424    0.193   79.821
  698.398  215.839    8.238    0.442    0.182   83.700
  698.648  215.804    8.290    0.456    0.207   89.045
  698.898  219.180    8.174    0.450    0.215   86.706
  699.148  220.282    7.899    0.435    0.248   79.117
  699.398  219.727    7.577    0.434    0.258   75.863
  699.648  219.063    7.294    0.449    0.254   75.230
  699.898  218.513    6.844    0.459    0.247   75.148
  700.148  218.265    7.117    0.473    0.239   75.186
  700.398  216.990    7.908    0.463    0.237   74.493
  700.648  216.537    7.957    0.435    0.230   71.303
  700.898  219.293    7.703    0.411    0.107   71.153
  701.148  221.933    7.362    0.391    0.071   79.246
  701.398  221.381    7.036    0.435    0.095   87.213
  701.648  218.449    6.699    0.466    0.170   90.670
  701.898  217.073    6.379    0.464    0.238   87.234
  702.148  218.273    6.267    0.461    0.230   85.078
  702.398  218.956    6.237    0.458    0.226   82.366
  702.648  219.855    6.194    0.456    0.230   77.711
  702.898  220.947    6.075    0.443    0.232   76.651
  703.148  222.056    5.957    0.443    0.205   78.826
  703.398  222.114    5.809    0.452    0.189   83.440
  703.648  221.977    5.542    0.459    0.216   86.528
  703.898  221.729    5.247    0.465    0.236   88.029
  704.148  221.075    5.080    0.486    0.225   87.823
  704.398  220.830    5.158    0.497    0.194   85.428
  704.648  220.480    5.248    0.494    0.179   84.974
  704.898  218.897    5.290    0.454    0.152   87.029
  705.148  217.517    5.461    0.467    0.130   89.687
  705.398  216.959    5.806    0.470    0.205   91.009
  705.648  217.643    6.404    0.466    0.214   91.112
  705.898  226.589    7.011    0.469    0.207   90.295
  706.148  225.210    7.862    0.461    0.169   88.256
  706.398  220.632    8.117    0.405    0.105   84.939
  706.648  218.944    7.301    0.372    0.067   84.430
  706.898  218.600    6.689    0.374    0.115   88.374
  707.148  219.181    6.219    0.426    0.146   93.719
  707.398  219.652    5.922    0.442    0.170   97.238
  707.648  220.335    5.712    0.447    0.180   98.923
  707.898  221.229    5.550    0.441    0.173  100.486
  708.148  222.021    5.432    0.438    0.156  101.444
  708.398  222.809    5.307    0.433    0.148  102.273
  708.648  221.842    5.176    0.427    0.135  105.357
  708.898  220.978    5.103    0.442    0.165  106.373
  709.148  222.073    5.005    0.453    0.147  102.023
  709.398  224.105    4.971    0.463    0.174   98.829
  709.648  224.374    4.947    0.454    0.157   97.219
  709.898  220.824    4.922    0.436    0.177   97.686
  710.148  223.058    4.890    0.438    0.158  100.467
  710.398  227.058    4.839    0.449    0.131  104.593
  710.648  227.013    4.616    0.438    0.163  104.083
  710.898  226.146    4.420    0.416    0.151  105.770
  711.148  230.862    4.398    0.397    0.113  107.333
  711.398  236.196    4.482    0.408    0.097  108.957
  711.648  241.220    4.670    0.425    0.148  111.622
  711.898  236.129    5.057    0.438    0.143  111.660
  712.148  232.989    5.558    0.446    0.151  106.877
  712.398  230.163    6.278    0.452    0.156   98.316
  712.648  226.710    7.118    0.455    0.164   93.414
  712.898  222.852    7.793    0.456    0.167   90.341
  713.148  223.125    7.870    0.417    0.135   92.272
  713.398  225.258    7.661    0.439    0.121   92.189
  713.648  223.977    7.110    0.440    0.151   89.601
  713.898  223.526    6.537    0.425    0.145   87.018
  714.148  224.211    6.078    0.406    0.149   89.436
  714.398  225.313    5.906    0.435    0.151   93.683
  714.648  227.136    6.419    0.453    0.155   96.529
  714.898  229.271    6.862    0.469    0.159   97.971
  715.148  231.103    7.336    0.479    0.167  100.023
  715.398  230.841    7.728    0.480    0.207   96.955
  715.648  222.441    8.217    0.441    0.242   93.205
  715.898  220.132    8.482    0.448    0.226   94.043
  716.148  220.403    8.629    0.452    0.205   95.908
  716.398  220.877    8.666    0.441    0.182   98.329
  716.648  221.253    8.672    0.421    0.158   99.524
  716.898  221.634    8.566    0.399    0.156   99.504
  717.148  222.218    8.431    0.405    0.146   98.991
  717.398  222.804    8.192    0.418    0.161   98.117
  717.648  221.725    7.858    0.421    0.186   96.994
  717.898  219.204    7.677    0.425    0.145   94.837
  718.148  217.930    7.378    0.429    0.134   93.900
  718.398  220.269    6.974    0.445    0.179   90.766
  718.648  223.434    6.567    0.454    0.171   90.014
  718.898  223.500    6.277    0.462    0.174   91.759
  719.148  222.427    6.121    0.471    0.166   93.567
  719.398  221.670    6.069    0.475    0.162   96.534
  719.648  221.740    6.208    0.462    0.138  100.112
  719.898  223.145    6.685    0.451    0.114  102.530
  720.148  225.793    7.428    0.446    0.094  103.666
  720.398  227.609    8.148    0.454    0.155  101.936
  720.648  225.201    8.138    0.462    0.143   96.177
  720.898  223.095    7.806    0.455    0.146   89.141
  721.148  222.436    7.244    0.413    0.136   91.437
  721.398  223.949    6.760    0.421    0.133   96.965
  721.648  226.284    6.159    0.441    0.120  101.764
  721.898  229.553    5.480    0.433    0.123  102.533
