~VERSION INFORMATION
 VERS.                 2.0:   CWLS LOG ASCII STANDARD -VERSION 2.0
 WRAP.                  NO:   ONE LINE PER DEPTH STEP
~WELL INFORMATION BLOCK
#MNEM.UNIT           DATA                    DESCRIPTION OF MNEMONIC
#---------    -------------------            -------------------------------
# Generated from Intellog Unique Number	CW_82_90/WELL/3066
WELL.         UNOCAL SALESKI                 : Well_name    - WELL
LOC .         00/07-24-086-19W4/0            : Location     - LOCATION
UWI .         00/07-24-086-19W4/0            : Uwi          - UNIQUE WELL ID
ENTR.         MAX                            : Entered      - ENTERED BY
SRVC.         WESTERN ATLAS                  : Scn          - SERVICE COMPANY
STRT.M        100                            : top_depth    - START DEPTH
STOP.M        246                            : bot_depth    - STOP DEPTH
STEP.M        0.25                           : increment    - STEP LENGTH
 NULL. -999.2500:NULL Value
~CURVE INFORMATION BLOCK
#MNEM UNIT       ERCB CURVE CODE    CURVE DESCRIPTION
#-----------   ------------------   ----------------------------------
DEPT.M        00 001 00 00         : DEPTH        - DEPTH
ILD .OHMM     00 120 00 00         : RESD         - DEEP RESISTIVITY (DIL)
NPHI.V/V      00 330 00 00         : PHIN         - NEUTRON POROSITY (SANDSTONE)
DPHI.V/V      00 890 00 00         : PHID         - DENSITY POROSITY (SANDSTONE)
CALI.MM       00 280 01 00         : CAL          - CALIPER
GR  .API      00 310 00 00         : GR           - GAMMA RAY
~PARAMETER INFORMATION
#MNEM.UNIT           DATA             DESCRIPTION OF MNEMONIC
#---------         -----------     ------------------------------
GL  .M        527.7                : gl           - GROUND LEVEL ELEVATION
EREF.M        532                  : kb           - ELEVATION OF DEPTH REFERENCE
DATM.M        527.7                : datum        - DATUM ELEVATION
TDD .M        246.3                : tdd          - TOTAL DEPTH DRILLER
RUN .         ONE                  : Run          - RUN NUMBER
ENG .         BILL                 : Engineer     - RECORDING ENGINEER
WIT .         JIM                  : Witness      - WITNESSED BY
MUD .         GEL                  : Mud_type     - MUD TYPE
MATR.         SANDSTONE            : Logunit      - NEUTRON MATRIX
TMAX.C        24                   : BHT          - MAXIMUM RECORDED TEMPERATURE
BHTD.M        23246.3              : BHTDEP       - MAXIMUM RECORDED TEMPERATURE
MATR.         1                    : LOGUNIT      - NEUTRON MATRIX
RMT .C        28                   : MDTP         - TEMPERATURE OF MUD
NEUT.         1                    : NEUTRON      - NEUTRON TYPE
RESI.         0                    : RESIST       - RESISTIVITY TYPE
RMC .OHMM     3.5                  : RMC          - RESISTIVITY OF MUD CAKE
RMF .OHMM     4.2                  : RMF          - RESISTIVITY OF MUD FILTRATE
SUFT.C        -15                  : SUFT         - SURFACE TEMPERATURE
~A  DEPTH     RESD     PHIN     PHID      CAL       GR
# ...
  209.500   12.594    0.350    0.216  159.798   96.529
  209.750   12.035    0.352    0.218  160.230  102.349
  210.000   11.093    0.348    0.219  160.655  110.224
  210.250   10.795    0.340    0.219  161.080  116.624
  210.500   11.191    0.322    0.219  160.040  113.657
  210.750   12.138    0.308    0.227  159.489  105.126
  211.000   13.405    0.301    0.234  159.417   97.463
  211.250   14.280    0.294    0.232  159.354   96.258
  211.500   15.629    0.290    0.222  159.779  100.321
  211.750   16.952    0.282    0.152  158.739   95.885
  212.000   19.064    0.269    0.032  156.715   85.303
  212.250   21.439    0.216    0.021  156.652   77.645
  212.500   25.920    0.218    0.042  157.076   72.916
  212.750   31.908    0.242    0.116  157.973   80.200
  213.000   29.948    0.297    0.187  158.414   85.439
  213.250   20.854    0.308    0.215  158.839   90.673
  213.500   17.244    0.317    0.224  158.767   95.906
  213.750   15.609    0.320    0.227  158.704  100.555
  214.000   15.189    0.327    0.223  158.152  100.809
  214.250   15.050    0.336    0.225  156.625   99.590
  214.500   15.185    0.336    0.227  158.010   99.264
  214.750   15.320    0.333    0.223  158.442   99.226
  215.000   15.883    0.322    0.216  158.379   98.309
  215.250   17.227    0.308    0.186  158.308   93.581
  215.500   18.021    0.295    0.115  159.221   90.028
  215.750   17.696    0.295    0.124  159.645   87.052
  216.000   16.311    0.315    0.175  160.062   89.361
  216.250   13.245    0.330    0.217  160.007   93.424
  216.500   10.469    0.343    0.220  159.935  103.344
  216.750    8.815    0.360    0.213  159.872  110.925
  217.000    8.124    0.375    0.220  159.809  113.519
  217.250    7.764    0.362    0.210  160.233  116.409
  217.500    7.833    0.358    0.210  160.162  119.588
  217.750    8.269    0.352    0.214  160.106  117.505
  218.000    8.808    0.321    0.209  160.996  110.730
  218.250    9.554    0.303    0.195  160.940  103.658
  218.500   11.868    0.277    0.137  160.885   92.486
  218.750   13.714    0.255    0.114  160.805   83.364
  219.000   18.480    0.257    0.169  160.750   77.761
  219.250   21.163    0.282    0.196  160.198   78.309
  219.500   18.475    0.305    0.199  160.119   84.128
  219.750   13.956    0.320    0.200  160.064   94.927
  220.000   10.543    0.338    0.199  159.992  103.090
  220.250    8.958    0.349    0.194  159.929  109.495
  220.500    8.256    0.353    0.187  159.865  110.629
  220.750    8.405    0.349    0.175  159.802  109.126
  221.000    8.558    0.347    0.157  160.227  105.573
  221.250    8.792    0.349    0.164  160.644  107.581
  221.500    8.711    0.350    0.177  161.068  112.815
  221.750    8.401    0.352    0.196  161.005  115.706
  222.000    8.028    0.352    0.209  160.949  118.011
  222.250    7.742    0.351    0.215  161.374  120.901
  222.500    7.533    0.351    0.209  161.295  119.399
  222.750    7.601    0.352    0.200  161.224  112.620
  223.000    7.809    0.351    0.197  161.168  114.041
  223.250    8.470    0.344    0.193  161.113  117.523
  223.500    9.525    0.322    0.182  160.553  120.409
  223.750   11.208    0.309    0.121  160.482  109.534
  224.000   13.068    0.299    0.042  159.930   97.478
  224.250   14.433    0.312    0.167  159.379  105.943
  224.500   14.562    0.314    0.199  157.851  116.449
  224.750   14.429    0.313    0.200  155.827  116.997
  225.000   14.297    0.311    0.195  155.283  111.682
  225.250   14.166    0.311    0.194  155.220  102.272
  225.500   14.164    0.311    0.195  157.093  106.036
  225.750   14.162    0.315    0.200  157.510  108.341
  226.000   14.419    0.318    0.197  157.463  102.148
  226.250   15.221    0.309    0.197  156.903  100.650
  226.500   16.811    0.290    0.203  156.848   97.093
  226.750   20.324    0.275    0.171  156.768   93.540
  227.000   23.484    0.235    0.014  156.705   85.004
  227.250   25.243    0.227    0.069  156.642   72.953
  227.500   25.238    0.251    0.131  156.586   77.010
  227.750   24.339    0.267    0.169  156.523   81.370
  228.000   21.833    0.290    0.198  156.443   86.604
  228.250   18.550    0.307    0.208  156.876   89.783
  228.500   18.548    0.306    0.211  158.765   90.629
  228.750   20.485    0.296    0.211  161.143   89.121
  229.000   25.678    0.262    0.214  163.512   83.226
  229.250   31.898    0.227    0.220  163.441   78.209
  229.500   37.873    0.223    0.190  161.913   74.065
  229.750   42.208    0.228    0.160  159.409   71.977
  230.000   40.336    0.227    0.110  158.865   71.939
  230.250   37.516    0.234    0.111  158.298   68.382
  230.500   34.267    0.250    0.141  158.242   71.272
  230.750   26.598    0.284    0.162  157.675   76.213
  231.000   21.405    0.300    0.186  157.619   81.447
  231.250   19.028    0.313    0.221  157.556   82.283
  231.500   17.380    0.325    0.225  157.477   84.295
  231.750   16.912    0.310    0.224  157.429   86.898
  232.000   17.063    0.289    0.221  157.358   87.153
  232.250   17.373    0.299    0.205  157.286   87.984
  232.500   18.010    0.302    0.196  157.223   85.900
  232.750   19.011    0.309    0.180  157.648   86.155
  233.000   19.181    0.324    0.158  158.561   89.339
  233.250   18.331    0.302    0.080  159.474   88.129
  233.500   17.203    0.298    0.137  160.378   88.672
  233.750   16.741    0.311    0.196  160.323   92.442
  234.000   16.291    0.322    0.193  160.740   94.152
  234.250   15.428    0.332    0.058  161.157   92.366
  234.500   14.092    0.318    0.106  161.581   84.122
  234.750   12.641    0.320    0.153  162.014   88.180
  235.000   10.936    0.365    0.178  162.439   92.247
  235.250    9.722    0.358    0.179  163.344   93.966
  235.500    7.895    0.368    0.192  164.257   97.150
  235.750    6.708    0.359    0.200  165.658  106.191
  236.000    6.017    0.343    0.212  169.995  107.032
  236.250    5.699    0.357    0.213  169.916  104.651
  236.500    5.596    0.363    0.198  166.428  108.420
  236.750    5.646    0.357    0.194  165.884  115.411
  237.000    6.068    0.342    0.190  165.333  122.110
  237.250    7.271    0.326    0.180  164.773  115.038
  237.500   14.455    0.332    0.172  164.230  114.414
  237.750   32.323    0.358    0.198  163.678  112.326
  238.000   49.886    0.322    0.280  163.615   94.124
  238.250   59.231    0.319    0.304  163.543   50.139
  238.500   64.827    0.357    0.314  162.976   39.548
  238.750   66.002    0.349    0.316  162.928   39.221
  239.000   56.078    0.325    0.313  162.865   42.108
  239.250   50.303    0.339    0.309  162.290   43.534
  239.500   48.073    0.359    0.319  162.234   42.319
  239.750   44.711    0.353    0.319  162.171   43.458
  240.000   39.746    0.348    0.315  163.572   47.520
  240.250   33.770    0.343    0.305  163.996   56.562
  240.500   25.511    0.336    0.267  163.437   66.193
  240.750   20.162    0.314    0.231  163.374   72.892
  241.000   10.138    0.299    0.210  163.310   75.778
  241.250    8.159    0.307    0.202  163.239   76.037
  241.500    6.391    0.326    0.217  162.695   75.409
  241.750    4.741    0.352    0.260  162.624   75.073
  242.000    3.850    0.368    0.249  162.072   75.040
  242.250    3.549    0.398    0.233  162.017   77.638
  242.500    3.484    0.423    0.221  162.426   79.933
  242.750    3.612    0.405    0.215  162.858   80.774
  243.000    3.883    0.370    0.210  163.771   81.903
  243.250    4.136    0.355    0.206  164.196   82.167
  243.500    4.288    0.334    0.204  164.605   82.124
  243.750    4.365    0.323    0.204  164.542   82.091
  244.000    4.404    0.332    0.204  164.478   80.867
  244.250    4.484    0.363    0.205  164.423   80.253
  244.500    4.484    0.386    0.205  164.351   79.922
  244.750    4.403    0.369    0.203  163.304   79.884
  245.000    4.362    0.356    0.199  163.736   80.422
  245.250    4.362    0.318    0.190  164.161   80.091
  245.500    4.322    0.281    0.187  165.562   79.467
  245.750    4.360    0.281    0.183  166.955   78.258
