~VERSION INFORMATION
 VERS.                 2.0:   CWLS LOG ASCII STANDARD -VERSION 2.0
 WRAP.                  NO:   ONE LINE PER DEPTH STEP
~WELL INFORMATION BLOCK
#MNEM.UNIT           DATA                    DESCRIPTION OF MNEMONIC
#---------    -------------------            -------------------------------
# Generated from Intellog Unique Number	CX_WELLS/WELL/3000
WELL.         BRENDA ET AL DIVIDE            : Well_name    - WELL
LOC .         00/03-18-082-12W4/0            : Location     - LOCATION
UWI .         00/03-18-082-12W400            : Uwi          - UNIQUE WELL ID
ENTR.         T                              : Entered      - ENTERED BY
SRVC.         SCHLUMBERGER                   : Scn          - SERVICE COMPANY
STRT.M        225                            : top_depth    - START DEPTH
STOP.M        465                            : bot_depth    - STOP DEPTH
STEP.M        0.25                           : increment    - STEP LENGTH
 NULL. -999.2500:NULL Value
~CURVE INFORMATION BLOCK
#MNEM UNIT       ERCB CURVE CODE    CURVE DESCRIPTION
#-----------   ------------------   ----------------------------------
DEPT.M        00 001 00 00         : DEPTH        - DEPTH
GR  .API      00 310 00 00         : GR           - GAMMA RAY
NPHI.V/V      00 330 00 00         : PHIN         - NEUTRON POROSITY (SANDSTONE)
DPHI.V/V      00 890 00 00         : PHID         - DENSITY POROSITY (SANDSTONE)
ILD .OHMM     00 120 00 00         : RESD         - DEEP RESISTIVITY (OTHER)
~PARAMETER INFORMATION
#MNEM.UNIT           DATA             DESCRIPTION OF MNEMONIC
#---------         -----------     ------------------------------
GL  .M        677.8                : gl           - GROUND LEVEL ELEVATION
EREF.M        681.2                : kb           - ELEVATION OF DEPTH REFERENCE
DATM.M        681.2                : datum        - DATUM ELEVATION
TDD .M        474                  : tdd          - TOTAL DEPTH DRILLER
RUN .         ONE                  : Run          - RUN NUMBER
ENG .         BILL                 : Engineer     - RECORDING ENGINEER
WIT .         JIM                  : Witness      - WITNESSED BY
MUD .         GEL                  : Mud_type     - MUD TYPE
MATR.         SANDSTONE            : Logunit      - NEUTRON MATRIX
TMAX.C        21.1111              : BHT          - MAXIMUM RECORDED TEMPERATURE
BHTD.M        474                  : BHTDEP       - MAXIMUM RECORDED TEMPERATURE
MATR.         1                    : LOGUNIT      - NEUTRON MATRIX
RMT .C        22                   : MDTP         - TEMPERATURE OF MUD
NEUT.         1                    : NEUTRON      - NEUTRON TYPE
RESI.         3.8                  : RESIST       - RESISTIVITY TYPE
RMC .OHMM     4.68                 : RMC          - RESISTIVITY OF MUD CAKE
RMF .OHMM     4.68                 : RMF          - RESISTIVITY OF MUD FILTRATE
SUFT.C        4                    : SUFT         - SURFACE TEMPERATURE
~A  DEPTH       GR     PHIN     PHID     RESD
# ...
  442.500   85.376    0.368    0.174   15.182
  442.750   89.526    0.365    0.172   14.907
  443.000   91.897    0.364    0.169   15.201
  443.250   90.119    0.368    0.192   16.090
  443.500   84.783    0.379    0.215   16.713
  443.750   80.040    0.393    0.237   17.355
  444.000   76.482    0.387    0.246   18.027
  444.250   72.925    0.368    0.235   18.378
  444.500   74.704    0.363    0.211   19.453
  444.750   78.854    0.365    0.233   20.203
  445.000   75.889    0.374    0.243   21.391
  445.250   74.111    0.382    0.255   21.804
  445.500   69.368    0.379    0.268   22.225
  445.750   68.182    0.374    0.277   23.089
  446.000   68.775    0.367    0.276   23.535
  446.250   69.368    0.364    0.261   25.386
  446.500   70.553    0.376    0.264   26.361
  446.750   71.146    0.385    0.269   26.874
  447.000   72.332    0.387    0.268   26.896
  447.250   73.518    0.388    0.261   26.907
  447.500   74.111    0.392    0.258   26.926
  447.750   69.368    0.393    0.256   26.941
  448.000   68.182    0.389    0.262   26.452
  448.250   66.403    0.382    0.265   25.983
  448.500   65.810    0.376    0.270   25.990
  448.750   64.624    0.374    0.265   25.526
  449.000   64.624    0.362    0.254   24.602
  449.250   65.810    0.357    0.252   23.271
  449.500   69.368    0.362    0.254   21.607
  449.750   71.739    0.354    0.253   21.218
  450.000   75.889    0.352    0.236   20.833
  450.250   79.447    0.356    0.227   20.461
  450.500   81.818    0.366    0.235   20.470
  450.750   80.040    0.376    0.238   20.871
  451.000   78.854    0.379    0.239   21.274
  451.250   77.075    0.374    0.241   23.377
  451.500   72.925    0.381    0.254   25.209
  451.750   69.960    0.393    0.272   28.220
  452.000   66.403    0.403    0.286   31.592
  452.250   63.439    0.404    0.300   36.034
  452.500   59.881    0.405    0.305   38.857
  452.750   56.324    0.397    0.301   38.889
  453.000   52.767    0.383    0.297   38.184
  453.250   53.953    0.377    0.288   36.796
  453.500   55.731    0.376    0.277   34.161
  453.750   57.510    0.376    0.265   30.553
  454.000   62.253    0.375    0.260   22.238
  454.250   65.810    0.387    0.257   21.835
  454.500   71.146    0.384    0.254   20.279
  454.750   72.332    0.380    0.250   19.540
  455.000   73.518    0.370    0.244   18.140
  455.250   74.704    0.358    0.236   17.161
  455.500   76.482    0.346    0.229   15.932
  455.750   78.854    0.331    0.217   15.353
  456.000   81.818    0.328    0.198   14.797
  456.250   85.968    0.337    0.172   13.741
  456.500   94.862    0.343    0.154   13.240
  456.750  101.383    0.346    0.157   12.527
  457.000  106.719    0.351    0.158   12.070
  457.250  110.277    0.354    0.150   11.635
  457.500  111.462    0.359    0.141   11.005
  457.750  114.427    0.364    0.137   10.807
  458.000  115.613    0.412    0.129   10.226
  458.250  116.798    0.435    0.110   10.229
  458.500  100.791    0.398    0.053   10.624
  458.750   88.340    0.366    0.024   13.815
  459.000   64.032    0.331    0.036   19.360
  459.250   17.194    0.352    0.047   40.202
  459.500   14.822    0.370    0.054   57.404
  459.750   15.415    0.378    0.060   60.761
  460.000   16.601    0.374    0.059   61.943
  460.250   17.194    0.367    0.054   61.977
  460.500   19.565    0.171    0.053   60.862
  460.750   23.715    0.181    0.058   60.912
  461.000   27.866    0.194    0.068   60.929
  461.250   28.459    0.204    0.075   60.971
  461.500   27.273    0.201    0.082   62.157
  461.750   23.715    0.194    0.090   63.375
  462.000   20.751    0.186    0.093   68.331
  462.250   18.379    0.180    0.099   72.307
  462.500   16.008    0.180    0.105   79.445
  462.750   14.822    0.182    0.111   84.103
  463.000   14.229    0.183    0.113   84.138
  463.250   14.229    0.182    0.107   82.623
  463.500   13.043    0.178    0.101   81.136
  463.750   11.858    0.176    0.101   78.209
  464.000   11.858    0.173    0.102   75.387
  464.250   11.265    0.171    0.096   75.407
  464.500   10.672    0.167    0.087   76.885
  464.750   10.672    0.166    0.078   81.371
  465.000   11.858    0.166    0.073   86.130
