~VERSION INFORMATION
 VERS.                 2.0:   CWLS LOG ASCII STANDARD -VERSION 2.0
 WRAP.                  NO:   ONE LINE PER DEPTH STEP
~WELL INFORMATION BLOCK
#MNEM.UNIT           DATA                    DESCRIPTION OF MNEMONIC
#---------    -------------------            -------------------------------
# Generated from Intellog Unique Number	CW_70_72/WELL/2904
NULL.         -999.25                        : NULL_VALUE
COMP .        CALMARK RESOURCES LTD          :  COMPANY
WELL.         CALMARK ET AL MISTAHAE         : Well_name    - WELL              
LOC .         09-25-079-01W5                 : Location     - LOCATION          
UWI .         00/09-25-079-01W5/0            : Uwi          - UNIQUE WELL ID    
ENTR.         MAX                            : Entered      - ENTERED BY        
SRVC.         COMPUTALOG                     : Scn          - SERVICE COMPANY   
DATE.         25 FEB 89                      : Date         - LOG DATE
STRT.M        245                            : top_depth    - START DEPTH       
STOP.M        500                            : bot_depth    - STOP DEPTH        
STEP.M        0.25                           : increment    - STEP LENGTH       
~CURVE INFORMATION BLOCK
#MNEM UNIT       ERCB CURVE CODE    CURVE DESCRIPTION
#-----------   ------------------   ----------------------------------
DEPT.M        00 001 00 00         : DEPTH        - DEPTH                       
ILD .OHMM     00 120 00 00         : RESD         - DEEP RESISTIVITY (DIL)      
NPHI.V/V      00 330 00 00         : PHIN         - NEUTRON POROSITY (SANDSTONE)
DPHI.V/V      00 890 00 00         : PHID         - DENSITY POROSITY (SANDSTONE)
CALI.MM       00 280 01 00         : CAL          - CALIPER                     
GR  .API      00 310 00 00         : GR           - GAMMA RAY                   
~PARAMETER INFORMATION       
#MNEM.UNIT           DATA             DESCRIPTION OF MNEMONIC
#---------         -----------     ------------------------------
GL  .M        570.5                : gl           - GROUND LEVEL ELEVATION      
EREF.M        574.14               : kb           - ELEVATION OF DEPTH REFERENCE
DATM.M        570.5                : datum        - DATUM ELEVATION             
TDD .M        521                  : tdd          - TOTAL DEPTH DRILLER         
RUN .         ONE                  : Run          - RUN NUMBER                  
ENG .         BILL                 : Engineer     - RECORDING ENGINEER          
WIT .         JIM                  : Witness      - WITNESSED BY                
MUD .         GEL                  : Mud_type     - MUD TYPE                    
MATR.         SANDSTONE            : Logunit      - NEUTRON MATRIX              
TMAX.C        21                   : BHT          - MAXIMUM RECORDED TEMPERATURE
BHTD.M        521                  : BHTDEP       - MAXIMUM RECORDED TEMPERATURE
RMT .C        14.4                 : MDTP         - TEMPERATURE OF MUD          
MUDD.KG/M     950                  : MWT          - MUD DENSITY                 
NEUT.         1                    : NEUTRON      - NEUTRON TYPE                
RESI.         0                    : RESIST       - RESISTIVITY TYPE            
RM  .OHMM     2.2                  : RM           - RESISTIVITY OF MUD          
RMC .OHMM     1.9                  : RMC          - RESISTIVITY OF MUD CAKE     
RMF .OHMM     2                    : RMF          - RESISTIVITY OF MUD FILTRATE 
SUFT.C        -20                  : SUFT         - SURFACE TEMPERATURE         
~A  DEPTH     RESD     PHIN     PHID      CAL       GR
# ...
  354.500    9.869    0.430    0.235  164.551   82.802
  354.750   10.141    0.427    0.271  164.542   81.034
  355.000   10.905    0.421    0.274  165.024   78.385
  355.250   12.051    0.409    0.270  165.015   74.854
  355.500   13.197    0.410    0.277  165.498   71.909
  355.750   14.717    0.418    0.287  165.490   71.023
  356.000   15.400    0.437    0.289  165.481   71.018
  356.250   16.114    0.475    0.287  165.473   70.719
  356.500   16.258    0.472    0.283  165.465   71.596
  356.750   15.962    0.451    0.280  164.966   73.355
  357.000   15.671    0.448    0.278  164.959   75.112
  357.250   15.812    0.450    0.277  164.951   73.345
  357.500   15.954    0.440    0.279  165.432   69.520
  357.750   15.663    0.432    0.282  165.432   66.576
  358.000   14.693    0.452    0.282  165.415   68.333
  358.250   13.911    0.438    0.277  165.408   72.738
  358.500   12.932    0.431    0.265  165.401   76.260
  358.750   11.591    0.425    0.249  165.391   80.369
  359.000   11.381    0.442    0.238  165.875   84.185
  359.250   11.588    0.452    0.254  165.867   85.061
  359.500   12.235    0.451    0.261  165.858   81.530
  359.750   12.920    0.460    0.272  165.849   80.644
  360.000   14.278    0.462    0.278  165.352   80.345
  360.250   16.069    0.439    0.272  165.344   76.519
  360.500   17.920    0.418    0.248  165.335   70.637
  360.750   19.095    0.405    0.235  164.838   65.342
  361.000   18.919    0.390    0.212  164.830   63.867
  361.250   18.075    0.399    0.220  165.310   66.508
  361.500   16.498    0.411    0.244  165.302   72.087
  361.750   15.762    0.431    0.265  165.295   77.078
  362.000   14.001    0.446    0.282  165.775   75.897
  362.250   13.498    0.452    0.293  165.769   72.071
  362.500   12.895    0.432    0.288  165.760   72.361
  362.750   12.319    0.436    0.273  165.752   74.120
  363.000   11.769    0.452    0.264  165.744   76.171
  363.250   10.841    0.463    0.264  165.737   77.636
  363.500   10.548    0.469    0.263  165.238   78.514
  363.750   10.450    0.472    0.260  164.738   79.978
  364.000   10.544    0.460    0.259  164.730   80.267
  364.250   10.542    0.443    0.266  164.724   78.498
  364.500   10.445    0.427    0.265  164.716   75.261
  364.750   10.348    0.442    0.249  164.708   76.432
  365.000   10.347    0.469    0.242  164.700   80.248
  365.250   10.728    0.473    0.240  164.691   83.770
  365.500   11.537    0.471    0.249  164.682   82.882
  365.750   12.633    0.454    0.255  164.675   82.878
  366.000   15.292    0.417    0.247  165.646   81.698
  366.250   16.147    0.338    0.219  165.638   74.933
  366.500   19.368    0.310    0.186  165.630   66.993
  366.750   25.214    0.270    0.160  165.622   63.755
  367.000   31.940    0.214    0.098  165.125   60.812
  367.250   36.605    0.191    0.069  164.628   56.693
  367.500   36.934    0.182    0.032  164.127   54.043
  367.750   33.106    0.209    0.065  164.121   54.918
  368.000   27.844    0.312    0.121  164.600   57.559
  368.250   20.244    0.340    0.187  165.083   61.375
  368.500   18.820    0.404    0.244  165.075   64.309
  368.750   17.180    0.424    0.246  165.558   67.537
  369.000   15.682    0.447    0.258  165.548   70.177
  369.250   14.578    0.451    0.263  166.031   73.111
  369.500   12.949    0.443    0.260  167.001   76.046
  369.750   11.502    0.436    0.249  166.995   79.566
  370.000    9.586    0.443    0.236  167.477   82.501
  370.250    7.845    0.464    0.228  167.468   86.905
  370.500    7.161    0.473    0.230  167.459   86.018
  370.750    6.842    0.475    0.233  167.452   86.013
  371.000    6.717    0.460    0.228  167.444   86.597
  371.250    6.777    0.464    0.220  167.435   87.180
  371.500    6.901    0.466    0.213  167.427   85.117
  371.750    6.900    0.455    0.212  167.420   81.879
  372.000    6.961    0.447    0.209  166.922   81.581
  372.250    6.961    0.450    0.204  166.913   83.045
  372.500    6.959    0.456    0.207  166.905   81.865
  372.750    7.085    0.459    0.213  166.407   80.684
  373.000    7.084    0.459    0.215  166.399   81.855
  373.250    7.148    0.459    0.215  166.392   83.908
  373.500    7.344    0.460    0.218  166.381   88.899
  373.750    7.615    0.468    0.221  166.374   90.951
  374.000    8.115    0.454    0.224  165.877   90.358
  374.250    8.806    0.432    0.222  164.400   89.472
  374.500    9.470    0.419    0.212  162.432   89.173
  374.750   10.183    0.406    0.225  163.402   90.050
  375.000   10.123    0.412    0.237  159.719   93.608
  375.250   10.118    0.418    0.246  159.198   92.710
  375.500   10.021    0.425    0.208  159.658   93.282
  375.750    9.656    0.432    0.211  160.611   90.619
  376.000    9.652    0.437    0.215  162.050   86.790
  376.250    9.736    0.432    0.231  161.528   82.664
  376.500    9.466    0.413    0.247  161.007   79.417
  376.750    9.377    0.412    0.257  160.986   78.813
  377.000    9.373    0.402    0.221  160.953   79.381
  377.250    9.805    0.374    0.175  160.921   76.431
  377.500   10.545    0.348    0.174  161.385   73.186
  377.750   11.238    0.331    0.169  161.849   70.526
  378.000   12.196    0.310    0.148  162.306   67.283
  378.250   12.996    0.297    0.090  162.273   63.445
  378.500   13.109    0.314    0.101  161.759   64.603
  378.750   12.632    0.338    0.150  161.730   67.523
  379.000   12.060    0.389    0.193  161.698   72.200
  379.250   11.621    0.409    0.196  161.177   74.237
  379.500   11.510    0.398    0.194  160.662   72.459
  379.750   12.043    0.367    0.201  160.637   70.679
  380.000   12.717    0.356    0.186  160.601   70.664
  380.250   13.062    0.349    0.155  160.569   70.351
  380.500   13.057    0.335    0.140  160.055   68.867
  380.750   12.698    0.327    0.126  159.541   67.969
  381.000   12.236    0.334    0.118  159.023   69.124
  381.250   11.469    0.348    0.121  158.987   72.630
  381.500   11.053    0.361    0.139  159.940   79.655
  381.750   10.174    0.371    0.157  161.382   81.981
  382.000    9.279    0.400    0.186  162.810   84.316
  382.250    8.541    0.437    0.201  162.781   86.646
  382.500    8.081    0.448    0.208  162.267   86.040
  382.750    7.787    0.444    0.208  161.753   86.609
  383.000    7.572    0.444    0.208  161.717   88.644
  383.250    7.500    0.443    0.207  161.695   88.333
  383.500    7.565    0.433    0.202  162.152   84.793
  383.750    7.631    0.428    0.205  162.612   84.191
  384.000    7.627    0.430    0.202  162.576   84.469
  384.250    7.693    0.437    0.192  162.066   86.212
  384.500    7.690    0.431    0.177  161.544   87.369
  384.750    7.616    0.426    0.194  161.030   87.939
  385.000    7.613    0.433    0.213  160.998   87.039
  385.250    7.608    0.442    0.213  160.973   84.087
  385.500    7.605    0.448    0.206  161.430   84.657
  385.750    7.670    0.444    0.192  163.353   85.520
  386.000    7.808    0.444    0.197  164.792   84.329
  386.250    7.949    0.441    0.205  165.256   82.258
  386.500    8.316    0.430    0.203  165.713   79.891
  386.750    8.861    0.422    0.196  165.198   80.460
  387.000    9.617    0.428    0.197  161.746   82.791
  387.250   10.156    0.434    0.201  158.783   85.999
  387.500   11.123    0.434    0.217  157.287   88.621
  387.750   12.184    0.438    0.235  156.762   90.660
  388.000   13.842    0.411    0.239  157.712   88.591
  388.250   16.462    0.341    0.223  159.154   82.411
  388.500   20.683    0.279    0.189  160.100   73.002
  388.750   25.051    0.233    0.141  160.560   59.780
  389.000   25.038    0.197    0.053  160.046   52.427
  389.250   23.691    0.214    0.003  159.521   51.230
  389.500   21.217    0.342    0.061  159.492   58.550
  389.750   21.012    0.359    0.171  159.949   65.873
  390.000   21.195    0.358    0.178  159.927   74.366
  390.250   21.186    0.331    0.164  159.891   67.304
  390.500   20.413    0.288    0.111  159.863   58.484
  390.750   19.136    0.258    0.055  160.327   59.934
