~VERSION INFORMATION
 VERS.                 2.0:   CWLS LOG ASCII STANDARD -VERSION 2.0
 WRAP.                  NO:   ONE LINE PER DEPTH STEP
~WELL INFORMATION BLOCK
#MNEM.UNIT           DATA                    DESCRIPTION OF MNEMONIC
#---------    -------------------            -------------------------------
# Generated from Intellog Unique Number	CW_82_90/WELL/468
WELL.         STAR GASCAN HOOLE 6-3          : Well_name    - WELL
LOC .         00/06-03-082-26W4/0            : Location     - LOCATION
UWI .         00/06-03-082-26W4/0            : Uwi          - UNIQUE WELL ID
ENTR.         os                             : Entered      - ENTERED BY
SRVC.         SCHLUMBERGER                   : Scn          - SERVICE COMPANY
DATE.         01 FEB 1982                    : Date         - LOG DATE
STRT.M        215                            : top_depth    - START DEPTH
STOP.M        432                            : bot_depth    - STOP DEPTH
STEP.M        0.25                           : increment    - STEP LENGTH
 NULL. -999.2500:NULL Value
~CURVE INFORMATION BLOCK
#MNEM UNIT       ERCB CURVE CODE    CURVE DESCRIPTION
#-----------   ------------------   ----------------------------------
DEPT.M        00 001 00 00         : DEPTH        - DEPTH
ILD .OHMM     00 120 00 00         : RESD         - DEEP RESISTIVITY (DIL)
GR  .API      00 310 00 00         : GR           - GAMMA RAY
CALI.MM       00 280 01 00         : CAL          - CALIPER
DPHI.V/V      00 890 00 00         : PHID         - DENSITY POROSITY (SANDSTONE)
NPHI.V/V      00 330 00 00         : PHIN         - NEUTRON POROSITY (SANDSTONE)
~PARAMETER INFORMATION
#MNEM.UNIT           DATA             DESCRIPTION OF MNEMONIC
#---------         -----------     ------------------------------
GL  .M        561.1                : gl           - GROUND LEVEL ELEVATION
EREF.M        564.6                : kb           - ELEVATION OF DEPTH REFERENCE
DATM.M        561.1                : datum        - DATUM ELEVATION
TDD .M        433                  : tdd          - TOTAL DEPTH DRILLER
RUN .         ONE                  : Run          - RUN NUMBER
ENG .         NIGHTINGALE & HEATH  : Engineer     - RECORDING ENGINEER
WIT .         WEBSTER              : Witness      - WITNESSED BY
BASE.         EDMONTON             : Branch       - HOME BASE OF LOGGING UNIT
MUD .         GEL CHEM             : Mud_type     - MUD TYPE
MATR.         SANDSTONE            : Logunit      - NEUTRON MATRIX
TMAX.C        29.4                 : BHT          - MAXIMUM RECORDED TEMPERATURE
BHTD.M        433                  : BHTDEP       - MAXIMUM RECORDED TEMPERATURE
RMT .C        29.4                 : MDTP         - TEMPERATURE OF MUD
MUDD.KG/M     1100                 : MWT          - MUD DENSITY
NEUT.         1                    : NEUTRON      - NEUTRON TYPE
RESI.         0                    : RESIST       - RESISTIVITY TYPE
RM  .OHMM     3.88                 : RM           - RESISTIVITY OF MUD
RMC .OHMM     3.9                  : RMC          - RESISTIVITY OF MUD CAKE
RMF .OHMM     6                    : RMF          - RESISTIVITY OF MUD FILTRATE
SUFT.C        4                    : SUFT         - SURFACE TEMPERATURE
~A  DEPTH     RESD       GR      CAL     PHID     PHIN
# ...
  324.500   10.349   89.659  246.021    0.219    0.389
  324.750   10.411   92.915  246.216    0.208    0.415
  325.000   10.474   95.481  246.307    0.198    0.413
  325.250   10.677   96.853  246.710    0.206    0.413
  325.500   10.986   93.640  247.112    0.206    0.430
  325.750   11.694   88.354  246.575    0.198    0.468
  326.000   11.876   88.659  244.889    0.210    0.444
  326.250   11.293   88.335  244.769    0.220    0.420
  326.500   11.425   88.011  244.965    0.224    0.398
  326.750   12.486   87.499  244.322    0.217    0.399
  327.000   14.767   77.942  244.099    0.215    0.422
  327.250   16.445   71.588  243.561    0.230    0.442
  327.500   17.805   70.510  243.547    0.235    0.450
  327.750   18.390   72.260  241.550    0.240    0.464
  328.000   18.571   73.883  241.012    0.247    0.445
  328.250   18.198   72.366  240.161    0.252    0.435
  328.500   17.731   70.849  240.771    0.277    0.438
  328.750   17.179   69.017  241.491    0.265    0.428
  329.000   16.090   66.119  243.147    0.219    0.372
  329.250   13.769   66.988  243.655    0.188    0.375
  329.500   13.645   71.815  244.370    0.217    0.419
  329.750   15.426   76.076  245.293    0.258    0.422
  330.000   16.084   76.631  245.804    0.259    0.416
  330.250   16.212   78.381  245.268    0.255    0.413
  330.500   16.097   80.382  244.626    0.265    0.421
  330.750   16.102   79.869  244.714    0.270    0.430
  331.000   16.109   75.588  245.117    0.262    0.435
  331.250   16.298   77.023  245.312    0.250    0.432
  331.500   16.993   76.825  245.610    0.230    0.425
  331.750   16.872   73.487  245.075    0.243    0.421
  332.000   17.102   69.457  245.374    0.249    0.421
  332.250   17.831   69.572  245.882    0.236    0.446
  332.500   18.522   72.390  246.284    0.240    0.454
  332.750   19.024   75.897  246.581    0.259    0.434
  333.000   18.466   74.756  246.569    0.273    0.407
  333.250   15.595   76.066  247.179    0.285    0.398
  333.500   11.943   80.014  247.478    0.277    0.394
  333.750   10.144   83.333  247.777    0.260    0.427
  334.000    9.324   82.193  247.869    0.229    0.460
  334.250    9.362   80.990  247.227    0.213    0.468
  334.500    9.966   82.987  246.481    0.216    0.461
  334.750   11.056   84.613  245.735    0.224    0.452
  335.000   12.220   84.039  245.929    0.242    0.462
  335.250   13.946   78.376  246.542    0.267    0.474
  335.500   15.242   69.133  246.004    0.260    0.471
  335.750   14.574   67.678  246.093    0.185    0.434
  336.000   13.270   71.375  245.766    0.147    0.411
  336.250   13.101   75.510  244.812    0.123    0.446
  336.500   13.280   77.448  243.960    0.134    0.435
  336.750   14.110   77.939  243.632    0.216    0.402
  337.000   14.492   78.747  243.513    0.190    0.402
  337.250   14.579   75.095  244.439    0.174    0.367
  337.500   13.967   75.650  244.318    0.147    0.349
  337.750   13.206   79.975  243.888    0.195    0.400
  338.000   12.940   82.665  243.873    0.231    0.432
  338.250   13.216   84.101  243.649    0.232    0.428
  338.500   13.370   81.454  242.903    0.199    0.415
  338.750   12.955   83.956  242.364    0.184    0.401
  339.000   12.960   87.526  241.307    0.224    0.420
  339.250   12.627   89.715  240.666    0.236    0.460
  339.500   11.433   89.014  241.380    0.237    0.469
  339.750   10.789   85.173  241.889    0.236    0.458
  340.000   10.278   86.169  242.084    0.235    0.440
  340.250    9.939   67.504  242.172    0.228    0.430
  340.500   10.018   63.788  242.471    0.220    0.439
  340.750   10.060   76.655  242.249    0.222    0.444
  341.000    9.674   85.690  241.816    0.232    0.437
  341.250    9.338   90.768  242.531    0.236    0.439
  341.500    9.376   88.686  242.203    0.221    0.436
  341.750    9.685   85.096  241.562    0.211    0.444
  342.000   10.846   82.825  240.190    0.223    0.455
  342.250   11.546   82.501  240.176    0.234    0.457
  342.500   11.355   82.555  241.203    0.234    0.450
  342.750   11.002   82.859  241.921    0.229    0.466
  343.000   10.383   85.361  241.908    0.224    0.486
  343.250   10.098   87.990  242.207    0.210    0.492
  343.500    9.913   89.551  242.192    0.199    0.437
  343.750    9.787   88.723  241.132    0.210    0.442
  344.000    9.663   85.008  240.596    0.221    0.442
  344.250    9.292   83.931  239.432    0.196    0.437
  344.500    9.454   87.815  239.104    0.174    0.437
  344.750    9.637   91.574  243.268    0.206    0.445
  345.000    9.479   88.864  248.686    0.224    0.461
  345.250    9.098   87.284  250.342    0.203    0.461
  345.500    8.865   91.734  250.641    0.208    0.466
  345.750    8.735   95.241  250.731    0.207    0.457
  346.000    8.989   99.064  252.178    0.204    0.431
  346.250    9.750   99.933  249.865    0.211    0.424
  346.500   13.557   91.256  248.909    0.216    0.427
  346.750   16.005   73.282  245.135    0.210    0.446
  347.000   19.361   68.310  244.075    0.218    0.452
  347.250   26.221   66.291  244.583    0.226    0.422
  347.500   32.569   67.034  243.210    0.160    0.375
  347.750   33.326   71.673  243.823    0.119    0.341
  348.000   28.571   73.797  244.435    0.109    0.342
  348.250   26.459   75.799  244.938    0.106    0.345
  348.500   25.396   79.746  244.925    0.112    0.359
  348.750   24.652   81.307  243.764    0.229    0.410
  349.000   24.201   70.619  243.332    0.229    0.438
  349.250   22.969   65.585  243.630    0.249    0.463
  349.500   22.549   63.314  243.825    0.287    0.487
  349.750   22.558   61.734  242.241    0.322    0.458
  350.000   22.867   60.845  242.228    0.339    0.430
  350.250   24.477   60.458  242.839    0.343    0.443
  350.500   29.333   58.062  242.825    0.303    0.473
  350.750   37.125   51.582  243.125    0.179    0.498
  351.000   46.023   49.248  243.629    0.125    0.304
  351.250   59.690   49.239  244.347    0.046    0.208
  351.500   69.022   50.172  245.066    0.008    0.116
  351.750   71.024   49.156  245.573   -0.009    0.102
  352.000   70.388   47.325  245.871    0.001    0.098
  352.250   70.947   46.813  245.649    0.025    0.094
  352.500   71.510   44.354  245.529    0.035    0.096
  352.750   72.077   45.286  245.828    0.022    0.101
  353.000   73.339   44.334  245.810    0.012    0.110
  353.250   74.475   45.079  245.798    0.012    0.115
  353.500   74.782   46.576  245.573    0.015    0.109
  353.750   73.971   45.876  245.348    0.019    0.095
  354.000   71.804   47.372  245.442    0.016    0.091
  354.250   63.203   50.065  245.529    0.012    0.105
  354.500   55.321   53.761  245.724    0.021    0.123
  354.750   47.251   57.645  245.500    0.051    0.166
  355.000   40.206   60.776  244.336    0.117    0.222
  355.250   34.084   64.473  243.488    0.221    0.309
  355.500   33.274   66.913  242.638    0.257    0.354
  355.750   33.538   66.714  242.308    0.274    0.387
  356.000   33.235   64.381  241.875    0.300    0.426
  356.250   31.188   64.937  241.339    0.313    0.476
  356.500   25.366   63.733  241.325    0.322    0.470
  356.750   17.517   61.148  241.517    0.316    0.463
  357.000   15.361   64.907  242.131    0.293    0.471
  357.250   13.344   73.063  243.161    0.250    0.452
  357.500   12.082   78.204  245.863    0.211    0.430
  357.750   11.231   72.227  247.415    0.186    0.462
  358.000   11.131   75.610  246.983    0.186    0.447
  358.250   11.893   82.823  244.982    0.192    0.434
  358.500   12.214   87.775  246.535    0.184    0.426
  358.750   12.150   87.892  245.790    0.192    0.431
  359.000   12.178   82.731  237.939    0.215    0.429
  359.250   11.427   83.538  236.985    0.213    0.435
  359.500   12.096   86.983  239.477    0.223    0.432
  359.750   12.169   91.245  242.074    0.221    0.427
  360.000   11.969   93.559  244.672    0.209    0.432
  360.250   11.884   89.843  246.328    0.190    0.419
  360.500   11.866   88.325  247.357    0.172    0.414
  360.750   11.715   91.081  248.387    0.157    0.427
