~VERSION INFORMATION
 VERS.                 2.0:   CWLS LOG ASCII STANDARD -VERSION 2.0
 WRAP.                  NO:   ONE LINE PER DEPTH STEP
~WELL INFORMATION BLOCK
#MNEM.UNIT           DATA                    DESCRIPTION OF MNEMONIC
#---------    -------------------            -------------------------------
# Generated from Intellog Unique Number	CW_82_90/WELL/468
WELL.         STAR GASCAN HOOLE 6-3          : Well_name    - WELL
LOC .         00/06-03-082-26W4/0            : Location     - LOCATION
UWI .         00/06-03-082-26W4/0            : Uwi          - UNIQUE WELL ID
ENTR.         os                             : Entered      - ENTERED BY
SRVC.         SCHLUMBERGER                   : Scn          - SERVICE COMPANY
DATE.         01 FEB 1982                    : Date         - LOG DATE
STRT.M        215                            : top_depth    - START DEPTH
STOP.M        432                            : bot_depth    - STOP DEPTH
STEP.M        0.25                           : increment    - STEP LENGTH
 NULL. -999.2500:NULL Value
~CURVE INFORMATION BLOCK
#MNEM UNIT       ERCB CURVE CODE    CURVE DESCRIPTION
#-----------   ------------------   ----------------------------------
DEPT.M        00 001 00 00         : DEPTH        - DEPTH
ILD .OHMM     00 120 00 00         : RESD         - DEEP RESISTIVITY (DIL)
GR  .API      00 310 00 00         : GR           - GAMMA RAY
CALI.MM       00 280 01 00         : CAL          - CALIPER
DPHI.V/V      00 890 00 00         : PHID         - DENSITY POROSITY (SANDSTONE)
NPHI.V/V      00 330 00 00         : PHIN         - NEUTRON POROSITY (SANDSTONE)
~PARAMETER INFORMATION
#MNEM.UNIT           DATA             DESCRIPTION OF MNEMONIC
#---------         -----------     ------------------------------
GL  .M        561.1                : gl           - GROUND LEVEL ELEVATION
EREF.M        564.6                : kb           - ELEVATION OF DEPTH REFERENCE
DATM.M        561.1                : datum        - DATUM ELEVATION
TDD .M        433                  : tdd          - TOTAL DEPTH DRILLER
RUN .         ONE                  : Run          - RUN NUMBER
ENG .         NIGHTINGALE & HEATH  : Engineer     - RECORDING ENGINEER
WIT .         WEBSTER              : Witness      - WITNESSED BY
BASE.         EDMONTON             : Branch       - HOME BASE OF LOGGING UNIT
MUD .         GEL CHEM             : Mud_type     - MUD TYPE
MATR.         SANDSTONE            : Logunit      - NEUTRON MATRIX
TMAX.C        29.4                 : BHT          - MAXIMUM RECORDED TEMPERATURE
BHTD.M        433                  : BHTDEP       - MAXIMUM RECORDED TEMPERATURE
RMT .C        29.4                 : MDTP         - TEMPERATURE OF MUD
MUDD.KG/M     1100                 : MWT          - MUD DENSITY
NEUT.         1                    : NEUTRON      - NEUTRON TYPE
RESI.         0                    : RESIST       - RESISTIVITY TYPE
RM  .OHMM     3.88                 : RM           - RESISTIVITY OF MUD
RMC .OHMM     3.9                  : RMC          - RESISTIVITY OF MUD CAKE
RMF .OHMM     6                    : RMF          - RESISTIVITY OF MUD FILTRATE
SUFT.C        4                    : SUFT         - SURFACE TEMPERATURE
~A  DEPTH     RESD       GR      CAL     PHID     PHIN
# ...
  251.500    8.099   62.653  242.055    0.281    0.461
  251.750    6.827   70.244  241.619    0.322    0.415
  252.000    5.532   87.005  241.292    0.312    0.418
  252.250    4.534   98.741  241.591    0.265    0.458
  252.500    3.924  100.741  241.891    0.252    0.478
  252.750    3.647   97.968  242.295    0.257    0.496
  253.000    3.594   97.894  242.070    0.253    0.507
  253.250    3.928   99.770  241.949    0.254    0.523
  253.500    4.073   94.798  242.041    0.255    0.543
  253.750    4.230   89.261  242.340    0.252    0.535
  254.000    4.304   92.706  243.057    0.245    0.517
  254.250    4.282   96.653  243.564    0.242    0.466
  254.500    4.195   94.508  245.952    0.240    0.491
  254.750    4.057   93.242  246.563    0.230    0.533
  255.000    3.961   97.566  246.548    0.220    0.505
  255.250    3.866   97.243  246.532    0.213    0.477
  255.500    3.875   98.363  246.310    0.220    0.485
  255.750    3.855   98.165  245.983    0.225    0.466
  256.000    3.885  100.102  245.864    0.227    0.464
  256.250    4.051  103.170  245.640    0.239    0.476
  256.500    4.216  102.219  245.417    0.255    0.477
  256.750    4.505   90.903  245.193    0.255    0.481
  257.000    4.960   82.665  245.387    0.238    0.459
  257.250    5.513   76.248  244.850    0.244    0.453
  257.500    5.727   73.098  245.043    0.259    0.461
  257.750    5.860   72.083  245.134    0.271    0.460
  258.000    5.829   71.446  244.807    0.278    0.445
  258.250    5.532   71.373  243.957    0.280    0.439
  258.500    5.300   72.368  243.104    0.269    0.440
  258.750    5.292   76.316  243.300    0.259    0.447
  259.000    5.384   81.834  244.225    0.261    0.465
  259.250    5.884   81.636  244.733    0.277    0.495
  259.500    6.690   69.755  245.345    0.288    0.485
  259.750    7.809   62.145  245.017    0.300    0.467
  260.000    9.411   56.922  244.167    0.310    0.450
  260.250   12.485   48.747  242.272    0.306    0.370
  260.500   14.328   44.528  241.524    0.293    0.363
  260.750   15.396   43.200  241.615    0.308    0.374
  261.000   12.930   42.373  241.914    0.338    0.381
  261.250   13.971   40.918  242.214    0.352    0.406
  261.500   12.532   39.967  242.199    0.346    0.410
  261.750   11.584   43.224  243.959    0.340    0.402
  262.000   10.789   46.543  243.944    0.337    0.406
  262.250   10.833   51.432  242.154    0.332    0.421
  262.500   11.169   53.495  242.139    0.333    0.422
  262.750   11.844   54.553  242.229    0.337    0.421
  263.000   12.280   55.234  241.587    0.338    0.465
  263.250   12.827   55.664  241.467    0.336    0.476
  263.500   13.300   56.158  241.454    0.334    0.444
  263.750   13.354   53.008  241.230    0.333    0.440
  264.000   12.866   45.775  240.590    0.334    0.446
  264.250   12.165   43.127  241.515    0.335    0.408
  264.500    9.801   45.189  241.919    0.329    0.410
  264.750   10.833   44.112  241.381    0.322    0.439
  265.000   11.817   48.374  241.262    0.320    0.411
  265.250   11.711   56.781  241.455    0.335    0.389
  265.500    9.928   58.153  241.336    0.336    0.397
  265.750   11.097   48.157  240.800    0.323    0.419
  266.000   13.757   45.194  240.784    0.332    0.417
  266.250   13.480   44.494  240.458    0.345    0.417
  266.500   13.846   41.971  240.442    0.358    0.420
  266.750   13.929   43.155  240.010    0.361    0.424
  267.000   12.032   51.060  239.682    0.347    0.418
  267.250   12.082   51.991  239.981    0.327    0.391
  267.500   13.841   50.350  240.592    0.303    0.379
  267.750   12.531   52.099  240.577    0.321    0.413
  268.000   10.886   55.355  239.934    0.332    0.432
  268.250   11.287   56.162  239.712    0.336    0.450
  268.500   12.037   54.456  239.594    0.333    0.463
  268.750   13.481   54.572  239.789    0.342    0.463
  269.000   14.269   52.804  239.878    0.352    0.444
  269.250   15.131   51.852  239.758    0.363    0.436
  269.500   15.453   56.051  239.534    0.370    0.435
  269.750   15.813   58.742  240.042    0.361    0.440
  270.000   15.938   59.674  240.654    0.365    0.446
  270.250   15.825   61.989  241.371    0.363    0.443
  270.500   15.920   63.298  241.146    0.347    0.444
  270.750   16.351   61.907  240.715    0.339    0.475
  271.000   16.388   59.385  240.177    0.349    0.512
  271.250   16.119   57.993  239.120    0.357    0.471
  271.500   16.065   59.491  239.627    0.358    0.450
  271.750   16.131   60.863  239.819    0.364    0.451
  272.000   16.290   61.168  239.702    0.358    0.456
  272.250   16.512   61.849  238.747    0.350    0.475
  272.500   17.444   63.347  238.837    0.359    0.494
  272.750   18.993   64.216  238.614    0.359    0.496
  273.000   20.600   61.820  239.330    0.357    0.486
  273.250   23.158   59.988  240.883    0.361    0.500
  273.500   27.390   60.419  241.805    0.354    0.513
  273.750   31.376   57.708  242.419    0.342    0.467
  274.000   33.335   56.315  238.540    0.354    0.235
  274.250   32.664   57.877  233.302    0.352    0.258
  274.500   27.277   60.253  235.794    0.332    0.293
  274.750   22.186   61.626  238.495    0.348    0.421
  275.000   19.382   61.805  239.734    0.362    0.454
  275.250   16.586   60.664  238.885    0.369    0.463
  275.500   15.476   63.041  238.764    0.366    0.460
  275.750   14.743   65.104  240.210    0.359    0.479
  276.000   14.419   65.032  240.824    0.355    0.496
  276.250   14.236   65.776  240.811    0.364    0.510
  276.500   14.376   66.520  241.109    0.368    0.516
  276.750   14.435   67.703  241.615    0.367    0.510
  277.000   14.333   65.810  241.603    0.363    0.474
  277.250   14.556   63.099  241.795    0.349    0.463
  277.500   14.561   62.084  241.885    0.355    0.463
  277.750   14.650   64.524  242.392    0.367    0.466
  278.000   14.060   63.636  242.484    0.351    0.458
  278.250   13.046   61.365  242.363    0.335    0.464
  278.500   13.273   60.349  241.515    0.334    0.473
  278.750   13.556   62.035  240.037    0.327    0.472
  279.000   13.334   63.848  239.604    0.319    0.461
  279.250   12.992   64.277  238.336    0.313    0.453
  279.500   12.996   62.259  238.006    0.318    0.461
  279.750   11.745   61.055  238.621    0.328    0.491
  280.000   11.252   61.799  239.233    0.320    0.518
  280.250   10.902   61.413  239.008    0.309    0.493
  280.500   10.563   63.413  238.890    0.312    0.470
  280.750   10.253   66.167  239.187    0.331    0.468
  281.000    9.841   67.602  239.592    0.329    0.464
  281.250    9.410   69.414  239.784    0.321    0.457
  281.500    9.032   71.854  239.561    0.318    0.453
  281.750    8.917   71.593  239.547    0.324    0.453
  282.000    8.804   72.651  239.636    0.326    0.470
  282.250    8.676   74.526  239.309    0.313    0.491
  282.500    8.646   76.902  238.771    0.302    0.520
  282.750    8.569   77.584  238.339    0.297    0.500
  283.000    8.475   79.647  238.323    0.285    0.484
  283.250    8.463   77.753  238.518    0.287    0.480
  283.500    8.092   74.037  237.877    0.292    0.508
  283.750    7.452   73.714  237.132    0.283    0.521
  284.000    6.223   77.913  236.490    0.274    0.489
  284.250    5.187   83.556  236.267    0.272    0.476
  284.500    4.203   91.272  236.357    0.267    0.467
  284.750    3.399   96.916  236.759    0.254    0.473
  285.000    3.148  100.925  236.223    0.220    0.489
  285.250    3.079  104.119  237.567    0.203    0.522
  285.500    3.174  105.618  240.477    0.209    0.543
  285.750    3.502  106.236  240.880    0.226    0.549
  286.000    3.878  100.071  241.177    0.236    0.548
  286.250    4.104   93.151  241.269    0.247    0.520
  286.500    4.312   89.122  240.731    0.260    0.487
  286.750    4.521   85.532  239.777    0.266    0.459
  287.000    4.732   87.784  240.179    0.263    0.499
  287.250    4.943   90.412  240.372    0.248    0.484
  287.500    5.252   87.764  240.045    0.249    0.481
  287.750    5.580   83.671  239.300    0.256    0.491
