~VERSION INFORMATION
 VERS.                 2.0:   CWLS LOG ASCII STANDARD -VERSION 2.0
 WRAP.                  NO:   ONE LINE PER DEPTH STEP
~WELL INFORMATION BLOCK
#MNEM.UNIT           DATA                    DESCRIPTION OF MNEMONIC
#---------    -------------------            -------------------------------
# Generated from Intellog Unique Number	CS_69_70/WELL/778
NULL.         -999.25                        : NULL_VALUE
WELL.         PANCANADIAN PETROLEUM          : Well_name    - WELL              
LOC .         00/06-26-070-13W4/0            : Location     - LOCATION          
UWI .         00/06-26-070-13W4/0            : Uwi          - UNIQUE WELL ID    
ENTR.         SP                             : Entered      - ENTERED BY        
SRVC.         SCHLUMBERGER                   : Scn          - SERVICE COMPANY   
STRT.M        260                            : top_depth    - START DEPTH       
STOP.M        495                            : bot_depth    - STOP DEPTH        
STEP.M        0.25                           : increment    - STEP LENGTH       
~CURVE INFORMATION BLOCK
#MNEM UNIT       ERCB CURVE CODE    CURVE DESCRIPTION
#-----------   ------------------   ----------------------------------
DEPT.M        00 001 00 00         : DEPTH        - DEPTH                       
ILD .OHMM     00 120 00 00         : RESD         - DEEP RESISTIVITY (DIL)      
DPHI.V/V      00 890 00 00         : PHID         - DENSITY POROSITY (LIMESTONE)
NPHI.V/V      00 330 00 00         : PHIN         - NEUTRON POROSITY (LIMESTONE)
GR  .API      00 310 00 00         : GR           - GAMMA RAY                   
~PARAMETER INFORMATION       
#MNEM.UNIT           DATA             DESCRIPTION OF MNEMONIC
#---------         -----------     ------------------------------
GL  .M        577.2                : gl           - GROUND LEVEL ELEVATION      
EREF.M        580.8                : kb           - ELEVATION OF DEPTH REFERENCE
DATM.M        577.2                : datum        - DATUM ELEVATION             
TDD .M        499.5                : tdd          - TOTAL DEPTH DRILLER         
RUN .         ONE                  : Run          - RUN NUMBER                  
ENG .         BILL                 : Engineer     - RECORDING ENGINEER          
WIT .         JIM                  : Witness      - WITNESSED BY                
MUD .         GEL                  : Mud_type     - MUD TYPE                    
MATR.         LIMESTONE            : Logunit      - NEUTRON MATRIX              
TMAX.C        28                   : BHT          - MAXIMUM RECORDED TEMPERATURE
BHTD.M        499.5                : BHTDEP       - MAXIMUM RECORDED TEMPERATURE
MATR.         1                    : LOGUNIT      - NEUTRON MATRIX              
RMT .C        25                   : MDTP         - TEMPERATURE OF MUD          
NEUT.         1                    : NEUTRON      - NEUTRON TYPE                
RESI.         0                    : RESIST       - RESISTIVITY TYPE            
RMC .OHMM     0.25                 : RMC          - RESISTIVITY OF MUD CAKE     
RMF .OHMM     0.25                 : RMF          - RESISTIVITY OF MUD FILTRATE 
SUFT.C        15                   : SUFT         - SURFACE TEMPERATURE         
~A  DEPTH     RESD     PHID     PHIN       GR
# ...
  347.000    6.654    0.326    0.402   63.949
  347.250    6.847    0.251    0.369   63.470
  347.500    6.980    0.198    0.315   61.407
  347.750    7.514    0.097    0.280   60.380
  348.000    8.556    0.053    0.256   59.234
  348.250    9.908    0.054    0.238   56.864
  348.500   12.115    0.067    0.226   51.387
  348.750   15.583    0.073    0.214   50.483
  349.000   18.770    0.050    0.202   49.883
  349.250   21.696    0.027    0.190   48.673
  349.500   23.530    0.009    0.178   45.635
  349.750   24.214   -0.003    0.167   41.499
  350.000   23.030   -0.011    0.156   39.803
  350.250   21.498   -0.008    0.149   42.434
  350.500   19.956    0.001    0.155   47.258
  350.750   21.521    0.013    0.183   50.985
  351.000   24.323    0.034    0.218   54.714
  351.250   20.025    0.053    0.235   57.404
  351.500   15.910    0.152    0.266   59.120
  351.750   13.297    0.235    0.308   60.227
  352.000   11.112    0.318    0.338   59.688
  352.250    9.217    0.318    0.367   60.978
  352.500    7.761    0.317    0.390   63.790
  352.750    6.887    0.351    0.402   65.873
  353.000    6.216    0.367    0.409   67.344
  353.250    5.748    0.337    0.414   70.036
  353.500    5.698    0.310    0.442   72.910
  353.750    5.853    0.293    0.406   75.420
  354.000    6.057    0.282    0.389   76.039
  354.250    6.398    0.280    0.403   75.742
  354.500    6.671    0.294    0.428   71.485
  354.750    6.865    0.321    0.446   67.776
  355.000    6.920    0.329    0.428   66.323
  355.250    6.949    0.299    0.410   69.747
  355.500    6.928    0.276    0.398   73.474
  355.750    6.905    0.260    0.396   76.348
  356.000    6.793    0.249    0.411   80.319
  356.250    6.746    0.238    0.394   82.401
  356.500    6.700    0.227    0.380   82.654
  356.750    6.640    0.225    0.372   83.091
  357.000    6.544    0.245    0.385   84.868
  357.250    6.366    0.236    0.374   87.011
  357.500    6.346    0.219    0.378   88.910
  357.750    6.361    0.212    0.403   91.297
  358.000    6.376    0.204    0.428   89.538
  358.250    6.380    0.195    0.404   85.220
  358.500    6.565    0.203    0.389   78.159
  358.750    6.718    0.225    0.389   81.460
  359.000    6.862    0.223    0.415   84.517
  359.250    6.878    0.225    0.439   85.563
  359.500    6.881    0.243    0.413   84.658
  359.750    6.720    0.254    0.402   79.975
  360.000    6.536    0.248    0.427   80.655
  360.250    6.323    0.236    0.441   85.661
  360.500    6.128    0.233    0.436   88.292
  360.750    5.928    0.257    0.441   84.583
  361.000    5.745    0.264    0.433   80.266
  361.250    5.726    0.247    0.422   79.726
  361.500    5.772    0.229    0.427   82.174
  361.750    5.896    0.218    0.450   87.486
  362.000    5.966    0.221    0.435   82.438
  362.250    6.013    0.242    0.449   76.472
  362.500    6.062    0.254    0.429   77.641
  362.750    6.076    0.257    0.445   80.819
  363.000    6.034    0.238    0.453   83.328
  363.250    5.915    0.228    0.464   84.861
  363.500    5.819    0.232    0.473   82.310
  363.750    5.724    0.245    0.443   80.981
  364.000    5.652    0.255    0.423   79.647
  364.250    5.698    0.258    0.403   81.608
  364.500    5.863    0.260    0.414   78.204
  364.750    6.056    0.261    0.427   75.105
  365.000    6.291    0.265    0.436   76.882
  365.250    6.462    0.253    0.455   80.183
  365.500    6.477    0.235    0.445   84.584
  365.750    6.277    0.221    0.460   86.907
  366.000    6.038    0.221    0.455   86.063
  366.250    5.907    0.233    0.436   84.060
  366.500    5.746    0.232    0.415   85.533
  366.750    5.559    0.219    0.421   86.091
  367.000    5.208    0.221    0.442   84.090
  367.250    4.798    0.228    0.437   87.146
  367.500    4.346    0.231    0.426   90.996
  367.750    3.908    0.239    0.428   93.687
  368.000    3.903    0.265    0.430   91.380
  368.250    4.362    0.280    0.407   86.148
  368.500    4.757    0.322    0.423   82.744
  368.750    4.987    0.367    0.489   87.020
  369.000    4.753    0.411    0.490   91.967
  369.250    3.432    0.440    0.482   92.404
  369.500    2.696    0.404    0.480   89.182
  369.750    2.090    0.350    0.480   85.046
  370.000    1.841    0.380    0.492   85.362
  370.250    1.668    0.394    0.498   89.029
  370.500    1.675    0.350    0.499   88.428
  370.750    1.855    0.297    0.520   86.062
  371.000    2.104    0.277    0.462   85.155
  371.250    2.391    0.258    0.424   82.360
  371.500    2.800    0.251    0.450   82.858
  371.750    3.225    0.256    0.469   85.610
  372.000    3.665    0.260    0.423   86.596
  372.250    4.142    0.254    0.403   84.593
  372.500    4.603    0.248    0.413   82.226
  372.750    4.863    0.255    0.428   78.639
  373.000    5.032    0.267    0.426   75.234
  373.250    5.111    0.280    0.420   72.440
  373.500    5.210    0.289    0.400   76.168
  373.750    5.252    0.310    0.411   72.643
  374.000    5.354    0.311    0.418   74.053
  374.250    5.438    0.299    0.397   79.366
  374.500    5.628    0.290    0.395   83.337
  374.750    5.780    0.299    0.416   81.885
  375.000    5.893    0.326    0.424   77.688
  375.250    5.963    0.350    0.404   71.603
  375.500    6.056    0.344    0.403   64.604
  375.750    6.128    0.339    0.426   60.832
  376.000    6.189    0.352    0.422   56.026
  376.250    6.203    0.363    0.420   52.257
  376.500    6.148    0.343    0.394   51.352
  376.750    5.959    0.330    0.392   54.593
  377.000    5.490    0.328    0.400   56.247
  377.250    5.212    0.343    0.387   56.441
  377.500    5.023    0.348    0.375   53.647
  377.750    4.988    0.357    0.382   53.716
  378.000    4.990    0.361    0.385   55.920
  378.250    4.975    0.367    0.373   59.039
  378.500    4.986    0.373    0.382   60.144
  378.750    5.027    0.366    0.401   61.678
  379.000    5.030    0.322    0.422   69.062
  379.250    5.042    0.275    0.409   79.191
  379.500    5.044    0.257    0.400   83.527
  379.750    5.056    0.250    0.414   77.381
  380.000    5.087    0.265    0.413   71.417
  380.250    5.186    0.272    0.399   70.695
  380.500    5.307    0.276    0.401   71.619
  380.750    5.523    0.279    0.400   70.104
  381.000    5.846    0.228    0.368   64.384
  381.250    6.304    0.146    0.338   59.639
  381.500    6.786    0.118    0.318   73.364
  381.750    7.359    0.172    0.342   77.944
  382.000    8.041    0.261    0.372   79.172
  382.250    7.506    0.285    0.399   71.138
  382.500    5.864    0.282    0.415   69.683
  382.750    5.088    0.292    0.445   73.046
  383.000    4.540    0.274    0.411   74.518
  383.250    4.286    0.269    0.390   70.077
  383.500    4.054    0.297    0.411   71.184
  383.750    3.996    0.318    0.420   75.400
  384.000    3.976    0.295    0.396   79.372
  384.250    4.053    0.276    0.381   81.513
  384.500    4.155    0.262    0.372   82.558
  384.750    4.276    0.253    0.391   78.912
  385.000    4.400    0.254    0.405   76.788
  385.250    4.460    0.259    0.417   78.747
  385.500    4.513    0.264    0.398   86.132
  385.750    4.499    0.263    0.404   88.762
  386.000    4.459    0.268    0.416   79.447
  386.250    4.403    0.267    0.409   78.115
  386.500    4.348    0.271    0.400   80.562
  386.750    4.383    0.249    0.385   83.314
  387.000    4.418    0.229    0.375   81.861
  387.250    4.471    0.217    0.376   78.947
  387.500    4.583    0.213    0.392   79.381
  387.750    4.708    0.216    0.415   80.610
  388.000    4.836    0.226    0.431   81.841
  388.250    4.892    0.235    0.426   82.214
  388.500    4.914    0.226    0.404   82.589
  388.750    4.898    0.202    0.390   83.453
  389.000    4.864    0.207    0.393   84.314
  389.250    4.803    0.241    0.395   87.070
  389.500    4.690    0.260    0.406   88.905
  389.750    4.444    0.280    0.414   90.072
  390.000    4.171    0.280    0.487   86.547
  390.250    3.887    0.272    0.534   85.153
