~VERSION INFORMATION
 VERS.                 2.0:   CWLS LOG ASCII STANDARD -VERSION 2.0
 WRAP.                  NO:   ONE LINE PER DEPTH STEP
~WELL INFORMATION BLOCK
#MNEM.UNIT           DATA                    DESCRIPTION OF MNEMONIC
#---------    -------------------            -------------------------------
# Generated from Intellog Unique Number	CS_71_72/WELL/776
WELL.         SULPETRO BRENDA IPIATIK        : Well_name    - WELL
LOC .         00/06-24-072-10W4/0            : Location     - LOCATION
UWI .         00/06-24-072-10W4/0            : Uwi          - UNIQUE WELL ID
ENTR.         SP                             : Entered      - ENTERED BY
SRVC.         SCHLUMBERGER                   : Scn          - SERVICE COMPANY
STRT.M        315                            : top_depth    - START DEPTH
STOP.M        505                            : bot_depth    - STOP DEPTH
STEP.M        0.25                           : increment    - STEP LENGTH
 NULL. -999.2500:NULL Value
~CURVE INFORMATION BLOCK
#MNEM UNIT       ERCB CURVE CODE    CURVE DESCRIPTION
#-----------   ------------------   ----------------------------------
DEPT.M        00 001 00 00         : DEPTH        - DEPTH
ILD .OHMM     00 120 00 00         : RESD         - DEEP RESISTIVITY (DIL)
DPHI.V/V      00 890 00 00         : PHID         - DENSITY POROSITY (LIMESTONE)
NPHI.V/V      00 330 00 00         : PHIN         - NEUTRON POROSITY (LIMESTONE)
GR  .API      00 310 00 00         : GR           - GAMMA RAY
~PARAMETER INFORMATION
#MNEM.UNIT           DATA             DESCRIPTION OF MNEMONIC
#---------         -----------     ------------------------------
GL  .M        666.96               : gl           - GROUND LEVEL ELEVATION
EREF.M        666.93               : kb           - ELEVATION OF DEPTH REFERENCE
DATM.M        666.96               : datum        - DATUM ELEVATION
TDD .M        520                  : tdd          - TOTAL DEPTH DRILLER
RUN .         ONE                  : Run          - RUN NUMBER
ENG .         BILL                 : Engineer     - RECORDING ENGINEER
WIT .         JIM                  : Witness      - WITNESSED BY
MUD .         GEL                  : Mud_type     - MUD TYPE
MATR.         LIMESTONE            : Logunit      - NEUTRON MATRIX
TMAX.C        20                   : BHT          - MAXIMUM RECORDED TEMPERATURE
BHTD.M        520                  : BHTDEP       - MAXIMUM RECORDED TEMPERATURE
MATR.         1                    : LOGUNIT      - NEUTRON MATRIX
RMT .C        25                   : MDTP         - TEMPERATURE OF MUD
NEUT.         1                    : NEUTRON      - NEUTRON TYPE
RESI.         0                    : RESIST       - RESISTIVITY TYPE
RMC .OHMM     0.25                 : RMC          - RESISTIVITY OF MUD CAKE
RMF .OHMM     0.25                 : RMF          - RESISTIVITY OF MUD FILTRATE
SUFT.C        15                   : SUFT         - SURFACE TEMPERATURE
~A  DEPTH     RESD     PHID     PHIN       GR
# ...
  358.500    8.707    0.232    0.458   75.204
  358.750    9.041    0.237    0.441   72.149
  359.000    9.387    0.236    0.432   72.156
  359.250    9.566    0.230    0.419   75.224
  359.500    9.933    0.235    0.414   78.292
  359.750   10.122    0.231    0.421   81.358
  360.000   10.124    0.229    0.425   78.305
  360.250    9.938    0.230    0.438   74.638
  360.500    9.575    0.232    0.432   75.868
  360.750    9.224    0.226    0.414   77.098
  361.000    8.246    0.218    0.407   79.555
  361.250    7.652    0.205    0.417   89.969
  361.500    6.840    0.198    0.427  103.446
  361.750    6.001    0.193    0.437  106.513
  362.000    5.265    0.211    0.459   98.560
  362.250    5.266    0.229    0.480   91.219
  362.500    6.351    0.248    0.459   85.103
  362.750    7.378    0.258    0.445   77.763
  363.000    9.238    0.269    0.450   72.871
  363.250   11.567    0.279    0.439   66.754
  363.500   12.704    0.286    0.445   61.250
  363.750   14.486    0.292    0.451   64.320
  364.000   15.910    0.286    0.440   66.162
  364.250   16.832    0.284    0.431   68.004
  364.500   17.477    0.285    0.426   64.949
  364.750   17.481    0.287    0.421   58.834
  365.000   17.484    0.286    0.418   58.841
  365.250   16.844    0.279    0.445   61.907
  365.500   16.534    0.273    0.458   64.976
  365.750   15.634    0.260    0.470   68.655
  366.000   15.062    0.255    0.480   72.337
  366.250   14.242    0.253    0.493   72.954
  366.500   13.721    0.249    0.476   69.287
  366.750   12.974    0.238    0.472   69.293
  367.000   12.736    0.231    0.467   71.751
  367.250   12.502    0.228    0.459   72.980
  367.500   12.503    0.230    0.445   68.701
  367.750   12.742    0.238    0.432   66.257
  368.000   12.985    0.242    0.428   70.552
  368.250   13.233    0.232    0.417   74.231
  368.500   13.486    0.222    0.407   72.399
  368.750   13.488    0.229    0.403   70.570
  369.000   13.240    0.240    0.402   68.130
  369.250   12.996    0.243    0.403   67.521
  369.500   12.520    0.233    0.408   71.201
  369.750   12.062    0.217    0.411   74.880
  370.000   11.195    0.207    0.416   75.499
  370.250   10.785    0.204    0.413   77.343
  370.500   10.390    0.202    0.412   79.798
  370.750    9.643    0.213    0.419   71.233
  371.000    9.465    0.224    0.411   73.690
  371.250    9.291    0.211    0.406   87.167
  371.500    8.951    0.188    0.418   90.232
  371.750    8.624    0.177    0.434   91.465
  372.000    8.308    0.169    0.447   87.185
  372.250    8.155    0.194    0.453   80.458
  372.500    8.157    0.226    0.465   74.953
  372.750    8.312    0.250    0.490   70.673
  373.000    8.471    0.260    0.500   67.617
  373.250    8.795    0.270    0.484   66.399
  373.500    9.306    0.259    0.478   67.629
  373.750    9.845    0.251    0.453   60.901
  374.000   10.222    0.245    0.452   54.785
  374.250   10.613    0.261    0.441   53.567
  374.500   11.230    0.262    0.425   58.475
  374.750   11.443    0.260    0.424   60.928
  375.000   11.662    0.260    0.417   63.385
  375.250   11.664    0.261    0.409   62.165
  375.500   11.665    0.251    0.426   59.111
  375.750   11.451    0.249    0.440   56.667
  376.000   11.453    0.256    0.448   53.001
  376.250   11.892    0.257    0.456   49.946
  376.500   13.061    0.263    0.457   48.116
  376.750   15.174    0.282    0.472   46.897
  377.000   17.961    0.301    0.473   46.290
  377.250   20.480    0.310    0.462   45.684
  377.500   22.076    0.305    0.469   43.242
  377.750   24.247    0.304    0.457   40.188
  378.000   25.651    0.306    0.442   38.970
  378.250   26.634    0.303    0.429   43.876
  378.500   27.142    0.300    0.422   46.941
  378.750   27.661    0.297    0.425   51.234
  379.000   28.188    0.296    0.427   50.016
  379.250   28.192    0.306    0.436   43.900
  379.500   28.198    0.309    0.447   41.456
  379.750   27.679    0.308    0.440   43.913
  380.000   27.170    0.311    0.430   46.981
  380.250   26.671    0.311    0.440   46.986
  380.500   26.181    0.307    0.448   45.773
  380.750   25.701    0.306    0.457   45.778
  381.000   25.703    0.309    0.476   46.394
  381.250   25.233    0.315    0.492   48.852
  381.500   25.239    0.328    0.490   50.081
  381.750   24.773    0.331    0.475   52.537
  382.000   24.777    0.336    0.458   51.931
  382.250   24.780    0.323    0.447   49.490
  382.500   25.254    0.321    0.451   48.881
  382.750   25.259    0.323    0.480   48.275
  383.000   25.262    0.327    0.503   49.507
  383.250   25.268    0.327    0.518   53.188
  383.500   25.270    0.323    0.496   55.029
  383.750   24.807    0.322    0.479   52.587
  384.000   24.810    0.323    0.469   51.369
  384.250   24.815    0.326    0.457   51.376
  384.500   24.359    0.317    0.519   51.384
  384.750   24.364    0.312    0.539   50.777
  385.000   24.369    0.304    0.518   50.172
  385.250   24.371    0.300    0.509   48.954
  385.500   24.376    0.296    0.491   48.346
  385.750   23.927    0.295    0.486   46.516
  386.000   23.931    0.301    0.487   47.134
  386.250   23.936    0.316    0.487   51.428
  386.500   23.940    0.324    0.480   52.045
  386.750   23.500    0.317    0.472   51.440
  387.000   23.069    0.307    0.467   52.670
  387.250   23.074    0.311    0.471   55.738
  387.500   22.648    0.316    0.472   58.193
  387.750   22.654    0.313    0.461   59.424
  388.000   22.657    0.318    0.449   59.433
  388.250   22.241    0.321    0.442   58.214
  388.500   22.244    0.313    0.434   57.609
  388.750   22.248    0.301    0.429   57.002
  389.000   21.840    0.300    0.432   55.786
  389.250   20.649    0.300    0.455   54.565
  389.500   20.654    0.301    0.473   52.122
  389.750   20.657    0.312    0.497   50.904
  390.000   21.449    0.319    0.507   53.972
  390.250   21.857    0.322    0.494   47.857
  390.500   22.695    0.316    0.477   42.964
  390.750   23.565    0.318    0.459   41.134
  391.000   24.014    0.317    0.455   47.878
  391.250   24.018    0.314    0.459   51.557
  391.500   24.023    0.306    0.477   57.073
  391.750   24.027    0.314    0.488   60.140
  392.000   24.032    0.316    0.494   60.758
  392.250   23.591    0.304    0.478   55.255
  392.500   23.593    0.300    0.466   53.425
  392.750   23.160    0.298    0.445   55.271
  393.000   22.735    0.302    0.425   55.274
  393.250   22.316    0.296    0.406   55.282
  393.500   21.500    0.287    0.400   55.287
  393.750   21.106    0.285    0.422   55.905
  394.000   20.718    0.301    0.435   53.464
  394.250   20.720    0.306    0.467   51.020
  394.500   20.340    0.302    0.485   51.639
  394.750   20.343    0.291    0.460   54.706
  395.000   20.347    0.286    0.446   57.162
  395.250   20.351    0.282    0.451   59.006
  395.500   20.354    0.283    0.455   60.238
  395.750   19.981    0.283    0.456   60.858
  396.000   19.613    0.287    0.465   61.474
  396.250   19.254    0.285    0.484   60.868
  396.500   19.256    0.286    0.483   59.039
  396.750   18.901    0.292    0.469   58.431
  397.000   18.210    0.287    0.453   58.438
  397.250   17.876    0.286    0.437   60.282
  397.500   17.548    0.293    0.425   64.573
  397.750   17.224    0.291    0.435   65.805
  398.000   16.908    0.291    0.445   60.914
  398.250   16.598    0.296    0.457   57.858
  398.500   16.600    0.297    0.467   56.640
  398.750   16.296    0.298    0.491   57.875
  399.000   15.995    0.298    0.513   58.489
  399.250   15.999    0.298    0.513   59.109
  399.500   15.705    0.300    0.504   58.504
  399.750   15.416    0.305    0.496   57.285
  400.000   15.132    0.313    0.484   56.066
  400.250   14.580    0.311    0.480   57.910
  400.500   14.312    0.320    0.473   59.752
  400.750   14.314    0.324    0.469   56.088
  401.000   14.050    0.325    0.467   56.704
  401.250   13.537    0.318    0.474   62.834
  401.500   13.287    0.308    0.511   66.514
  401.750   12.565    0.299    0.537   68.358
