~VERSION INFORMATION
 VERS.                 2.0:   CWLS LOG ASCII STANDARD -VERSION 2.0
 WRAP.                  NO:   ONE LINE PER DEPTH STEP
~WELL INFORMATION BLOCK
#MNEM.UNIT           DATA                    DESCRIPTION OF MNEMONIC
#---------    -------------------            -------------------------------
# Generated from Intellog Unique Number	CW_73_75/WELL/591
WELL.         ASHLAND ET AL MCMILLAN 06-31   : Well_name    - WELL
LOC .         00/06-31-074-19W4/0            : Location     - LOCATION
UWI .         00/06-31-074-19W4/0            : Uwi          - UNIQUE WELL ID
ENTR.         JAYE                           : Entered      - ENTERED BY
SRVC.         WESTERN ATLAS                  : Scn          - SERVICE COMPANY
DATE.         17 JAN 76                      : Date         - LOG DATE
STRT.M        298.704                        : top_depth    - START DEPTH
STOP.M        508.954                        : bot_depth    - STOP DEPTH
STEP.M        0.25                           : increment    - STEP LENGTH
 NULL. -999.2500:NULL Value
~CURVE INFORMATION BLOCK
#MNEM UNIT       ERCB CURVE CODE    CURVE DESCRIPTION
#-----------   ------------------   ----------------------------------
DEPT.M        00 001 00 00         : DEPTH        - DEPTH
ILD .OHMM     00 120 00 00         : RESD         - DEEP RESISTIVITY (DIL)
GR  .API      00 310 00 00         : GR           - GAMMA RAY
CALI.MM       00 280 01 00         : CAL          - CALIPER
NPHI.V/V      00 330 00 00         : PHIN         - NEUTRON POROSITY (SANDSTONE)
DPHI.V/V      00 890 00 00         : PHID         - DENSITY POROSITY (SANDSTONE)
COND.MMHO                          : COND         - DEEP CONDUCTIVITY (DIL)
~PARAMETER INFORMATION
#MNEM.UNIT           DATA             DESCRIPTION OF MNEMONIC
#---------         -----------     ------------------------------
GL  .M        616.61               : gl           - GROUND LEVEL ELEVATION
EREF.M        619.658              : kb           - ELEVATION OF DEPTH REFERENCE
DATM.M        616.61               : datum        - DATUM ELEVATION
TDD .M        514.502              : tdd          - TOTAL DEPTH DRILLER
RUN .         ONE                  : Run          - RUN NUMBER
BASE.         EDMONTON             : Branch       - HOME BASE OF LOGGING UNIT
MATR.         SANDSTONE            : Logunit      - NEUTRON MATRIX
TMAX.C        23.8889              : BHT          - MAXIMUM RECORDED TEMPERATURE
BHTD.M        512.978              : BHTDEP       - MAXIMUM RECORDED TEMPERATURE
RMT .C        -15.7222             : MDTP         - TEMPERATURE OF MUD
MUDD.KG/M     0                    : MWT          - MUD DENSITY
NEUT.         1                    : NEUTRON      - NEUTRON TYPE
RESI.         0                    : RESIST       - RESISTIVITY TYPE
RM  .OHMM     4                    : RM           - RESISTIVITY OF MUD
RMC .OHMM     0                    : RMC          - RESISTIVITY OF MUD CAKE
RMF .OHMM     3.9                  : RMF          - RESISTIVITY OF MUD FILTRATE
SUFT.C        -17.7778             : SUFT         - SURFACE TEMPERATURE
~A  DEPTH     RESD       GR      CAL     PHIN     PHID     COND
# ...
  454.954    6.473  102.621  224.797    0.361    0.272  154.493
  455.204    6.241  102.117  216.251    0.352    0.212  160.220
  455.454    6.425   95.720  205.834    0.336    0.157  155.642
  455.704    6.726   93.682  194.793    0.323    0.155  148.686
  455.954    7.066   95.265  193.835    0.318    0.164  141.532
  456.204    7.376   95.992  194.130    0.316    0.165  135.566
  456.454    7.623   91.313  194.835    0.314    0.152  131.188
  456.704    7.849   84.609  195.754    0.309    0.138  127.402
  456.954    8.399   77.659  196.667    0.302    0.102  119.059
  457.204    9.163   79.428  196.856    0.308    0.060  109.131
  457.454    9.529   84.021  196.835    0.324    0.092  104.946
  457.704    9.658   81.369  195.778    0.331    0.145  103.541
  457.954    9.550   76.506  193.990    0.328    0.141  104.712
  458.204    9.427   79.687  193.035    0.322    0.111  106.079
  458.454    9.256   80.781  193.950    0.330    0.074  108.040
  458.704   10.091   81.260  196.841    0.328    0.038   99.102
  458.954   11.140   85.731  200.148    0.327    0.029   89.769
  459.204   12.650   92.289  201.895    0.344    0.086   79.048
  459.454   12.405   93.444  202.083    0.354    0.181   80.614
  459.704    9.959   92.266  202.376    0.367    0.155  100.411
  459.954    8.131   92.254  202.356    0.375    0.158  122.983
  460.204    7.235   93.102  202.232    0.384    0.136  138.223
  460.454    6.645   93.090  201.693    0.396    0.130  150.489
  460.704    6.807   93.078  201.047    0.414    0.151  146.903
  460.954    7.290   93.619  200.717    0.410    0.168  137.173
  461.204    7.610   94.774  200.592    0.398    0.164  131.406
  461.454    7.872   97.894  200.676    0.400    0.159  127.027
  461.704    7.578   99.233  200.759    0.397    0.153  131.961
  461.954    7.380   98.300  200.742    0.367    0.144  135.507
  462.204    7.359   96.385  200.513    0.349    0.130  135.884
  462.454    7.404   95.759  200.180    0.354    0.132  135.070
  462.704    7.459   98.018  199.953    0.361    0.142  134.061
  462.954    7.460   99.358  199.831    0.362    0.152  134.042
  463.204    7.407   98.362  199.499    0.348    0.138  135.012
  463.454    7.529   99.028  199.374    0.351    0.135  132.813
  463.704    7.610  101.226  203.202    0.363    0.193  131.406
  463.954    7.681  100.601  213.682    0.366    0.208  130.197
  464.204    7.389   98.685  221.045    0.356    0.208  135.330
  464.454    6.953   97.507  225.600    0.371    0.201  143.832
  464.704    6.582   93.565  224.021    0.367    0.169  151.937
  464.954    6.415   89.808  200.087    0.362    0.139  155.881
  465.204    6.532   88.691  197.466    0.359    0.127  153.087
  465.454    6.752   90.276  206.078    0.362    0.154  148.111
  465.704    6.844   93.518  221.237    0.391    0.258  146.111
  465.954    6.882   94.796  221.737    0.405    0.181  145.298
  466.204    6.827   94.109  200.299    0.411    0.180  146.467
  466.454    6.331   90.597  218.891    0.417    0.247  157.942
  466.704    5.696   90.156  238.313    0.431    0.287  175.560
  466.954    4.807   89.100  244.636    0.454    0.328  208.041
  467.204    3.331   87.246  255.013    0.454    0.339  300.172
  467.454    2.301   91.165  256.864    0.453    0.351  434.515
  467.704    2.071   97.109  246.655    0.427    0.325  482.850
  467.954    1.876  102.193  214.404    0.411    0.238  533.167
  468.204    1.856  106.480  204.298    0.378    0.226  538.696
  468.454    1.912  108.309  203.653    0.382    0.220  523.020
  468.704    1.968  106.026  201.660    0.390    0.215  508.137
  468.954    2.063  101.470  197.481    0.389    0.203  484.732
  469.204    2.227   95.994  203.490    0.377    0.192  449.042
  469.454    2.665   94.877  209.606    0.359    0.184  375.301
  469.704    3.042   95.725  207.923    0.354    0.182  328.710
  469.954    3.415   96.880  202.288    0.359    0.203  292.820
  470.204    4.210   99.570  206.947    0.365    0.217  237.509
  470.454    4.658  100.049  212.643    0.367    0.212  214.700
  470.704    5.195   98.011  210.858    0.360    0.198  192.484
  470.954    5.901   91.614  199.713    0.355    0.158  169.476
  471.204    6.268   95.532  201.461    0.359    0.106  159.547
  471.454    6.396   97.484  205.183    0.364    0.179  156.356
  471.704    6.246   94.341  206.307    0.348    0.196  160.102
  471.954    5.973   90.339  206.598    0.345    0.187  167.415
  472.204    5.723   86.582  207.827    0.344    0.155  174.727
  472.454    5.560   86.570  201.049    0.351    0.116  179.860
  472.704    5.573   93.067  199.883    0.366    0.133  179.445
  472.954    5.784   98.212  199.449    0.360    0.152  172.885
  473.204    6.005  101.148  200.261    0.360    0.142  166.523
  473.454    5.999   93.215  201.384    0.358    0.110  166.702
  473.704    5.999   93.510  201.990    0.359    0.099  166.681
  473.954    6.199   94.788  202.073    0.370    0.124  161.311
  474.204    6.632   97.908  201.950    0.370    0.168  150.788
  474.454    6.821   98.510  202.137    0.362    0.158  146.607
  474.704    6.686   94.323  202.221    0.369    0.143  149.560
  474.954    6.423   96.645  201.888    0.373    0.148  155.683
  475.204    6.288   95.098  201.348    0.362    0.146  159.033
  475.454    6.305   93.919  200.807    0.358    0.123  158.616
  475.704    6.509   93.662  200.475    0.358    0.142  153.642
  475.954    6.817   94.326  200.768    0.354    0.159  146.686
  476.204    6.998   95.665  201.374    0.366    0.165  142.901
  476.454    7.077  101.793  202.081    0.389    0.163  141.296
  476.704    6.857  106.448  201.750    0.393    0.152  145.834
  476.954    6.216  105.024  199.339    0.395    0.167  160.876
  477.204    5.691  103.048  197.448    0.393    0.189  175.719
  477.454    5.365  101.562  198.052    0.392    0.186  186.401
  477.704    5.189  104.682  199.486    0.395    0.171  192.723
  477.954    4.745  107.863  201.651    0.390    0.173  210.736
  478.204    4.353  107.360  203.191    0.384    0.170  229.741
  478.454    4.112  102.927  201.819    0.377    0.183  243.198
  478.704    4.079  102.854  206.790    0.372    0.202  245.159
  478.954    4.216  104.131  212.903    0.363    0.182  237.213
  479.204    4.384  102.831  209.245    0.361    0.167  228.077
  479.454    4.447  103.064  204.651    0.374    0.175  224.886
  479.704    4.439  104.895  205.773    0.371    0.172  225.263
  479.954    4.267  105.804  206.066    0.363    0.160  234.359
  480.204    4.253  104.073  207.917    0.343    0.182  235.132
  480.454    4.727   96.509  210.706    0.335    0.213  211.530
  480.704    5.244   93.918  211.309    0.341    0.197  190.701
  480.954    6.314   97.651  214.409    0.352    0.201  158.379
  481.204    7.076  105.070  216.988    0.364    0.184  141.316
  481.454    7.148  110.584  212.913    0.368    0.171  139.909
  481.704    6.658  116.713  208.838    0.357    0.180  150.195
  481.954    6.125  116.701  211.002    0.333    0.169  163.254
  482.204    5.939  113.435  211.085    0.319    0.171  168.387
  482.454    6.172  101.265  213.455    0.306    0.182  162.025
  482.704    6.583   90.938  211.982    0.296    0.202  151.898
  482.954    7.184   86.629  199.901    0.285    0.209  139.196
  483.204    8.057   87.415  198.010    0.275    0.205  124.114
  483.454    8.594   88.814  196.948    0.265    0.200  116.364
  483.704    8.714   89.049  196.411    0.256    0.212  114.761
  483.954    8.776   78.047  195.870    0.242    0.226  113.948
  484.204    9.346   69.193  195.642    0.220    0.236  106.992
  484.454   10.606   56.226  195.103    0.201    0.240   94.289
  484.704   13.837   38.715  193.940    0.187    0.248   72.272
  484.954   18.580   39.992  192.878    0.181    0.274   53.822
  485.204   22.478   49.068  192.233    0.192    0.280   44.488
  485.454   24.099   62.319  191.590    0.231    0.270   41.495
  485.704   16.421   71.026  190.947    0.288    0.266   60.897
  485.954    9.608   81.084  190.407    0.319    0.257  104.079
