~VERSION INFORMATION
 VERS.                 2.0:   CWLS LOG ASCII STANDARD -VERSION 2.0
 WRAP.                  NO:   ONE LINE PER DEPTH STEP
~WELL INFORMATION BLOCK
#MNEM.UNIT           DATA                    DESCRIPTION OF MNEMONIC
#---------    -------------------            -------------------------------
# Generated from Intellog Unique Number	CW_70_72/WELL/702
NULL.         -999.25                        : NULL_VALUE
WELL.         LANDBANK ET AL VICTOR 06-26    : Well_name    - WELL              
LOC .         06-26-071-01W5                 : Location     - LOCATION          
UWI .         00/06-26-071-01W5/0            : Uwi          - UNIQUE WELL ID    
ENTR.         JAYE                           : Entered      - ENTERED BY        
SRVC.         SCHLUMBERGER                   : Scn          - SERVICE COMPANY   
DATE.         20 NOV 79                      : Date         - LOG DATE          
STRT.M        410                            : top_depth    - START DEPTH       
STOP.M        665                            : bot_depth    - STOP DEPTH        
STEP.M        0.25                           : increment    - STEP LENGTH       
~CURVE INFORMATION BLOCK
#MNEM UNIT       ERCB CURVE CODE    CURVE DESCRIPTION
#-----------   ------------------   ----------------------------------
DEPT.M        00 001 00 00         : DEPTH        - DEPTH                       
DPHI.V/V      00 890 00 00         : PHID         - DENSITY POROSITY (SANDSTONE)
NPHI.V/V      00 330 00 00         : PHIN         - NEUTRON POROSITY (SANDSTONE)
GR  .API      00 310 00 00         : GR           - GAMMA RAY                   
CALI.MM       00 280 01 00         : CAL          - CALIPER                     
ILD .OHMM     00 120 00 00         : RESD         - DEEP RESISTIVITY (DIL)      
~PARAMETER INFORMATION       
#MNEM.UNIT           DATA             DESCRIPTION OF MNEMONIC
#---------         -----------     ------------------------------
GL  .M        603.9                : gl           - GROUND LEVEL ELEVATION      
EREF.M        607.7                : kb           - ELEVATION OF DEPTH REFERENCE
DATM.M        603.9                : datum        - DATUM ELEVATION             
TDD .M        679                  : tdd          - TOTAL DEPTH DRILLER         
RUN .         ONE                  : Run          - RUN NUMBER                  
ENG .         WALTERHOUSE          : Engineer     - RECORDING ENGINEER          
WIT .         LOWTHER              : Witness      - WITNESSED BY                
BASE.         EDM                  : Branch       - HOME BASE OF LOGGING UNIT   
MUD .         GEL CHEM             : Mud_type     - MUD TYPE                    
MATR.         SANDSTONE            : Logunit      - NEUTRON MATRIX              
TMAX.C        41.7                 : BHT          - MAXIMUM RECORDED TEMPERATURE
BHTD.M        680                  : BHTDEP       - MAXIMUM RECORDED TEMPERATURE
RMT .C        20                   : MDTP         - TEMPERATURE OF MUD          
MUDD.KG/M     1090                 : MWT          - MUD DENSITY                 
NEUT.         1                    : NEUTRON      - NEUTRON TYPE                
RESI.         0                    : RESIST       - RESISTIVITY TYPE            
RM  .OHMM     2.97                 : RM           - RESISTIVITY OF MUD          
RMC .OHMM     0                    : RMC          - RESISTIVITY OF MUD CAKE     
RMF .OHMM     3.58                 : RMF          - RESISTIVITY OF MUD FILTRATE 
SUFT.C        0                    : SUFT         - SURFACE TEMPERATURE         
~A  DEPTH     PHID     PHIN       GR      CAL     RESD
# ...
  556.000    0.151    0.409   97.904  155.339    4.672
  556.250    0.153    0.404   98.402  156.169    4.622
  556.500    0.143    0.398   99.647  156.479    4.624
  556.750    0.140    0.395  102.262  156.583    4.566
  557.000    0.156    0.404  104.690  157.205    4.517
  557.250    0.155    0.416  103.943  158.346    4.477
  557.500    0.149    0.427  102.822  159.383    4.412
  557.750    0.149    0.433  103.880  160.524    4.291
  558.000    0.154    0.447  105.872  161.354    4.142
  558.250    0.146    0.442  108.549  158.344    4.006
  558.500    0.141    0.443  112.347  152.532    3.941
  558.750    0.164    0.454  117.764  153.569    3.942
  559.000    0.184    0.459  122.434  157.305    3.922
  559.250    0.183    0.466  120.503  161.144    4.006
  559.500    0.172    0.464  116.643  163.219    4.085
  559.750    0.172    0.456  112.595  162.700    4.180
  560.000    0.171    0.443  109.357  161.454    4.327
  560.250    0.166    0.434  106.679  159.586    4.495
  560.500    0.160    0.422  105.309  158.029    4.635
  560.750    0.163    0.410  106.056  157.405    4.761
  561.000    0.167    0.399  105.931  157.613    4.928
  561.250    0.154    0.396  102.133  157.197    5.062
  561.500    0.163    0.394   94.972  156.159    5.074
  561.750    0.158    0.383   91.547  153.979    5.029
  562.000    0.140    0.368   93.477  150.554    4.855
  562.250    0.126    0.384   97.773  147.959    4.704
  562.500    0.138    0.396  101.571  146.713    4.697
  562.750    0.167    0.410   98.333  147.854    5.049
  563.000    0.148    0.423   98.893  150.241    5.603
  563.250    0.151    0.428   97.460  152.523    7.028
  563.500    0.152    0.410   93.475  151.381    9.525
  563.750    0.114    0.380   85.567  150.032   11.971
  564.000    0.089    0.315   72.491  149.616   14.960
  564.250    0.062    0.294   69.377  149.408   16.508
  564.500    0.031    0.275   70.871  150.238   16.363
  564.750    0.007    0.278   71.680  151.275   15.239
  565.000    0.001    0.287   71.991  152.105   13.901
  565.250    0.014    0.280   73.050  152.727   12.444
  565.500    0.038    0.284   74.793  153.349   11.161
  565.750    0.050    0.300   76.723  153.452    9.424
  566.000    0.063    0.316   80.272  153.659    7.736
  566.250    0.084    0.337   84.630  153.970    6.631
  566.500    0.117    0.362   88.988  153.970    5.892
  566.750    0.197    0.395   89.735  154.177    5.817
  567.000    0.219    0.424   86.559  153.865    5.920
  567.250    0.246    0.461   83.695  152.204    6.209
  567.500    0.293    0.447   80.083  149.713    6.512
  567.750    0.238    0.423   79.647  147.845    6.727
  568.000    0.226    0.406   78.277  147.118    6.884
  568.250    0.235    0.411   75.599  146.702    6.901
  568.500    0.225    0.426   74.603  146.702    6.891
  568.750    0.201    0.440   75.599  146.390    6.856
  569.000    0.201    0.434   76.906  145.767    6.770
  569.250    0.218    0.430   78.400  145.144    6.722
  569.500    0.236    0.443   80.081  145.973    6.712
  569.750    0.237    0.454   82.073  147.841    6.703
  570.000    0.225    0.444   85.684  150.020    6.707
  570.250    0.231    0.431   89.856  147.010    6.584
  570.500    0.234    0.416   85.310  145.556    6.404
  570.750    0.225    0.406   82.383  146.386    6.311
  571.000    0.210    0.397   79.955  146.697    6.350
  571.250    0.202    0.390   77.651  147.008    6.463
  571.500    0.195    0.386   75.222  147.422    6.588
  571.750    0.182    0.393   73.291  148.771    6.858
  572.000    0.166    0.377   71.984  150.016    7.611
  572.250    0.147    0.359   71.734  152.195    8.242
  572.500    0.129    0.306   73.041  154.789    9.233
  572.750    0.093    0.328   75.719  153.958   10.324
  573.000    0.105    0.349   79.081  152.297    9.948
  573.250    0.125    0.365   82.567  150.533    8.972
  573.500    0.138    0.385   85.058  149.079    7.808
  573.750    0.177    0.397   88.420  146.381    6.744
  574.000    0.171    0.381   92.405  145.342    6.037
  574.250    0.160    0.367   95.891  147.002    5.570
  574.500    0.160    0.358   98.880  148.766    5.346
  574.750    0.157    0.365  102.553  150.322    5.210
  575.000    0.146    0.377   89.945  148.097    5.294
  575.250    0.117    0.356   99.474  145.148    5.475
  575.500    0.098    0.366   93.589  142.205    5.924
  575.750    0.079    0.360   84.268  140.713    6.507
  576.000    0.054    0.304   77.442  142.970    7.202
  576.250   -0.009    0.241   66.497  146.988    8.579
  576.500   -0.014    0.221   59.362  148.727   11.100
  576.750    0.017    0.279   65.024  146.513   12.999
  577.000    0.050    0.309   75.050  142.728   11.695
  577.250    0.040    0.338   81.840  143.945    9.631
  577.500    0.063    0.356   83.687  148.068    8.189
  577.750    0.099    0.376   85.851  150.325    7.367
  578.000    0.111    0.385   87.953  150.296    6.792
  578.250    0.125    0.386   90.677  150.043    6.527
  578.500    0.132    0.381   91.029  149.504    6.464
  578.750    0.118    0.377   92.445  149.145    6.475
  579.000    0.109    0.383   97.355  149.012    6.608
  579.250    0.105    0.379   94.403  148.769    6.745
  579.500    0.106    0.368   92.134  148.946    6.642
  579.750    0.096    0.376   94.297  149.223    6.628
  580.000    0.104    0.385   91.845  149.284    6.752
  580.250    0.114    0.380   89.455  149.250    7.009
  580.500    0.112    0.332   87.121  149.109    7.332
  580.750    0.097    0.329   85.975  149.075    7.741
  581.000    0.070    0.365   90.077  149.363    7.901
  581.250    0.065    0.401   91.865  149.527    7.795
  581.500    0.089    0.419   91.345  149.491    7.106
  581.750    0.107    0.415   91.138  149.359    6.454
  582.000    0.091    0.398   89.617  149.536    6.213
  582.250    0.079    0.383   90.847  149.604    6.142
  582.500    0.096    0.392   97.191  149.569    6.164
  582.750    0.116    0.385   94.989  149.951    6.197
  583.000    0.109    0.379   95.467  150.960    6.219
  583.250    0.114    0.384   98.879  151.969    6.276
  583.500    0.121    0.389  100.296  152.664    6.405
  583.750    0.129    0.391   99.279  153.141    6.464
  584.000    0.125    0.375   98.884  153.428    6.524
  584.250    0.105    0.362   97.675  153.279    6.709
  584.500    0.102    0.359   96.278  153.252    7.273
  584.750    0.091    0.348   93.947  153.527    7.650
  585.000    0.090    0.330   91.369  153.592    7.867
  585.250    0.069    0.307   92.727  153.659    7.865
  585.500    0.096    0.351   95.820  153.635    7.863
  585.750    0.113    0.366   99.108  153.710    8.102
  586.000    0.118    0.370   98.026  153.767    8.130
  586.250    0.101    0.332   94.448  153.313    7.754
  586.500    0.101    0.320   95.613  153.077    7.354
  586.750    0.113    0.350  100.524  153.145    7.242
  587.000    0.105    0.358  100.753  153.426    7.240
  587.250    0.097    0.353  100.673  153.495    7.238
  587.500    0.095    0.357   99.527  153.577    7.101
  587.750    0.095    0.356  103.814  153.629    6.888
  588.000    0.094    0.338  109.910  153.605    6.670
  588.250    0.118    0.348  115.442  154.191    6.409
  588.500    0.145    0.373  118.672  156.956    6.276
  588.750    0.130    0.388  114.282  161.707    6.192
  589.000    0.127    0.375  108.764  152.730    6.110
  589.250    0.134    0.343   95.949  149.579    5.849
  589.500    0.117    0.350   97.051  149.231    5.233
  589.750    0.126    0.373  104.522  151.595    4.301
  590.000    0.154    0.447  110.435  155.507    3.391
  590.250    0.180    0.500  115.777  162.860    2.756
  590.500    0.226    0.499  122.249  169.686    2.232
  590.750    0.191    0.476  121.478  159.666    1.933
  591.000    0.166    0.473  115.904  154.639    1.806
  591.250    0.142    0.488  116.199  156.483    1.868
  591.500    0.145    0.501  120.232  159.560    2.091
  591.750    0.159    0.471  123.519  159.113    2.340
  592.000    0.150    0.490  119.814  152.523    2.664
  592.250    0.123    0.417  109.870  150.213    2.867
