~VERSION INFORMATION
 VERS.                 2.0:   CWLS LOG ASCII STANDARD -VERSION 2.0
 WRAP.                  NO:   ONE LINE PER DEPTH STEP
~WELL INFORMATION BLOCK
#MNEM.UNIT           DATA                    DESCRIPTION OF MNEMONIC
#---------    -------------------            -------------------------------
# Generated from Intellog Unique Number	CW_70_72/WELL/694
NULL.         -999.25                        : NULL_VALUE
WELL.         MAXUS CALLING LAKE 06-23       : Well_name    - WELL              
LOC .         06-23-072-19W4                 : Location     - LOCATION          
UWI .         00/06-23-072-19W4/0            : Uwi          - UNIQUE WELL ID    
ENTR.         JAYE                           : Entered      - ENTERED BY        
SRVC.         WESTERN ATLAS                  : Scn          - SERVICE COMPANY   
DATE.         7 MAR 88                       : Date         - LOG DATE          
STRT.M        335                            : top_depth    - START DEPTH       
STOP.M        565                            : bot_depth    - STOP DEPTH        
STEP.M        0.25                           : increment    - STEP LENGTH       
~CURVE INFORMATION BLOCK
#MNEM UNIT       ERCB CURVE CODE    CURVE DESCRIPTION
#-----------   ------------------   ----------------------------------
DEPT.M        00 001 00 00         : DEPTH        - DEPTH                       
DPHI.V/V      00 890 00 00         : PHID         - DENSITY POROSITY (SANDSTONE)
NPHI.V/V      00 330 00 00         : PHIN         - NEUTRON POROSITY (SANDSTONE)
GR  .API      00 310 00 00         : GR           - GAMMA RAY                   
CALI.MM       00 280 01 00         : CAL          - CALIPER                     
ILD .OHMM     00 120 00 00         : RESD         - DEEP RESISTIVITY (DIL)      
~PARAMETER INFORMATION       
#MNEM.UNIT           DATA             DESCRIPTION OF MNEMONIC
#---------         -----------     ------------------------------
GL  .M        628.2                : gl           - GROUND LEVEL ELEVATION      
EREF.M        631.8                : kb           - ELEVATION OF DEPTH REFERENCE
DATM.M        628.2                : datum        - DATUM ELEVATION             
TDD .M        620                  : tdd          - TOTAL DEPTH DRILLER         
RUN .         ONE                  : Run          - RUN NUMBER                  
ENG .         RORMOWSKI            : Engineer     - RECORDING ENGINEER          
WIT .         HERRON               : Witness      - WITNESSED BY                
BASE.         SLAVE LAKE           : Branch       - HOME BASE OF LOGGING UNIT   
MUD .         GEL CHEM MUDD        : Mud_type     - MUD TYPE                    
MATR.         SANDSTONE            : Logunit      - NEUTRON MATRIX              
TMAX.C        25                   : BHT          - MAXIMUM RECORDED TEMPERATURE
BHTD.M        618.8                : BHTDEP       - MAXIMUM RECORDED TEMPERATURE
RMT .C        16                   : MDTP         - TEMPERATURE OF MUD          
MUDD.KG/M     1140                 : MWT          - MUD DENSITY                 
NEUT.         1                    : NEUTRON      - NEUTRON TYPE                
RESI.         0                    : RESIST       - RESISTIVITY TYPE            
RM  .OHMM     4.1                  : RM           - RESISTIVITY OF MUD          
RMC .OHMM     4.8                  : RMC          - RESISTIVITY OF MUD CAKE     
RMF .OHMM     3.5                  : RMF          - RESISTIVITY OF MUD FILTRATE 
SUFT.C        32                   : SUFT         - SURFACE TEMPERATURE         
~A  DEPTH     PHID     PHIN       GR      CAL     RESD
# ...
  517.500    0.168    0.365  125.721  179.754    5.457
  517.750    0.173    0.365  136.357  179.753    5.586
  518.000    0.181    0.356  133.135  179.449    5.793
  518.250    0.181    0.355  128.273  178.740    5.877
  518.500    0.163    0.352  124.201  177.017    5.973
  518.750    0.152    0.359  122.742  176.105    6.015
  519.000    0.162    0.375  122.134  176.409    5.956
  519.250    0.159    0.389  120.918  176.814    5.835
  519.500    0.162    0.389  124.869  177.118    5.693
  519.750    0.176    0.383  121.647  177.421    5.535
  520.000    0.172    0.378  120.128  177.522    5.421
  520.250    0.161    0.384  121.708  177.725    5.359
  520.500    0.167    0.384  119.459  177.826    5.357
  520.750    0.164    0.371  116.116  178.028    5.405
  521.000    0.163    0.357  113.138  177.926    5.522
  521.250    0.159    0.341  111.679  177.825    5.717
  521.500    0.160    0.337  120.917  177.217    5.973
  521.750    0.178    0.354  142.189  177.014    6.415
  522.000    0.221    0.363  149.604  177.824    6.703
  522.250    0.253    0.363  133.740  181.268    6.913
  522.500    0.255    0.354  126.751  183.496    6.897
  522.750    0.208    0.361  122.982  184.103    6.597
  523.000    0.171    0.374  119.822  184.407    6.226
  523.250    0.140    0.367  118.910  184.812    5.856
  523.500    0.146    0.369  117.755  185.014    5.683
  523.750    0.151    0.370  115.810  185.014    5.607
  524.000    0.150    0.353  113.804  184.811    5.574
  524.250    0.158    0.357  111.798  184.811    5.581
  524.500    0.183    0.354  112.284  184.811    5.589
  524.750    0.205    0.346  113.986  185.114    5.566
  525.000    0.209    0.336  117.025  186.026    5.543
  525.250    0.198    0.336  121.157  186.633    5.509
  525.500    0.197    0.354  123.588  187.139    5.498
  525.750    0.203    0.366  123.953  187.443    5.495
  526.000    0.196    0.361  119.090  187.645    5.492
  526.250    0.161    0.352  113.924  187.847    5.469
  526.500    0.140    0.343  109.973  188.050    5.436
  526.750    0.146    0.350  113.681  188.252    5.415
  527.000    0.133    0.344  111.796  188.252    5.383
  527.250    0.137    0.337  108.149  188.252    5.362
  527.500    0.139    0.342  104.016  188.049    5.328
  527.750    0.137    0.351  102.254  188.048    5.316
  528.000    0.136    0.357  104.624  188.048    5.285
  528.250    0.135    0.352  105.171  188.250    5.282
  528.500    0.127    0.342  104.016  188.351    5.259
  528.750    0.114    0.353  102.253  188.351    5.229
  529.000    0.130    0.358   98.485  188.250    5.207
  529.250    0.128    0.354   94.898  188.452    5.204
  529.500    0.126    0.343   95.324  188.755    5.203
  529.750    0.130    0.349   98.180  188.755    5.191
  530.000    0.134    0.355  102.860  188.755    5.189
  530.250    0.135    0.357  103.468  188.653    5.167
  530.500    0.135    0.371   99.213  187.438    5.173
  530.750    0.131    0.358   95.445  186.019    5.171
  531.000    0.126    0.347   95.991  185.614    5.189
  531.250    0.120    0.333   97.997  185.411    5.185
  531.500    0.121    0.343  100.975  185.107    5.155
  531.750    0.120    0.347  105.776  184.802    5.141
  532.000    0.115    0.359  103.649  185.106    5.141
  532.250    0.113    0.375   95.565  188.651    5.156
  532.500    0.121    0.375   88.575  190.778    5.173
  532.750    0.135    0.373   79.884  191.284    5.219
  533.000    0.108    0.363   71.740  191.385    5.235
  533.250    0.078    0.350   69.612  191.790    5.223
  533.500    0.066    0.339   74.474  191.385    5.201
  533.750    0.055    0.363   76.237  191.891    5.171
  534.000    0.063    0.354   76.966  195.436    5.159
  534.250    0.053    0.342   79.154  198.171    5.166
  534.500    0.062    0.341   76.540  198.677    5.173
  534.750    0.067    0.357   71.860  198.373    5.161
  535.000    0.062    0.355   74.109  198.372    5.130
  535.250    0.056    0.354   80.915  198.575    5.100
  535.500    0.046    0.357   78.424  196.650    5.060
  535.750    0.065    0.390   77.329  188.647    5.049
  536.000    0.075    0.378   73.622  180.442    5.037
  536.250    0.099    0.367   69.063  180.745    4.998
  536.500    0.117    0.374   67.543  182.872    4.977
  536.750    0.122    0.367   70.339  185.405    4.947
  537.000    0.122    0.355   67.969  188.342    4.935
  537.250    0.112    0.364   65.781  190.266    4.915
  537.500    0.116    0.370   64.626  191.988    4.894
  537.750    0.123    0.378   64.443  194.115    4.848
  538.000    0.114    0.386   69.305  195.837    4.836
  538.250    0.084    0.385   73.012  198.369    4.888
  538.500    0.107    0.359   78.118  198.470    5.032
  538.750    0.132    0.348   84.438  190.771    5.170
  539.000    0.137    0.319   92.704  188.846    5.392
  539.250    0.119    0.289   83.101  190.467    5.707
  539.500    0.092    0.288   78.117  189.048    5.974
  539.750    0.122    0.302   81.338  181.147    6.038
  540.000    0.132    0.315   84.194  171.321    5.595
  540.250    0.128    0.326   74.166  168.889    5.195
  540.500    0.175    0.332   62.132  168.788    4.886
  540.750    0.212    0.329   55.689  168.483    4.561
  541.000    0.234    0.326   56.418  168.888    4.242
  541.250    0.243    0.334   64.988  170.610    3.860
  541.500    0.230    0.344   91.669  177.194    3.583
  541.750    0.253    0.367  106.316  177.093    3.236
  542.000    0.281    0.368   91.183  176.788    2.939
  542.250    0.281    0.352   59.517  176.383    2.916
  542.500    0.262    0.354   43.471  176.383    2.974
  542.750    0.247    0.339   39.946  176.484    3.142
  543.000    0.252    0.338   42.134  176.585    3.463
  543.250    0.271    0.339   50.764  176.382    3.740
  543.500    0.252    0.325   62.555  176.382    3.944
  543.750    0.238    0.308   91.607  176.483    4.190
  544.000    0.191    0.320  112.879  176.786    4.402
  544.250    0.168    0.343  116.161  177.090    4.574
  544.500    0.161    0.361  108.867  177.393    4.471
  544.750    0.148    0.379  101.938  177.494    4.356
  545.000    0.150    0.396  102.546  177.494    4.321
  545.250    0.154    0.386  101.938  177.190    4.288
  545.500    0.159    0.386  104.673  177.088    4.270
  545.750    0.176    0.375  118.955  176.885    4.237
  546.000    0.190    0.360  115.309  176.683    4.212
  546.250    0.203    0.349  106.921  176.581    4.179
  546.500    0.219    0.342  101.998  176.479    4.185
  546.750    0.224    0.335   98.412  176.682    4.229
  547.000    0.207    0.336   93.185  176.378    4.298
  547.250    0.202    0.333   89.234  173.541    4.400
  547.500    0.188    0.330   93.731  170.603    4.513
  547.750    0.180    0.342   91.483  170.805    4.621
  548.000    0.197    0.365   93.184  171.616    4.678
  548.250    0.176    0.363   97.074  171.919    4.702
  548.500    0.168    0.350  100.720  169.994    4.683
  548.750    0.187    0.354  104.488  167.462    4.544
  549.000    0.200    0.352  104.245  167.360    4.419
  549.250    0.175    0.358   98.957  168.069    4.344
  549.500    0.196    0.369   95.979  168.474    4.287
  549.750    0.233    0.370   89.719  168.473    4.260
  550.000    0.253    0.363   87.287  168.372    4.275
  550.250    0.219    0.351   90.995  168.371    4.320
  550.500    0.211    0.342   93.972  168.574    4.390
  550.750    0.197    0.346   95.674  168.776    4.487
  551.000    0.188    0.343   97.497  169.991    4.576
  551.250    0.176    0.328   99.199  175.765    4.703
  551.500    0.218    0.332  100.961  177.892    4.833
  551.750    0.182    0.336  103.149  177.790    4.929
  552.000    0.171    0.332  104.912  177.284    5.001
  552.250    0.173    0.334  105.580  176.777    5.034
  552.500    0.175    0.332  104.000  176.675    5.080
  552.750    0.179    0.325   96.828  176.574    5.153
  553.000    0.165    0.317   88.865  176.371    5.216
  553.250    0.145    0.326   79.809  176.371    5.283
  553.500    0.174    0.334   84.003  176.775    5.281
  553.750    0.194    0.334   89.594  178.700    5.287
