~VERSION INFORMATION
 VERS.                 2.0:   CWLS LOG ASCII STANDARD -VERSION 2.0
 WRAP.                  NO:   ONE LINE PER DEPTH STEP
~WELL INFORMATION BLOCK
#MNEM.UNIT           DATA                    DESCRIPTION OF MNEMONIC
#---------    -------------------            -------------------------------
# Generated from Intellog Unique Number	CW_73_75/WELL/2729
WELL.         MANNVILLE ET AL MITSUE 07-20   : Well_name    - WELL
LOC .         00/07-20-073-02W5/0            : Location     - LOCATION
UWI .         00/07-20-073-02W5/0            : Uwi          - UNIQUE WELL ID
ENTR.         JAYE                           : Entered      - ENTERED BY
SRVC.         SCHLUMBERGER                   : Scn          - SERVICE COMPANY
DATE.         21 MAR 78                      : Date         - LOG DATE
STRT.M        393.192                        : top_depth    - START DEPTH
STOP.M        603.442                        : bot_depth    - STOP DEPTH
STEP.M        0.25                           : increment    - STEP LENGTH
 NULL. -999.2500:NULL Value
~CURVE INFORMATION BLOCK
#MNEM UNIT       ERCB CURVE CODE    CURVE DESCRIPTION
#-----------   ------------------   ----------------------------------
DEPT.M        00 001 00 00         : DEPTH        - DEPTH
DPHI.V/V      00 890 00 00         : PHID         - DENSITY POROSITY (SANDSTONE)
NPHI.V/V      00 330 00 00         : PHIN         - NEUTRON POROSITY (SANDSTONE)
GR  .API      00 310 00 00         : GR           - GAMMA RAY
CALI.MM       00 280 01 00         : CAL          - CALIPER
ILD .OHMM     00 120 00 00         : RESD         - DEEP RESISTIVITY (DIL)
~PARAMETER INFORMATION
#MNEM.UNIT           DATA             DESCRIPTION OF MNEMONIC
#---------         -----------     ------------------------------
GL  .M        627.583              : gl           - GROUND LEVEL ELEVATION
EREF.M        630.631              : kb           - ELEVATION OF DEPTH REFERENCE
DATM.M        627.583              : datum        - DATUM ELEVATION
TDD .M        606.552              : tdd          - TOTAL DEPTH DRILLER
RUN .         ONE                  : Run          - RUN NUMBER
ENG .         DEROCHIE             : Engineer     - RECORDING ENGINEER
WIT .         RILEY                : Witness      - WITNESSED BY
MUD .         GEL GELEX            : Mud_type     - MUD TYPE
MATR.         SANDSTONE            : Logunit      - NEUTRON MATRIX
TMAX.C        17.2222              : BHT          - MAXIMUM RECORDED TEMPERATURE
BHTD.M        607.466              : BHTDEP       - MAXIMUM RECORDED TEMPERATURE
RMT .C        16.1111              : MDTP         - TEMPERATURE OF MUD
MUDD.KG/M     1188                 : MWT          - MUD DENSITY
NEUT.         1                    : NEUTRON      - NEUTRON TYPE
RESI.         0                    : RESIST       - RESISTIVITY TYPE
RM  .OHMM     4.53                 : RM           - RESISTIVITY OF MUD
RMC .OHMM     0                    : RMC          - RESISTIVITY OF MUD CAKE
RMF .OHMM     0                    : RMF          - RESISTIVITY OF MUD FILTRATE
SUFT.C        -17.7778             : SUFT         - SURFACE TEMPERATURE
~A  DEPTH     PHID     PHIN       GR      CAL     RESD
# ...
  539.192    0.209    0.405   84.302  165.359    4.931
  539.442    0.159    0.383   71.212  165.392    5.145
  539.692    0.135    0.352   63.703  165.418    5.461
  539.942    0.122    0.307   66.042  165.346    5.852
  540.192    0.173    0.306   72.395  165.166    6.502
  540.442    0.219    0.366   70.593  164.875    7.350
  540.692    0.252    0.408   71.742  164.797    8.355
  540.942    0.246    0.424   75.648  164.615    9.056
  541.192    0.265    0.442   81.309  164.752    7.824
  541.442    0.256    0.460   83.525  164.895    6.644
  541.692    0.262    0.453   80.907  165.026    5.761
  541.942    0.257    0.437   79.733  165.269    5.083
  542.192    0.241    0.419   80.252  165.304    4.416
  542.442    0.222    0.406   82.466  165.328    4.157
  542.692    0.220    0.401   82.735  165.465    4.207
  542.942    0.239    0.445   83.005  165.394    4.323
  543.192    0.251    0.467   83.083  165.528    4.400
  543.442    0.241    0.465   82.787  165.777    4.504
  543.692    0.233    0.452   83.119  165.907    4.550
  543.942    0.236    0.417   84.266  166.149    4.578
  544.192    0.251    0.406   86.667  166.500    4.615
  544.442    0.243    0.447   85.557  167.163    4.592
  544.692    0.232    0.435   82.064  168.264    4.593
  544.942    0.230    0.419   80.888  168.607    4.605
  545.192    0.239    0.417   81.409  169.062    4.607
  545.442    0.264    0.432   82.117  169.204    4.627
  545.692    0.278    0.446   80.817  169.550    4.629
  545.942    0.257    0.456   79.708  169.683    4.605
  546.192    0.233    0.456   79.913  169.713    4.582
  546.442    0.242    0.443   80.307  169.856    4.523
  546.692    0.215    0.417   78.506  169.777    4.431
  546.942    0.178    0.393   76.769  169.380    4.325
  547.192    0.154    0.375   75.846  168.774    4.181
  547.442    0.117    0.356   74.485  168.485    4.089
  547.692    0.083    0.327   71.679  168.303    4.258
  547.942    0.087    0.283   74.834  168.230    4.554
  548.192    0.143    0.326   83.004  168.150    5.409
  548.442    0.226    0.362   88.604  168.074    6.220
  548.692    0.246    0.415   89.687  167.682    6.885
  548.942    0.229    0.417   89.642  166.969    7.225
  549.192    0.219    0.420   94.490  166.254    6.958
  549.442    0.209    0.418   92.689  165.222    6.150
  549.692    0.214    0.418   92.079  164.403    5.519
  549.942    0.233    0.427   90.781  163.691    5.039
  550.192    0.208    0.417   92.806  162.342    4.798
  550.442    0.184    0.403   95.896  161.100    4.674
  550.692    0.199    0.419  100.368  160.280    4.562
  550.942    0.183    0.421  107.660  159.988    4.452
  551.192    0.166    0.410  115.643  160.339    4.387
  551.442    0.151    0.413  115.850  160.899    4.331
  551.692    0.152    0.425  116.808  161.354    4.309
  551.942    0.168    0.439  108.735  161.706    4.369
  552.192    0.184    0.434  108.065  162.052    4.430
  552.442    0.173    0.428  107.331  162.404    4.483
  552.692    0.162    0.450  106.218  162.538    4.511
  552.942    0.170    0.440  105.170  162.783    4.574
  553.192    0.188    0.422  103.371  163.027    4.611
  553.442    0.196    0.410  101.443  163.160    4.685
  553.692    0.190    0.431   97.823  162.875    4.750
  553.942    0.181    0.443   97.088  162.376    4.835
  554.192    0.174    0.428  100.494  162.296    4.912
  554.442    0.177    0.404  100.512  162.327    4.999
  554.692    0.186    0.409   99.023  162.249    5.069
  554.942    0.204    0.425   95.969  161.964    5.090
  555.192    0.192    0.403   94.732  161.783    5.132
  555.442    0.175    0.383   94.123  161.810    5.164
  555.692    0.188    0.389   94.769  161.524    5.256
  555.942    0.207    0.385   95.290  161.447    5.380
  556.192    0.200    0.394   95.117  161.162    5.518
  556.442    0.184    0.401   94.886  160.979    5.902
  556.692    0.162    0.413   94.967  161.432    7.037
  556.942    0.166    0.404   95.925  161.993    7.585
  557.192    0.195    0.411   98.075  163.085    7.705
  557.442    0.178    0.416  100.163  166.302    7.549
  557.692    0.162    0.408  103.504  167.499    7.242
  557.942    0.152    0.406  106.971  164.237    6.909
  558.192    0.135    0.411  109.373  167.030    6.590
  558.442    0.149    0.417  109.139  164.299    6.227
  558.692    0.162    0.428  102.259  161.462    5.839
  558.942    0.172    0.435  100.271  167.652    5.528
  559.192    0.183    0.428  100.729  163.436    5.354
  559.442    0.181    0.418  101.874  163.361    5.317
  559.692    0.169    0.414   98.818  163.284    5.319
  559.942    0.159    0.415  101.910  163.213    5.363
  560.192    0.166    0.405  104.938  163.344    5.396
  560.442    0.173    0.415  107.088  163.485    5.420
  560.692    0.164    0.411  109.114  163.514    5.443
  560.942    0.151    0.401  111.704  163.651    5.456
  561.192    0.141    0.415  115.108  163.573    5.479
  561.442    0.153    0.430  120.080  163.177    5.482
  561.692    0.153    0.431  123.484  162.043    5.465
  561.942    0.152    0.435  118.109  161.858    5.457
  562.192    0.159    0.452  112.169  163.058    5.438
  562.442    0.170    0.444  107.169  164.787    5.514
  562.692    0.164    0.426  107.752  166.409    5.581
  562.942    0.149    0.403  110.341  167.929    5.627
  563.192    0.147    0.415  113.494  168.274    5.619
  563.442    0.156    0.433  113.075  167.671    5.664
  563.692    0.166    0.431  112.026  167.064    5.700
  563.942    0.157    0.413  113.360  166.560    5.735
  564.192    0.153    0.432  113.566  166.168    5.749
  564.442    0.156    0.433  108.504  165.350    5.708
  564.692    0.170    0.412  103.881  164.209    5.678
  564.942    0.168    0.368  103.839  162.648    5.681
  565.192    0.165    0.346  105.612  161.404    5.996
  565.442    0.169    0.378  106.947  159.946    6.413
  565.692    0.162    0.388  105.459  158.173    6.925
  565.942    0.141    0.397  101.901  157.353    7.392
  566.192    0.159    0.392   94.017  156.747    8.074
  566.442    0.169    0.387   93.095  156.672    8.668
  566.692    0.171    0.404   92.736  156.597    9.149
  566.942    0.177    0.412   92.754  156.306    9.527
  567.192    0.188    0.409   92.960  155.916    9.921
  567.442    0.200    0.403   93.354  155.943   10.040
  567.692    0.180    0.392   94.187  156.188   10.065
  567.942    0.167    0.380   96.528  156.323   10.128
  568.192    0.182    0.376  100.933  156.570   10.229
  568.442    0.190    0.385  105.029  157.021   10.352
  568.692    0.177    0.379  108.998  157.580   10.557
  568.942    0.161    0.373  109.582  157.931   10.745
  569.192    0.144    0.358  110.100  158.385   11.000
  569.442    0.135    0.334  112.814  158.419   11.195
  569.692    0.140    0.336  118.352  158.445   11.309
  569.942    0.132    0.361  125.144  158.688   11.186
  570.192    0.125    0.379  130.366  158.721   10.918
  570.442    0.127    0.396  121.980  158.538   10.434
  570.692    0.115    0.375  114.097  158.465    9.766
  570.942    0.099    0.361  107.842  158.174    8.764
  571.192    0.091    0.333  101.902  157.887    7.414
  571.442    0.073    0.319  100.855  157.917    6.654
  571.692    0.060    0.308  102.379  157.628    6.734
  571.942    0.064    0.312  105.782  157.450    7.175
  572.192    0.107    0.349  108.936  157.481    7.882
  572.442    0.107    0.365  110.208  157.401    8.674
  572.692    0.100    0.372  109.222  157.431    9.225
  572.942    0.129    0.367  104.600  157.355    9.886
  573.192    0.139    0.357   97.782  157.177   10.373
  573.442    0.130    0.341   97.738  157.097   10.989
  573.692    0.117    0.324  101.143  156.809   11.488
  573.942    0.152    0.334  105.236  156.626   10.938
  574.192    0.130    0.352  109.393  157.187    9.724
  574.442    0.106    0.374  111.417  159.023    8.352
  574.692    0.107    0.388  110.118  160.965    6.814
  574.942    0.124    0.397  110.638  162.059    5.909
  575.192    0.132    0.409  112.729  162.302    5.756
  575.442    0.152    0.413  113.183  161.906    5.882
