~VERSION INFORMATION
 VERS.                 2.0:   CWLS LOG ASCII STANDARD -VERSION 2.0
 WRAP.                  NO:   ONE LINE PER DEPTH STEP
~WELL INFORMATION BLOCK
#MNEM.UNIT           DATA                    DESCRIPTION OF MNEMONIC
#---------    -------------------            -------------------------------
# Generated from Intellog Unique Number	CW_82_90/WELL/3059
WELL.         TOTAL ET AL LIVOCK             : Well_name    - WELL
LOC .         00/06-36-085-23W4/0            : Location     - LOCATION
UWI .         00/06-36-085-23W4/0            : Uwi          - UNIQUE WELL ID
ENTR.         JAYE                           : Entered      - ENTERED BY
SRVC.         SCHLUMBERGER                   : Scn          - SERVICE COMPANY
DATE.         16 JAN 78                      : Date         - LOG DATE
STRT.M        188.976                        : top_depth    - START DEPTH
STOP.M        393.226                        : bot_depth    - STOP DEPTH
STEP.M        0.25                           : increment    - STEP LENGTH
 NULL. -999.2500:NULL Value
~CURVE INFORMATION BLOCK
#MNEM UNIT       ERCB CURVE CODE    CURVE DESCRIPTION
#-----------   ------------------   ----------------------------------
DEPT.M        00 001 00 00         : DEPTH        - DEPTH
CALI.MM       00 280 01 00         : CAL          - CALIPER
GR  .API      00 310 00 00         : GR           - GAMMA RAY
NPHI.V/V      00 330 00 00         : PHIN         - NEUTRON POROSITY (SANDSTONE)
DPHI.V/V      00 890 00 00         : PHID         - DENSITY POROSITY (SANDSTONE)
ILD .OHMM     00 120 00 00         : RESD         - DEEP RESISTIVITY (DIL)
~PARAMETER INFORMATION
#MNEM.UNIT           DATA             DESCRIPTION OF MNEMONIC
#---------         -----------     ------------------------------
GL  .M        565.404              : gl           - GROUND LEVEL ELEVATION
EREF.M        568.452              : kb           - ELEVATION OF DEPTH REFERENCE
DATM.M        565.404              : datum        - DATUM ELEVATION
TDD .M        408.432              : tdd          - TOTAL DEPTH DRILLER
RUN .         ONE                  : Run          - RUN NUMBER
ENG .         BUSHMAN              : Engineer     - RECORDING ENGINEER
WIT .         KIRKPATRICK          : Witness      - WITNESSED BY
BASE.         EDMONTON             : Branch       - HOME BASE OF LOGGING UNIT
MUD .         GEL CHEM             : Mud_type     - MUD TYPE
MATR.         SANDSTONE            : Logunit      - NEUTRON MATRIX
TMAX.C        21.1111              : BHT          - MAXIMUM RECORDED TEMPERATURE
BHTD.M        408.432              : BHTDEP       - MAXIMUM RECORDED TEMPERATURE
RMT .C        -17.7778             : MDTP         - TEMPERATURE OF MUD
MUDD.KG/M     8700                 : MWT          - MUD DENSITY
NEUT.         1                    : NEUTRON      - NEUTRON TYPE
RESI.         0                    : RESIST       - RESISTIVITY TYPE
RM  .OHMM     2.5                  : RM           - RESISTIVITY OF MUD
RMC .OHMM     2.5                  : RMC          - RESISTIVITY OF MUD CAKE
RMF .OHMM     6.28                 : RMF          - RESISTIVITY OF MUD FILTRATE
SUFT.C        4                    : SUFT         - SURFACE TEMPERATURE
~A  DEPTH      CAL       GR     PHIN     PHID     RESD
# ...
  261.976  208.357   97.696    0.452    0.254    9.497
  262.226  208.351   98.632    0.465    0.234   10.384
  262.476  207.920  100.066    0.467    0.245   10.828
  262.726  207.807   99.876    0.447    0.262   11.336
  262.976  207.163   96.994    0.445    0.268   11.644
  263.226  206.839   93.485    0.467    0.233   11.758
  263.476  206.834   93.232    0.491    0.240   11.852
  263.726  208.099   94.167    0.452    0.217   11.969
  263.976  209.153   98.419    0.449    0.206   12.112
  264.226  211.375   99.979    0.448    0.210   12.183
  264.476  214.760  100.289    0.453    0.204   12.256
  264.726  216.239  100.473    0.464    0.231   12.260
  264.976  216.870  100.219    0.462    0.245   12.243
  265.226  215.909  100.403    0.454    0.253   12.246
  265.476  214.099  101.213    0.448    0.250   12.227
  265.726  214.623  101.334    0.450    0.245   12.234
  265.976  215.251   99.954    0.446    0.214   12.307
  266.226  215.882   97.948    0.441    0.203   12.309
  266.476  216.937   95.880    0.437    0.193   12.384
  266.726  218.945   95.187    0.440    0.217   12.460
  266.976  222.225   94.808    0.473    0.270   12.534
  267.226  224.977   95.742    0.468    0.269   12.468
  267.476  227.514   96.428    0.474    0.279   12.496
  267.726  224.964   98.365    0.500    0.297   12.619
  267.976  219.337   99.738    0.493    0.269   12.743
  268.226  214.452   99.233    0.474    0.250   12.894
  268.476  211.264   97.665    0.448    0.249   13.094
  268.726  208.182   94.094    0.428    0.235   13.917
  268.976  206.478   90.650    0.435    0.232   14.486
  269.226  206.683   85.389    0.424    0.230   14.742
  269.476  206.782   79.816    0.404    0.228   14.745
  269.726  206.671   79.500    0.404    0.241   14.722
  269.976  206.239   84.064    0.415    0.277   14.671
  270.226  206.234   79.805    0.428    0.285   14.429
  270.476  205.909   76.047    0.422    0.268   14.299
  270.726  205.903   76.419    0.405    0.226   14.303
  270.976  205.895   78.981    0.428    0.203   14.307
  271.226  205.784   81.105    0.444    0.298   14.367
  271.476  205.988   83.104    0.439    0.300   14.399
  271.726  206.407   91.048    0.432    0.293   14.404
  271.976  208.098   96.489    0.433    0.274   14.273
  272.226  210.952   97.423    0.420    0.280   14.065
  272.476  211.584   98.734    0.404    0.267   13.806
  272.726  211.896   99.669    0.414    0.272   13.551
  272.976  212.314   99.665    0.415    0.268   13.252
  273.226  212.732   96.720    0.417    0.251   12.934
  273.476  213.785   93.025    0.430    0.246   12.412
  273.726  214.945   90.893    0.434    0.240   12.001
  273.976  217.060   91.141    0.422    0.231   11.824
  274.226  220.977   94.016    0.420    0.223   11.607
  274.476  224.259   94.262    0.425    0.252   11.436
  274.726  227.327   93.382    0.436    0.250   11.441
  274.976  228.912   89.499    0.440    0.250   11.467
  275.226  223.602   84.177    0.446    0.258   11.492
  275.476  218.294   80.418    0.460    0.275   11.495
  275.726  213.303   80.353    0.453    0.284   10.743
  275.976  215.629   88.359    0.443    0.272   10.096
  276.226  218.381   88.918    0.433    0.261    9.762
  276.476  217.419   84.034    0.445    0.242    9.762
  276.726  209.671   78.836    0.440    0.208   11.760
  276.976  210.301   75.453    0.409    0.162   12.735
  277.226  211.354   71.445    0.364    0.134   14.189
  277.476  211.455   68.250    0.372    0.146   17.676
  277.726  211.659   64.742    0.398    0.168   19.510
  277.976  211.548   60.107    0.211    0.106   20.232
  278.226  211.752   57.850    0.193    0.070   20.625
  278.476  212.486   58.035    0.210    0.070   20.556
  278.726  212.694   58.407    0.236    0.100   20.253
  278.976  213.642   57.465    0.288    0.133   20.069
  279.226  214.060   54.895    0.341    0.136   20.114
  279.476  214.689   53.452    0.308    0.123   20.936
  279.726  215.108   53.762    0.297    0.141   25.544
  279.976  215.526   59.578    0.277    0.110   24.465
  280.226  216.155   67.021    0.267    0.091   21.238
  280.476  216.679   76.466    0.280    0.121   19.437
  280.726  217.627   79.968    0.310    0.174   17.392
  280.976  218.045   78.775    0.387    0.217   15.269
  281.226  219.099   79.460    0.427    0.241   12.787
  281.476  219.835   85.463    0.443    0.248   11.184
  281.726  223.646   88.526    0.453    0.235   10.471
  281.976  229.790   89.273    0.470    0.225   10.048
  282.226  234.027   89.895    0.479    0.232    9.938
  282.476  237.201   92.333    0.460    0.219    9.998
  282.726  237.726   96.835    0.482    0.234   10.134
  282.976  235.810  100.147    0.473    0.254   10.429
  283.226  236.546  102.084    0.454    0.254   10.652
  283.476  241.949  103.457    0.446    0.248   10.517
  283.726  246.078  102.827    0.454    0.242   10.620
  283.976  235.042   99.508    0.456    0.264   10.888
  284.226  227.718   97.314    0.437    0.256   11.549
  284.476  221.348   98.623    0.414    0.246   12.205
  284.726  220.280   97.244    0.418    0.234   12.255
  284.976  219.957   96.427    0.426    0.244   12.121
  285.226  217.405   94.295    0.439    0.261   12.126
  285.476  211.671   88.848    0.456    0.264   12.199
  285.726  210.180   79.895    0.459    0.282   12.507
  285.976  209.856   72.695    0.459    0.278   13.068
  286.226  209.107   67.749    0.448    0.257   14.126
  286.476  207.509   64.678    0.431    0.152   15.950
  286.726  207.396   68.116    0.383    0.100   17.047
  286.976  208.129   69.052    0.317    0.170   17.151
  287.226  208.655   70.175    0.328    0.232   17.156
  287.476  208.968   74.363    0.391    0.305   16.809
  287.726  209.704   78.615    0.452    0.314   16.038
  287.976  210.334   82.429    0.458    0.318   15.303
  288.226  210.751   87.181    0.455    0.309   14.602
  288.476  211.805   90.494    0.446    0.294   14.306
  288.726  214.025   93.807    0.417    0.267   14.123
  288.976  215.611   94.617    0.414    0.226   13.995
  289.226  216.345   93.988    0.431    0.219   14.000
  289.476  216.869   89.791    0.434    0.232   14.164
  289.726  217.499   81.966    0.433    0.258   15.486
  289.976  217.706   73.327    0.423    0.215   17.353
  290.226  218.123   70.382    0.397    0.155   18.584
  290.476  218.328   69.877    0.342    0.121   19.016
  290.726  218.640   72.752    0.335    0.155   19.167
  290.976  218.845   78.756    0.362    0.177   19.101
  291.226  218.945   76.124    0.420    0.153   19.217
  291.476  218.939   72.366    0.418    0.131   19.665
  291.726  218.719   72.050    0.370    0.147   20.315
  291.976  218.607   72.734    0.377    0.145   21.508
  292.226  218.707   75.859    0.341    0.125   22.728
  292.476  219.337   81.675    0.308    0.201   22.438
  292.726  220.922   83.049    0.341    0.225   20.345
  292.976  221.974   83.671    0.426    0.200   19.338
  293.226  222.394   83.291    0.439    0.209   18.520
  293.476  223.447   83.288    0.429    0.190   17.474
  293.726  223.547   84.160    0.420    0.174   17.184
  293.976  223.859   84.157    0.410    0.180   17.092
  294.226  224.275   82.902    0.411    0.194   17.656
  294.476  225.330   83.148    0.426    0.209   18.764
  294.726  226.066   80.328    0.414    0.158   20.438
  294.976  226.378   78.323    0.346    0.157   22.603
  295.226  226.900   78.319    0.359    0.171   23.526
  295.476  226.895   81.194    0.364    0.152   23.183
  295.726  227.100   84.507    0.388    0.167   21.177
  295.976  227.517   87.945    0.400    0.183   18.839
  296.226  228.042   91.509    0.452    0.246   17.605
  296.476  229.308   92.256    0.450    0.245   16.703
  296.726  230.150   89.687    0.442    0.233   16.029
  296.976  231.098   88.682    0.436    0.224   15.616
  297.226  231.516   92.997    0.432    0.210   15.358
  297.476  231.827   94.245    0.442    0.225   15.218
  297.726  231.715   92.489    0.445    0.216   15.164
  297.976  231.284   95.113    0.440    0.197   15.815
  298.226  230.111   97.738    0.426    0.205   16.216
