~VERSION INFORMATION
 VERS.                 2.0:   CWLS LOG ASCII STANDARD -VERSION 2.0
 WRAP.                  NO:   ONE LINE PER DEPTH STEP
~WELL INFORMATION BLOCK
#MNEM.UNIT           DATA                    DESCRIPTION OF MNEMONIC
#---------    -------------------            -------------------------------
# Generated from Intellog Unique Number	CS_73_76/WELL/1997
WELL.         06-31-076-12W4                 : Well_name    - WELL
LOC .         00/06-31-076-12W4/0            : Location     - LOCATION
UWI .         00/06-31-076-12W4/0            : Uwi          - UNIQUE WELL ID
ENTR.         SP                             : Entered      - ENTERED BY
SRVC.         SCHLUMBERGER                   : Scn          - SERVICE COMPANY
STRT.M        310.896                        : top_depth    - START DEPTH
STOP.M        545.396                        : bot_depth    - STOP DEPTH
STEP.M        0.25                           : increment    - STEP LENGTH
 NULL. -999.2500:NULL Value
~CURVE INFORMATION BLOCK
#MNEM UNIT       ERCB CURVE CODE    CURVE DESCRIPTION
#-----------   ------------------   ----------------------------------
DEPT.M        00 001 00 00         : DEPTH        - DEPTH
GR  .API      00 310 00 00         : GR           - GAMMA RAY
DPHI.V/V      00 890 00 00         : PHID         - DENSITY POROSITY (SANDSTONE)
NPHI.V/V      00 330 00 00         : PHIN         - NEUTRON POROSITY (SANDSTONE)
ILD .OHMM     00 120 00 00         : RESD         - DEEP RESISTIVITY (DIL)
~PARAMETER INFORMATION
#MNEM.UNIT           DATA             DESCRIPTION OF MNEMONIC
#---------         -----------     ------------------------------
GL  .M        698.998              : gl           - GROUND LEVEL ELEVATION
EREF.M        702.564              : kb           - ELEVATION OF DEPTH REFERENCE
DATM.M        698.998              : datum        - DATUM ELEVATION
TDD .M        547.726              : tdd          - TOTAL DEPTH DRILLER
RUN .         ONE                  : Run          - RUN NUMBER
ENG .         BILL                 : Engineer     - RECORDING ENGINEER
WIT .         JIM                  : Witness      - WITNESSED BY
MUD .         GEL                  : Mud_type     - MUD TYPE
MATR.         SANDSTONE            : Logunit      - NEUTRON MATRIX
TMAX.C        23.3333              : BHT          - MAXIMUM RECORDED TEMPERATURE
BHTD.M        547.726              : BHTDEP       - MAXIMUM RECORDED TEMPERATURE
MATR.         1                    : LOGUNIT      - NEUTRON MATRIX
RMT .C        25                   : MDTP         - TEMPERATURE OF MUD
NEUT.         1                    : NEUTRON      - NEUTRON TYPE
RESI.         0                    : RESIST       - RESISTIVITY TYPE
RMC .OHMM     0.25                 : RMC          - RESISTIVITY OF MUD CAKE
RMF .OHMM     0.25                 : RMF          - RESISTIVITY OF MUD FILTRATE
SUFT.C        15                   : SUFT         - SURFACE TEMPERATURE
~A  DEPTH       GR     PHID     PHIN     RESD
# ...
  397.896   99.739    0.225    0.598    3.855
  398.146  102.080    0.238    0.604    4.003
  398.396  102.685    0.242    0.606    4.166
  398.646   97.656    0.245    0.598    4.414
  398.896   89.370    0.264    0.585    4.918
  399.146   79.910    0.284    0.568    5.484
  399.396   76.265    0.302    0.549    6.256
  399.646   74.287    0.302    0.530    7.527
  399.896   77.052    0.310    0.514    8.449
  400.146   80.501    0.309    0.529    9.161
  400.396   84.762    0.315    0.518    9.461
  400.646   89.946    0.312    0.504    9.155
  400.896   93.401    0.309    0.527    7.282
  401.146   99.727    0.298    0.587    5.394
  401.396  103.949    0.257    0.596    4.284
  401.646  109.506    0.249    0.598    3.721
  401.896  113.408    0.277    0.600    3.171
  402.146  115.404    0.257    0.602    2.918
  402.396  113.345    0.261    0.604    2.560
  402.646  110.048    0.273    0.606    2.424
  402.896  107.219    0.284    0.606    2.337
  403.146  109.560    0.277    0.606    2.290
  403.396  113.569    0.285    0.606    2.293
  403.646  113.372    0.273    0.604    2.268
  403.896  111.687    0.287    0.604    2.249
  404.146  112.969    0.290    0.604    2.318
  404.396  110.732    0.283    0.604    2.562
  404.646  106.888    0.276    0.602    2.842
  404.896  107.246    0.288    0.598    3.435
  405.146  100.727    0.295    0.579    3.953
  405.396   91.066    0.290    0.555    4.468
  405.646   83.119    0.309    0.536    6.007
  405.896   86.137    0.301    0.534    6.754
  406.146   85.422    0.290    0.541    7.247
  406.396   83.488    0.279    0.538    7.333
  406.646   87.516    0.283    0.526    7.406
  406.896   90.703    0.278    0.525    7.515
  407.146   91.459    0.289    0.540    7.510
  407.396   88.654    0.281    0.552    7.504
  407.646   80.731    0.290    0.536    7.612
  407.896   81.126    0.297    0.521    7.786
  408.146   81.554    0.284    0.520    7.953
  408.396   73.927    0.276    0.526    8.323
  408.646   74.867    0.264    0.535    8.790
  408.896   75.696    0.238    0.553    9.518
  409.146   69.032    0.217    0.506   10.370
  409.396   63.290    0.169    0.346   10.766
  409.646   71.804    0.081    0.324   10.247
  409.896   80.703    0.173    0.362    9.461
  410.146   92.346    0.220    0.433    8.694
  410.396   96.486    0.252    0.507    8.225
  410.646   98.299    0.258    0.543    7.582
  410.896   98.537    0.245    0.493    7.323
  411.146  100.127    0.243    0.491    6.992
  411.396  101.488    0.250    0.502    6.764
  411.646  102.715    0.241    0.518    6.558
  411.896  100.267    0.245    0.531    6.440
  412.146   98.840    0.247    0.535    6.454
  412.396   95.470    0.248    0.527    6.323
  412.646   94.061    0.257    0.535    6.374
  412.896   93.712    0.268    0.532    6.324
  413.146   95.912    0.256    0.515    6.317
  413.396   97.465    0.242    0.525    6.306
  413.646   95.619    0.241    0.526    6.454
  413.896   92.738    0.246    0.540    6.652
  414.146   89.985    0.240    0.551    6.606
  414.396   88.863    0.242    0.536    6.545
  414.646   90.923    0.248    0.501    6.537
  414.896   92.917    0.260    0.506    6.494
  415.146   94.212    0.272    0.518    6.419
  415.396   96.406    0.250    0.530    6.336
  415.646   94.967    0.232    0.527    6.329
  415.896   92.990    0.242    0.510    6.521
  416.146   94.250    0.234    0.501    6.790
  416.396   96.106    0.252    0.510    6.764
  416.646   97.649    0.242    0.514    6.880
  416.896   99.450    0.227    0.504    6.880
  417.146   94.154    0.214    0.498    6.859
  417.396   92.436    0.208    0.501    6.548
  417.646   91.025    0.261    0.517    6.270
  417.896   88.696    0.259    0.545    6.165
  418.146   90.730    0.269    0.561    6.273
  418.396   91.261    0.285    0.575    6.404
  418.646   91.705    0.278    0.541    6.388
  418.896   92.407    0.268    0.521    6.387
  419.146   92.070    0.277    0.512    6.399
  419.396   87.090    0.269    0.514    6.073
  419.646   85.113    0.266    0.501    5.331
  419.896   89.080    0.275    0.516    4.682
  420.146   91.935    0.265    0.556    3.947
  420.396   97.164    0.245    0.583    3.439
  420.646  100.213    0.246    0.604    2.930
  420.896  100.859    0.266    0.604    2.800
  421.146   99.588    0.277    0.603    2.795
  421.396   98.218    0.293    0.602    2.793
  421.646   97.222    0.283    0.595    2.934
  421.896   96.232    0.275    0.588    3.012
  422.146   95.250    0.278    0.589    3.222
  422.396   92.795    0.245    0.594    3.577
  422.646   91.052    0.249    0.602    3.751
  422.896   87.352    0.248    0.605    4.137
  423.146   90.046    0.253    0.557    4.402
  423.396   94.240    0.251    0.563    4.671
  423.646   92.916    0.254    0.552    4.724
  423.896   92.099    0.249    0.534    4.998
  424.146   89.655    0.245    0.520    5.306
  424.396   86.982    0.239    0.513    5.573
  424.646   86.986    0.232    0.501    5.837
  424.896   87.971    0.227    0.503    5.997
  425.146   85.327    0.252    0.514    6.175
  425.396   79.059    0.296    0.503    6.340
  425.646   73.905    0.292    0.501    6.329
  425.896   66.702    0.302    0.490    6.340
  426.146   65.045    0.314    0.473    6.205
  426.396   63.977    0.324    0.466    6.110
  426.646   63.925    0.330    0.470    6.097
  426.896   63.888    0.324    0.497    6.092
  427.146   64.828    0.317    0.506    6.079
  427.396   65.891    0.309    0.508    6.221
  427.646   67.567    0.316    0.485    6.080
  427.896   69.161    0.317    0.471    6.167
  428.146   68.977    0.315    0.481    6.193
  428.396   66.910    0.329    0.491    6.189
  428.646   67.106    0.330    0.493    6.254
  428.896   69.353    0.323    0.496    6.074
  429.146   66.293    0.319    0.472    5.969
  429.396   64.495    0.320    0.466    5.894
  429.646   65.797    0.326    0.463    5.970
  429.896   66.935    0.330    0.461    5.955
  430.146   63.571    0.344    0.466    5.965
  430.396   60.837    0.339    0.459    5.838
  430.646   62.430    0.330    0.449    5.856
  430.896   64.976    0.329    0.438    5.734
  431.146   66.215    0.340    0.444    5.629
  431.396   65.195    0.339    0.460    5.426
  431.646   65.452    0.337    0.479    5.359
  431.896   67.899    0.332    0.508    5.422
  432.146   71.272    0.326    0.478    5.423
  432.396   71.397    0.330    0.496    5.436
  432.646   69.735    0.314    0.522    5.519
  432.896   71.131    0.320    0.525    5.515
  433.146   71.084    0.331    0.499    5.512
  433.396   72.754    0.324    0.490    5.510
  433.646   70.337    0.329    0.477    5.508
  433.896   66.674    0.329    0.474    5.506
  434.146   65.038    0.333    0.484    5.505
  434.396   64.854    0.327    0.516    5.505
  434.646   66.691    0.312    0.529    5.500
  434.896   70.644    0.317    0.526    5.598
  435.146   67.790    0.340    0.518    5.713
  435.396   67.751    0.345    0.517    5.702
  435.646   67.352    0.343    0.517    5.757
  435.896   64.937    0.343    0.511    5.800
  436.146   65.969    0.333    0.517    5.801
  436.396   67.862    0.329    0.499    5.809
  436.646   65.996    0.331    0.501    5.686
  436.896   65.934    0.338    0.482    5.691
  437.146   68.087    0.342    0.495    5.687
  437.396   66.584    0.341    0.505    5.685
  437.646   61.969    0.338    0.494    5.757
  437.896   65.551    0.328    0.508    5.784
  438.146   69.647    0.321    0.526    5.785
  438.396   70.072    0.331    0.523    5.784
  438.646   66.414    0.339    0.525    5.787
  438.896   66.952    0.325    0.511    5.683
  439.146   70.140    0.319    0.497    5.623
  439.396   73.046    0.330    0.491    5.573
  439.646   68.018    0.325    0.518    5.482
  439.896   69.794    0.332    0.541    5.466
  440.146   72.704    0.339    0.540    5.461
  440.396   72.567    0.319    0.490    5.458
  440.646   69.298    0.332    0.471    5.450
  440.896   67.790    0.339    0.462    5.556
  441.146   70.469    0.343    0.475    5.552
