~VERSION INFORMATION
 VERS.                 2.0:   CWLS LOG ASCII STANDARD -VERSION 2.0
 WRAP.                  NO:   ONE LINE PER DEPTH STEP
~WELL INFORMATION BLOCK
#MNEM.UNIT           DATA                    DESCRIPTION OF MNEMONIC
#---------    -------------------            -------------------------------
# Generated from Intellog Unique Number	CW_73_75/WELL/2725
WELL.         CANTERRA MARTEN H 04-25        : Well_name    - WELL
LOC .         00/04-25-073-25W4/0            : Location     - LOCATION
UWI .         00/04-25-073-25W4/0            : Uwi          - UNIQUE WELL ID
ENTR.         JAYE                           : Entered      - ENTERED BY
SRVC.         WESTERN ATLAS                  : Scn          - SERVICE COMPANY
DATE.         21 JAN 86                      : Date         - LOG DATE
STRT.M        385                            : top_depth    - START DEPTH
STOP.M        615                            : bot_depth    - STOP DEPTH
STEP.M        0.25                           : increment    - STEP LENGTH
 NULL. -999.2500:NULL Value
~CURVE INFORMATION BLOCK
#MNEM UNIT       ERCB CURVE CODE    CURVE DESCRIPTION
#-----------   ------------------   ----------------------------------
DEPT.M        00 001 00 00         : DEPTH        - DEPTH
RHOB.KG/M3    00 350 00 00         : DENS         - BULK DENSITY
DPHI.V/V      00 890 00 00         : PHID         - DENSITY POROSITY (SANDSTONE)
ILD .OHMM     00 120 00 00         : RESD         - DEEP RESISTIVITY (DLL)
CALI.MM       00 280 01 00         : CAL          - CALIPER
GR  .API      00 310 00 00         : GR           - GAMMA RAY
NPHI.V/V      00 330 00 00         : PHIN         - NEUTRON POROSITY (SANDSTONE)
~PARAMETER INFORMATION
#MNEM.UNIT           DATA             DESCRIPTION OF MNEMONIC
#---------         -----------     ------------------------------
GL  .M        637.6                : gl           - GROUND LEVEL ELEVATION
EREF.M        641                  : kb           - ELEVATION OF DEPTH REFERENCE
DATM.M        637.6                : datum        - DATUM ELEVATION
TDD .M        617                  : tdd          - TOTAL DEPTH DRILLER
RUN .         ONE                  : Run          - RUN NUMBER
ENG .         MASHON               : Engineer     - RECORDING ENGINEER
WIT .         HUDSON/REID          : Witness      - WITNESSED BY
BASE.         EDM                  : Branch       - HOME BASE OF LOGGING UNIT
MUD .         GEL CHEM             : Mud_type     - MUD TYPE
MATR.         SANDSTONE            : Logunit      - NEUTRON MATRIX
TMAX.C        42                   : BHT          - MAXIMUM RECORDED TEMPERATURE
BHTD.M        617                  : BHTDEP       - MAXIMUM RECORDED TEMPERATURE
RMT .C        22                   : MDTP         - TEMPERATURE OF MUD
MUDD.KG/M     1130                 : MWT          - MUD DENSITY
NEUT.         0                    : NEUTRON      - NEUTRON TYPE
RESI.         1                    : RESIST       - RESISTIVITY TYPE
RM  .OHMM     2.3                  : RM           - RESISTIVITY OF MUD
RMC .OHMM     3.5                  : RMC          - RESISTIVITY OF MUD CAKE
RMF .OHMM     3.2                  : RMF          - RESISTIVITY OF MUD FILTRATE
SUFT.C        0                    : SUFT         - SURFACE TEMPERATURE
~A  DEPTH     DENS     PHID     RESD      CAL       GR     PHIN
# ...
  447.500 2306.160    0.208    4.349  171.941   95.355    0.417
  447.750 2311.170    0.205    4.307  172.587  101.445    0.401
  448.000 2319.310    0.200    4.282  172.503  108.774    0.383
  448.250 2334.500    0.191    4.256  172.734  104.636    0.456
  448.500 2327.470    0.195    4.254  173.174  101.241    0.427
  448.750 2296.750    0.214    4.236  173.821  111.421    0.397
  449.000 2299.900    0.212    4.226  173.946  112.118    0.381
  449.250 2295.150    0.215    4.232  173.662  108.539    0.419
  449.500 2293.520    0.216    4.262  173.687  108.180    0.428
  449.750 2297.290    0.214    4.268  173.710  105.715    0.424
  450.000 2283.810    0.222    4.266  173.320   84.593    0.415
  450.250 2262.860    0.235    4.280  172.724   78.843    0.414
  450.500 2234.430    0.252    4.326  172.231   77.618    0.458
  450.750 2180.230    0.285    4.380  172.671   68.583    0.445
  451.000 2125.200    0.318    4.419  173.421   62.027    0.427
  451.250 2102.580    0.332    4.442  173.649   55.099    0.410
  451.500 2112.790    0.326    4.415  173.678   57.407    0.401
  451.750 2124.040    0.319    4.364  173.493   62.071    0.410
  452.000 2126.780    0.317    4.314  173.518   61.652    0.411
  452.250 2132.420    0.314    4.296  173.644   57.452    0.386
  452.500 2131.200    0.314    4.286  173.256   56.599    0.401
  452.750 2125.420    0.318    4.229  172.763   55.871    0.425
  453.000 2126.900    0.317    4.196  171.964   54.211    0.403
  453.250 2130.880    0.315    4.171  170.746   55.032    0.406
  453.500 2139.640    0.309    4.130  168.497   55.480    0.403
  453.750 2150.890    0.302    4.106  167.077   50.907    0.427
  454.000 2159.020    0.298    4.104  167.410   47.700    0.440
  454.250 2158.220    0.298    4.125  168.368   47.219    0.412
  454.500 2153.260    0.301    4.138  168.080   50.022    0.399
  454.750 2147.270    0.305    4.137  167.176   53.880    0.380
  455.000 2145.010    0.306    4.104  166.061   49.494    0.362
  455.250 2141.310    0.308    4.064  165.364   50.685    0.369
  455.500 2135.520    0.312    4.003  164.976   51.878    0.380
  455.750 2134.510    0.312    3.934  165.001   49.723    0.395
  456.000 2142.850    0.307    3.860  165.026   53.519    0.420
  456.250 2159.300    0.297    3.823  165.255   61.468    0.415
  456.500 2164.520    0.294    3.723  165.592   56.834    0.404
  456.750 2155.000    0.300    3.674  166.235   53.008    0.426
  457.000 2154.610    0.300    3.611  167.291   53.826    0.422
  457.250 2153.400    0.301    3.550  162.875   56.197    0.407
  457.500 2138.680    0.310    3.548  160.834   53.979    0.379
  457.750 2124.990    0.318    3.547  160.029   54.738    0.410
  458.000 2187.770    0.280    3.558  160.057   64.672    0.437
  458.250 2225.820    0.257    3.583  161.009   75.472    0.416
  458.500 2227.720    0.256    3.549  163.306   70.342    0.393
  458.750 2182.670    0.283    3.482  166.638   67.815    0.403
  459.000 2155.270    0.300    3.410  168.417   64.482    0.381
  459.250 2144.500    0.306    3.414  169.476   63.877    0.350
  459.500 2141.210    0.308    3.445  170.015   66.990    0.372
  459.750 2132.510    0.314    3.469  169.628   65.642    0.405
  460.000 2128.590    0.316    3.487  169.135   65.966    0.395
  460.250 2148.980    0.304    3.531  168.644   65.361    0.400
  460.500 2173.120    0.289    3.704  167.634   65.934    0.425
  460.750 2199.120    0.273    4.002  166.316   67.063    0.415
  461.000 2211.820    0.266    4.430  165.926   67.884    0.393
  461.250 2189.830    0.279    4.940  166.262   71.556    0.391
  461.500 2157.030    0.299    5.989  166.081   64.566    0.410
  461.750 2170.360    0.291    6.842  165.795   63.404    0.392
  462.000 2357.600    0.177    7.311  166.028   63.108    0.357
  462.250 2444.890    0.124    6.760  166.050   57.482    0.331
  462.500 2545.900    0.063    5.633  165.661   60.658    0.269
  462.750 2464.690    0.112    4.626  165.685   72.141    0.261
  463.000 2347.120    0.184    3.784  165.300   80.461    0.321
  463.250 2312.040    0.205    3.371  165.011   87.232    0.353
  463.500 2307.920    0.207    3.308  164.830   78.507    0.361
  463.750 2147.960    0.304    3.425  164.750   73.439    0.360
  464.000 2100.830    0.333    3.756  164.467   65.148    0.404
  464.250 2128.910    0.316    4.243  164.492   70.865    0.446
  464.500 2142.650    0.307    4.663  165.550   81.665    0.419
  464.750 2139.770    0.309    5.317  166.708   85.895    0.418
  465.000 2155.390    0.300    6.165  167.766   80.890    0.415
  465.250 2183.470    0.283    6.952  168.411   80.656    0.391
  465.500 2232.530    0.253    8.181  168.126   84.018    0.378
  465.750 2378.840    0.164    8.758  165.979   73.123    0.351
  466.000 2527.220    0.074    8.235  163.836   60.802    0.293
  466.250 2432.920    0.132    7.336  164.067   74.950    0.296
  466.500 2423.600    0.137    6.733  166.053   77.630    0.334
  466.750 2429.240    0.134    6.044  168.043   82.231    0.325
  467.000 2344.500    0.185    5.506  169.718   82.618    0.320
  467.250 2333.940    0.192    5.196  170.879   85.733    0.359
  467.500 2297.600    0.214    5.032  168.838   88.784    0.346
  467.750 2293.690    0.216    4.965  165.660   84.399    0.379
  468.000 2292.470    0.217    5.027  163.620   79.453    0.386
  468.250 2268.190    0.231    5.196  163.127   76.059    0.356
  468.500 2284.010    0.222    5.400  163.049   84.815    0.348
  468.750 2323.940    0.198    5.685  167.410   96.854    0.377
  469.000 2350.560    0.181    5.789  169.812  101.207    0.357
  469.250 2378.440    0.165    5.819  170.664   87.895    0.358
  469.500 2370.360    0.169    5.816  171.101   88.344    0.368
  469.750 2358.760    0.177    5.814  171.125   96.355    0.395
  470.000 2346.950    0.184    5.865  171.258   84.035    0.388
  470.250 2327.860    0.195    5.939  171.690   86.528    0.392
  470.500 2347.630    0.183    6.036  172.024   84.746    0.378
  470.750 2366.780    0.172    6.135  172.049   81.475    0.359
  471.000 2366.390    0.172    6.213  171.662   86.820    0.368
  471.250 2356.240    0.178    6.164  171.687  101.464    0.400
  471.500 2359.390    0.176    6.070  172.018  103.773    0.390
  471.750 2350.490    0.182    5.760  172.459  101.122    0.385
  472.000 2339.090    0.188    5.326  172.793   95.682    0.366
  472.250 2350.550    0.181    4.852  172.919   92.535    0.367
  472.500 2360.140    0.176    4.429  172.943  101.042    0.398
  472.750 2335.030    0.191    4.080  172.968  105.519    0.412
  473.000 2332.770    0.192    3.988  172.995  101.442    0.402
  473.250 2348.380    0.183    4.152  172.708  103.937    0.420
  473.500 2333.250    0.192    4.331  172.112   99.551    0.404
  473.750 2283.410    0.222    4.410  171.207   91.693    0.411
  474.000 2229.420    0.255    4.376  166.272   87.059    0.438
  474.250 2203.280    0.271    4.431  164.851   87.136    0.425
  474.500 2253.590    0.240    4.596  164.358   88.204    0.415
  474.750 2303.690    0.210    4.724  164.489   92.124    0.401
  475.000 2344.030    0.185    4.696  166.783   91.767    0.401
  475.250 2392.260    0.156    4.607  169.597   85.025    0.388
  475.500 2461.270    0.114    4.521  170.448   79.275    0.355
  475.750 2380.070    0.164    4.469  170.062   85.240    0.337
  476.000 2314.650    0.203    4.360  169.569   89.966    0.429
  476.250 2231.360    0.254    4.215  169.284   91.965    0.415
  476.500 2244.690    0.246    4.143  168.895   85.471    0.393
  476.750 2236.620    0.251    4.118  168.816   76.621    0.382
  477.000 2233.950    0.252    4.163  168.426   76.202    0.397
  477.250 2239.380    0.249    4.286  165.662   82.911    0.426
  477.500 2252.500    0.241    4.381  163.929   86.088    0.422
  477.750 2279.540    0.225    4.379  165.402   77.424    0.369
  478.000 2226.590    0.257    4.344  168.214   73.038    0.357
  478.250 2205.850    0.269    4.286  165.966   76.400    0.380
  478.500 2193.200    0.277    4.245  164.959   83.667    0.393
