~VERSION INFORMATION
 VERS.                 2.0:   CWLS LOG ASCII STANDARD -VERSION 2.0
 WRAP.                  NO:   ONE LINE PER DEPTH STEP
~WELL INFORMATION BLOCK
#MNEM.UNIT           DATA                    DESCRIPTION OF MNEMONIC
#---------    -------------------            -------------------------------
# Generated from Intellog Unique Number	CS_77_79/WELL/866
WELL.         GULF LEISMER                   : Well_name    - WELL
LOC .         00/06-03-079-09W4/0            : Location     - LOCATION
UWI .         00/06-03-079-09W4/0            : Uwi          - UNIQUE WELL ID
ENTR.         JHS                            : Entered      - ENTERED BY
SRVC.         SCHLUMBERGER                   : Scn          - SERVICE COMPANY
STRT.M        182.88                         : top_depth    - START DEPTH
STOP.M        447.88                         : bot_depth    - STOP DEPTH
STEP.M        0.25                           : increment    - STEP LENGTH
 NULL. -999.2500:NULL Value
~CURVE INFORMATION BLOCK
#MNEM UNIT       ERCB CURVE CODE    CURVE DESCRIPTION
#-----------   ------------------   ----------------------------------
DEPT.M        00 001 00 00         : DEPTH        - DEPTH
GR  .API      00 310 00 00         : GR           - GAMMA RAY
DPHI.V/V      00 890 00 00         : PHID         - DENSITY POROSITY (SANDSTONE)
NPHI.V/V      00 330 00 00         : PHIN         - NEUTRON POROSITY (SANDSTONE)
ILD .OHMM     00 120 00 00         : RESD         - DEEP RESISTIVITY (DIL)
~PARAMETER INFORMATION
#MNEM.UNIT           DATA             DESCRIPTION OF MNEMONIC
#---------         -----------     ------------------------------
GL  .M        654.71               : gl           - GROUND LEVEL ELEVATION
EREF.M        658.368              : kb           - ELEVATION OF DEPTH REFERENCE
DATM.M        658.368              : datum        - DATUM ELEVATION
TDD .M        449.275              : tdd          - TOTAL DEPTH DRILLER
RUN .         ONE                  : Run          - RUN NUMBER
ENG .         BILL                 : Engineer     - RECORDING ENGINEER
WIT .         JIM                  : Witness      - WITNESSED BY
MUD .         GEL                  : Mud_type     - MUD TYPE
MATR.         SANDSTONE            : Logunit      - NEUTRON MATRIX
TMAX.C        23.3333              : BHT          - MAXIMUM RECORDED TEMPERATURE
BHTD.M        449.275              : BHTDEP       - MAXIMUM RECORDED TEMPERATURE
MATR.         1                    : LOGUNIT      - NEUTRON MATRIX
RMT .C        25                   : MDTP         - TEMPERATURE OF MUD
NEUT.         1                    : NEUTRON      - NEUTRON TYPE
RESI.         0                    : RESIST       - RESISTIVITY TYPE
RMC .OHMM     0.25                 : RMC          - RESISTIVITY OF MUD CAKE
RMF .OHMM     0.25                 : RMF          - RESISTIVITY OF MUD FILTRATE
SUFT.C        15                   : SUFT         - SURFACE TEMPERATURE
~A  DEPTH       GR     PHID     PHIN     RESD
# ...
  400.380   68.210    0.290    0.398   14.298
  400.630   70.520    0.283    0.371   12.338
  400.880   79.359    0.264    0.385   11.907
  401.130   79.302    0.281    0.395   12.292
  401.380   76.865    0.294    0.369   13.656
  401.630   82.935    0.272    0.366   14.927
  401.880   84.297    0.257    0.376   15.347
  402.130   80.150    0.269    0.384   17.241
  402.380   72.826    0.271    0.396   21.560
  402.630   73.303    0.244    0.396   25.135
  402.880   73.076    0.240    0.378   28.811
  403.130   72.996    0.241    0.357   32.105
  403.380   78.097    0.211    0.337   35.196
  403.630   82.192    0.169    0.337   38.081
  403.880   80.517    0.190    0.371   38.222
  404.130   78.793    0.238    0.386   30.875
  404.380   79.128    0.268    0.369   25.193
  404.630   81.922    0.247    0.359   23.321
  404.880   82.133    0.221    0.368   23.360
  405.130   77.776    0.223    0.400   23.410
  405.380   69.069    0.251    0.414   22.584
  405.630   61.235    0.302    0.394   21.832
  405.880   63.622    0.292    0.389   22.218
  406.130   67.276    0.277    0.392   23.671
  406.380   64.894    0.267    0.411   25.034
  406.630   58.420    0.303    0.407   25.791
  406.880   62.047    0.304    0.393   25.465
  407.130   71.188    0.282    0.381   24.166
  407.380   76.603    0.267    0.385   23.500
  407.630   75.754    0.272    0.399   23.048
  407.880   71.032    0.266    0.392   23.663
  408.130   69.275    0.269    0.388   22.353
  408.380   70.385    0.272    0.395   19.611
  408.630   80.173    0.263    0.406   18.051
  408.880   82.030    0.285    0.413   17.885
  409.130   81.046    0.258    0.431   17.776
  409.380   80.866    0.272    0.430   16.816
  409.630   83.387    0.279    0.409   15.053
  409.880   87.405    0.274    0.407   13.775
  410.130   91.388    0.248    0.416   12.832
  410.380   93.656    0.243    0.439   12.332
  410.630   87.509    0.234    0.464   13.015
  410.880   75.383    0.250    0.436   12.880
  411.130   73.044    0.272    0.428   12.906
  411.380   69.475    0.260    0.441   16.498
  411.630   62.454    0.279    0.463   22.658
  411.880   51.493    0.316    0.442   31.994
  412.130   48.809    0.316    0.420   44.228
  412.380   50.155    0.301    0.412   50.429
  412.630   57.216    0.285    0.406   46.114
  412.880   61.226    0.279    0.411   37.424
  413.130   62.813    0.272    0.402   35.334
  413.380   61.446    0.270    0.390   37.291
  413.630   58.361    0.283    0.394   43.691
  413.880   52.730    0.302    0.399   48.169
  414.130   50.254    0.317    0.403   51.107
  414.380   51.809    0.307    0.401   49.663
  414.630   55.114    0.291    0.391   43.941
  414.880   62.259    0.289    0.391   28.724
  415.130   69.091    0.295    0.393   22.182
  415.380   77.298    0.289    0.398   19.540
  415.630   85.328    0.264    0.406   18.564
  415.880   86.881    0.248    0.434   18.264
  416.130   81.427    0.268    0.423   19.003
  416.380   81.377    0.297    0.398   18.869
  416.630   90.451    0.289    0.398   16.396
  416.880   99.412    0.268    0.380   14.051
  417.130  106.032    0.226    0.367   12.183
  417.380  111.951    0.215    0.383   11.268
  417.630  119.411    0.208    0.396   10.713
  417.880  125.343    0.200    0.414   10.548
  418.130  124.858    0.199    0.438   10.973
  418.380  112.030    0.221    0.457   12.046
  418.630   92.996    0.247    0.465   14.833
  418.880   83.950    0.273    0.438   17.887
  419.130   78.937    0.280    0.415   23.095
  419.380   73.165    0.267    0.413   29.183
  419.630   59.346    0.265    0.408   33.074
  419.880   56.115    0.283    0.391   36.276
  420.130   58.480    0.305    0.377   37.229
  420.380   61.165    0.280    0.369   35.369
  420.630   66.565    0.275    0.371   31.835
  420.880   74.986    0.280    0.382   23.292
  421.130   79.162    0.268    0.385   18.827
  421.380   81.049    0.257    0.387   16.705
  421.630   83.238    0.248    0.385   16.662
  421.880   80.405    0.233    0.388   17.360
  422.130   76.470    0.242    0.404   17.688
  422.380   74.826    0.265    0.398   16.577
  422.630   77.118    0.266    0.383   15.515
  422.880   78.098    0.245    0.376   16.014
  423.130   71.476    0.235    0.380   17.614
  423.380   62.877    0.241    0.390   20.999
  423.630   57.917    0.254    0.396   23.485
  423.880   60.002    0.281    0.396   25.135
  424.130   66.508    0.257    0.383   25.301
  424.380   75.850    0.230    0.369   23.509
  424.630   76.978    0.224    0.379   22.421
  424.880   73.097    0.230    0.412   20.647
  425.130   67.752    0.255    0.405   21.853
  425.380   63.874    0.258    0.387   23.772
  425.630   61.294    0.256    0.377   25.695
  425.880   61.327    0.267    0.369   26.227
  426.130   68.258    0.245    0.372   25.384
  426.380   69.376    0.242    0.389   24.737
  426.630   67.229    0.258    0.380   22.984
  426.880   66.781    0.268    0.362   19.649
  427.130   67.090    0.245    0.361   18.084
  427.380   68.871    0.220    0.370   18.319
  427.630   72.644    0.229    0.370   18.027
  427.880   77.148    0.235    0.374   14.868
  428.130   83.789    0.245    0.392   12.948
  428.380   85.632    0.227    0.406   12.179
  428.630   84.534    0.224    0.411   12.561
  428.880   81.766    0.256    0.399   12.682
  429.130   79.700    0.263    0.396   13.053
  429.380   80.299    0.250    0.393   14.147
  429.630   81.403    0.247    0.388   14.693
  429.880   78.380    0.234    0.382   13.927
  430.130   72.007    0.229    0.359   14.864
  430.380   68.176    0.227    0.361   16.477
  430.630   65.788    0.226    0.367   17.387
  430.880   66.745    0.247    0.381   18.124
  431.130   74.249    0.250    0.372   18.460
  431.380   80.506    0.254    0.365   18.519
  431.630   82.463    0.236    0.380   18.109
  431.880   77.779    0.233    0.407   17.628
  432.130   73.740    0.239    0.412   16.084
  432.380   83.494    0.258    0.406   13.939
  432.630   92.117    0.274    0.387   11.791
  432.880   97.332    0.237    0.378   10.363
  433.130   99.769    0.215    0.375    9.356
  433.380  101.463    0.207    0.394    8.716
  433.630  100.449    0.203    0.407    8.700
  433.880   95.721    0.213    0.401    8.850
  434.130   93.288    0.231    0.396    9.291
  434.380   92.270    0.230    0.394   10.008
  434.630   90.770    0.219    0.395   10.278
  434.880   89.903    0.219    0.394   10.440
  435.130   92.212    0.204    0.389   10.328
  435.380   94.251    0.203    0.385    9.859
  435.630   95.047    0.217    0.377    9.542
  435.880   95.002    0.222    0.370    9.258
  436.130   95.957    0.216    0.369    9.113
  436.380   97.655    0.205    0.375    8.924
  436.630   99.224    0.204    0.383    8.950
  436.880   99.598    0.199    0.390    9.072
  437.130   97.605    0.192    0.390    9.193
  437.380   92.277    0.189    0.403    9.657
  437.630   89.922    0.211    0.404    9.672
  437.880   89.863    0.217    0.404    9.690
  438.130  100.963    0.205    0.386    9.397
  438.380  103.809    0.193    0.385    9.098
  438.630  100.041    0.191    0.408    8.827
  438.880  105.902    0.230    0.405    8.457
  439.130  110.728    0.209    0.418    7.958
  439.380  112.686    0.192    0.452    7.492
  439.630  108.961    0.195    0.455    6.970
  439.880   78.810    0.182    0.459    6.552
  440.130   55.026    0.178    0.464    6.366
  440.380   36.675    0.180    0.446    6.169
  440.630   37.367    0.188    0.438    6.133
  440.880   37.453    0.197    0.425    6.246
  441.130   37.748    0.223    0.403    6.315
  441.380   38.048    0.255    0.384    6.374
  441.630   38.064    0.258    0.371    6.098
  441.880   38.020    0.241    0.382    5.787
  442.130   38.711    0.243    0.389    5.393
  442.380   38.628    0.272    0.467    4.992
  442.630   39.431    0.305    0.488    4.547
  442.880   38.709    0.301    0.105    4.264
  443.130   39.392    0.300    0.096    4.055
  443.380   39.371    0.310    0.087    4.081
  443.630   38.772    0.312    0.087    4.619
