~VERSION INFORMATION
 VERS.                 2.0:   CWLS LOG ASCII STANDARD -VERSION 2.0
 WRAP.                  NO:   ONE LINE PER DEPTH STEP
~WELL INFORMATION BLOCK
#MNEM.UNIT           DATA                    DESCRIPTION OF MNEMONIC
#---------    -------------------            -------------------------------
# Generated from Intellog Unique Number	CS_67_68/WELL/2173
WELL.         06-34-067-02W4                 : Well_name    - WELL
LOC .         00/06-34-067-02W4/0            : Location     - LOCATION
UWI .         00/06-34-067-02W4/0            : Uwi          - UNIQUE WELL ID
ENTR.         SP                             : Entered      - ENTERED BY
SRVC.         SCHLUMBERGER                   : Scn          - SERVICE COMPANY
STRT.M        360                            : top_depth    - START DEPTH
STOP.M        615                            : bot_depth    - STOP DEPTH
STEP.M        0.25                           : increment    - STEP LENGTH
 NULL. -999.2500:NULL Value
~CURVE INFORMATION BLOCK
#MNEM UNIT       ERCB CURVE CODE    CURVE DESCRIPTION
#-----------   ------------------   ----------------------------------
DEPT.M        00 001 00 00         : DEPTH        - DEPTH
ILD .OHMM     00 120 00 00         : RESD         - DEEP RESISTIVITY (DIL)
DPHI.V/V      00 890 00 00         : PHID         - DENSITY POROSITY (LIMESTONE)
NPHI.V/V      00 330 00 00         : PHIN         - NEUTRON POROSITY (LIMESTONE)
GR  .API      00 310 00 00         : GR           - GAMMA RAY
CALI.MM       00 280 01 00         : CAL          - CALIPER
~PARAMETER INFORMATION
#MNEM.UNIT           DATA             DESCRIPTION OF MNEMONIC
#---------         -----------     ------------------------------
GL  .M        686.22               : gl           - GROUND LEVEL ELEVATION
EREF.M        689.57               : kb           - ELEVATION OF DEPTH REFERENCE
DATM.M        689.57               : datum        - DATUM ELEVATION
TDD .M        628                  : tdd          - TOTAL DEPTH DRILLER
RUN .         ONE                  : Run          - RUN NUMBER
ENG .         BILL                 : Engineer     - RECORDING ENGINEER
WIT .         JIM                  : Witness      - WITNESSED BY
MUD .         GEL                  : Mud_type     - MUD TYPE
MATR.         LIMESTONE            : Logunit      - NEUTRON MATRIX
TMAX.C        25                   : BHT          - MAXIMUM RECORDED TEMPERATURE
BHTD.M        627.2                : BHTDEP       - MAXIMUM RECORDED TEMPERATURE
MATR.         1                    : LOGUNIT      - NEUTRON MATRIX
RMT .C        25                   : MDTP         - TEMPERATURE OF MUD
NEUT.         1                    : NEUTRON      - NEUTRON TYPE
RESI.         0                    : RESIST       - RESISTIVITY TYPE
RMC .OHMM     0.25                 : RMC          - RESISTIVITY OF MUD CAKE
RMF .OHMM     0.25                 : RMF          - RESISTIVITY OF MUD FILTRATE
SUFT.C        15                   : SUFT         - SURFACE TEMPERATURE
~A  DEPTH     RESD     PHID     PHIN       GR      CAL
# ...
  433.000    8.036    0.298    0.382   79.612  159.305
  433.250    8.260    0.313    0.387   77.821  159.284
  433.500    8.365    0.321    0.384   74.493  159.270
  433.750    8.285    0.320    0.375   72.456  159.247
  434.000    8.174    0.310    0.367   74.717  159.129
  434.250    8.051    0.298    0.377   77.777  159.007
  434.500    7.869    0.289    0.385   80.346  158.785
  434.750    7.794    0.284    0.385   80.827  158.664
  435.000    7.719    0.288    0.385   77.499  158.752
  435.250    7.531    0.290    0.385   76.506  158.528
  435.500    7.053    0.290    0.389   80.119  158.609
  435.750    6.729    0.284    0.398   84.529  158.795
  436.000    6.627    0.274    0.419   87.652  158.986
  436.250    6.649    0.268    0.432   90.651  159.070
  436.500    6.684    0.280    0.437   93.219  159.151
  436.750    6.782    0.296    0.433   91.181  159.544
  437.000    7.076    0.308    0.422   86.257  159.628
  437.250    7.315    0.312    0.412   80.041  159.303
  437.500    7.422    0.310    0.404   76.407  159.183
  437.750    7.447    0.317    0.400   74.308  158.958
  438.000    7.430    0.326    0.395   72.453  158.941
  438.250    7.331    0.331    0.395   70.047  158.924
  438.500    7.234    0.333    0.401   66.720  158.801
  438.750    7.178    0.333    0.404   64.252  158.887
  439.000    7.081    0.332    0.404   65.222  158.662
  439.250    7.053    0.329    0.408   66.564  158.544
  439.500    6.946    0.328    0.415   66.922  158.314
  439.750    6.866    0.325    0.421   66.358  157.992
  440.000    6.851    0.324    0.425   65.241  157.773
  440.250    6.873    0.325    0.416   67.012  157.857
  440.500    6.922    0.323    0.407   70.501  157.327
  440.750    6.984    0.316    0.401   73.806  157.411
  441.000    7.073    0.312    0.408   75.271  157.598
  441.250    7.164    0.314    0.407   75.507  158.090
  441.500    7.310    0.320    0.404   74.758  158.784
  441.750    7.584    0.321    0.410   73.271  159.385
  442.000    7.869    0.323    0.419   72.095  160.187
  442.250    8.257    0.322    0.394   68.643  160.881
  442.500    8.695    0.313    0.367   64.701  161.378
  442.750    8.889    0.303    0.369   61.865  161.770
  443.000    9.002    0.323    0.406   60.503  162.161
  443.250    8.932    0.343    0.416   60.063  162.756
  443.500    8.780    0.357    0.410   60.358  162.944
  443.750    8.551    0.360    0.404   61.636  163.130
  444.000    8.251    0.360    0.432   63.285  163.112
  444.250    7.915    0.351    0.428   64.258  162.680
  444.500    7.811    0.345    0.410   64.615  162.564
  444.750    7.750    0.339    0.396   63.804  162.442
  445.000    7.804    0.338    0.387   62.688  162.528
  445.250    7.816    0.338    0.382   62.616  160.974
  445.500    7.871    0.340    0.378   63.097  159.928
  445.750    7.913    0.347    0.376   64.129  159.502
  446.000    7.955    0.343    0.387   64.365  159.071
  446.250    8.056    0.336    0.398   64.292  159.263
  446.500    8.113    0.329    0.411   62.746  159.450
  446.750    8.155    0.325    0.386   59.847  160.762
  447.000    8.228    0.321    0.369   59.162  161.664
  447.250    8.241    0.318    0.366   59.826  162.055
  447.500    8.300    0.326    0.373   60.369  161.833
  447.750    8.297    0.333    0.380   58.145  160.076
  448.000    8.324    0.340    0.399   58.135  160.055
  448.250    8.336    0.344    0.411   60.151  161.166
  448.500    8.334    0.345    0.406   62.475  161.760
  448.750    8.330    0.343    0.399   64.859  162.455
  449.000    8.280    0.340    0.393   66.998  162.337
  449.250    8.247    0.337    0.390   68.093  162.113
  449.500    8.091    0.335    0.387   65.256  162.405
  449.750    7.999    0.332    0.389   62.174  162.794
  450.000    7.907    0.337    0.392   60.198  163.492
  450.250    7.904    0.339    0.396   59.266  163.989
  450.500    7.975    0.336    0.403   61.036  162.636
  450.750    8.122    0.331    0.409   62.376  161.596
  451.000    8.271    0.331    0.413   61.873  161.169
  451.250    8.361    0.336    0.401   59.714  161.356
  451.500    8.452    0.339    0.386   56.631  161.540
  451.750    8.481    0.343    0.376   54.408  162.138
  452.000    8.525    0.346    0.370   53.108  162.427
  452.250    8.522    0.350    0.367   52.913  162.919
  452.500    8.551    0.342    0.367   55.911  163.720
  452.750    8.516    0.333    0.369   58.358  164.419
  453.000    8.433    0.337    0.376   59.821  164.810
  453.250    8.398    0.340    0.380   60.117  164.486
  453.500    8.348    0.343    0.371   57.834  164.363
  453.750    8.330    0.344    0.366   55.549  163.627
  454.000    8.296    0.342    0.376   56.338  163.306
  454.250    8.416    0.341    0.381   58.108  162.878
  454.500    8.415    0.346    0.392   59.324  162.344
  454.750    8.522    0.349    0.403   59.559  162.432
  455.000    8.582    0.347    0.395   59.303  162.311
  455.250    8.579    0.343    0.403   58.800  162.396
  455.500    8.544    0.338    0.411   58.420  162.787
  455.750    8.445    0.335    0.407   57.795  163.485
  456.000    8.318    0.332    0.396   57.909  163.977
  456.250    8.237    0.337    0.386   57.714  164.269
  456.500    8.173    0.342    0.379   57.949  164.556
  456.750    8.155    0.333    0.393   59.473  164.640
  457.000    8.182    0.333    0.395   60.259  164.214
  457.250    8.195    0.341    0.388   59.082  163.274
  457.500    8.253    0.342    0.394   57.905  162.129
  457.750    8.265    0.340    0.408   57.955  161.600
  458.000    8.293    0.338    0.402   58.067  161.478
  458.250    8.289    0.332    0.389   56.704  161.457
  458.500    8.256    0.335    0.378   56.202  161.750
  458.750    8.176    0.344    0.369   56.498  161.935
  459.000    8.187    0.342    0.366   57.040  162.020
  459.250    8.185    0.333    0.362   57.828  162.001
  459.500    8.166    0.336    0.359   58.676  161.776
  459.750    8.164    0.339    0.367   59.219  161.553
  460.000    8.085    0.340    0.376   59.147  161.329
  460.250    7.946    0.340    0.376   54.468  161.418
  460.500    7.915    0.339    0.376   53.843  162.011
  460.750    7.824    0.337    0.383   56.655  162.300
  461.000    7.734    0.331    0.392   58.734  162.796
  461.250    7.702    0.320    0.399   60.505  163.086
  461.500    7.714    0.314    0.400   62.214  162.863
  461.750    7.726    0.326    0.396   65.579  162.433
  462.000    7.723    0.332    0.394   67.842  162.211
  462.250    7.703    0.335    0.391   65.804  162.193
  462.500    7.703    0.338    0.389   63.829  162.479
  462.750    7.700    0.341    0.388   60.808  162.976
  463.000    7.697    0.342    0.385   58.278  163.570
  463.250    7.708    0.340    0.383   57.040  164.265
  463.500    7.733    0.338    0.382   57.702  164.763
  463.750    7.746    0.331    0.384   59.168  165.258
  464.000    7.699    0.343    0.396   59.587  165.341
  464.250    7.697    0.352    0.399   58.777  165.220
  464.500    7.723    0.364    0.420   59.381  164.795
  464.750    7.690    0.364    0.421   59.923  164.464
  465.000    7.673    0.357    0.409   60.956  164.244
  465.250    7.643    0.355    0.395   62.972  164.022
  465.500    7.638    0.355    0.403   64.435  163.492
  465.750    7.637    0.357    0.400   61.783  162.348
  466.000    7.619    0.357    0.397   58.699  161.204
  466.250    7.421    0.355    0.397   57.769  160.572
  466.500    7.418    0.353    0.397   58.617  161.166
  466.750    7.415    0.352    0.391   60.817  161.761
  467.000    7.371    0.348    0.388   62.649  161.951
  467.250    7.341    0.342    0.391   63.621  160.806
  467.500    7.311    0.337    0.393   63.731  160.174
  467.750    7.295    0.342    0.388   63.170  160.359
  468.000    7.292    0.354    0.387   61.807  161.056
  468.250    7.330    0.355    0.399   59.155  161.654
  468.500    7.367    0.356    0.395   57.977  162.249
  468.750    7.364    0.364    0.390   58.027  162.639
  469.000    7.363    0.368    0.387   57.647  162.623
  469.250    7.374    0.371    0.392   57.269  162.708
