~VERSION INFORMATION
 VERS.                 2.0:   CWLS LOG ASCII STANDARD -VERSION 2.0
 WRAP.                  NO:   ONE LINE PER DEPTH STEP
~WELL INFORMATION BLOCK
#MNEM.UNIT           DATA                    DESCRIPTION OF MNEMONIC
#---------    -------------------            -------------------------------
# Generated from Intellog Unique Number	CS_73_76/WELL/2163
WELL.         DOME PETROLEUM LIMITED         : Well_name    - WELL
LOC .         00/06-09-074-05W4/0            : Location     - LOCATION
UWI .         00/06-09-074-05W4/0            : Uwi          - UNIQUE WELL ID
ENTR.         SP                             : Entered      - ENTERED BY
SRVC.         SCHLUMBERGER                   : Scn          - SERVICE COMPANY
STRT.M        225                            : top_depth    - START DEPTH
STOP.M        475                            : bot_depth    - STOP DEPTH
STEP.M        0.25                           : increment    - STEP LENGTH
 NULL. -999.2500:NULL Value
~CURVE INFORMATION BLOCK
#MNEM UNIT       ERCB CURVE CODE    CURVE DESCRIPTION
#-----------   ------------------   ----------------------------------
DEPT.M        00 001 00 00         : DEPTH        - DEPTH
ILD .OHMM     00 120 00 00         : RESD         - DEEP RESISTIVITY (DIL)
DPHI.V/V      00 890 00 00         : PHID         - DENSITY POROSITY (LIMESTONE)
NPHI.V/V      00 330 00 00         : PHIN         - NEUTRON POROSITY (LIMESTONE)
GR  .API      00 310 00 00         : GR           - GAMMA RAY
~PARAMETER INFORMATION
#MNEM.UNIT           DATA             DESCRIPTION OF MNEMONIC
#---------         -----------     ------------------------------
GL  .M        618.6                : gl           - GROUND LEVEL ELEVATION
EREF.M        623.1                : kb           - ELEVATION OF DEPTH REFERENCE
DATM.M        618.6                : datum        - DATUM ELEVATION
TDD .M        483                  : tdd          - TOTAL DEPTH DRILLER
RUN .         ONE                  : Run          - RUN NUMBER
ENG .         BILL                 : Engineer     - RECORDING ENGINEER
WIT .         JIM                  : Witness      - WITNESSED BY
MUD .         GEL                  : Mud_type     - MUD TYPE
MATR.         LIMESTONE            : Logunit      - NEUTRON MATRIX
TMAX.C        20                   : BHT          - MAXIMUM RECORDED TEMPERATURE
BHTD.M        483                  : BHTDEP       - MAXIMUM RECORDED TEMPERATURE
MATR.         1                    : LOGUNIT      - NEUTRON MATRIX
RMT .C        25                   : MDTP         - TEMPERATURE OF MUD
NEUT.         1                    : NEUTRON      - NEUTRON TYPE
RESI.         0                    : RESIST       - RESISTIVITY TYPE
RMC .OHMM     0.25                 : RMC          - RESISTIVITY OF MUD CAKE
RMF .OHMM     0.25                 : RMF          - RESISTIVITY OF MUD FILTRATE
SUFT.C        15                   : SUFT         - SURFACE TEMPERATURE
~A  DEPTH     RESD     PHID     PHIN       GR
  225.000    2.979    0.205    0.562  102.632
  225.250    2.980    0.195    0.551  106.276
  225.500    3.037    0.186    0.557  104.455
  225.750    3.095    0.186    0.543   98.990
  226.000    3.214    0.106    0.524   95.955
  226.250    3.338    0.062    0.501  107.494
  226.500    3.401    0.110    0.532  110.531
  226.750    3.466    0.175    0.549  109.925
  227.000    3.533    0.209    0.538  106.889
  227.250    3.600    0.243    0.526  106.283
  227.500    3.601    0.233    0.514  108.105
  227.750    3.601    0.213    0.506  107.499
  228.000    3.468    0.216    0.514  108.107
  228.250    3.404    0.229    0.522  112.359
  228.500    3.279    0.243    0.530  113.574
  228.750    3.279    0.240    0.541  112.360
  229.000    3.536    0.256    0.546  109.324
  229.250    3.813    0.254    0.542  108.718
  229.500    3.814    0.259    0.551  109.933
  229.750    3.814    0.259    0.559  109.934
  230.000    3.743    0.250    0.556  106.898
  230.250    3.605    0.236    0.543  103.862
  230.500    3.408    0.222    0.521  100.827
  230.750    3.345    0.236    0.525  104.471
  231.000    3.345    0.212    0.535  104.472
  231.250    3.409    0.215    0.546  103.258
  231.500    3.409    0.227    0.552   99.615
  231.750    3.541    0.240    0.551   95.972
  232.000    3.608    0.170    0.523   98.402
  232.250    3.609    0.135    0.475  104.476
  232.500    3.819    0.187    0.493  108.728
  232.750    4.276    0.224    0.498  111.158
  233.000    5.066    0.214    0.433  100.834
  233.250    5.780    0.219    0.421   97.191
  233.500    6.472    0.238    0.435   95.978
  233.750    7.246    0.251    0.442   94.764
  234.000    7.385    0.278    0.453   91.728
  234.250    7.386    0.308    0.447   86.263
  234.500    7.387    0.302    0.437   83.835
  234.750    7.528    0.323    0.435   86.872
  235.000    7.672    0.297    0.433   92.338
  235.250    8.118    0.257    0.428   94.768
  235.500    8.591    0.261    0.427   91.733
  235.750    8.755    0.256    0.422   80.802
  236.000    8.593    0.258    0.405   75.337
  236.250    8.276    0.241    0.389   74.124
  236.500    7.535    0.226    0.405   71.088
  236.750    7.122    0.255    0.421   64.409
  237.000    6.989    0.294    0.440   62.587
  237.250    6.860    0.331    0.421   65.017
  237.500    6.733    0.331    0.424   66.233
  237.750    6.734    0.318    0.427   66.234
  238.000    6.734    0.325    0.427   68.663
  238.250    6.735    0.331    0.421   72.915
  238.500    6.736    0.309    0.431   78.381
  238.750    7.128    0.297    0.435   83.848
  239.000    7.686    0.295    0.427   88.707
  239.250    7.833    0.268    0.435   91.137
  239.500    7.983    0.261    0.439   94.174
  239.750    7.984    0.274    0.438   96.604
  240.000    7.836    0.281    0.436   99.641
  240.250    7.837    0.272    0.425  100.856
  240.500    7.838    0.282    0.437   99.642
  240.750    7.693    0.261    0.444  100.251
  241.000    7.693    0.255    0.443   97.215
  241.250    7.551    0.251    0.427   93.572
  241.500    7.137    0.264    0.439   89.929
  241.750    6.746    0.283    0.441   89.930
  242.000    6.376    0.308    0.439   93.574
  242.250    6.377    0.220    0.459   92.360
  242.500    6.748    0.269    0.474   78.394
  242.750    7.277    0.303    0.452   72.321
  243.000    7.416    0.321    0.420   75.359
  243.250    7.417    0.292    0.395   92.971
  243.500    7.559    0.255    0.404  105.117
  243.750    7.560    0.210    0.416  105.118
  244.000    7.012    0.224    0.426  105.119
  244.250    6.882    0.256    0.421  105.727
  244.500    6.755    0.250    0.434  105.728
  244.750    6.756    0.184    0.444  102.085
  245.000    6.756    0.167    0.433   92.369
  245.250    6.886    0.235    0.417   85.082
  245.500    6.886    0.232    0.422   80.224
  245.750    7.018    0.229    0.444   72.938
  246.000    7.019    0.240    0.436   71.724
  246.250    6.889    0.220    0.406   77.797
  246.500    6.761    0.214    0.415   86.907
  246.750    6.636    0.232    0.431   99.661
  247.000    6.391    0.220    0.438  111.808
  247.250    6.041    0.199    0.458  115.452
  247.500    5.604    0.161    0.469  117.882
  247.750    5.297    0.146    0.482  122.134
  248.000    5.007    0.099    0.492  129.422
  248.250    4.732    0.176    0.493  132.460
  248.500    4.390    0.192    0.493  134.282
  248.750    4.149    0.197    0.496  130.032
  249.000    3.707    0.208    0.506  125.174
  249.250    3.570    0.204    0.514  130.034
  249.500    3.374    0.210    0.519  133.071
  249.750    3.250    0.155    0.522  136.716
  250.000    3.190    0.126    0.534  137.323
  250.250    3.131    0.190    0.544  133.073
  250.500    3.015    0.241    0.551  127.001
  250.750    3.440    0.236    0.557  122.751
  251.000    3.925    0.261    0.561  116.678
  251.250    5.207    0.248    0.496  108.785
  251.500    6.168    0.231    0.460  101.498
  251.750    7.308    0.217    0.432   92.389
  252.000    8.496    0.238    0.411   83.888
  252.250   10.066    0.272    0.384   77.209
  252.500   11.060    0.312    0.365   69.314
  252.750   12.620    0.332    0.341   67.493
  253.000   14.130    0.315    0.320   72.353
  253.250   15.527    0.334    0.304   74.782
  253.500   15.823    0.363    0.290   77.820
  253.750   15.530    0.363    0.296   79.642
  254.000   13.615    0.344    0.315   80.250
  254.250   12.868    0.336    0.334   80.858
  254.500   11.282    0.321    0.342   81.466
  254.750   10.866    0.318    0.348   83.289
  255.000   10.270    0.307    0.359   86.326
  255.250    9.892    0.291    0.369   88.149
  255.500    9.709    0.312    0.379   83.291
  255.750    9.710    0.326    0.384   81.470
  256.000    9.896    0.331    0.375   80.257
  256.250    9.897    0.343    0.371   80.257
  256.500    9.355    0.331    0.380   84.509
  256.750    9.010    0.310    0.385   88.761
  257.000    8.678    0.301    0.390   91.191
  257.250    8.050    0.301    0.386   93.620
  257.500    7.608    0.312    0.371   95.443
  257.750    9.720    0.299    0.359   93.622
  258.000   10.679    0.271    0.336   82.084
  258.250   13.901    0.328    0.283   57.793
  258.500   17.757    0.382    0.237   43.219
  258.750   21.844    0.388    0.182   43.827
  259.000   24.923    0.386    0.163   49.294
  259.250   24.462    0.374    0.174   52.331
  259.500   24.464    0.365    0.185   54.761
  259.750   26.380    0.392    0.173   48.081
  260.000   27.917    0.422    0.149   45.046
  260.250   27.398    0.441    0.145   45.047
  260.500   24.019    0.448    0.153   48.084
  260.750   15.877    0.438    0.158   49.906
  261.000   12.432    0.441    0.174   52.336
  261.250    9.375    0.344    0.232   54.766
  261.500    6.435    0.318    0.290   54.767
  261.750    4.853    0.332    0.342   53.553
  262.000    4.097    0.335    0.366   51.125
  262.250    3.592    0.312    0.396   51.126
  262.500    3.332    0.306    0.411   54.770
  262.750    3.460    0.314    0.420   59.629
  263.000    3.661    0.289    0.419   64.488
  263.250    4.100    0.185    0.414   67.525
  263.500    4.338    0.153    0.412   70.562
  263.750    4.678    0.153    0.412   74.207
  264.000    4.678    0.175    0.418   79.673
  264.250    4.679    0.260    0.431   85.747
  264.500    4.507    0.287    0.440   91.820
  264.750    4.341    0.275    0.438   96.072
  265.000    4.181    0.258    0.436   98.502
  265.250    4.027    0.231    0.440   96.074
  265.500    3.806    0.215    0.445   88.787
  265.750    3.666    0.269    0.445   79.678
  266.000    3.337    0.307    0.445   78.465
  266.250    3.275    0.309    0.439   78.466
  266.500    3.338    0.301    0.436   79.681
  266.750    3.467    0.307    0.440   85.147
  267.000    3.668    0.316    0.435   93.043
  267.250    3.809    0.296    0.433   99.116
  267.500    4.186    0.286    0.429  108.834
  267.750    4.429    0.279    0.419  115.515
  268.000    4.687    0.259    0.419  125.232
  268.250    4.868    0.212    0.441  128.269
