~VERSION INFORMATION
 VERS.                 2.0:   CWLS LOG ASCII STANDARD -VERSION 2.0
 WRAP.                  NO:   ONE LINE PER DEPTH STEP
~WELL INFORMATION BLOCK
#MNEM.UNIT           DATA                    DESCRIPTION OF MNEMONIC
#---------    -------------------            -------------------------------
# Generated from Intellog Unique Number	CS_67_68/WELL/2188
WELL.         DOME AEC MEDLEY                : Well_name    - WELL
LOC .         00/09-11-067-02W4/0            : Location     - LOCATION
UWI .         00/09-11-067-02W4/0            : Uwi          - UNIQUE WELL ID
ENTR.         SP                             : Entered      - ENTERED BY
SRVC.         SCHLUMBERGER                   : Scn          - SERVICE COMPANY
STRT.M        310                            : top_depth    - START DEPTH
STOP.M        565                            : bot_depth    - STOP DEPTH
STEP.M        0.25                           : increment    - STEP LENGTH
 NULL. -999.2500:NULL Value
~CURVE INFORMATION BLOCK
#MNEM UNIT       ERCB CURVE CODE    CURVE DESCRIPTION
#-----------   ------------------   ----------------------------------
DEPT.M        00 001 00 00         : DEPTH        - DEPTH
ILD .OHMM     00 120 00 00         : RESD         - DEEP RESISTIVITY (DIL)
DPHI.V/V      00 890 00 00         : PHID         - DENSITY POROSITY (LIMESTONE)
GR  .API      00 310 00 00         : GR           - GAMMA RAY
CALI.MM       00 280 01 00         : CAL          - CALIPER
NPHI.V/V      00 330 00 00         : PHIN         - NEUTRON POROSITY (LIMESTONE)
~PARAMETER INFORMATION
#MNEM.UNIT           DATA             DESCRIPTION OF MNEMONIC
#---------         -----------     ------------------------------
GL  .M        619.09               : gl           - GROUND LEVEL ELEVATION
EREF.M        623                  : kb           - ELEVATION OF DEPTH REFERENCE
DATM.M        623                  : datum        - DATUM ELEVATION
TDD .M        571                  : tdd          - TOTAL DEPTH DRILLER
RUN .         ONE                  : Run          - RUN NUMBER
ENG .         BILL                 : Engineer     - RECORDING ENGINEER
WIT .         JIM                  : Witness      - WITNESSED BY
MUD .         GEL                  : Mud_type     - MUD TYPE
MATR.         LIMESTONE            : Logunit      - NEUTRON MATRIX
TMAX.C        25.5                 : BHT          - MAXIMUM RECORDED TEMPERATURE
BHTD.M        573                  : BHTDEP       - MAXIMUM RECORDED TEMPERATURE
MATR.         1                    : LOGUNIT      - NEUTRON MATRIX
RMT .C        25                   : MDTP         - TEMPERATURE OF MUD
NEUT.         1                    : NEUTRON      - NEUTRON TYPE
RESI.         0                    : RESIST       - RESISTIVITY TYPE
RMC .OHMM     0.25                 : RMC          - RESISTIVITY OF MUD CAKE
RMF .OHMM     0.25                 : RMF          - RESISTIVITY OF MUD FILTRATE
SUFT.C        15                   : SUFT         - SURFACE TEMPERATURE
~A  DEPTH     RESD     PHID       GR      CAL     PHIN
# ...
  492.500   11.116    0.228   64.136  161.927    0.343
  492.750   11.134    0.229   58.868  161.621    0.335
  493.000   11.172    0.230   58.446  162.125    0.327
  493.250   11.232    0.231   60.447  162.932    0.340
  493.500   11.312    0.238   53.724  163.638    0.353
  493.750   11.372    0.247   45.487  163.737    0.343
  494.000   11.368    0.256   39.915  164.240    0.337
  494.250   11.322    0.261   39.190  164.035    0.333
  494.500   11.234    0.259   43.069  163.426    0.325
  494.750   11.063    0.245   50.583  162.614    0.322
  495.000   10.895    0.250   52.645  161.904    0.339
  495.250   10.831    0.253   51.798  161.497    0.347
  495.500   10.626    0.252   50.770  161.595    0.355
  495.750   10.464    0.255   49.501  161.593    0.362
  496.000   10.171    0.263   47.866  161.388    0.368
  496.250    9.886    0.271   45.808  161.487    0.360
  496.500    9.644    0.279   45.629  161.687    0.349
  496.750    9.444    0.287   46.176  161.988    0.349
  497.000    9.301    0.296   44.905  162.188    0.356
  497.250    9.228    0.306   41.878  162.388    0.363
  497.500    9.156    0.292   40.123  161.981    0.363
  497.750    9.118    0.283   39.216  161.777    0.349
  498.000    9.064    0.289   39.279  161.167    0.332
  498.250    9.010    0.298   33.647  160.962    0.332
  498.500    9.025    0.317   32.740  160.656    0.351
  498.750    9.039    0.317   36.377  160.452    0.355
  499.000    9.003    0.304   40.862  160.753    0.355
  499.250    8.932    0.294   43.771  160.447    0.354
  499.500    8.930    0.290   44.076  160.445    0.356
  499.750    8.877    0.293   43.472  160.442    0.360
  500.000    8.873    0.298   32.993  160.844    0.350
  500.250    8.836    0.292   29.178  161.247    0.335
  500.500    8.801    0.282   27.302  161.649    0.325
  500.750    8.766    0.281   25.911  161.849    0.327
  501.000    8.812    0.295   25.186  161.544    0.330
  501.250    8.809    0.303   26.520  161.339    0.322
  501.500    8.806    0.287   28.097  160.831    0.320
  501.750    8.770    0.286   29.250  160.423    0.337
  502.000    8.702    0.298   30.040  160.320    0.339
  502.250    8.602    0.309   31.193  160.014    0.329
  502.500    8.487    0.317   28.529  160.012    0.350
  502.750    8.390    0.310   24.412  160.009    0.368
  503.000    8.371    0.308   22.232  160.108    0.351
  503.250    8.368    0.312   24.112  160.005    0.331
  503.500    8.429    0.312   26.537  159.800    0.336
  503.750    8.505    0.307   26.781  159.494    0.349
  504.000    8.615    0.306   26.965  159.491    0.362
  504.250    8.758    0.306   31.087  159.287    0.365
  504.500    8.754    0.294   40.903  159.284    0.332
  504.750    8.736    0.266   66.046  159.384    0.349
  505.000    8.734    0.231   60.898  158.875    0.377
  505.250    8.633    0.270   54.721  157.962    0.399
  505.500    8.549    0.301   55.571  157.050    0.386
  505.750    8.515    0.321   64.236  157.047    0.390
  506.000    8.480    0.300   69.993  158.360    0.404
  506.250    8.446    0.274   70.904  158.864    0.398
  506.500    8.364    0.279   70.785  159.266    0.391
  506.750    8.299    0.283   67.879  159.263    0.388
  507.000    8.219    0.303   62.550  159.362    0.390
  507.250    8.170    0.316   60.491  159.259    0.385
  507.500    8.168    0.302   61.826  159.459    0.385
  507.750    8.119    0.287   65.766  159.557    0.372
  508.000    8.041    0.270   71.220  159.656    0.359
  508.250    7.918    0.236   78.007  160.261    0.369
  508.500    7.725    0.228   79.584  160.663    0.389
  508.750    7.467    0.257   70.983  160.762    0.409
  509.000    7.409    0.290   57.475  160.659    0.429
  509.250    7.337    0.316   45.119  160.252    0.413
  509.500    7.253    0.343   39.062  159.946    0.396
  509.750    7.169    0.360   37.610  159.539    0.429
  510.000    7.086    0.354   35.068  159.132    0.379
  510.250    7.058    0.350   32.646  158.927    0.360
  510.500    7.042    0.352   29.498  159.228    0.364
  510.750    7.040    0.355   34.346  159.529    0.370
  511.000    7.037    0.349   47.434  159.425    0.368
  511.250    7.088    0.323   54.403  159.626    0.362
  511.500    7.113    0.291   58.524  159.927    0.370
  511.750    7.137    0.288   54.285  159.925    0.389
  512.000    7.148    0.297   55.317  159.922    0.405
  512.250    7.186    0.286   57.440  159.414    0.402
  512.500    7.224    0.279   53.503  159.311    0.395
  512.750    7.290    0.316   44.478  159.409    0.393
  513.000    7.411    0.314   49.267  159.204    0.395
  513.250    7.493    0.301   55.145  158.695    0.422
  513.500    7.575    0.313   46.483  158.491    0.441
  513.750    7.673    0.296   46.546  158.388    0.373
  514.000    7.800    0.279   50.062  158.082    0.378
  514.250    7.885    0.289   46.489  157.776    0.385
  514.500    7.928    0.311   54.488  157.673    0.364
  514.750    7.925    0.283   69.878  157.367    0.349
  515.000    8.012    0.244   80.178  157.466    0.339
  515.250    8.055    0.213   85.390  157.463    0.362
  515.500    8.098    0.216   82.545  157.562    0.400
  515.750    8.141    0.229   77.882  157.762    0.415
  516.000    8.154    0.233   74.007  158.063    0.397
  516.250    8.166    0.236   75.765  158.162    0.382
  516.500    8.103    0.229   77.100  159.172    0.385
  516.750    8.055    0.214   78.132  159.776    0.396
  517.000    8.037    0.204   82.677  160.482    0.393
  517.250    8.049    0.191   93.644  161.390    0.377
  517.500    8.077    0.188   96.251  161.793    0.384
  517.750    8.119    0.204   92.073  161.993    0.392
  518.000    8.132    0.201   90.439  161.889    0.372
  518.250    8.160    0.186   94.379  162.190    0.358
  518.500    8.188    0.172   93.533  162.289    0.370
  518.750    8.231    0.183   91.354  161.882    0.383
  519.000    8.244    0.186   90.689  161.273    0.401
  519.250    8.288    0.183   94.023  160.360    0.362
  519.500    8.301    0.175   96.085  159.649    0.361
  519.750    8.236    0.166   91.785  159.343    0.379
  520.000    8.264    0.204   89.243  159.543    0.394
  520.250    8.185    0.203   90.577  159.642    0.394
  520.500    8.121    0.185   91.549  159.842    0.394
  520.750    8.012    0.184   89.793  160.143    0.397
  521.000    7.861    0.187   87.857  160.140    0.371
  521.250    7.569    0.181   90.100  160.037    0.356
  521.500    7.275    0.176   77.501  159.934    0.372
  521.750    7.005    0.209   61.509  159.830    0.389
  522.000    6.732    0.241   52.424  159.525    0.403
  522.250    6.642    0.267   49.578  159.421    0.394
  522.500    6.578    0.289   47.339  159.317    0.386
  522.750    6.514    0.304   48.734  159.214    0.393
  523.000    6.574    0.313   51.341  159.212    0.395
  523.250    6.621    0.296   54.736  159.108    0.408
  523.500    6.669    0.285   55.646  159.004    0.418
  523.750    6.654    0.289   53.103  159.103    0.398
  524.000    6.677    0.312   50.682  158.696    0.384
  524.250    6.713    0.330   48.018  158.592    0.378
  524.500    7.085    0.338   45.476  158.590    0.374
  524.750    7.465    0.321   55.534  158.588    0.366
  525.000    7.894    0.253   64.624  158.484    0.359
  525.250    8.347    0.206   70.138  158.381    0.353
  525.500    8.631    0.206   66.384  158.378    0.344
  525.750    8.858    0.219   57.359  158.376    0.331
  526.000    8.888    0.229   61.481  158.273    0.321
  526.250    8.671    0.227   70.812  158.270    0.316
  526.500    8.508    0.225   68.209  158.167    0.362
  526.750    8.269    0.260   59.851  157.861    0.383
  527.000    8.067    0.251   58.277  157.555    0.385
  527.250    7.797    0.252   57.794  157.553    0.367
  527.500    7.536    0.274   53.980  157.145    0.365
  527.750    7.311    0.302   49.014  157.042    0.382
  528.000    7.119    0.311   44.351  156.837    0.379
  528.250    6.998    0.273   54.592  156.531    0.357
  528.500    6.930    0.252   64.953  156.225    0.365
  528.750    6.838    0.265   62.895  156.122    0.385
