~VERSION INFORMATION
 VERS.                 2.0:   CWLS LOG ASCII STANDARD -VERSION 2.0
 WRAP.                  NO:   ONE LINE PER DEPTH STEP
~WELL INFORMATION BLOCK
#MNEM.UNIT           DATA                    DESCRIPTION OF MNEMONIC
#---------    -------------------            -------------------------------
# Generated from Intellog Unique Number	CS_67_68/WELL/2400
WELL.         BVI ET AL TOUCHWOOD            : Well_name    - WELL
LOC .         00/06-27-067-10W4/0            : Location     - LOCATION
UWI .         00/06-27-067-10W4/0            : Uwi          - UNIQUE WELL ID
ENTR.         ANDERSEN                       : Entered      - ENTERED BY
SRVC.         COMPUTALOG                     : Scn          - SERVICE COMPANY
STRT.M        355                            : top_depth    - START DEPTH
STOP.M        570                            : bot_depth    - STOP DEPTH
STEP.M        0.25                           : increment    - STEP LENGTH
 NULL. -999.2500:NULL Value
~CURVE INFORMATION BLOCK
#MNEM UNIT       ERCB CURVE CODE    CURVE DESCRIPTION
#-----------   ------------------   ----------------------------------
DEPT.M        00 001 00 00         : DEPTH        - DEPTH
GR  .API      00 310 00 00         : GR           - GAMMA RAY
CALI.MM       00 280 01 00         : CAL          - CALIPER
NPHI.V/V      00 330 00 00         : PHIN         - NEUTRON POROSITY (SANDSTONE)
DPHI.V/V      00 890 00 00         : PHID         - DENSITY POROSITY (SANDSTONE)
ILD .OHMM     00 120 00 00         : RESD         - DEEP RESISTIVITY (DIL)
~PARAMETER INFORMATION
#MNEM.UNIT           DATA             DESCRIPTION OF MNEMONIC
#---------         -----------     ------------------------------
GL  .M        645                  : gl           - GROUND LEVEL ELEVATION
EREF.M        649.15               : kb           - ELEVATION OF DEPTH REFERENCE
DATM.M        649.15               : datum        - DATUM ELEVATION
TDD .M        583                  : tdd          - TOTAL DEPTH DRILLER
RUN .         ONE                  : Run          - RUN NUMBER
ENG .         BILL                 : Engineer     - RECORDING ENGINEER
WIT .         JIM                  : Witness      - WITNESSED BY
MUD .         GEL                  : Mud_type     - MUD TYPE
MATR.         SANDSTONE            : Logunit      - NEUTRON MATRIX
TMAX.C        28                   : BHT          - MAXIMUM RECORDED TEMPERATURE
BHTD.M        583                  : BHTDEP       - MAXIMUM RECORDED TEMPERATURE
MATR.         1                    : LOGUNIT      - NEUTRON MATRIX
RMT .C        18                   : MDTP         - TEMPERATURE OF MUD
NEUT.         1                    : NEUTRON      - NEUTRON TYPE
RESI.         0                    : RESIST       - RESISTIVITY TYPE
RMC .OHMM     3.2                  : RMC          - RESISTIVITY OF MUD CAKE
RMF .OHMM     2.8                  : RMF          - RESISTIVITY OF MUD FILTRATE
SUFT.C        15                   : SUFT         - SURFACE TEMPERATURE
~A  DEPTH       GR      CAL     PHIN     PHID     RESD
# ...
  391.500   72.375  176.575    0.411    0.236    3.559
  391.750   74.722  176.517    0.417    0.239    3.624
  392.000   75.878  176.460    0.419    0.246    3.622
  392.250   73.476  176.425    0.406    0.240    3.687
  392.500   75.224  176.391    0.393    0.229    3.685
  392.750   79.346  176.345    0.401    0.224    3.615
  393.000   85.829  175.312    0.411    0.208    3.614
  393.250   88.754  175.266    0.424    0.201    3.546
  393.500   85.774  175.220    0.425    0.206    3.544
  393.750   82.195  175.163    0.417    0.214    3.477
  394.000   76.841  175.105    0.424    0.220    3.475
  394.250   72.670  175.082    0.441    0.223    3.410
  394.500   71.459  175.013    0.426    0.227    3.346
  394.750   71.431  174.990    0.398    0.239    3.283
  395.000   72.587  174.933    0.409    0.260    3.281
  395.250   73.145  174.887    0.423    0.270    3.219
  395.500   70.165  175.827    0.425    0.268    3.278
  395.750   63.035  175.781    0.405    0.267    3.399
  396.000   49.986  175.735    0.405    0.278    3.591
  396.250   42.856  176.698    0.377    0.293    3.724
  396.500   46.972  176.652    0.367    0.303    3.722
  396.750   47.529  176.595    0.376    0.305    3.720
  397.000   48.093  177.535    0.389    0.303    3.718
  397.250   49.848  178.476    0.382    0.311    3.716
  397.500   48.630  178.430    0.388    0.320    3.715
  397.750   48.017  179.359    0.383    0.324    3.713
  398.000   50.942  179.336    0.374    0.319    3.711
  398.250   51.507  180.253    0.377    0.316    3.709
  398.500   52.669  180.230    0.374    0.313    3.707
  398.750   55.016  180.173    0.379    0.312    3.705
  399.000   54.989  181.113    0.387    0.310    3.704
  399.250   55.553  180.081    0.398    0.305    3.632
  399.500   57.301  180.035    0.396    0.298    3.565
  399.750   57.858  179.002    0.388    0.301    3.434
  400.000   57.232  178.968    0.380    0.306    3.369
  400.250   56.034  178.922    0.389    0.307    3.186
  400.500   55.415  178.876    0.385    0.311    3.012
  400.750   60.714  178.830    0.380    0.306    2.849
  401.000   64.231  179.770    0.386    0.311    2.744
  401.250   64.788  179.724    0.388    0.316    2.643
  401.500   64.182  179.678    0.389    0.317    2.642
  401.750   61.196  179.632    0.389    0.323    2.640
  402.000   57.617  179.586    0.388    0.320    2.639
  402.250   58.167  179.540    0.381    0.302    2.638
  402.500   56.970  179.506    0.383    0.284    2.636
  402.750   55.758  178.473    0.402    0.288    2.635
  403.000   65.207  178.427    0.407    0.307    2.633
  403.250   66.955  176.408    0.405    0.302    2.632
  403.500   65.145  176.362    0.399    0.281    2.631
  403.750   62.158  176.305    0.386    0.256    2.629
  404.000   62.138  176.259    0.399    0.242    2.628
  404.250   60.334  176.213    0.415    0.263    2.626
  404.500   57.939  176.155    0.388    0.276    2.625
  404.750   60.279  176.121    0.373    0.275    2.672
  405.000   68.538  177.073    0.377    0.271    2.721
  405.250   75.021  177.004    0.392    0.263    2.771
  405.500   74.401  176.981    0.402    0.260    2.873
  405.750   72.006  176.946    0.405    0.265    2.980
  406.000   70.203  176.900    0.408    0.272    3.034
  406.250   75.495  177.829    0.398    0.278    3.088
  406.500   74.298  177.771    0.387    0.285    3.087
  406.750   70.712  177.748    0.377    0.292    3.085
  407.000   67.133  177.679    0.377    0.296    2.972
  407.250   65.922  177.656    0.390    0.288    2.970
  407.500   73.004  177.599    0.389    0.272    2.969
  407.750   74.153  178.539    0.389    0.260    3.079
  408.000   74.125  178.493    0.375    0.258    3.253
  408.250   72.921  178.447    0.367    0.264    3.312
  408.500   70.526  178.401    0.368    0.258    3.310
  408.750   78.192  178.355    0.370    0.248    3.308
  409.000   81.716  179.296    0.368    0.233    3.306
  409.250   85.824  180.236    0.361    0.223    3.429
  409.500   83.429  181.177    0.359    0.223    3.491
  409.750   79.857  184.090    0.354    0.231    3.489
  410.000   86.932  186.017    0.352    0.241    3.424
  410.250   95.198  186.980    0.372    0.230    3.359
  410.500   94.578  187.921    0.378    0.212    3.296
  410.750   92.183  186.888    0.383    0.198    3.294
  411.000   90.972  184.858    0.381    0.191    3.354
  411.250   86.794  182.850    0.377    0.199    3.415
  411.500   82.630  181.807    0.374    0.221    3.674
  411.750   80.228  180.774    0.380    0.228    3.882
  412.000   80.800  180.728    0.386    0.233    3.952
  412.250   78.404  180.682    0.382    0.226    4.024
  412.500   74.826  178.663    0.377    0.221    4.097
  412.750   86.037  178.629    0.369    0.214    4.171
  413.000   83.057  176.587    0.358    0.212    4.325
  413.250   75.927  176.564    0.363    0.215    4.486
  413.500   69.389  175.531    0.356    0.226    4.568
  413.750   67.585  175.474    0.351    0.239    4.737
  414.000   68.742  175.428    0.368    0.236    4.822
  414.250   75.218  175.382    0.371    0.219    4.909
  414.500   72.829  175.336    0.368    0.226    4.907
  414.750   68.067  175.290    0.373    0.247    4.903
  415.000   64.481  176.230    0.368    0.265    4.812
  415.250   65.637  177.171    0.355    0.267    4.809
  415.500   64.426  178.134    0.354    0.274    4.718
  415.750   62.038  178.088    0.359    0.270    4.631
  416.000   69.106  178.042    0.356    0.261    4.543
  416.250   66.126  177.010    0.354    0.261    4.458
  416.500   64.914  175.966    0.353    0.259    4.456
  416.750   69.629  175.920    0.351    0.259    4.291
  417.000   67.825  175.874    0.359    0.259    4.289
  417.250   63.648  176.814    0.355    0.252    4.209
  417.500   61.845  176.757    0.355    0.236    4.129
  417.750   59.450  177.709    0.356    0.226    4.052
  418.000   58.238  177.674    0.348    0.233    3.976
  418.250   55.836  178.591    0.343    0.240    3.901
  418.500   56.407  178.568    0.351    0.250    3.827
  418.750   81.245  178.522    0.363    0.256    3.755
  419.000   93.048  178.476    0.362    0.257    3.685
  419.250   88.292  177.444    0.356    0.236    3.616
  419.500   79.978  176.400    0.364    0.224    3.547
  419.750   71.073  176.354    0.373    0.255    3.480
  420.000   59.208  176.308    0.367    0.277    3.479
  420.250   67.466  176.262    0.349    0.284    3.542
  420.500   64.473  177.225    0.332    0.277    3.540
  420.750   61.493  177.179    0.335    0.272    3.604
  421.000   61.458  178.120    0.325    0.270    3.670
  421.250   61.437  178.074    0.322    0.256    3.736
  421.500   61.410  179.014    0.327    0.253    3.734
  421.750   61.382  178.968    0.330    0.247    3.732
  422.000   61.946  177.936    0.340    0.238    3.730
  422.250   68.436  176.903    0.363    0.234    3.728
  422.500   71.368  175.871    0.381    0.231    3.658
  422.750   71.340  175.813    0.391    0.234    3.589
  423.000   65.394  174.792    0.390    0.242    3.457
  423.250   60.632  173.749    0.400    0.253    3.269
  423.500   55.862  172.716    0.406    0.261    3.208
  423.750   56.433  174.643    0.398    0.271    3.147
  424.000   68.835  176.570    0.389    0.284    3.204
  424.250   68.793  178.485    0.384    0.274    3.262
  424.500   68.773  179.449    0.386    0.273    3.320
  424.750   68.745  181.364    0.390    0.272    3.381
  425.000   75.235  182.316    0.397    0.267    3.442
  425.250   81.718  183.268    0.410    0.260    3.570
  425.500   85.248  185.183    0.424    0.246    3.635
  425.750   95.282  186.124    0.436    0.229    3.770
  426.000   98.806  187.076    0.446    0.210    3.910
  426.250   99.370  189.002    0.456    0.219    3.908
  426.500   97.567  189.943    0.471    0.212    3.905
  426.750   93.389  191.870    0.497    0.214    3.832
  427.000   96.321  191.824    0.523    0.226    3.691
  427.250   90.382  189.805    0.447    0.233    3.491
  427.500   81.476  186.800    0.481    0.246    3.488
  427.750   80.258  182.808    0.516    0.261    3.487
