~VERSION INFORMATION
 VERS.                 2.0:   CWLS LOG ASCII STANDARD -VERSION 2.0
 WRAP.                  NO:   ONE LINE PER DEPTH STEP
~WELL INFORMATION BLOCK
#MNEM.UNIT           DATA                    DESCRIPTION OF MNEMONIC
#---------    -------------------            -------------------------------
# Generated from Intellog Unique Number	CS_73_76/WELL/2389
WELL.         CAVALIER ENERGY INC.           : Well_name    - WELL
LOC .         00/07-24-075-16W4/0            : Location     - LOCATION
UWI .         00/07-24-075-16W4/0            : Uwi          - UNIQUE WELL ID
ENTR.         SP                             : Entered      - ENTERED BY
SRVC.         SCHLUMBERGER                   : Scn          - SERVICE COMPANY
STRT.M        362.712                        : top_depth    - START DEPTH
STOP.M        566.712                        : bot_depth    - STOP DEPTH
STEP.M        0.25                           : increment    - STEP LENGTH
 NULL. -999.2500:NULL Value
~CURVE INFORMATION BLOCK
#MNEM UNIT       ERCB CURVE CODE    CURVE DESCRIPTION
#-----------   ------------------   ----------------------------------
DEPT.M        00 001 00 00         : DEPTH        - DEPTH
GR  .API      00 310 00 00         : GR           - GAMMA RAY
DPHI.V/V      00 890 00 00         : PHID         - DENSITY POROSITY (SANDSTONE)
NPHI.V/V      00 330 00 00         : PHIN         - NEUTRON POROSITY (SANDSTONE)
ILD .OHMM     00 120 00 00         : RESD         - DEEP RESISTIVITY (DIL)
~PARAMETER INFORMATION
#MNEM.UNIT           DATA             DESCRIPTION OF MNEMONIC
#---------         -----------     ------------------------------
GL  .M        726.948              : gl           - GROUND LEVEL ELEVATION
EREF.M        729.691              : kb           - ELEVATION OF DEPTH REFERENCE
DATM.M        726.948              : datum        - DATUM ELEVATION
TDD .M        566.014              : tdd          - TOTAL DEPTH DRILLER
RUN .         ONE                  : Run          - RUN NUMBER
ENG .         BILL                 : Engineer     - RECORDING ENGINEER
WIT .         JIM                  : Witness      - WITNESSED BY
MUD .         GEL                  : Mud_type     - MUD TYPE
MATR.         SANDSTONE            : Logunit      - NEUTRON MATRIX
TMAX.C        23.3333              : BHT          - MAXIMUM RECORDED TEMPERATURE
BHTD.M        566.014              : BHTDEP       - MAXIMUM RECORDED TEMPERATURE
MATR.         1                    : LOGUNIT      - NEUTRON MATRIX
RMT .C        25                   : MDTP         - TEMPERATURE OF MUD
NEUT.         1                    : NEUTRON      - NEUTRON TYPE
RESI.         0                    : RESIST       - RESISTIVITY TYPE
RMC .OHMM     0.25                 : RMC          - RESISTIVITY OF MUD CAKE
RMF .OHMM     0.25                 : RMF          - RESISTIVITY OF MUD FILTRATE
SUFT.C        15                   : SUFT         - SURFACE TEMPERATURE
~A  DEPTH       GR     PHID     PHIN     RESD
# ...
  449.712   89.401    0.258    0.512    4.839
  449.962   89.584    0.253    0.506    4.615
  450.212   91.412    0.262    0.516    4.487
  450.462   93.386    0.271    0.514    4.282
  450.712   95.819    0.266    0.534    4.148
  450.962   96.020    0.252    0.552    4.106
  451.212   96.148    0.238    0.558    3.941
  451.462   94.470    0.246    0.568    3.946
  451.712   92.539    0.216    0.581    4.030
  451.962   91.284    0.204    0.569    4.304
  452.212   87.210    0.236    0.556    4.789
  452.462   78.759    0.248    0.547    5.492
  452.712   70.303    0.275    0.526    6.258
  452.962   62.656    0.296    0.512    7.044
  453.212   57.316    0.310    0.495    7.543
  453.462   56.877    0.318    0.487    8.035
  453.712   63.057    0.317    0.480    8.233
  453.962   66.299    0.303    0.475    8.443
  454.212   72.302    0.292    0.473    8.567
  454.462   77.278    0.297    0.485    8.696
  454.712   81.620    0.309    0.483    8.693
  454.962   85.429    0.289    0.489    8.678
  455.212   88.534    0.299    0.525    8.543
  455.462   89.974    0.309    0.518    8.180
  455.712   88.988    0.309    0.503    7.301
  455.962   90.007    0.295    0.487    6.135
  456.212   96.642    0.273    0.499    4.856
  456.462  101.726    0.260    0.546    3.798
  456.712  107.637    0.264    0.591    3.180
  456.962  110.805    0.269    0.610    2.607
  457.212  107.263    0.275    0.621    2.277
  457.462  105.235    0.264    0.609    1.934
  457.712  103.619    0.247    0.607    1.789
  457.962  102.692    0.243    0.617    1.738
  458.212  103.267    0.266    0.608    1.915
  458.462   99.055    0.272    0.593    2.202
  458.712   92.376    0.253    0.560    2.801
  458.962   88.504    0.273    0.543    3.522
  459.212   82.444    0.301    0.539    4.731
  459.462   76.998    0.327    0.529    6.727
  459.712   74.178    0.347    0.513    7.683
  459.962   73.014    0.355    0.502    7.982
  460.212   72.601    0.336    0.494    7.608
  460.462   72.683    0.327    0.488    6.871
  460.712   73.716    0.332    0.491    6.318
  460.962   75.348    0.341    0.498    6.104
  461.212   76.290    0.350    0.510    6.084
  461.462   77.882    0.340    0.521    6.161
  461.712   79.917    0.327    0.511    6.291
  461.962   81.127    0.312    0.497    6.421
  462.212   81.622    0.300    0.492    6.550
  462.462   81.526    0.304    0.495    6.640
  462.712   82.977    0.292    0.494    6.732
  462.962   84.125    0.282    0.498    6.865
  463.212   81.895    0.289    0.504    6.867
  463.462   81.094    0.296    0.503    6.956
  463.712   80.381    0.302    0.498    6.878
  463.962   82.954    0.308    0.486    6.768
  464.212   83.599    0.293    0.477    6.641
  464.462   83.627    0.279    0.466    6.509
  464.712   83.630    0.259    0.474    6.363
  464.962   84.183    0.248    0.481    6.173
  465.212   86.079    0.241    0.481    6.081
  465.462   88.689    0.232    0.486    6.088
  465.712   90.138    0.218    0.479    6.076
  465.962   91.277    0.211    0.475    6.302
  466.212   90.822    0.212    0.484    6.335
  466.462   87.318    0.227    0.490    6.547
  466.712   85.017    0.243    0.489    6.678
  466.962   85.698    0.254    0.475    6.719
  467.212   85.277    0.250    0.474    6.717
  467.462   84.155    0.260    0.484    6.695
  467.712   82.780    0.272    0.475    6.642
  467.962   82.154    0.267    0.477    6.561
  468.212   82.295    0.252    0.467    6.460
  468.462   83.353    0.236    0.462    6.339
  468.712   84.356    0.235    0.466    6.120
  468.962   85.355    0.239    0.471    6.008
  469.212   86.394    0.242    0.471    5.875
  469.462   86.311    0.246    0.480    5.821
  469.712   84.606    0.254    0.501    5.772
  469.962   82.473    0.268    0.506    5.771
  470.212   81.388    0.283    0.503    5.782
  470.462   80.041    0.299    0.502    6.087
  470.712   80.380    0.276    0.509    6.504
  470.962   81.141    0.264    0.524    7.226
  471.212   77.930    0.276    0.525    8.021
  471.462   74.421    0.289    0.498    8.841
  471.712   70.004    0.307    0.453    9.769
  471.962   67.247    0.325    0.441   10.698
  472.212   64.599    0.318    0.446   10.941
  472.462   63.441    0.315    0.477   10.328
  472.712   62.477    0.339    0.487    8.997
  472.962   61.540    0.352    0.480    7.919
  473.212   60.593    0.349    0.475    7.339
  473.462   60.261    0.344    0.464    6.690
  473.712   59.388    0.342    0.466    6.333
  473.962   60.037    0.349    0.475    6.089
  474.212   61.711    0.341    0.473    5.967
  474.462   62.675    0.341    0.470    5.740
  474.712   63.172    0.358    0.477    5.696
  474.962   62.237    0.349    0.475    5.605
  475.212   61.271    0.357    0.475    5.612
  475.462   60.849    0.345    0.479    5.614
  475.712   60.153    0.354    0.478    5.644
  475.962   60.959    0.352    0.475    5.783
  476.212   62.578    0.339    0.465    5.932
  476.462   63.752    0.335    0.452    6.047
  476.712   65.128    0.351    0.462    6.087
  476.962   66.707    0.337    0.460    6.120
  477.212   68.329    0.329    0.460    6.092
  477.462   70.481    0.318    0.463    6.018
  477.712   71.798    0.318    0.470    5.797
  477.962   69.117    0.323    0.476    5.667
  478.212   68.788    0.335    0.493    5.686
  478.462   70.639    0.328    0.500    5.602
  478.712   73.320    0.324    0.502    5.612
  478.962   74.307    0.321    0.505    5.613
  479.212   75.201    0.322    0.500    5.613
  479.462   76.195    0.337    0.504    5.613
  479.712   77.204    0.342    0.510    5.613
  479.962   78.259    0.332    0.506    5.613
  480.212   78.599    0.328    0.503    5.613
  480.462   79.918    0.339    0.508    5.622
  480.712   79.656    0.337    0.500    5.529
  480.962   77.639    0.316    0.497    5.465
  481.212   76.652    0.304    0.511    5.348
  481.462   80.218    0.310    0.523    5.022
  481.712   82.623    0.298    0.533    4.786
  481.962   84.577    0.278    0.515    4.337
  482.212   87.955    0.260    0.514    4.089
  482.462   90.243    0.239    0.541    3.748
  482.712   92.865    0.213    0.537    3.632
  482.962   94.435    0.232    0.524    3.637
  483.212   92.779    0.228    0.522    3.771
  483.462   89.153    0.250    0.514    3.918
  483.712   89.065    0.278    0.494    4.107
  483.962   91.049    0.274    0.488    4.234
  484.212   93.055    0.251    0.501    4.350
  484.462   94.037    0.236    0.513    4.419
  484.712   93.082    0.246    0.514    4.464
  484.962   92.055    0.250    0.503    4.502
  485.212   91.848    0.235    0.494    4.570
  485.462   94.430    0.251    0.493    4.575
  485.712   95.342    0.265    0.501    4.666
  485.962   95.991    0.251    0.479    4.723
  486.212   96.338    0.255    0.475    4.761
  486.462   97.163    0.259    0.490    4.900
  486.712   98.225    0.252    0.499    5.036
  486.962   98.360    0.245    0.506    5.056
  487.212   99.007    0.241    0.507    5.064
  487.462   99.602    0.253    0.501    4.981
  487.712  101.707    0.244    0.504    4.895
  487.962  103.196    0.242    0.510    4.897
  488.212  103.994    0.252    0.513    5.019
  488.462  103.222    0.255    0.509    5.146
  488.712  101.739    0.259    0.495    5.282
  488.962   99.929    0.243    0.485    5.295
  489.212   98.007    0.231    0.490    5.297
  489.462   95.516    0.226    0.491    5.240
  489.712   96.067    0.237    0.486    5.207
  489.962   98.066    0.244    0.487    4.987
  490.212   99.012    0.246    0.498    4.857
  490.462   99.646    0.233    0.507    4.726
  490.712   91.859    0.234    0.519    4.591
  490.962   84.314    0.246    0.514    4.579
  491.212   79.984    0.232    0.497    4.671
  491.462   79.061    0.212    0.485    4.984
  491.712   79.704    0.264    0.464    5.717
  491.962   76.526    0.213    0.438    6.190
  492.212   68.392    0.143    0.415    7.072
  492.462   65.001    0.103    0.335    7.716
  492.712   60.766    0.161    0.347    8.062
  492.962   58.025    0.229    0.396    7.814
