~VERSION INFORMATION
 VERS.                 2.0:   CWLS LOG ASCII STANDARD -VERSION 2.0
 WRAP.                  NO:   ONE LINE PER DEPTH STEP
~WELL INFORMATION BLOCK
#MNEM.UNIT           DATA                    DESCRIPTION OF MNEMONIC
#---------    -------------------            -------------------------------
# Generated from Intellog Unique Number	CN_94_101/WELL/3206
WELL.         NORTHSTAR ENERGY CORP.         : Well_name    - WELL
LOC .         00/06-36-095-16W4/0            : Location     - LOCATION
UWI .         00/06-36-095-16W400            : Uwi          - UNIQUE WELL ID
ENTR.         JOETTE                         : Entered      - ENTERED BY
SRVC.         SCHLUMBERGER                   : Scn          - SERVICE COMPANY
DATE.         07/20/92                       : Date         - LOG DATE
STRT.M        200                            : top_depth    - START DEPTH
STOP.M        325                            : bot_depth    - STOP DEPTH
STEP.M        0.25                           : increment    - STEP LENGTH
 NULL. -999.2500:NULL Value
~CURVE INFORMATION BLOCK
#MNEM UNIT       ERCB CURVE CODE    CURVE DESCRIPTION
#-----------   ------------------   ----------------------------------
DEPT.M        00 001 00 00         : DEPTH        - DEPTH
GR  .API      00 310 00 00         : GR           - GAMMA RAY
NPHI.V/V      00 330 00 00         : PHIN         - NEUTRON POROSITY (SANDSTONE)
DPHI.V/V      00 890 00 00         : PHID         - DENSITY POROSITY (SANDSTONE)
ILD .OHMM     00 120 00 00         : RESD         - DEEP RESISTIVITY (DIL)
~PARAMETER INFORMATION
#MNEM.UNIT           DATA             DESCRIPTION OF MNEMONIC
#---------         -----------     ------------------------------
GL  .M        567.8                : gl           - GROUND LEVEL ELEVATION
EREF.M        571.4                : kb           - ELEVATION OF DEPTH REFERENCE
DATM.M        571.4                : datum        - DATUM ELEVATION
TDD .M        341                  : tdd          - TOTAL DEPTH DRILLER
RUN .         0.000000             : Run          - RUN NUMBER
MUD .         GEL                  : Mud_type     - MUD TYPE
MATR.         SANDSTONE            : Logunit      - NEUTRON MATRIX
TMAX.C        35                   : BHT          - MAXIMUM RECORDED TEMPERATURE
BHTD.M        341                  : BHTDEP       - MAXIMUM RECORDED TEMPERATURE
RMT .C        15                   : MDTP         - TEMPERATURE OF MUD
MUDD.KG/M     1088                 : MWT          - MUD DENSITY
NEUT.         1                    : NEUTRON      - NEUTRON TYPE
RESI.         0                    : RESIST       - RESISTIVITY TYPE
RM  .OHMM     0.25                 : RM           - RESISTIVITY OF MUD
RMC .OHMM     0.48                 : RMC          - RESISTIVITY OF MUD CAKE
RMF .OHMM     0.19                 : RMF          - RESISTIVITY OF MUD FILTRATE
SUFT.C        4                    : SUFT         - SURFACE TEMPERATURE
BTZC.MM       0                    : BITZC        - BIT SIZE CONSTANT
MDW .KG/M     0                    : MDW          - MUD WEIGHT
~A  DEPTH       GR     PHIN     PHID     RESD
# ...
  287.000   56.909    0.377    0.295   29.591
  287.250   56.275    0.383    0.298   30.119
  287.500   56.239    0.389    0.305   31.214
  287.750   56.225    0.405    0.309   32.965
  288.000   55.598    0.413    0.312   33.553
  288.250   55.562    0.419    0.315   33.513
  288.500   55.533    0.421    0.319   32.846
  288.750   53.718    0.416    0.320   34.050
  289.000   52.486    0.407    0.316   35.319
  289.250   50.065    0.392    0.306   43.269
  289.500   48.840    0.392    0.310   48.331
  289.750   47.615    0.398    0.330   57.048
  290.000   45.187    0.404    0.351   56.980
  290.250   43.977    0.403    0.340   46.400
  290.500   40.353    0.388    0.294   35.724
  290.750   38.523    0.375    0.274   29.082
  291.000   42.089    0.380    0.267   23.668
  291.250   46.254    0.384    0.273   20.373
  291.500   48.617    0.389    0.279   18.195
  291.750   44.402    0.392    0.290   16.876
  292.000   37.183    0.393    0.299   16.856
  292.250   32.975    0.395    0.313   18.130
  292.500   27.565    0.398    0.330   19.507
  292.750   25.144    0.402    0.336   20.987
  293.000   25.115    0.404    0.338   20.956
  293.250   26.880    0.404    0.338   20.944
  293.500   27.450    0.404    0.341   21.311
  293.750   25.029    0.401    0.346   22.513
  294.000   25.000    0.400    0.348   24.669
  294.250   27.363    0.396    0.347   23.310
  294.500   31.513    0.390    0.344   20.441
  294.750   33.278    0.388    0.336   16.636
  295.000   32.651    0.387    0.327   13.293
  295.250   35.022    0.387    0.325   10.235
  295.500   38.581    0.389    0.323    7.735
  295.750   43.328    0.392    0.323    7.307
  296.000   45.699    0.396    0.322    8.468
  296.250   48.653    0.407    0.320   10.374
  296.500   52.803    0.420    0.318   10.956
  296.750   54.582    0.422    0.314   11.354
  297.000   58.141    0.420    0.309   11.991
  297.250   62.889    0.414    0.303   12.901
  297.500   64.669    0.392    0.284   13.382
  297.750   67.032    0.389    0.274   14.128
  298.000   68.797    0.383    0.268   14.646
  298.250   68.761    0.381    0.267   15.477
  298.500   68.127    0.383    0.266   16.959
  298.750   68.112    0.389    0.267   18.938
  299.000   65.677    0.399    0.271   21.154
  299.250   63.264    0.420    0.275   24.516
  299.500   59.049    0.424    0.285   27.377
  299.750   52.442    0.424    0.292   31.145
  300.000   50.620    0.424    0.308   33.509
  300.250   55.375    0.424    0.323   35.367
  300.500   56.535    0.424    0.326   35.346
  300.750   55.908    0.428    0.321   35.966
  301.000   54.683    0.434    0.315   35.923
  301.250   54.654    0.445    0.322   36.565
  301.500   52.839    0.454    0.335   36.521
  301.750   49.215    0.454    0.346   38.570
  302.000   46.203    0.452    0.350   41.485
  302.250   44.373    0.444    0.349   43.018
  302.500   49.135    0.434    0.343   42.967
  302.750   55.079    0.426    0.331   51.668
  303.000   57.450    0.426    0.310   50.671
  303.250   57.421    0.425    0.310   47.865
  303.500   56.794    0.425    0.316   46.063
  303.750   56.167    0.425    0.327   48.647
  304.000   55.540    0.424    0.335   53.322
  304.250   55.511    0.421    0.341   60.660
  304.500   55.475    0.418    0.346   71.623
  304.750   55.454    0.414    0.348   71.537
  305.000   55.411    0.407    0.346   66.311
  305.250   55.389    0.413    0.337   63.833
  305.500   55.958    0.443    0.328   59.170
  305.750   56.535    0.445    0.329   55.894
  306.000   57.104    0.420    0.331   54.815
  306.250   57.075    0.410    0.326   51.779
  306.500   58.235    0.401    0.312   49.830
  306.750   60.605    0.403    0.312   47.954
  307.000   58.782    0.410    0.320   47.000
  307.250   53.970    0.424    0.319   47.839
  307.500   61.117    0.422    0.288   50.492
  307.750   63.480    0.422    0.295   51.394
  308.000   59.265    0.423    0.345   52.327
  308.250   52.658    0.426    0.352   54.244
  308.500   49.042    0.426    0.346   56.232
  308.750   52.601    0.420    0.324   60.483
  309.000   54.366    0.416    0.328   62.717
  309.250   54.935    0.423    0.331   59.227
  309.500   54.899    0.432    0.338   57.014
  309.750   54.265    0.438    0.345   57.997
  310.000   54.251    0.440    0.349   61.250
  310.250   51.823    0.432    0.359   65.919
  310.500   48.804    0.424    0.365   70.902
  310.750   46.383    0.416    0.369   73.500
  311.000   43.955    0.418    0.370   77.647
  311.250   45.123    0.421    0.364  104.421
  311.500   48.682    0.424    0.347   98.609
  311.750   51.052    0.429    0.331   91.433
  312.000   49.229    0.441    0.324   86.369
  312.250   43.221    0.450    0.335   81.587
  312.500   44.388    0.443    0.348   80.012
  312.750   49.143    0.425    0.349   76.999
  313.000   49.705    0.421    0.340   74.078
  313.250   48.473    0.416    0.329   69.955
  313.500   48.451    0.409    0.321   66.101
  313.750   50.216    0.410    0.320   62.459
  314.000   52.587    0.417    0.319   59.000
  314.250   55.540    0.420    0.322   56.762
  314.500   55.511    0.420    0.332   56.677
  314.750   55.490    0.419    0.343   56.626
  315.000   53.660    0.419    0.349   55.517
  315.250   52.442    0.418    0.352   53.427
  315.500   48.221    0.419    0.354   50.453
  315.750   52.385    0.419    0.352   48.568
  316.000   57.738    0.424    0.346   45.020
  316.250   57.709    0.439    0.340   42.539
  316.500   54.690    0.450    0.337   38.717
  316.750   50.475    0.431    0.338   35.249
  317.000   45.663    0.414    0.338   28.695
  317.250   45.029    0.414    0.342   24.700
  317.500   47.997    0.417    0.345   21.660
  317.750   47.968    0.421    0.350   16.984
  318.000   46.145    0.435    0.346   14.620
  318.250   47.896    0.450    0.334   12.125
  318.500   46.686    0.448    0.328   10.437
  318.750   44.265    0.437    0.338    8.653
  319.000   41.837    0.432    0.350    7.878
  319.250   39.416    0.437    0.361    6.413
  319.500   38.192    0.446    0.368    5.417
  319.750   39.359    0.435    0.371    4.930
  320.000   42.925    0.406    0.366    4.743
  320.250   54.258    0.387    0.341    5.011
  320.500   68.581    0.393    0.270    5.292
  320.750   72.140    0.403    0.233    5.589
  321.000   66.131    0.414    0.266    5.794
  321.250   64.906    0.410    0.287    5.680
  321.500   70.850    0.369    0.270    5.466
  321.750   70.223    0.317    0.099    5.668
  322.000   67.197    0.268    0.015    7.209
  322.250   65.389    0.213    0.005    9.341
  322.500   64.157    0.195    0.003   19.271
  322.750   65.929    0.194    0.002   24.970
  323.000   73.674    0.199    0.003   28.407
  323.250   73.040    0.204    0.004   28.373
  323.500   71.808    0.208    0.004   27.817
  323.750   71.787    0.212    0.005   26.754
  324.000   74.157    0.217    0.005   26.738
  324.250   78.912    0.222    0.005   26.706
  324.500   81.275    0.224    0.005   27.684
  324.750   77.061    0.224    0.006   29.786
  325.000   69.849    0.220    0.006   30.868
