~VERSION INFORMATION
 VERS.                 2.0:   CWLS LOG ASCII STANDARD -VERSION 2.0
 WRAP.                  NO:   ONE LINE PER DEPTH STEP
~WELL INFORMATION BLOCK
#MNEM.UNIT           DATA                    DESCRIPTION OF MNEMONIC
#---------    -------------------            -------------------------------
# Generated from Intellog Unique Number	CS_67_68/WELL/2178
WELL.         07-25-067-05W4                 : Well_name    - WELL
LOC .         00/07-25-067-05W4/0            : Location     - LOCATION
UWI .         00/07-25-067-05W4/0            : Uwi          - UNIQUE WELL ID
ENTR.         SP                             : Entered      - ENTERED BY
SRVC.         SCHLUMBERGER                   : Scn          - SERVICE COMPANY
STRT.M        330                            : top_depth    - START DEPTH
STOP.M        560                            : bot_depth    - STOP DEPTH
STEP.M        0.25                           : increment    - STEP LENGTH
 NULL. -999.2500:NULL Value
~CURVE INFORMATION BLOCK
#MNEM UNIT       ERCB CURVE CODE    CURVE DESCRIPTION
#-----------   ------------------   ----------------------------------
DEPT.M        00 001 00 00         : DEPTH        - DEPTH
ILD .OHMM     00 120 00 00         : RESD         - DEEP RESISTIVITY (DIL)
DPHI.V/V      00 890 00 00         : PHID         - DENSITY POROSITY (LIMESTONE)
NPHI.V/V      00 330 00 00         : PHIN         - NEUTRON POROSITY (LIMESTONE)
GR  .API      00 310 00 00         : GR           - GAMMA RAY
CALI.MM       00 280 01 00         : CAL          - CALIPER
~PARAMETER INFORMATION
#MNEM.UNIT           DATA             DESCRIPTION OF MNEMONIC
#---------         -----------     ------------------------------
GL  .M        673.74               : gl           - GROUND LEVEL ELEVATION
EREF.M        677.64               : kb           - ELEVATION OF DEPTH REFERENCE
DATM.M        677.64               : datum        - DATUM ELEVATION
TDD .M        566                  : tdd          - TOTAL DEPTH DRILLER
RUN .         ONE                  : Run          - RUN NUMBER
ENG .         BILL                 : Engineer     - RECORDING ENGINEER
WIT .         JIM                  : Witness      - WITNESSED BY
MUD .         GEL                  : Mud_type     - MUD TYPE
MATR.         LIMESTONE            : Logunit      - NEUTRON MATRIX
TMAX.C        18.8                 : BHT          - MAXIMUM RECORDED TEMPERATURE
BHTD.M        566                  : BHTDEP       - MAXIMUM RECORDED TEMPERATURE
MATR.         1                    : LOGUNIT      - NEUTRON MATRIX
RMT .C        25                   : MDTP         - TEMPERATURE OF MUD
NEUT.         1                    : NEUTRON      - NEUTRON TYPE
RESI.         0                    : RESIST       - RESISTIVITY TYPE
RMC .OHMM     0.25                 : RMC          - RESISTIVITY OF MUD CAKE
RMF .OHMM     0.25                 : RMF          - RESISTIVITY OF MUD FILTRATE
SUFT.C        15                   : SUFT         - SURFACE TEMPERATURE
~A  DEPTH     RESD     PHID     PHIN       GR      CAL
# ...
  439.500   14.404    0.000    0.132   41.675  159.165
  439.750   14.384    0.000    0.131   45.583  157.338
  440.000   11.826    0.000    0.173   50.162  156.223
  440.250    9.436    0.167    0.237   55.961  155.209
  440.500    7.773    0.228    0.340   59.991  154.297
  440.750    6.451    0.319    0.426   60.115  153.589
  441.000    6.102    0.331    0.446   60.850  153.186
  441.250    5.892    0.333    0.431   62.561  152.579
  441.500    5.984    0.330    0.423   65.004  152.075
  441.750    6.066    0.318    0.415   66.532  151.976
  442.000    6.207    0.310    0.431   65.558  152.285
  442.250    6.327    0.304    0.444   64.340  152.798
  442.500    6.461    0.307    0.430   63.792  153.106
  442.750    6.562    0.319    0.419   64.832  153.416
  443.000    6.791    0.332    0.431   63.736  153.521
  443.250    6.883    0.324    0.432   64.165  153.423
  443.500    6.938    0.317    0.428   64.778  153.223
  443.750    6.825    0.312    0.425   64.841  152.718
  444.000    6.493    0.313    0.424   63.501  152.315
  444.250    6.281    0.320    0.425   65.334  152.319
  444.500    6.065    0.327    0.433   67.533  152.018
  444.750    6.034    0.334    0.443   69.305  152.021
  445.000    6.003    0.336    0.439   69.368  151.821
  445.250    5.939    0.326    0.433   69.309  151.825
  445.500    5.942    0.319    0.439   69.373  151.422
  445.750    5.934    0.312    0.454   69.619  151.426
  446.000    5.903    0.309    0.467   69.621  151.124
  446.250    6.040    0.310    0.485   69.379  150.924
  446.500    6.250    0.321    0.492   67.856  150.623
  446.750    6.312    0.152    0.458   66.149  150.322
  447.000    6.280    0.141    0.396   64.809  150.223
  447.250    6.201    0.134    0.325   68.289  150.228
  447.500    6.021    0.255    0.371   72.380  150.231
  447.750    5.695    0.280    0.448   70.735  150.336
  448.000    5.298    0.302    0.464   70.066  150.747
  448.250    5.021    0.290    0.471   72.021  151.157
  448.500    4.949    0.283    0.455   73.427  151.568
  448.750    4.989    0.287    0.470   74.222  152.182
  449.000    5.056    0.292    0.491   74.896  152.795
  449.250    5.135    0.282    0.485   75.752  153.613
  449.500    5.235    0.292    0.455   76.914  154.227
  449.750    5.257    0.304    0.486   78.991  154.943
  450.000    5.240    0.292    0.481   82.228  155.455
  450.250    4.892    0.274    0.477   84.671  156.171
  450.500    4.262    0.268    0.486   87.359  157.192
  450.750    3.564    0.260    0.479   89.191  159.127
  451.000    3.002    0.260    0.467   87.973  162.081
  451.250    2.524    0.274    0.458   86.877  164.424
  451.500    2.309    0.285    0.516   87.184  165.851
  451.750    2.176    0.295    0.534   87.491  166.262
  452.000    2.101    0.301    0.546   87.555  165.147
  452.250    2.240    0.292    0.558   87.557  163.930
  452.500    2.379    0.283    0.540   88.169  163.018
  452.750    2.541    0.277    0.525   88.965  162.005
  453.000    2.694    0.274    0.513   89.272  160.890
  453.250    2.862    0.264    0.509   87.504  159.978
  453.500    3.149    0.258    0.508   85.127  159.575
  453.750    3.708    0.251    0.523   85.800  160.494
  454.000    4.212    0.266    0.522   84.765  161.616
  454.250    5.005    0.260    0.508   79.519  162.740
  454.500    5.837    0.261    0.491   75.494  163.150
  454.750    7.323    0.291    0.476   71.774  162.034
  455.000    9.152    0.304    0.464   69.945  159.394
  455.250   10.874    0.313    0.462   68.605  158.380
  455.500   13.215    0.322    0.465   67.203  157.977
  455.750   15.014    0.345    0.480   65.802  157.981
  456.000   16.962    0.357    0.468   63.607  158.493
  456.250   18.773    0.338    0.454   60.741  159.412
  456.500   20.430    0.326    0.438   59.157  160.840
  456.750   21.782    0.319    0.446   57.511  161.759
  457.000   22.497    0.327    0.449   58.795  163.187
  457.250   21.361    0.335    0.449   56.844  163.800
  457.500   19.536    0.343    0.449   60.386  162.990
  457.750   17.835    0.345    0.458   63.195  160.248
  458.000   18.559    0.344    0.473   61.977  157.912
  458.250   19.240    0.342    0.483   61.064  156.289
  458.500   19.759    0.329    0.465   61.798  155.377
  458.750   20.217    0.319    0.447   62.289  153.651
  459.000   20.265    0.325    0.437   61.681  151.824
  459.250   20.237    0.335    0.449   61.012  150.811
  459.500   19.910    0.343    0.449   61.990  148.578
  459.750   19.046    0.332    0.460   61.992  147.361
  460.000   17.784    0.319    0.460   60.896  147.160
  460.250   16.946    0.321    0.446   59.434  147.673
  460.500   16.393    0.311    0.435   62.121  148.898
  460.750   16.587    0.312    0.424   64.259  150.121
  461.000   17.099    0.319    0.463   65.055  151.549
  461.250   17.333    0.303    0.481   63.531  152.570
  461.500   17.602    0.296    0.470   62.191  151.658
  461.750   17.843    0.302    0.469   61.156  150.543
  462.000   17.751    0.312    0.464   59.754  149.122
  462.250   17.400    0.319    0.451   58.963  149.940
  462.500   17.054    0.324    0.443   60.247  151.165
  462.750   16.966    0.329    0.448   63.362  151.880
  463.000   17.296    0.332    0.451   65.500  151.680
  463.250   17.531    0.325    0.455   63.183  151.582
  463.500   17.216    0.318    0.459   60.439  150.874
  463.750   16.044    0.312    0.456   62.028  150.573
  464.000   15.812    0.307    0.446   65.021  150.577
  464.250   15.998    0.307    0.441   66.243  150.580
  464.500   16.710    0.313    0.454   65.147  150.482
  464.750   17.033    0.318    0.467   63.074  150.079
  465.000   16.203    0.323    0.468   61.307  149.879
  465.250   13.348    0.300    0.453   62.834  150.086
  465.500   11.077    0.285    0.431   66.315  150.090
  465.750    9.686    0.275    0.416   70.955  150.093
  466.000    6.870    0.266    0.409   75.291  152.131
  466.250    5.712    0.256    0.429   79.137  155.695
  466.500    5.313    0.243    0.447   81.337  159.259
  466.750    4.998    0.233    0.465   81.400  160.787
  467.000    4.826    0.239    0.478   81.585  162.419
  467.250    4.846    0.244    0.495   80.977  162.118
  467.500    4.876    0.251    0.511   80.247  161.308
  467.750    4.943    0.268    0.522   77.869  159.786
  468.000    5.030    0.259    0.510   75.125  158.874
  468.250    5.118    0.252    0.500   80.681  158.877
  468.500    5.245    0.269    0.487   87.029  159.186
  468.750    6.004    0.280    0.490   83.126  159.394
  469.000    7.002    0.282    0.486   76.538  158.990
  469.250    8.212    0.284    0.482   72.817  158.689
  469.500    9.668    0.300    0.489   66.961  158.184
  469.750   11.129    0.320    0.478   63.119  157.679
  470.000   12.432    0.320    0.468   64.036  157.683
  470.250   13.708    0.307    0.464   64.954  157.483
  470.500   15.314    0.298    0.473   64.529  157.792
  470.750   17.109    0.303    0.478   58.917  157.999
  471.000   19.293    0.311    0.472   56.844  158.206
  471.250   21.837    0.308    0.463   60.264  158.413
  471.500   23.765    0.304    0.464   61.730  158.315
  471.750   25.337    0.295    0.492   61.123  158.522
  472.000   23.348    0.241    0.505   55.327  158.628
  472.250   21.880    0.166    0.360   52.217  159.140
  472.500   16.662    0.132    0.329   64.364  160.059
  472.750   12.712    0.198    0.387   77.486  160.775
  473.000    9.680    0.239    0.405   85.422  161.796
  473.250    6.764    0.271    0.420   89.147  163.019
  473.500    6.221    0.241    0.433   83.778  162.820
  473.750    5.874    0.252    0.441   76.153  161.298
  474.000    5.619    0.268    0.470   72.249  160.793
  474.250    4.969    0.294    0.480   74.082  160.695
  474.500    4.048    0.294    0.478   76.160  160.902
  474.750    3.224    0.275    0.481   77.199  162.025
  475.000    2.824    0.263    0.496   77.384  162.638
  475.250    2.531    0.263    0.520   76.898  162.947
  475.500    2.315    0.282    0.539   76.473  162.646
  475.750    2.149    0.295    0.536   74.218  161.938
