~VERSION INFORMATION
 VERS.                 2.0:   CWLS LOG ASCII STANDARD -VERSION 2.0
 WRAP.                  NO:   ONE LINE PER DEPTH STEP
~WELL INFORMATION BLOCK
#MNEM.UNIT           DATA                    DESCRIPTION OF MNEMONIC
#---------    -------------------            -------------------------------
# Generated from Intellog Unique Number	CS_67_68/WELL/644
WELL.         FISHER CREEK                   : Well_name    - WELL
LOC .         00/06-09-068-04W4/0            : Location     - LOCATION
UWI .         00/06-09-068-04W4/0            : Uwi          - UNIQUE WELL ID
ENTR.         SP                             : Entered      - ENTERED BY
SRVC.         SCHLUMBERGER                   : Scn          - SERVICE COMPANY
STRT.M        335                            : top_depth    - START DEPTH
STOP.M        565                            : bot_depth    - STOP DEPTH
STEP.M        0.25                           : increment    - STEP LENGTH
 NULL. -999.2500:NULL Value
~CURVE INFORMATION BLOCK
#MNEM UNIT       ERCB CURVE CODE    CURVE DESCRIPTION
#-----------   ------------------   ----------------------------------
DEPT.M        00 001 00 00         : DEPTH        - DEPTH
ILD .OHMM     00 120 00 00         : RESD         - DEEP RESISTIVITY (DIL)
DPHI.V/V      00 890 00 00         : PHID         - DENSITY POROSITY (LIMESTONE)
NPHI.V/V      00 330 00 00         : PHIN         - NEUTRON POROSITY (LIMESTONE)
GR  .API      00 310 00 00         : GR           - GAMMA RAY
~PARAMETER INFORMATION
#MNEM.UNIT           DATA             DESCRIPTION OF MNEMONIC
#---------         -----------     ------------------------------
GL  .M        692.65               : gl           - GROUND LEVEL ELEVATION
EREF.M        696.5                : kb           - ELEVATION OF DEPTH REFERENCE
DATM.M        692.65               : datum        - DATUM ELEVATION
TDD .M        568                  : tdd          - TOTAL DEPTH DRILLER
RUN .         ONE                  : Run          - RUN NUMBER
ENG .         BILL                 : Engineer     - RECORDING ENGINEER
WIT .         JIM                  : Witness      - WITNESSED BY
MUD .         GEL                  : Mud_type     - MUD TYPE
MATR.         LIMESTONE            : Logunit      - NEUTRON MATRIX
TMAX.C        20.5                 : BHT          - MAXIMUM RECORDED TEMPERATURE
BHTD.M        568                  : BHTDEP       - MAXIMUM RECORDED TEMPERATURE
MATR.         1                    : LOGUNIT      - NEUTRON MATRIX
RMT .C        25                   : MDTP         - TEMPERATURE OF MUD
NEUT.         1                    : NEUTRON      - NEUTRON TYPE
RESI.         0                    : RESIST       - RESISTIVITY TYPE
RMC .OHMM     0.25                 : RMC          - RESISTIVITY OF MUD CAKE
RMF .OHMM     0.25                 : RMF          - RESISTIVITY OF MUD FILTRATE
SUFT.C        15                   : SUFT         - SURFACE TEMPERATURE
~A  DEPTH     RESD     PHID     PHIN       GR
# ...
  509.000    7.181    0.181    0.380   89.942
  509.250    6.792    0.198    0.378   81.733
  509.500    6.388    0.237    0.387   71.376
  509.750    6.109    0.265    0.384   61.880
  510.000    5.898    0.285    0.374   64.599
  510.250    5.759    0.296    0.366   67.681
  510.500    5.687    0.306    0.360   70.828
  510.750    5.658    0.305    0.366   71.766
  511.000    5.713    0.289    0.374   74.114
  511.250    5.802    0.289    0.373   77.755
  511.500    6.027    0.285    0.389   80.779
  511.750    6.189    0.270    0.416   83.126
  512.000    6.392    0.261    0.420   83.020
  512.250    6.676    0.250    0.418   84.021
  512.500    6.987    0.245    0.418   85.444
  512.750    7.081    0.241    0.415   87.855
  513.000    7.125    0.235    0.399   89.039
  513.250    7.061    0.231    0.385   86.909
  513.500    6.946    0.231    0.372   78.513
  513.750    6.682    0.239    0.359   67.543
  514.000    6.439    0.283    0.378   56.635
  514.250    5.888    0.286    0.358   43.945
  514.500    5.771    0.247    0.342   47.646
  514.750    5.938    0.224    0.350   62.270
  515.000    6.053    0.214    0.364   72.413
  515.250    6.158    0.226    0.373   74.639
  515.500    6.184    0.250    0.378   61.766
  515.750    6.106    0.284    0.390   54.294
  516.000    5.797    0.298    0.405   48.849
  516.250    5.514    0.300    0.398   46.225
  516.500    5.323    0.303    0.394   45.751
  516.750    5.407    0.307    0.390   43.314
  517.000    5.378    0.303    0.389   40.321
  517.250    5.058    0.298    0.384   41.074
  517.500    4.994    0.296    0.378   47.413
  517.750    4.950    0.304    0.383   58.296
  518.000    4.961    0.300    0.382   67.147
  518.250    4.917    0.296    0.370   78.764
  518.500    4.856    0.294    0.377   87.557
  518.750    4.822    0.300    0.388   85.058
  519.000    4.797    0.295    0.396   81.090
  519.250    4.781    0.287    0.402   79.567
  519.500    4.810    0.285    0.403   78.601
  519.750    4.867    0.292    0.398   77.882
  520.000    4.914    0.292    0.394   73.662
  520.250    4.991    0.285    0.392   69.076
  520.500    5.078    0.281    0.390   66.944
  520.750    5.195    0.290    0.388   67.943
  521.000    5.366    0.289    0.395   67.469
  521.250    5.679    0.274    0.405   64.539
  521.500    5.998    0.255    0.388   61.304
  521.750    6.277    0.241    0.364   61.256
  522.000    6.471    0.284    0.372   64.527
  522.250    6.510    0.317    0.409   66.999
  522.500    6.500    0.300    0.417   68.734
  522.750    6.371    0.280    0.405   69.300
  523.000    6.163    0.274    0.400   67.292
  523.250    5.894    0.283    0.402   63.503
  523.500    5.523    0.293    0.392   60.083
  523.750    5.352    0.301    0.383   61.330
  524.000    5.246    0.301    0.374   63.800
  524.250    5.189    0.304    0.372   66.761
  524.500    5.172    0.305    0.397   69.356
  524.750    5.213    0.295    0.382   70.844
  525.000    5.345    0.287    0.388   72.702
  525.250    5.437    0.278    0.391   77.629
  525.500    5.733    0.236    0.382   83.047
  525.750    6.010    0.195    0.366   90.491
  526.000    6.301    0.159    0.348   95.600
  526.250    6.520    0.159    0.358   95.434
  526.500    6.709    0.174    0.375   92.993
  526.750    6.826    0.181    0.384   92.090
  527.000    6.867    0.173    0.368   93.028
  527.250    6.845    0.163    0.358   94.088
  527.500    6.886    0.155    0.380   95.147
  527.750    7.114    0.150    0.395   96.451
  528.000    7.210    0.154    0.383   98.740
  528.250    7.390    0.149    0.361  102.255
  528.500    7.202    0.140    0.360  105.769
  528.750    6.811    0.176    0.389  109.345
  529.000    6.639    0.224    0.441  110.835
  529.250    6.717    0.198    0.518  105.634
  529.500    6.872    0.184    0.456   98.408
  529.750    7.178    0.200    0.352   72.768
  530.000    7.455    0.204    0.324   69.042
  530.250    7.757    0.197    0.318   70.531
  530.500    7.982    0.192    0.326   74.046
  530.750    8.000    0.194    0.335   80.446
  531.000    7.666    0.207    0.338   85.434
  531.250    7.251    0.226    0.358   86.247
  531.500    6.922    0.244    0.375   81.660
  531.750    6.708    0.243    0.369   72.900
  532.000    6.563    0.230    0.375   73.162
  532.250    6.541    0.225    0.377   68.147
  532.500    6.568    0.245    0.367   65.340
  532.750    6.633    0.246    0.364   68.179
  533.000    6.686    0.245    0.372   71.205
  533.250    6.727    0.266    0.378   74.106
  533.500    6.692    0.274    0.386   76.514
  533.750    6.583    0.259    0.373   78.311
  534.000    6.488    0.238    0.376   69.304
  534.250    6.613    0.237    0.372   69.445
  534.500    6.921    0.231    0.361   76.640
  534.750    7.068    0.189    0.362   86.048
  535.000    7.137    0.157    0.379   95.700
  535.250    6.995    0.164    0.401  103.512
  535.500    6.792    0.175    0.421   92.296
  535.750    6.533    0.189    0.435   51.558
  536.000    6.284    0.230    0.423   40.895
  536.250    5.954    0.295    0.402   34.652
  536.500    5.465    0.324    0.390   29.390
  536.750    5.169    0.336    0.375   27.441
  537.000    4.981    0.324    0.360   27.949
  537.250    4.827    0.321    0.376   30.547
  537.500    4.757    0.330    0.394   32.155
  537.750    4.760    0.319    0.388   33.400
  538.000    4.816    0.293    0.375   33.478
  538.250    4.955    0.281    0.354   31.283
  538.500    5.254    0.279    0.341   30.996
  538.750    5.386    0.275    0.337   31.748
  539.000    5.428    0.274    0.354   29.984
  539.250    5.533    0.280    0.367   26.870
  539.500    5.610    0.283    0.361   24.554
  539.750    5.591    0.289    0.359   22.790
  540.000    5.510    0.316    0.364   22.747
  540.250    5.420    0.327    0.368   24.113
  540.500    5.233    0.320    0.374   25.605
  540.750    5.081    0.317    0.381   26.477
  541.000    5.017    0.318    0.361   27.598
  541.250    4.926    0.311    0.346   29.701
  541.500    4.891    0.301    0.343   31.927
  541.750    4.958    0.284    0.338   33.662
  542.000    5.149    0.269    0.333   38.466
  542.250    5.429    0.264    0.328   45.729
  542.500    5.660    0.279    0.319   50.161
  542.750    5.781    0.267    0.376   55.332
  543.000    5.828    0.255    0.410   58.111
  543.250    5.786    0.273    0.383   54.875
  543.500    5.649    0.287    0.363   46.052
  543.750    5.599    0.294    0.380   43.061
  544.000    5.644    0.303    0.399   40.746
  544.250    5.774    0.293    0.368   42.852
  544.500    5.931    0.261    0.339   46.917
  544.750    6.000    0.270    0.341   53.377
  545.000    5.991    0.290    0.366   48.975
  545.250    5.983    0.284    0.357   53.348
  545.500    5.975    0.265    0.345   59.442
  545.750    5.988    0.251    0.351   64.492
  546.000    6.024    0.245    0.346   68.744
  546.250    6.061    0.248    0.346   65.752
  546.500    6.075    0.262    0.349   55.457
  546.750    6.033    0.275    0.336   63.452
  547.000    5.912    0.262    0.360   70.650
  547.250    5.697    0.263    0.380   69.439
  547.500    5.470    0.284    0.365   62.580
  547.750    5.311    0.269    0.351   56.336
  548.000    5.176    0.248    0.380   65.868
  548.250    5.064    0.239    0.421   59.131
  548.500    5.066    0.292    0.412   46.445
  548.750    5.068    0.303    0.405   44.190
  549.000    5.070    0.298    0.398   45.374
  549.250    5.063    0.296    0.364   45.571
  549.500    5.056    0.299    0.352   45.774
  549.750    5.030    0.299    0.358   45.482
  550.000    5.005    0.255    0.363   51.395
  550.250    4.978    0.250    0.356   55.641
  550.500    4.980    0.256    0.353   66.890
  550.750    5.001    0.263    0.431   67.829
  551.000    5.012    0.273    0.427   59.496
  551.250    5.033    0.277    0.389   58.101
  551.500    5.092    0.247    0.364   70.212
  551.750    5.114    0.227    0.371   76.855
  552.000    5.135    0.242    0.399   82.763
  552.250    5.147    0.257    0.398   85.541
