~VERSION INFORMATION
 VERS.                 2.0:   CWLS LOG ASCII STANDARD -VERSION 2.0
 WRAP.                  NO:   ONE LINE PER DEPTH STEP
~WELL INFORMATION BLOCK
#MNEM.UNIT           DATA                    DESCRIPTION OF MNEMONIC
#---------    -------------------            -------------------------------
# Generated from Intellog Unique Number	CW_82_90/WELL/2588
WELL.         06-34-082-02W5                 : Well_name    - WELL
LOC .         00/06-34-082-02W5/0            : Location     - LOCATION
UWI .         00/06-34-082-02W5/0            : Uwi          - UNIQUE WELL ID
ENTR.         JJ                             : Entered      - ENTERED BY
SRVC.         SCHLUMBERGER                   : Scn          - SERVICE COMPANY
DATE.         3 FEB 77                       : Date         - LOG DATE
STRT.M        313.944                        : top_depth    - START DEPTH
STOP.M        441.944                        : bot_depth    - STOP DEPTH
STEP.M        0.25                           : increment    - STEP LENGTH
 NULL. -999.2500:NULL Value
~CURVE INFORMATION BLOCK
#MNEM UNIT       ERCB CURVE CODE    CURVE DESCRIPTION
#-----------   ------------------   ----------------------------------
DEPT.M        00 001 00 00         : DEPTH        - DEPTH
DELT.US/F     00 520 00 00         : DELT         - SONIC TRAVEL TIME
GR  .API      00 310 00 00         : GR           - GAMMA RAY
RHOB.KG/M3    00 350 00 00         : DENS         - BULK DENSITY
ILD .OHMM     00 120 00 00         : RESD         - DEEP RESISTIVITY (DIL)
~PARAMETER INFORMATION
#MNEM.UNIT           DATA             DESCRIPTION OF MNEMONIC
#---------         -----------     ------------------------------
GL  .M        584.85               : gl           - GROUND LEVEL ELEVATION
EREF.M        588.142              : kb           - ELEVATION OF DEPTH REFERENCE
DATM.M        588.142              : datum        - DATUM ELEVATION
TDD .M        441.655              : tdd          - TOTAL DEPTH DRILLER
RUN .         ONE                  : Run          - RUN NUMBER
ENG .         CROCKFORD            : Engineer     - RECORDING ENGINEER
WIT .         HUNTER               : Witness      - WITNESSED BY
BASE.         EDM                  : Branch       - HOME BASE OF LOGGING UNIT
MUD .         GEL CHEM             : Mud_type     - MUD TYPE
MATR.         LIMESTONE            : Logunit      - NEUTRON MATRIX
TMAX.C        30                   : BHT          - MAXIMUM RECORDED TEMPERATURE
BHTD.M        440.131              : BHTDEP       - MAXIMUM RECORDED TEMPERATURE
RMT .C        13.3333              : MDTP         - TEMPERATURE OF MUD
MUDD.KG/M     1140                 : MWT          - MUD DENSITY
NEUT.         1                    : NEUTRON      - NEUTRON TYPE
RESI.         0                    : RESIST       - RESISTIVITY TYPE
RM  .OHMM     3.36                 : RM           - RESISTIVITY OF MUD
RMC .OHMM     0                    : RMC          - RESISTIVITY OF MUD CAKE
RMF .OHMM     3.82                 : RMF          - RESISTIVITY OF MUD FILTRATE
SUFT.C        5                    : SUFT         - SURFACE TEMPERATURE
~A  DEPTH     DELT       GR     DENS     RESD
# ...
  357.444  395.267   87.028 2284.900    8.518
  357.694  389.644   88.219 2295.060    7.455
  357.944  386.138   83.994 2270.270    7.313
  358.194  384.789   80.437 2297.350    7.925
  358.444  386.057   75.420 2270.600    8.745
  358.694  388.325   80.380 2220.520    9.494
  358.944  392.751   86.323 2215.310   10.013
  359.194  392.520   89.638 2238.980    9.543
  359.444  386.772   87.177 2277.230    8.597
  359.694  382.078   88.552 2314.100    7.417
  359.944  403.240   92.847 2294.710    6.707
  360.194  415.213   92.151 2226.280    5.989
  360.444  362.345   87.983 2251.960    5.707
  360.694  328.968   82.844 2275.660    5.784
  360.944  313.442   75.696 2324.100    6.417
  361.194  342.613   71.651 2398.430    7.158
  361.444  367.779   74.062 2411.560    7.715
  361.694  398.847   75.614 2387.190    7.805
  361.944  398.091   74.124 2361.220    7.096
  362.194  382.960   69.352 2291.010    6.325
  362.444  353.847   74.197 2289.180    6.215
  362.694  327.690   75.322 2312.670    6.496
  362.944  331.592   72.981 2347.520    7.027
  363.194  358.794   77.037 2394.150    7.226
  363.444  398.658   81.084 2445.160    7.024
  363.694  397.770   81.114 2365.950    6.621
  363.944  392.477   78.169 2359.140    5.955
  364.194  386.865   79.359 2342.950    5.665
  364.444  378.888   82.981 2301.050    5.701
  364.694  374.519   80.947 2334.710    5.829
  364.944  378.949   82.989 2356.010    6.015
  365.194  387.439   85.943 2328.450    6.333
  365.444  393.706   89.146 2321.640    6.679
  365.694  405.349   91.001 2349.720    6.993
  365.944  403.741   93.354 2333.150    7.455
  366.194  397.863   94.292 2292.420    7.668
  366.444  391.656   93.418 2317.310    7.827
  366.694  392.070   95.880 2293.750    8.003
  366.944  394.012   93.905 2362.300    8.245
  367.194  394.759   90.475 2353.290    8.417
  367.444  392.616   90.198 2334.140    8.392
  367.694  390.943   91.758 2300.190    8.308
  367.944  388.417   91.913 2320.480    8.328
  368.194  385.168   90.604 2333.610    8.334
  368.444  384.536   89.914 2348.150    8.446
  368.694  387.320   91.284 2334.360    8.560
  368.944  392.932   94.662 2323.730    8.787
  369.194  388.893   99.811 2296.180    8.905
  369.444  379.733  100.511 2277.210    9.041
  369.694  368.344   97.380 2340.590    9.229
  369.944  360.693   92.665 2329.580    9.506
  370.194  360.716   95.925 2312.980    9.722
  370.444  361.407  100.341 2345.260    9.979
  370.694  361.304  102.139 2352.600   10.354
  370.944  364.747   94.693 2333.220   10.980
  371.194  379.019   87.484 2326.400   11.580
  371.444  372.877   81.309 2277.920   12.213
  371.694  361.752   78.301 2303.400   12.950
  371.944  353.901   78.578 2419.410   13.756
  372.194  351.961   80.189 2341.620   15.098
  372.444  348.121   81.989 2274.390   16.391
  372.694  353.001   85.189 2299.270   17.665
  372.944  363.340   88.446 2237.220   19.318
  373.194  374.914   83.065 2230.600   20.670
  373.444  374.354   82.003 2239.160   20.948
  373.694  360.802   81.738 2292.750   19.079
  373.944  344.752   79.696 2342.760   17.005
  374.194  329.032   75.837 2395.360   14.382
  374.444  355.835   79.216 2436.410   12.340
  374.694  380.737   87.162 2405.850   10.473
  374.944  386.342   89.392 2333.040    8.762
  375.194  367.733   87.653 2317.870    8.290
  375.444  331.736   83.489 2345.130    9.450
  375.694  267.119   79.872 2400.140   12.250
  375.944  244.635   71.266 2452.340   15.622
  376.194  234.102   64.242 2509.530   20.363
  376.444  250.013   68.473 2575.690   23.170
  376.694  293.095   78.605 2504.090   24.658
  376.944  338.734   88.134 2450.600   22.419
  377.194  356.351   95.101 2375.400   17.893
  377.444  369.766  100.430 2305.180   15.242
  377.694  361.593   97.915 2344.020   12.984
  377.944  353.813   95.935 2373.090   11.677
  378.194  358.766   93.655 2392.590   10.752
  378.444  370.018   91.256 2413.100   10.626
  378.694  376.083   87.518 2340.090   10.983
  378.944  314.882   83.898 2349.630   11.861
  379.194  349.169   83.261 2413.800   12.463
  379.444  371.512   88.893 2459.210   12.138
  379.694  389.256   93.858 2444.820   11.176
  379.944  389.220   95.472 2308.410   10.253
  380.194  377.307   95.934 2351.050    9.597
  380.444  366.834   96.271 2341.030    9.762
  380.694  357.614   96.912 2355.150   10.109
  380.944  348.253   91.593 2330.800   10.937
  381.194  342.840   89.312 2359.880   11.638
  381.444  334.533   89.590 2398.120   12.341
  381.694  356.942   87.435 2379.940   12.735
  381.944  369.438   87.471 2371.920   12.722
  382.194  372.816   88.476 2339.600   11.864
  382.444  374.085   91.306 2297.870   11.082
  382.694  374.516   94.082 2344.710   10.131
  382.944  376.317   95.513 2383.750    9.602
  383.194  381.465   96.945 2349.410    9.334
  383.444  370.265   98.565 2398.820    9.478
  383.694  360.453   99.629 2409.160    9.905
  383.944  352.477   94.368 2443.210   10.203
  384.194  368.713   94.891 2392.140   10.342
  384.444  384.627   98.270 2346.050   10.312
  384.694  387.543   96.602 2348.000   10.264
  384.944  382.520   96.815 2360.920   10.159
  385.194  377.427  100.012 2374.050   10.149
  385.444  370.307  101.810 2412.490   10.266
  385.694  363.839   96.552 2393.930   10.424
  385.944  372.203   97.071 2343.440   10.299
  386.194  381.682   95.523 2412.790    9.853
  386.444  389.784   95.317 2359.720    9.457
  386.694  388.298   97.901 2325.400    9.226
  386.944  380.191   95.319 2368.020    9.232
  387.194  361.651   92.008 2376.980    9.667
  387.444  346.257   88.512 2394.070   10.214
  387.694  367.350   89.643 2413.590   11.028
  387.944  380.769   93.568 2464.780   12.104
  388.194  397.075   95.913 2349.700   13.212
  388.444  407.664   92.606 2338.700   14.924
  388.694  378.757   91.054 2318.120   17.137
  388.944  276.801   87.379 2286.370   20.664
  389.194  238.827   82.723 2489.320   24.072
  389.444  251.392   76.002 2590.580   28.350
  389.694  292.242   68.915 2568.010   33.210
  389.944  370.763   61.769 2509.960   35.922
  390.194  395.668   67.888 2440.940   30.656
  390.444  383.292   75.164 2350.570   25.186
  390.694  370.712   76.487 2218.940   20.806
  390.944  371.401   75.900 2261.960   17.981
  391.194  371.894   81.050 2281.700   15.512
  391.444  370.021   86.980 2299.980   14.730
  391.694  369.391   83.975 2299.560   15.035
  391.944  368.831   81.755 2254.850   16.176
  392.194  363.410   79.780 2218.920   17.561
  392.444  341.982   77.624 2277.920   19.064
  392.694  306.111   72.973 2335.890   21.270
  392.944  252.524   69.232 2418.810   22.964
  393.194  253.667   72.920 2541.990   24.705
  393.444  293.466   78.063 2615.930   23.589
  393.694  348.492   84.484 2562.850   21.561
  393.944  347.991   89.085 2376.590   18.873
  394.194  346.055   91.549 2352.230   17.034
  394.444  346.936   93.957 2310.910   14.936
  394.694  348.609   91.131 2329.030   14.415
  394.944  330.000   84.226 2310.450   15.877
  395.194  300.234   79.515 2300.250   17.971
  395.444  318.968   80.216 2358.640   18.579
  395.694  348.463   85.057 2448.110   16.739
  395.944  367.262   91.480 2458.050   14.105
  396.194  371.819   96.381 2321.030   12.213
  396.444  378.010   99.763 2373.840   10.479
  396.694  384.543  102.717 2364.030    9.074
  396.944  390.349  104.396 2385.530    8.131
  397.194  385.714  102.180 2374.950    7.568
  397.444  385.221  100.021 2378.480    7.291
  397.694  395.420  101.572 2351.730    7.037
  397.944  401.290  106.169 2315.810    6.978
  398.194  402.760  105.230 2363.610    6.921
  398.444  400.489  105.998 2350.420    6.901
  398.694  397.435  107.131 2376.510    6.982
  398.944  394.251  106.852 2333.800    7.101
  399.194  389.421  106.340 2333.960    7.302
  399.444  384.664  106.739 2350.080    7.644
  399.694  372.488  107.258 2319.930    8.314
  399.944  337.274   95.792 2303.540    9.240
  400.194  315.845   85.480 2389.060   11.003
  400.444  270.000   75.778 2453.610   12.771
  400.694  265.501   71.309 2505.830   14.772
