~VERSION INFORMATION
 VERS.                 2.0:   CWLS LOG ASCII STANDARD -VERSION 2.0
 WRAP.                  NO:   ONE LINE PER DEPTH STEP
~WELL INFORMATION BLOCK
#MNEM.UNIT           DATA                    DESCRIPTION OF MNEMONIC
#---------    -------------------            -------------------------------
# Generated from Intellog Unique Number	CX_WELLS/WELL/3196
WELL.         HB HORSER                      : Well_name    - WELL
LOC .         00/06-16-083-13W4/0            : Location     - LOCATION
UWI .         00/06-16-083-13W400            : Uwi          - UNIQUE WELL ID
ENTR.         T                              : Entered      - ENTERED BY
SRVC.         SCHLUMBERGER                   : Scn          - SERVICE COMPANY
STRT.F        400                            : top_depth    - START DEPTH
STOP.F        1199.7                         : bot_depth    - STOP DEPTH
STEP.F        0.82                           : increment    - STEP LENGTH
 NULL. -999.2500:NULL Value
~CURVE INFORMATION BLOCK
#MNEM UNIT       ERCB CURVE CODE    CURVE DESCRIPTION
#-----------   ------------------   ----------------------------------
DEPT.F        00 001 00 00         : DEPTH        - DEPTH
GR  .API      00 310 00 00         : GR           - GAMMA RAY
NPHI.V/V      00 330 00 00         : PHIN         - NEUTRON POROSITY (SANDSTONE)
DPHI.V/V      00 890 00 00         : PHID         - DENSITY POROSITY (SANDSTONE)
ILD .OHMM     00 120 00 00         : RESD         - DEEP RESISTIVITY (DIL)
~PARAMETER INFORMATION
#MNEM.UNIT           DATA             DESCRIPTION OF MNEMONIC
#---------         -----------     ------------------------------
GL  .F        1876                 : gl           - GROUND LEVEL ELEVATION
EREF.F        1884                 : kb           - ELEVATION OF DEPTH REFERENCE
DATM.F        1884                 : datum        - DATUM ELEVATION
TDD .F        1204                 : tdd          - TOTAL DEPTH DRILLER
RUN .         ONE                  : Run          - RUN NUMBER
ENG .         BILL                 : Engineer     - RECORDING ENGINEER
WIT .         JIM                  : Witness      - WITNESSED BY
MUD .         GEL                  : Mud_type     - MUD TYPE
MATR.         SANDSTONE            : Logunit      - NEUTRON MATRIX
TMAX.F        78                   : BHT          - MAXIMUM RECORDED TEMPERATURE
BHTD.F        1204                 : BHTDEP       - MAXIMUM RECORDED TEMPERATURE
MATR.         1                    : LOGUNIT      - NEUTRON MATRIX
RMT .F        77                   : MDTP         - TEMPERATURE OF MUD
NEUT.         1                    : NEUTRON      - NEUTRON TYPE
RESI.         5.25                 : RESIST       - RESISTIVITY TYPE
RMC .OHMM     2.8                  : RMC          - RESISTIVITY OF MUD CAKE
RMF .OHMM     3.02                 : RMF          - RESISTIVITY OF MUD FILTRATE
SUFT.F        32                   : SUFT         - SURFACE TEMPERATURE
~A  DEPTH       GR     PHIN     PHID     RESD
# ...
 1113.580   86.074    0.305    0.044   15.410
 1114.400   86.800    0.304    0.045   15.155
 1115.220   86.874    0.308    0.046   14.941
 1116.040   88.228    0.314    0.048   15.002
 1116.860   88.302    0.314    0.049   15.026
 1117.680   89.003    0.310    0.046   14.802
 1118.500   89.077    0.303    0.039   14.862
 1119.320   88.620    0.295    0.034   14.640
 1120.140   88.090    0.297    0.037   14.432
 1120.960   88.188    0.307    0.041   14.205
 1121.780   88.938    0.311    0.043   13.993
 1122.600   89.591    0.312    0.046   13.784
 1123.430   90.896    0.310    0.050   13.588
 1124.250   92.251    0.304    0.051   13.396
 1125.070   91.745    0.299    0.049   13.174
 1125.890   91.867    0.297    0.049   13.009
 1126.710   91.916    0.302    0.049   12.794
 1127.530   92.618    0.303    0.049   12.846
 1128.350   93.972    0.305    0.048   12.654
 1129.170   94.650    0.305    0.048   12.685
 1129.990   95.979    0.306    0.047   12.736
 1130.810   97.285    0.310    0.044   12.536
 1131.630   99.267    0.315    0.043   12.368
 1132.450  100.524    0.319    0.045   12.409
 1133.270  101.201    0.330    0.049   12.213
 1134.090  103.159    0.339    0.049   12.041
 1134.910  104.440    0.339    0.046   12.070
 1135.730  106.953    0.340    0.044   11.899
 1136.550  108.862    0.345    0.051   11.731
 1137.370  111.399    0.355    0.062   11.537
 1138.190  112.704    0.361    0.072   11.383
 1139.010  115.266    0.365    0.084   11.203
 1139.830  117.779    0.383    0.091   11.036
 1140.650  115.437    0.386    0.082   10.871
 1141.470  113.121    0.389    0.076   10.717
 1142.290  111.407    0.392    0.076   10.557
 1143.110  109.091    0.394    0.076   10.390
 1143.930  105.591    0.396    0.074   10.243
 1144.750  102.646    0.398    0.069   10.090
 1145.570   93.664    0.399    0.063   10.131
 1146.390   70.193    0.398    0.055   10.352
 1147.210   61.235    0.390    0.046   10.765
 1148.030   54.668    0.377    0.043   11.856
 1148.850   45.106    0.257    0.043   13.277
 1149.670   40.978    0.195    0.043   15.423
 1150.490   40.497    0.157    0.037   20.367
 1151.310   41.199    0.154    0.025   36.120
 1152.130   42.504    0.158    0.021   36.908
 1152.950   45.041    0.163    0.020   37.088
 1153.770   46.951    0.168    0.020   36.474
 1154.590   50.067    0.174    0.018   34.007
 1155.410   55.598    0.183    0.018   30.566
 1156.230   61.130    0.206    0.022   27.473
 1157.050   70.911    0.239    0.039   22.948
 1157.870   80.089    0.282    0.049   19.184
 1158.690   91.079    0.292    0.060   16.609
 1159.510  100.257    0.328    0.067   14.379
 1160.330  107.599    0.339    0.086   10.761
 1161.150  115.570    0.368    0.089    9.504
 1161.980  120.522    0.400    0.098    8.549
 1162.800  124.870    0.421    0.114    7.971
 1163.620  126.175    0.437    0.119    7.426
 1164.440  126.298    0.434    0.123    7.194
 1165.260  126.371    0.431    0.124    7.074
 1166.080  127.701    0.429    0.126    6.963
 1166.900  128.378    0.429    0.126    6.745
 1167.720  129.080    0.434    0.118    6.756
 1168.540  130.410    0.438    0.113    6.661
 1169.360  131.715    0.440    0.116    6.556
 1170.180  133.045    0.442    0.118    6.588
 1171.000  133.771    0.442    0.122    6.615
 1171.820  134.448    0.444    0.126    6.626
 1172.640  134.595    0.446    0.129    6.532
 1173.460  134.644    0.451    0.132    6.553
 1174.280  129.913    0.460    0.132    6.569
 1175.100  107.649    0.465    0.132    6.601
 1175.920   85.361    0.466    0.132    6.740
 1176.740   77.611    0.467    0.130    6.767
 1177.560   75.294    0.465    0.129    6.921
 1178.380  108.041    0.457    0.129    6.932
 1179.200  112.993    0.420    0.128    6.960
 1180.020  111.908    0.409    0.128    7.112
 1180.840  109.567    0.290    0.121    7.267
 1181.660  106.067    0.294    0.110    9.963
 1182.480  103.146    0.320    0.105   14.983
 1183.300   99.622    0.369    0.105   15.593
 1184.120   96.701    0.383    0.111   15.920
 1184.940   94.360    0.374    0.116   17.519
 1185.760   91.464    0.384    0.120   19.618
 1186.580   89.147    0.433    0.120   26.897
 1187.400   88.013    0.457    0.117   35.550
 1188.220   86.904    0.496    0.112   46.133
 1189.040   86.422    0.499    0.102   49.803
 1189.860   86.545    0.499    0.081   49.099
 1190.680   86.594    0.499    0.068   49.219
 1191.500   86.113    0.499    0.059   48.522
 1192.320   86.211    0.500    0.054   46.929
 1193.140   86.912    0.505    0.050   46.265
 1193.960   88.846    0.506    0.039   45.536
 1194.780   90.151    0.504    0.037   45.684
 1195.600   91.457    0.502    0.039   45.038
 1196.420   90.975    0.500    0.044   45.185
 1197.240   91.098    0.498    0.048   45.332
 1198.060   91.171    0.498    0.053   45.480
 1198.880   91.897    0.498    0.061   45.629
 1199.700   92.599    0.498    0.064   44.946
