~VERSION INFORMATION
 VERS.                 2.0:   CWLS LOG ASCII STANDARD -VERSION 2.0
 WRAP.                  NO:   ONE LINE PER DEPTH STEP
~WELL INFORMATION BLOCK
#MNEM.UNIT           DATA                    DESCRIPTION OF MNEMONIC
#---------    -------------------            -------------------------------
# Generated from Intellog Unique Number	CW_70_72/WELL/3305
NULL.         -999.25                        : NULL_VALUE
WELL.         CHEVRON MGSU1 MITSUE           : Well_name    - WELL              
LOC .         08-24-070-04W5                 : Location     - LOCATION          
UWI .         00/08-24-070-04W5/0            : Uwi          - UNIQUE WELL ID    
ENTR.         CAMPBELL                       : Entered      - ENTERED BY        
SRVC.         WESTERN ATLAS                  : Scn          - SERVICE COMPANY   
DATE.         18 DEC. 1983                   : Date         - LOG DATE          
STRT.M        655                            : top_depth    - START DEPTH       
STOP.M        815                            : bot_depth    - STOP DEPTH        
STEP.M        0.25                           : increment    - STEP LENGTH       
~CURVE INFORMATION BLOCK
#MNEM UNIT       ERCB CURVE CODE    CURVE DESCRIPTION
#-----------   ------------------   ----------------------------------
DEPT.M        00 001 00 00         : DEPTH        - DEPTH                       
CALI.MM       00 280 01 00         : CAL          - CALIPER                     
DELT.US/F     00 520 00 00         : DELT         - SONIC TRAVEL TIME           
GR  .API      00 310 00 00         : GR           - GAMMA RAY                   
ILD .OHMM     00 120 00 00         : RESD         - DEEP RESISTIVITY (DIL)      
~PARAMETER INFORMATION       
#MNEM.UNIT           DATA             DESCRIPTION OF MNEMONIC
#---------         -----------     ------------------------------
GL  .M        132                  : gl           - GROUND LEVEL ELEVATION      
EREF.M        138.15               : kb           - ELEVATION OF DEPTH REFERENCE
DATM.M        138.15               : datum        - DATUM ELEVATION             
TDD .M        1852.3               : tdd          - TOTAL DEPTH DRILLER         
RUN .         ONE                  : Run          - RUN NUMBER                  
ENG .         ILAMBORN             : Engineer     - RECORDING ENGINEER          
WIT .         HALAB                : Witness      - WITNESSED BY                
MUD .         GEL                  : Mud_type     - MUD TYPE                    
MATR.         SANDSTONE            : Logunit      - NEUTRON MATRIX              
TMAX.C        40                   : BHT          - MAXIMUM RECORDED TEMPERATURE
BHTD.M        1852.3               : BHTDEP       - MAXIMUM RECORDED TEMPERATURE
RMT .C        15                   : MDTP         - TEMPERATURE OF MUD          
MUDD.KG/M     1125                 : MWT          - MUD DENSITY                 
NEUT.         1                    : NEUTRON      - NEUTRON TYPE                
RESI.         0                    : RESIST       - RESISTIVITY TYPE            
RM  .OHMM     0.9                  : RM           - RESISTIVITY OF MUD          
RMC .OHMM     1.3                  : RMC          - RESISTIVITY OF MUD CAKE     
RMF .OHMM     0.75                 : RMF          - RESISTIVITY OF MUD FILTRATE 
SUFT.C        -4                   : SUFT         - SURFACE TEMPERATURE         
~A  DEPTH      CAL     DELT       GR     RESD
  655.000    0.000    0.000    0.000    0.000
  655.250    0.000    0.000    0.000    0.000
  655.500    0.000    0.000    0.000    0.000
  655.750    0.000    0.000    0.000    0.000
  656.000    0.000    0.000    0.000    0.000
  656.250    0.000    0.000    0.000    0.000
  656.500    0.000    0.000    0.000    0.000
  656.750    0.000    0.000    0.000    0.000
  657.000    0.000    0.000    0.000    0.000
  657.250    0.000    0.000    0.000    0.000
  657.500    0.000    0.000    0.000    0.000
  657.750    0.000    0.000    0.000    0.000
  658.000    0.000    0.000    0.000    0.000
  658.250    0.000    0.000    0.000    0.000
  658.500    0.000    0.000    0.000    0.000
  658.750    0.000    0.000    0.000    0.000
  659.000    0.000    0.000    0.000    0.000
  659.250    0.000    0.000    0.000    0.000
  659.500    0.000    0.000    0.000    0.000
  659.750    0.000    0.000    0.000    0.000
  660.000    0.000    0.000    0.000    0.000
  660.250    0.000    0.000    0.000    0.000
  660.500    0.000    0.000    0.000    0.000
  660.750    0.000    0.000    0.000    0.000
  661.000    0.000    0.000    0.000    0.000
  661.250    0.000    0.000    0.000    0.000
  661.500    0.000    0.000    0.000    0.000
  661.750    0.000    0.000    0.000    0.000
  662.000    0.000    0.000    0.000    0.000
  662.250    0.000    0.000    0.000    0.000
  662.500    0.000    0.000    0.000    0.000
  662.750    0.000    0.000    0.000    0.000
  663.000    0.000    0.000    0.000    0.000
  663.250    0.000    0.000    0.000    0.000
  663.500    0.000    0.000    0.000    0.000
  663.750    0.000    0.000    0.000    0.000
  664.000    0.000    0.000    0.000    0.000
  664.250    0.000    0.000    0.000    0.000
  664.500    0.000    0.000    0.000    0.000
  664.750    0.000    0.000    0.000    0.000
  665.000    0.000    0.000    0.000    0.000
  665.250    0.000    0.000    0.000    0.000
  665.500    0.000    0.000    0.000    0.000
  665.750    0.000    0.000    0.000    0.000
  666.000    0.000    0.000    0.000    0.000
  666.250    0.000    0.000    0.000    0.000
  666.500    0.000    0.000    0.000    0.000
  666.750    0.000    0.000    0.000    0.000
  667.000    0.000    0.000    0.000    0.000
  667.250    0.000    0.000    0.000    0.000
  667.500    0.000    0.000    0.000    0.000
  667.750    0.000    0.000    0.000    0.000
  668.000    0.000    0.000    0.000    0.000
  668.250    0.000    0.000    0.000    0.000
  668.500    0.000    0.000    0.000    0.000
  668.750    0.000    0.000    0.000    0.000
  669.000    0.000    0.000    0.000    0.000
  669.250    0.000    0.000    0.000    0.000
  669.500    0.000    0.000    0.000    0.000
  669.750    0.000    0.000    0.000    0.000
  670.000    0.000    0.000    0.000    0.000
  670.250    0.000    0.000    0.000    0.000
  670.500    0.000    0.000    0.000    0.000
  670.750    0.000    0.000    0.000    0.000
  671.000    0.000    0.000    0.000    0.000
  671.250    0.000    0.000    0.000    0.000
  671.500    0.000    0.000    0.000    0.000
  671.750    0.000    0.000    0.000    0.000
  672.000    0.000    0.000    0.000    0.000
  672.250    0.000    0.000    0.000    0.000
  672.500    0.000    0.000    0.000    0.000
  672.750    0.000    0.000    0.000    0.000
  673.000    0.000    0.000    0.000    0.000
  673.250    0.000    0.000    0.000    0.000
  673.500    0.000    0.000    0.000    0.000
  673.750    0.000    0.000    0.000    0.000
  674.000    0.000    0.000    0.000    0.000
  674.250    0.000    0.000    0.000    0.000
  674.500    0.000    0.000    0.000    0.000
  674.750    0.000    0.000    0.000    0.000
  675.000    0.000    0.000    0.000    0.000
  675.250    0.000    0.000    0.000    0.000
  675.500    0.000    0.000    0.000    0.000
  675.750    0.000    0.000    0.000    0.000
  676.000    0.000    0.000    0.000    0.000
  676.250    0.000    0.000    0.000    0.000
  676.500    0.000    0.000    0.000    0.000
  676.750    0.000    0.000    0.000    0.000
  677.000    0.000    0.000    0.000    0.000
  677.250    0.000    0.000    0.000    0.000
  677.500    0.000    0.000    0.000    0.000
  677.750    0.000    0.000    0.000    0.000
  678.000    0.000    0.000    0.000    0.000
  678.250    0.000    0.000    0.000    0.000
  678.500    0.000    0.000    0.000    0.000
  678.750    0.000    0.000    0.000    0.000
  679.000    0.000    0.000    0.000    0.000
  679.250    0.000    0.000    0.000    0.000
  679.500    0.000    0.000    0.000    0.000
  679.750    0.000    0.000    0.000    0.000
  680.000    0.000    0.000    0.000    0.000
  680.250    0.000    0.000    0.000    0.000
  680.500    0.000    0.000    0.000    0.000
  680.750    0.000    0.000    0.000    0.000
  681.000    0.000    0.000    0.000    0.000
  681.250    0.000    0.000    0.000    0.000
  681.500    0.000    0.000    0.000    0.000
  681.750    0.000    0.000    0.000    0.000
  682.000    0.000    0.000    0.000    0.000
  682.250    0.000    0.000    0.000    0.000
  682.500    0.000    0.000    0.000    0.000
  682.750    0.000    0.000    0.000    0.000
  683.000    0.000    0.000    0.000    0.000
  683.250    0.000    0.000    0.000    0.000
  683.500    0.000    0.000    0.000    0.000
  683.750    0.000    0.000    0.000    0.000
  684.000    0.000    0.000    0.000    0.000
  684.250    0.000    0.000    0.000    0.000
  684.500    0.000    0.000    0.000    0.000
  684.750    0.000    0.000    0.000    0.000
  685.000    0.000    0.000    0.000    0.000
  685.250    0.000    0.000    0.000    0.000
  685.500    0.000    0.000    0.000    0.000
  685.750    0.000    0.000    0.000    0.000
  686.000    0.000    0.000    0.000    0.000
  686.250    0.000    0.000    0.000    0.000
  686.500    0.000    0.000    0.000    0.000
  686.750    0.000    0.000    0.000    0.000
  687.000    0.000    0.000    0.000    0.000
  687.250    0.000    0.000    0.000    0.000
  687.500    0.000    0.000    0.000    0.000
  687.750    0.000    0.000    0.000    0.000
  688.000    0.000    0.000    0.000    0.000
  688.250    0.000    0.000    0.000    0.000
  688.500    0.000    0.000    0.000    0.000
  688.750    0.000    0.000    0.000    0.000
  689.000    0.000    0.000    0.000    0.000
  689.250    0.000    0.000    0.000    0.000
  689.500    0.000    0.000    0.000    0.000
  689.750    0.000    0.000    0.000    0.000
  690.000    0.000    0.000    0.000    0.000
  690.250    0.000    0.000    0.000    0.000
  690.500    0.000    0.000    0.000    0.000
  690.750    0.000    0.000    0.000    0.000
  691.000    0.000    0.000    0.000    0.000
  691.250    0.000    0.000    0.000    0.000
  691.500    0.000    0.000    0.000    0.000
  691.750    0.000    0.000    0.000    0.000
  692.000    0.000    0.000    0.000    0.000
  692.250    0.000    0.000    0.000    0.000
  692.500    0.000    0.000    0.000    0.000
  692.750    0.000    0.000    0.000    0.000
  693.000    0.000    0.000    0.000    0.000
  693.250    0.000    0.000    0.000    0.000
  693.500    0.000    0.000    0.000    0.000
  693.750    0.000    0.000    0.000    0.000
  694.000    0.000    0.000    0.000    0.000
  694.250    0.000    0.000    0.000    0.000
  694.500    0.000    0.000    0.000    0.000
  694.750    0.000    0.000    0.000    0.000
  695.000    0.000    0.000    0.000    0.000
  695.250    0.000    0.000    0.000    0.000
  695.500    0.000    0.000    0.000    0.000
  695.750    0.000    0.000    0.000    0.000
  696.000    0.000    0.000    0.000    0.000
  696.250    0.000    0.000    0.000    0.000
  696.500    0.000    0.000    0.000    0.000
  696.750    0.000    0.000    0.000    0.000
  697.000    0.000    0.000    0.000    0.000
  697.250    0.000    0.000    0.000    0.000
  697.500    0.000    0.000    0.000    0.000
  697.750    0.000    0.000    0.000    0.000
  698.000    0.000    0.000    0.000    0.000
  698.250    0.000    0.000    0.000    0.000
