~VERSION INFORMATION
 VERS.                 2.0:   CWLS LOG ASCII STANDARD -VERSION 2.0
 WRAP.                  NO:   ONE LINE PER DEPTH STEP
~WELL INFORMATION BLOCK
#MNEM.UNIT           DATA                    DESCRIPTION OF MNEMONIC
#---------    -------------------            -------------------------------
# Generated from Intellog Unique Number	CS_73_76/WELL/2912
WELL.         BRALORNE OIL TOWER             : Well_name    - WELL
LOC .         00/07-32-076-15W4/0            : Location     - LOCATION
UWI .         00/07-32-076-15W4/0            : Uwi          - UNIQUE WELL ID
ENTR.         SP                             : Entered      - ENTERED BY
SRVC.         SCHLUMBERGER                   : Scn          - SERVICE COMPANY
STRT.M        305                            : top_depth    - START DEPTH
STOP.M        545                            : bot_depth    - STOP DEPTH
STEP.M        0.25                           : increment    - STEP LENGTH
 NULL. -999.2500:NULL Value
~CURVE INFORMATION BLOCK
#MNEM UNIT       ERCB CURVE CODE    CURVE DESCRIPTION
#-----------   ------------------   ----------------------------------
DEPT.M        00 001 00 00         : DEPTH        - DEPTH
DPHI.V/V      00 890 00 00         : PHID         - DENSITY POROSITY (LIMESTONE)
NPHI.V/V      00 330 00 00         : PHIN         - NEUTRON POROSITY (LIMESTONE)
GR  .API      00 310 00 00         : GR           - GAMMA RAY
ILD .OHMM     00 120 00 00         : RESD         - DEEP RESISTIVITY (DIL)
~PARAMETER INFORMATION
#MNEM.UNIT           DATA             DESCRIPTION OF MNEMONIC
#---------         -----------     ------------------------------
GL  .M        679.7                : gl           - GROUND LEVEL ELEVATION
EREF.M        684                  : kb           - ELEVATION OF DEPTH REFERENCE
DATM.M        679.7                : datum        - DATUM ELEVATION
TDD .M        557                  : tdd          - TOTAL DEPTH DRILLER
RUN .         ONE                  : Run          - RUN NUMBER
ENG .         BILL                 : Engineer     - RECORDING ENGINEER
WIT .         JIM                  : Witness      - WITNESSED BY
MUD .         GEL                  : Mud_type     - MUD TYPE
MATR.         LIMESTONE            : Logunit      - NEUTRON MATRIX
TMAX.C        21                   : BHT          - MAXIMUM RECORDED TEMPERATURE
BHTD.M        557                  : BHTDEP       - MAXIMUM RECORDED TEMPERATURE
MATR.         1                    : LOGUNIT      - NEUTRON MATRIX
RMT .C        25                   : MDTP         - TEMPERATURE OF MUD
NEUT.         1                    : NEUTRON      - NEUTRON TYPE
RESI.         0                    : RESIST       - RESISTIVITY TYPE
RMC .OHMM     0.25                 : RMC          - RESISTIVITY OF MUD CAKE
RMF .OHMM     0.25                 : RMF          - RESISTIVITY OF MUD FILTRATE
SUFT.C        15                   : SUFT         - SURFACE TEMPERATURE
~A  DEPTH     PHID     PHIN       GR     RESD
# ...
  348.500    0.276    0.440   63.541    8.346
  348.750    0.274    0.417   51.940    8.829
  349.000    0.290    0.424   46.440   10.067
  349.250    0.329    0.439   44.596   11.478
  349.500    0.352    0.444   42.756   11.479
  349.750    0.376    0.452   40.914   10.854
  350.000    0.413    0.470   39.072   13.091
  350.250    0.445    0.449   34.792   15.208
  350.500    0.383    0.436   29.292   16.702
  350.750    0.271    0.415   35.370   17.669
  351.000    0.286    0.402   40.844   17.023
  351.250    0.323    0.387   44.489   15.217
  351.500    0.316    0.408   45.697   14.659
  351.750    0.317    0.409   47.510   13.861
  352.000    0.313    0.390   48.722   13.354
  352.250    0.301    0.376   51.756   13.108
  352.500    0.303    0.383   52.964   12.628
  352.750    0.312    0.413   51.120   12.629
  353.000    0.318    0.422   50.493   12.631
  353.250    0.317    0.418   50.485   12.872
  353.500    0.324    0.420   51.687   12.874
  353.750    0.330    0.419   53.503   12.875
  354.000    0.324    0.414   55.319   12.877
  354.250    0.324    0.408   56.527   12.879
  354.500    0.335    0.403   56.514   12.643
  354.750    0.343    0.401   56.500   12.410
  355.000    0.347    0.411   56.485   12.181
  355.250    0.342    0.440   56.474   12.413
  355.500    0.348    0.450   55.850   12.186
  355.750    0.357    0.443   55.230   11.961
  356.000    0.359    0.434   57.043   11.962
  356.250    0.350    0.434   57.643   12.190
  356.500    0.345    0.429   55.801   12.422
  356.750    0.350    0.422   52.736   12.898
  357.000    0.357    0.427   49.676   13.143
  357.250    0.358    0.433   47.221   13.646
  357.500    0.352    0.440   46.599   13.648
  357.750    0.326    0.423   45.976   14.171
  358.000    0.296    0.392   45.350   14.992
  358.250    0.273    0.365   44.731   14.994
  358.500    0.269    0.341   45.324   14.178
  358.750    0.294    0.374   45.923   13.916
  359.000    0.322    0.402   47.740   13.919
  359.250    0.311    0.396   49.555   13.409
  359.500    0.315    0.387   50.760   12.918
  359.750    0.320    0.392   51.968   12.920
  360.000    0.326    0.404   52.561   12.922
  360.250    0.327    0.417   53.158   12.684
  360.500    0.332    0.411   52.536   12.450
  360.750    0.328    0.403   52.526   12.453
  361.000    0.326    0.395   52.507   12.454
  361.250    0.332    0.399   53.104   12.225
  361.500    0.346    0.421   51.876   11.559
  361.750    0.357    0.429   47.595   11.136
  362.000    0.362    0.427   45.140   11.137
  362.250    0.365    0.430   43.912   11.349
  362.500    0.359    0.433   46.946   11.351
  362.750    0.357    0.439   48.760   11.567
  363.000    0.347    0.445   48.746   11.569
  363.250    0.344    0.451   47.515   11.789
  363.500    0.347    0.445   46.276   11.572
  363.750    0.352    0.437   45.659   11.574
  364.000    0.355    0.432   45.037   11.575
  364.250    0.345    0.437   43.806   11.796
  364.500    0.344    0.441   44.399   11.579
  364.750    0.350    0.437   45.602   11.580
  365.000    0.333    0.420   45.593   11.802
  365.250    0.340    0.416   43.748   12.025
  365.500    0.329    0.421   43.125   12.027
  365.750    0.335    0.428   41.888   12.029
  366.000    0.333    0.417   42.490   12.031
  366.250    0.331    0.402   43.693   12.261
  366.500    0.322    0.406   44.293   12.262
  366.750    0.318    0.418   45.502   12.263
  367.000    0.323    0.398   46.707   12.039
  367.250    0.327    0.401   45.473   12.039
  367.500    0.337    0.413   44.240   12.041
  367.750    0.351    0.415   43.620   12.043
  368.000    0.357    0.407   41.772   11.821
  368.250    0.347    0.415   41.763   11.823
  368.500    0.344    0.424   43.578   11.825
  368.750    0.353    0.437   44.786   11.607
  369.000    0.351    0.453   45.380   11.609
  369.250    0.343    0.443   44.149   11.395
  369.500    0.328    0.433   40.475   11.612
  369.750    0.328    0.422   38.628   11.398
  370.000    0.332    0.416   37.396   11.400
  370.250    0.340    0.444   36.777   11.191
  370.500    0.341    0.448   37.986   11.193
  370.750    0.341    0.450   39.193   11.194
  371.000    0.345    0.445   37.959   11.195
  371.250    0.350    0.447   36.726   11.197
  371.500    0.346    0.444   36.103   11.198
  371.750    0.340    0.434   36.091   10.993
  372.000    0.338    0.423   36.072   10.994
  372.250    0.344    0.425   36.061   10.996
  372.500    0.344    0.418   37.880   11.204
  372.750    0.341    0.425   38.472   11.207
  373.000    0.343    0.425   39.071   11.208
  373.250    0.345    0.417   40.276   11.210
  373.500    0.340    0.426   40.875   11.211
  373.750    0.334    0.437   41.472   11.213
  374.000    0.335    0.437   41.458   11.214
  374.250    0.345    0.444   40.837   11.216
  374.500    0.335    0.429   41.431   11.218
  374.750    0.343    0.439   43.240   11.220
  375.000    0.355    0.426   44.451    9.661
  375.250    0.359    0.422   45.659    9.844
  375.500    0.347    0.433   46.258   11.016
  375.750    0.350    0.435   45.020   11.017
  376.000    0.357    0.439   44.396   11.019
  376.250    0.356    0.436   44.387   11.229
  376.500    0.346    0.428   44.983   11.230
  376.750    0.347    0.424   46.191   11.661
  377.000    0.344    0.435   46.175   11.662
  377.250    0.361    0.446   46.162   11.447
  377.500    0.353    0.454   45.531   11.237
  377.750    0.349    0.438   46.131   11.239
  378.000    0.343    0.423   46.121   11.241
  378.250    0.343    0.426   46.108   11.454
  378.500    0.349    0.447   47.310   11.455
  378.750    0.349    0.448   47.912   11.245
  379.000    0.347    0.431   48.510   11.038
  379.250    0.346    0.435   49.102   11.040
  379.500    0.346    0.440   49.697   10.836
  379.750    0.336    0.438   49.691   11.043
  380.000    0.335    0.422   50.282   11.466
  380.250    0.335    0.433   50.883   11.467
  380.500    0.332    0.440   52.086   11.469
  380.750    0.338    0.426   52.074   11.470
  381.000    0.338    0.436   52.063   11.260
  381.250    0.333    0.464   52.047   11.474
  381.500    0.332    0.481   53.253   11.476
  381.750    0.334    0.493   54.457   11.477
  382.000    0.342    0.481   55.660   11.266
  382.250    0.334    0.453   56.262   11.268
  382.500    0.331    0.437   56.855   11.482
  382.750    0.344    0.447   56.842   11.271
  383.000    0.351    0.442   58.049   11.272
  383.250    0.351    0.449   58.649   11.274
  383.500    0.350    0.464   57.414   11.275
  383.750    0.338    0.451   56.791   11.491
  384.000    0.341    0.460   56.781   11.279
  384.250    0.339    0.463   57.373   11.280
  384.500    0.318    0.449   57.365   11.282
  384.750    0.301    0.441   57.959   11.284
  385.000    0.280    0.430   57.944   11.498
  385.250    0.258    0.434   57.321   11.500
  385.500    0.309    0.450   57.310   11.079
  385.750    0.333    0.462   56.684   11.081
  386.000    0.346    0.468   56.675   11.292
  386.250    0.355    0.449   57.269   11.293
  386.500    0.355    0.450   57.255   11.295
  386.750    0.349    0.441   57.241   11.510
  387.000    0.343    0.438   57.842   11.729
  387.250    0.334    0.436   59.043   11.731
  387.500    0.326    0.444   61.469   12.180
  387.750    0.322    0.443   63.897   12.412
  388.000    0.325    0.440   66.323   12.184
  388.250    0.323    0.454   68.750   12.185
  388.500    0.331    0.456   73.611   11.522
  388.750    0.328    0.447   77.259   10.299
  389.000    0.323    0.442   82.734    9.035
  389.250    0.308    0.450   83.936    9.037
  389.500    0.315    0.447   83.926    9.383
  389.750    0.305    0.453   85.132    9.742
  390.000    0.297    0.453   89.382    9.563
  390.250    0.303    0.475   91.201    9.564
  390.500    0.305    0.492   91.799    9.388
  390.750    0.314    0.490   90.566    9.044
  391.000    0.323    0.477   87.505    8.878
  391.250    0.326    0.449   83.829    8.715
  391.500    0.313    0.458   81.991    8.716
  391.750    0.295    0.462   80.148    8.555
