~VERSION INFORMATION
 VERS.                 2.0:   CWLS LOG ASCII STANDARD -VERSION 2.0
 WRAP.                  NO:   ONE LINE PER DEPTH STEP
~WELL INFORMATION BLOCK
#MNEM.UNIT           DATA                    DESCRIPTION OF MNEMONIC
#---------    -------------------            -------------------------------
# Generated from Intellog Unique Number	CS_69_70/WELL/822
NULL.         -999.25                        : NULL_VALUE
WELL.         A.E.C. FISHER                  : Well_name    - WELL              
LOC .         00/07-16-070-04W4/0            : Location     - LOCATION          
UWI .         00/07-16-070-04W4/0            : Uwi          - UNIQUE WELL ID    
ENTR.         SP                             : Entered      - ENTERED BY        
SRVC.         SCHLUMBERGER                   : Scn          - SERVICE COMPANY   
STRT.M        300                            : top_depth    - START DEPTH       
STOP.M        515                            : bot_depth    - STOP DEPTH        
STEP.M        0.25                           : increment    - STEP LENGTH       
~CURVE INFORMATION BLOCK
#MNEM UNIT       ERCB CURVE CODE    CURVE DESCRIPTION
#-----------   ------------------   ----------------------------------
DEPT.M        00 001 00 00         : DEPTH        - DEPTH                       
GR  .API      00 310 00 00         : GR           - GAMMA RAY                   
NPHI.V/V      00 330 00 00         : PHIN         - NEUTRON POROSITY (LIMESTONE)
DPHI.V/V      00 890 00 00         : PHID         - DENSITY POROSITY (LIMESTONE)
ILD .OHMM     00 120 00 00         : RESD         - DEEP RESISTIVITY (DIL)      
~PARAMETER INFORMATION       
#MNEM.UNIT           DATA             DESCRIPTION OF MNEMONIC
#---------         -----------     ------------------------------
GL  .M        677.5                : gl           - GROUND LEVEL ELEVATION      
EREF.M        681                  : kb           - ELEVATION OF DEPTH REFERENCE
DATM.M        677.5                : datum        - DATUM ELEVATION             
TDD .M        536                  : tdd          - TOTAL DEPTH DRILLER         
RUN .         ONE                  : Run          - RUN NUMBER                  
ENG .         BILL                 : Engineer     - RECORDING ENGINEER          
WIT .         JIM                  : Witness      - WITNESSED BY                
MUD .         GEL                  : Mud_type     - MUD TYPE                    
MATR.         LIMESTONE            : Logunit      - NEUTRON MATRIX              
TMAX.C        31                   : BHT          - MAXIMUM RECORDED TEMPERATURE
BHTD.M        536                  : BHTDEP       - MAXIMUM RECORDED TEMPERATURE
MATR.         1                    : LOGUNIT      - NEUTRON MATRIX              
RMT .C        25                   : MDTP         - TEMPERATURE OF MUD          
NEUT.         1                    : NEUTRON      - NEUTRON TYPE                
RESI.         0                    : RESIST       - RESISTIVITY TYPE            
RMC .OHMM     0.25                 : RMC          - RESISTIVITY OF MUD CAKE     
RMF .OHMM     0.25                 : RMF          - RESISTIVITY OF MUD FILTRATE 
SUFT.C        15                   : SUFT         - SURFACE TEMPERATURE         
~A  DEPTH       GR     PHIN     PHID     RESD
# ...
  343.500   29.321    0.381    0.351    6.378
  343.750   31.773    0.372    0.351    6.376
  344.000   33.016    0.363    0.346    6.375
  344.250   37.897    0.390    0.354    6.616
  344.500   48.248    0.391    0.355    6.741
  344.750   60.420    0.388    0.337    7.128
  345.000   65.303    0.394    0.316    7.681
  345.250   69.579    0.396    0.305    7.973
  345.500   78.717    0.389    0.299    8.275
  345.750   85.418    0.407    0.287    8.428
  346.000   90.909    0.447    0.272    8.427
  346.250   93.975    0.471    0.269    8.425
  346.500   90.969    0.466    0.272    8.424
  346.750   91.594    0.447    0.263    8.113
  347.000   91.621    0.421    0.253    7.386
  347.250   88.004    0.449    0.244    6.852
  347.500   81.349    0.473    0.258    6.723
  347.750   84.410    0.467    0.286    6.722
  348.000   84.442    0.444    0.303    6.720
  348.250   83.853    0.432    0.301    6.718
  348.500   82.670    0.436    0.292    6.844
  348.750   83.297    0.459    0.297    6.842
  349.000   80.899    0.457    0.296    6.970
  349.250   76.675    0.446    0.292    6.969
  349.500   73.656    0.455    0.294    6.838
  349.750   71.250    0.473    0.298    6.710
  350.000   72.503    0.466    0.316    6.342
  350.250   73.123    0.441    0.327    5.994
  350.500   64.649    0.458    0.331    5.665
  350.750   56.173    0.472    0.353    5.560
  351.000   52.550    0.458    0.374    5.354
  351.250   55.612    0.435    0.377    5.156
  351.500   62.927    0.423    0.369    5.155
  351.750   72.669    0.424    0.365    5.058
  352.000   78.158    0.446    0.360    5.057
  352.250   76.970    0.436    0.355    5.056
  352.500   75.780    0.426    0.353    5.150
  352.750   80.064    0.420    0.361    5.149
  353.000   75.840    0.421    0.362    5.246
  353.250   69.788    0.425    0.362    5.147
  353.500   62.524    0.427    0.366    5.243
  353.750   63.767    0.441    0.373    5.242
  354.000   68.045    0.454    0.366    5.241
  354.250   71.104    0.442    0.357    5.240
  354.500   75.985    0.434    0.348    5.338
  354.750   76.022    0.429    0.346    5.437
  355.000   74.217    0.422    0.343    5.436
  355.250   71.814    0.412    0.349    5.538
  355.500   69.405    0.410    0.354    5.537
  355.750   67.608    0.422    0.359    5.433
  356.000   66.421    0.426    0.355    5.330
  356.250   70.701    0.432    0.346    5.330
  356.500   72.555    0.451    0.346    5.230
  356.750   73.784    0.446    0.353    5.229
  357.000   75.631    0.448    0.359    5.131
  357.250   74.447    0.450    0.364    5.129
  357.500   72.647    0.440    0.359    5.128
  357.750   75.098    0.432    0.354    5.224
  358.000   79.990    0.440    0.347    5.322
  358.250   82.441    0.447    0.339    5.421
  358.500   86.729    0.435    0.338    5.522
  358.750   87.959    0.426    0.339    5.521
  359.000   87.376    0.430    0.329    5.624
  359.250   78.289    0.433    0.327    5.623
  359.500   64.348    0.425    0.325    5.622
  359.750   62.547    0.420    0.339    5.516
  360.000   61.979    0.425    0.353    5.412
  360.250   62.607    0.425    0.359    5.213
  360.500   63.839    0.415    0.359    5.115
  360.750   64.474    0.412    0.358    5.019
  361.000   65.723    0.415    0.359    4.925
  361.250   66.959    0.416    0.357    4.832
  361.500   68.193    0.435    0.353    4.831
  361.750   68.831    0.451    0.346    4.830
  362.000   67.635    0.435    0.344    5.014
  362.250   65.843    0.430    0.344    5.608
  362.500   67.083    0.461    0.335    6.043
  362.750   68.925    0.480    0.305    6.888
  363.000   61.664    0.231    0.264    7.999
  363.250   48.329    0.198    0.159    8.782
  363.500   41.673    0.182    0.040    9.640
  363.750   38.057    0.206    0.018   10.007
  364.000   46.594    0.243    0.085    8.941
  364.250   49.042    0.353    0.191    8.141
  364.500   52.104    0.470    0.306    6.147
  364.750   53.339    0.476    0.373    4.728
  365.000   53.364    0.430    0.379    4.305
  365.250   50.357    0.413    0.356    3.993
  365.500   49.167    0.407    0.340    3.919
  365.750   51.016    0.419    0.344    3.845
  366.000   49.220    0.430    0.349    3.844
  366.250   48.026    0.415    0.340    3.843
  366.500   49.873    0.411    0.334    3.842
  366.750   51.117    0.400    0.330    3.842
  367.000   49.320    0.392    0.329    3.841
  367.250   51.167    0.382    0.332    3.769
  367.500   53.620    0.398    0.330    3.768
  367.750   52.434    0.396    0.325    3.698
  368.000   50.639    0.391    0.331    3.628
  368.250   48.236    0.401    0.340    3.560
  368.500   48.868    0.403    0.347    3.493
  368.750   49.496    0.406    0.350    3.427
  369.000   50.135    0.413    0.354    3.427
  369.250   50.777    0.420    0.354    3.426
  369.500   50.793    0.417    0.355    3.425
  369.750   50.204    0.419    0.355    3.424
  370.000   50.230    0.418    0.355    3.360
  370.250   50.256    0.403    0.354    3.359
  370.500   50.280    0.397    0.353    3.297
  370.750   49.700    0.397    0.353    3.296
  371.000   48.510    0.407    0.362    3.234
  371.250   49.141    0.416    0.368    3.233
  371.500   50.989    0.421    0.366    3.233
  371.750   51.015    0.422    0.363    3.172
  372.000   49.831    0.427    0.366    3.171
  372.250   51.070    0.412    0.369    3.112
  372.500   51.707    0.409    0.372    3.111
  372.750   52.944    0.404    0.368    3.110
  373.000   54.183    0.418    0.363    3.110
  373.250   55.419    0.421    0.359    3.051
  373.500   55.442    0.413    0.359    3.051
  373.750   49.400    0.409    0.360    3.050
  374.000   46.386    0.410    0.362    3.049
  374.250   48.239    0.412    0.364    3.049
  374.500   50.695    0.405    0.365    3.048
  374.750   51.931    0.408    0.368    3.048
  375.000   53.165    0.423    0.365    3.047
  375.250   55.626    0.422    0.366    3.046
  375.500   58.686    0.411    0.367    3.045
  375.750   55.068    0.418    0.364    3.102
  376.000   50.230    0.417    0.358    3.102
  376.250   50.264    0.412    0.355    3.101
  376.500   50.283    0.412    0.354    3.101
  376.750   49.101    0.408    0.355    3.218
  377.000   50.337    0.396    0.357    3.403
  377.250   52.786    0.399    0.356    4.340
  377.500   55.850    0.437    0.359    4.947
  377.750   53.444    0.447    0.349    7.058
  378.000   46.191    0.333    0.237    8.834
  378.250   46.209    0.258    0.060   10.069
  378.500   49.273    0.218    0.006   10.648
  378.750   52.334    0.192   -0.007    8.191
  379.000   57.824    0.333    0.006    5.957
  379.250   65.140    0.423    0.242    4.758
  379.500   65.774    0.439    0.341    4.019
  379.750   62.768    0.444    0.359    3.525
  380.000   60.965    0.445    0.365    3.209
  380.250   58.556    0.450    0.365    3.090
  380.500   65.877    0.444    0.363    3.090
  380.750   67.719    0.439    0.357    3.207
  381.000   63.504    0.450    0.352    3.267
  381.250   61.699    0.447    0.349    3.328
  381.500   59.904    0.442    0.355    3.390
  381.750   59.320    0.446    0.360    3.518
  382.000   59.954    0.452    0.365    3.517
  382.250   62.414    0.447    0.369    3.517
  382.500   66.082    0.449    0.369    3.451
  382.750   69.142    0.457    0.368    3.386
  383.000   67.348    0.449    0.366    3.261
  383.250   63.123    0.442    0.362    3.200
  383.500   66.783    0.435    0.365    3.199
  383.750   82.603    0.441    0.368    3.198
  384.000   92.953    0.468    0.354    3.198
  384.250   98.439    0.479    0.324    3.319
  384.500   93.614    0.454    0.285    3.445
  384.750   86.960    0.426    0.275    3.509
  385.000   82.125    0.417    0.274    3.642
  385.250   77.893    0.437    0.278    3.710
  385.500   82.780    0.465    0.282    3.851
  385.750   79.763    0.483    0.298    3.850
  386.000   72.507    0.460    0.312    3.708
  386.250   68.882    0.433    0.330    3.639
  386.500   79.236    0.452    0.319    3.637
  386.750   84.119    0.485    0.303    3.706
