~VERSION INFORMATION
 VERS.                 2.0:   CWLS LOG ASCII STANDARD -VERSION 2.0
 WRAP.                  NO:   ONE LINE PER DEPTH STEP
~WELL INFORMATION BLOCK
#MNEM.UNIT           DATA                    DESCRIPTION OF MNEMONIC
#---------    -------------------            -------------------------------
# Generated from Intellog Unique Number	CS_77_79/WELL/858
WELL.         DOME COWPAR                    : Well_name    - WELL
LOC .         00/05-19-079-02W4/0            : Location     - LOCATION
UWI .         00/05-19-079-02W4/0            : Uwi          - UNIQUE WELL ID
ENTR.         JHS                            : Entered      - ENTERED BY
SRVC.         SCHLUMBERGER                   : Scn          - SERVICE COMPANY
STRT.M        105                            : top_depth    - START DEPTH
STOP.M        335                            : bot_depth    - STOP DEPTH
STEP.M        0.25                           : increment    - STEP LENGTH
 NULL. -999.2500:NULL Value
~CURVE INFORMATION BLOCK
#MNEM UNIT       ERCB CURVE CODE    CURVE DESCRIPTION
#-----------   ------------------   ----------------------------------
DEPT.M        00 001 00 00         : DEPTH        - DEPTH
DPHI.V/V      00 890 00 00         : PHID         - DENSITY POROSITY (LIMESTONE)
NPHI.V/V      00 330 00 00         : PHIN         - NEUTRON POROSITY (LIMESTONE)
GR  .API      00 310 00 00         : GR           - GAMMA RAY
ILD .OHMM     00 120 00 00         : RESD         - DEEP RESISTIVITY (DIL)
RHOB.KG/M3    00 350 00 00         : DENS         - BULK DENSITY
~PARAMETER INFORMATION
#MNEM.UNIT           DATA             DESCRIPTION OF MNEMONIC
#---------         -----------     ------------------------------
GL  .M        522.7                : gl           - GROUND LEVEL ELEVATION
EREF.M        526.2                : kb           - ELEVATION OF DEPTH REFERENCE
DATM.M        526.2                : datum        - DATUM ELEVATION
TDD .M        338.8                : tdd          - TOTAL DEPTH DRILLER
RUN .         ONE                  : Run          - RUN NUMBER
ENG .         BILL                 : Engineer     - RECORDING ENGINEER
WIT .         JIM                  : Witness      - WITNESSED BY
MUD .         GEL                  : Mud_type     - MUD TYPE
MATR.         LIMESTONE            : Logunit      - NEUTRON MATRIX
TMAX.C        22                   : BHT          - MAXIMUM RECORDED TEMPERATURE
BHTD.M        338.8                : BHTDEP       - MAXIMUM RECORDED TEMPERATURE
MATR.         1                    : LOGUNIT      - NEUTRON MATRIX
RMT .C        25                   : MDTP         - TEMPERATURE OF MUD
NEUT.         1                    : NEUTRON      - NEUTRON TYPE
RESI.         0                    : RESIST       - RESISTIVITY TYPE
RMC .OHMM     0.25                 : RMC          - RESISTIVITY OF MUD CAKE
RMF .OHMM     0.25                 : RMF          - RESISTIVITY OF MUD FILTRATE
SUFT.C        15                   : SUFT         - SURFACE TEMPERATURE
~A  DEPTH     PHID     PHIN       GR     RESD     DENS
# ...
  178.000    0.317    0.423   62.255   13.754    0.000
  178.250    0.314    0.422   61.654   13.774    0.000
  178.500    0.308    0.416   61.050   13.798    0.000
  178.750    0.311    0.426   64.093   14.078    0.000
  179.000    0.339    0.427   61.669   14.634    0.000
  179.250    0.348    0.423   57.422   14.942    0.000
  179.500    0.331    0.427   52.569   14.968    0.000
  179.750    0.323    0.434   53.790   14.983    0.000
  180.000    0.339    0.424   62.297   14.736    0.000
  180.250    0.322    0.421   65.338   14.498    0.000
  180.500    0.331    0.429   62.308   14.509    0.000
  180.750    0.352    0.443   64.134   14.010    0.000
  181.000    0.348    0.453   64.141   14.030    0.000
  181.250    0.354    0.472   62.930   13.796    0.000
  181.500    0.357    0.443   62.328   13.824    0.000
  181.750    0.343    0.447   62.333   13.847    0.000
  182.000    0.335    0.464   62.946   13.866    0.000
  182.250    0.325    0.440   64.165   14.421    0.000
  182.500    0.301    0.415   66.601   14.989    0.000
  182.750    0.307    0.415   68.429   15.283    0.000
  183.000    0.320    0.446   66.611   17.121    0.000
  183.250    0.312    0.435   62.972   19.525    0.000
  183.500    0.237    0.298   61.762   21.063    0.000
  183.750    0.132    0.271   59.946   21.102    0.000
  184.000    0.116    0.317   58.129   19.994    0.000
  184.250    0.199    0.340   59.956   18.934    0.000
  184.500    0.284    0.371   61.783   17.290    0.000
  184.750    0.329    0.456   59.967   15.779    0.000
  185.000    0.344    0.433   55.114   14.405    0.000
  185.250    0.350    0.431   52.689   13.400    0.000
  185.500    0.346    0.427   50.266   12.929    0.000
  185.750    0.340    0.416   55.129   12.481    0.000
  186.000    0.336    0.410   64.244   11.392    0.000
  186.250    0.320    0.407   79.431    8.322    0.000
  186.500    0.277    0.428   88.547    6.923    0.000
  186.750    0.262    0.458   89.160    6.203    0.000
  187.000    0.254    0.465   86.737    5.772    0.000
  187.250    0.252    0.470   83.098    5.779    0.000
  187.500    0.286    0.439   77.637    6.007    0.000
  187.750    0.316    0.443   71.568    6.481    0.000
  188.000    0.320    0.427   77.041    7.126    0.000
  188.250    0.310    0.423   80.688    7.273    0.000
  188.500    0.299    0.435   84.337    7.285    0.000
  188.750    0.304    0.485   82.520    7.031    0.000
  189.000    0.337    0.487   74.025    6.661    0.000
  189.250    0.348    0.463   82.532    6.311    0.000
  189.500    0.319    0.434   88.002    6.089    0.000
  189.750    0.290    0.464   94.081    5.356    0.000
  190.000    0.263    0.476   98.337    4.799    0.000
  190.250    0.262    0.482   99.558    4.546    0.000
  190.500    0.263    0.476   98.954    4.641    0.000
  190.750    0.268    0.483   92.888    5.392    0.000
  191.000    0.282    0.488   84.390    6.266    0.000
  191.250    0.319    0.459   77.714    7.146    0.000
  191.500    0.302    0.425   68.609    8.152    0.000
  191.750    0.310    0.443   71.652    8.473    0.000
  192.000    0.297    0.459   73.478    9.142    0.000
  192.250    0.273    0.475   68.018   10.625    0.000
  192.500    0.284    0.425   58.307   11.681    0.000
  192.750    0.310    0.411   54.061   12.366    0.000
  193.000    0.329    0.406   54.066   14.108    0.000
  193.250    0.325    0.401   55.287   14.393    0.000
  193.500    0.313    0.412   55.291   14.425    0.000
  193.750    0.314    0.420   53.474   13.924    0.000
  194.000    0.327    0.412   52.266   13.949    0.000
  194.250    0.344    0.413   53.488   13.709    0.000
  194.500    0.346    0.418   54.706   13.732    0.000
  194.750    0.329    0.423   57.746   13.753    0.000
  195.000    0.325    0.423   60.180   13.774    0.000
  195.250    0.337    0.426   59.579   13.547    0.000
  195.500    0.344    0.433   59.583   13.316    0.000
  195.750    0.339    0.431   57.767   13.337    0.000
  196.000    0.340    0.426   57.772   13.123    0.000
  196.250    0.343    0.422   55.348   12.894    0.000
  196.500    0.332    0.414   60.212   12.680    0.000
  196.750    0.328    0.406   62.646   12.236    0.000
  197.000    0.300    0.412   62.045   12.043    0.000
  197.250    0.274    0.443   59.013   12.052    0.000
  197.500    0.307    0.419   57.803   12.072    0.000
  197.750    0.322    0.408   59.024   12.092    0.000
  198.000    0.317    0.402   60.851   12.338    0.000
  198.250    0.324    0.405   61.464   12.360    0.000
  198.500    0.329    0.415   59.041   12.152    0.000
  198.750    0.329    0.427   58.437   11.301    0.000
  199.000    0.341    0.432   59.657    9.939    0.000
  199.250    0.328    0.439   64.520    8.273    0.000
  199.500    0.310    0.445   74.851    7.410    0.000
  199.750    0.275    0.460   82.142    6.051    0.000
  200.000    0.278    0.477   88.221    5.735    0.000
  200.250    0.265    0.488   89.440    5.742    0.000
  200.500    0.247    0.480   88.839    6.081    0.000
  200.750    0.255    0.467   86.415    6.813    0.000
  201.000    0.278    0.466   83.384    7.214    0.000
  201.250    0.276    0.465   80.353    7.784    0.000
  201.500    0.282    0.451   79.143    7.793    0.000
  201.750    0.279    0.439   78.540    7.385    0.000
  202.000    0.265    0.434   78.547    6.868    0.000
  202.250    0.265    0.443   78.552    6.155    0.000
  202.500    0.249    0.451   79.163    5.618    0.000
  202.750    0.250    0.457   85.242    5.324    0.000
  203.000    0.260    0.461   88.891    5.232    0.000
  203.250    0.245    0.469   89.504    5.241    0.000
  203.500    0.247    0.473   87.080    5.350    0.000
  203.750    0.262    0.462   91.337    5.261    0.000
  204.000    0.259    0.458   94.378    5.075    0.000
  204.250    0.233    0.472   94.384    4.990    0.000
  204.500    0.253    0.469   91.960    5.188    0.000
  204.750    0.265    0.478   88.928    5.496    0.000
  205.000    0.277    0.490   87.720    5.932    0.000
  205.250    0.289    0.478   88.330    6.047    0.000
  205.500    0.272    0.482   88.944    6.290    0.000
  205.750    0.295    0.470   85.912    6.418    0.000
  206.000    0.291    0.455   88.346    6.433    0.000
  206.250    0.280    0.455   91.388    6.441    0.000
  206.500    0.270    0.451   88.357    6.573    0.000
  206.750    0.272    0.453   85.933    6.579    0.000
  207.000    0.266    0.434   84.118    6.844    0.000
  207.250    0.271    0.423   84.121    6.980    0.000
  207.500    0.263    0.427   84.735    6.993    0.000
  207.750    0.259    0.435   84.741    7.005    0.000
  208.000    0.251    0.438   84.138    6.885    0.000
  208.250    0.242    0.446   84.142    6.770    0.000
  208.500    0.268    0.432   85.362    6.782    0.000
  208.750    0.277    0.427   86.582    6.792    0.000
  209.000    0.273    0.435   84.766    6.681    0.000
  209.250    0.250    0.434   85.986    6.568    0.000
  209.500    0.242    0.431   85.991    6.456    0.000
  209.750    0.257    0.448   82.959    6.235    0.000
  210.000    0.272    0.458   79.928    6.127    0.000
  210.250    0.284    0.447   82.363    6.025    0.000
  210.500    0.273    0.444   84.190    6.034    0.000
  210.750    0.268    0.436   82.980    5.936    0.000
  211.000    0.250    0.437   80.556    5.944    0.000
  211.250    0.266    0.451   78.739    5.954    0.000
  211.500    0.272    0.448   74.493    5.964    0.000
  211.750    0.272    0.448   65.996    5.974    0.000
  212.000    0.274    0.460   61.751    5.983    0.000
  212.250    0.281    0.481   59.934    5.996    0.000
  212.500    0.281    0.457   59.938    6.004    0.000
  212.750    0.273    0.445   63.589    6.016    0.000
  213.000    0.278    0.440   72.095    5.914    0.000
  213.250    0.272    0.431   84.248    5.818    0.000
  213.500    0.275    0.429   84.251    5.824    0.000
  213.750    0.278    0.437   78.791    5.835    0.000
  214.000    0.281    0.436   76.974    5.844    0.000
  214.250    0.301    0.439   81.231    5.851    0.000
