~VERSION INFORMATION
 VERS.                 2.0:   CWLS LOG ASCII STANDARD -VERSION 2.0
 WRAP.                  NO:   ONE LINE PER DEPTH STEP
~WELL INFORMATION BLOCK
#MNEM.UNIT           DATA                    DESCRIPTION OF MNEMONIC
#---------    -------------------            -------------------------------
# Generated from Intellog Unique Number	CX_WELLS/WELL/3141
WELL.         PARA ET AL RESDELEN            : Well_name    - WELL
LOC .         00/08-02-083-06W4/0            : Location     - LOCATION
UWI .         00/08-02-083-06W4/0            : Uwi          - UNIQUE WELL ID
ENTR.         TIM                            : Entered      - ENTERED BY
SRVC.         SCHLUMBERGER                   : Scn          - SERVICE COMPANY
STRT.M        80                             : top_depth    - START DEPTH
STOP.M        295                            : bot_depth    - STOP DEPTH
STEP.M        0.25                           : increment    - STEP LENGTH
 NULL. -999.2500:NULL Value
~CURVE INFORMATION BLOCK
#MNEM UNIT       ERCB CURVE CODE    CURVE DESCRIPTION
#-----------   ------------------   ----------------------------------
DEPT.M        00 001 00 00         : DEPTH        - DEPTH
GR  .API      00 310 00 00         : GR           - GAMMA RAY
NPHI.V/V      00 330 00 00         : PHIN         - NEUTRON POROSITY (SANDSTONE)
DPHI.V/V      00 890 00 00         : PHID         - DENSITY POROSITY (SANDSTONE)
ILD .OHMM     00 120 00 00         : RESD         - DEEP RESISTIVITY (OTHER)
~PARAMETER INFORMATION
#MNEM.UNIT           DATA             DESCRIPTION OF MNEMONIC
#---------         -----------     ------------------------------
GL  .M        494                  : gl           - GROUND LEVEL ELEVATION
EREF.M        497.7                : kb           - ELEVATION OF DEPTH REFERENCE
DATM.M        497.7                : datum        - DATUM ELEVATION
TDD .M        294                  : tdd          - TOTAL DEPTH DRILLER
RUN .         ONE                  : Run          - RUN NUMBER
ENG .         BILL                 : Engineer     - RECORDING ENGINEER
WIT .         JIM                  : Witness      - WITNESSED BY
MUD .         GEL                  : Mud_type     - MUD TYPE
MATR.         SANDSTONE            : Logunit      - NEUTRON MATRIX
TMAX.C        25                   : BHT          - MAXIMUM RECORDED TEMPERATURE
BHTD.M        294                  : BHTDEP       - MAXIMUM RECORDED TEMPERATURE
MATR.         1                    : LOGUNIT      - NEUTRON MATRIX
RMT .C        18                   : MDTP         - TEMPERATURE OF MUD
NEUT.         1                    : NEUTRON      - NEUTRON TYPE
RESI.         4.2                  : RESIST       - RESISTIVITY TYPE
RMC .OHMM     3.1                  : RMC          - RESISTIVITY OF MUD CAKE
RMF .OHMM     4.2                  : RMF          - RESISTIVITY OF MUD FILTRATE
SUFT.C        4                    : SUFT         - SURFACE TEMPERATURE
~A  DEPTH       GR     PHIN     PHID     RESD
   80.000   80.237    0.447    0.270    8.382
   80.250   90.226    0.449    0.261    8.406
   80.500   93.788    0.449    0.258    8.574
   80.750   95.007    0.449    0.258    8.925
   81.000   96.827    0.449    0.259    9.465
   81.250   98.646    0.449    0.264   10.032
   81.500   98.724    0.447    0.272   10.633
   81.750   98.220    0.443    0.278   11.704
   82.000   97.156    0.438    0.287   12.398
   82.250   90.245    0.439    0.297   12.891
   82.500   81.631    0.447    0.304   14.737
   82.750   78.204    0.443    0.310   15.913
   83.000   73.617    0.418    0.317   17.506
   83.250   68.467    0.409    0.327   18.544
   83.500   62.157    0.401    0.332   20.424
   83.750   55.846    0.400    0.342   21.236
   84.000   53.581    0.400    0.346   22.080
   84.250   54.259    0.400    0.346   22.560
   84.500   54.917    0.401    0.336   22.612
   84.750   55.594    0.404    0.322   23.103
   85.000   55.652    0.405    0.323   23.169
   85.250   55.730    0.406    0.326   23.646
   85.500   55.807    0.410    0.328   23.687
   85.750   55.884    0.412    0.329   24.670
   86.000   55.400    0.413    0.329   24.670
   86.250   55.497    0.412    0.328   24.341
   86.500   54.974    0.409    0.329   23.905
   86.750   55.071    0.405    0.331   23.960
   87.000   55.129    0.405    0.337   24.015
   87.250   55.187    0.408    0.340   23.191
   87.500   55.265    0.416    0.338   21.177
   87.750   55.361    0.430    0.281   18.631
   88.000   56.020    0.447    0.259   15.501
   88.250   60.762    0.469    0.255   13.386
   88.500   67.789    0.484    0.255   11.770
   88.750  108.556    0.495    0.259    8.757
   89.000  120.267    0.506    0.254    8.147
   89.250  127.933    0.491    0.247    8.963
   89.500  128.591    0.474    0.250   10.051
   89.750  124.584    0.459    0.254   10.653
   90.000  117.131    0.449    0.257   10.891
   90.250  116.589    0.443    0.262   10.910
   90.500  114.924    0.444    0.269   10.935
   90.750  109.775    0.448    0.269   10.954
   91.000  106.388    0.451    0.263   11.192
   91.250  108.188    0.458    0.256   11.422
   91.500  111.188    0.461    0.249   11.664
   91.750  113.008    0.465    0.249   11.697
   92.000  113.666    0.468    0.257   11.717
   92.250  114.324    0.475    0.261   11.744
   92.500  114.421    0.477    0.270   11.771
   92.750  113.356    0.488    0.283   11.798
   93.000  112.233    0.491    0.302   12.281
   93.250  111.730    0.497    0.308   12.534
   93.500  110.065    0.495    0.310   13.300
   93.750  106.658    0.442    0.316   13.581
   94.000  103.812    0.434    0.316   13.620
   94.250  102.148    0.430    0.295   13.636
   94.500  101.083    0.425    0.291   13.683
   94.750   99.418    0.419    0.288   13.964
   95.000   98.334    0.420    0.284   13.988
   95.250   97.850    0.425    0.281   14.037
   95.500   98.469    0.436    0.273   13.809
   95.750  100.889    0.447    0.265   13.825
   96.000  102.147    0.455    0.261   13.601
   96.250  103.405    0.466    0.269   13.157
   96.500  104.025    0.465    0.280   13.172
   96.750  103.522    0.463    0.292   13.443
   97.000   99.534    0.432    0.307   14.248
   97.250   93.204    0.427    0.311   15.987
   97.500   82.828    0.427    0.317   16.945
   97.750   69.529    0.429    0.322   17.970
   98.000   66.703    0.435    0.330   18.329
   98.250   62.135    0.442    0.343   18.727
   98.500   58.747    0.444    0.353   19.112
   98.750   57.663    0.432    0.348   19.167
   99.000   56.579    0.421    0.343   19.212
   99.250   57.237    0.427    0.335   19.256
   99.500   59.076    0.450    0.326   19.300
   99.750   59.695    0.450    0.321   18.637
  100.000   60.353    0.443    0.312   17.997
  100.250   60.431    0.423    0.305   17.058
  100.500   61.108    0.417    0.296   15.861
  100.750   63.508    0.415    0.288   14.500
  101.000   67.070    0.423    0.284   13.986
  101.250   70.051    0.434    0.283   14.832
  101.500   74.194    0.445    0.285   16.327
  101.750   79.498    0.438    0.292   17.640
  102.000   87.144    0.429    0.301   17.661
  102.250   86.060    0.409    0.314   16.749
  102.500   80.330    0.400    0.319   18.086
  102.750   74.581    0.399    0.329   18.837
  103.000   69.431    0.400    0.335   18.848
  103.250   66.625    0.402    0.332   19.608
  103.500   66.102    0.403    0.332   20.023
  103.750   66.179    0.404    0.332   20.843
  104.000   66.276    0.405    0.334   21.708
  104.250   66.334    0.411    0.337   22.155
  104.500   65.831    0.427    0.339   22.193
  104.750   65.347    0.434    0.340   22.257
  105.000   64.263    0.431    0.341   22.295
  105.250   62.017    0.427    0.341   22.346
  105.500   62.094    0.422    0.341   22.398
  105.750   62.733    0.416    0.341   22.449
  106.000   64.553    0.412    0.339   22.924
  106.250   66.392    0.415    0.339   22.977
  106.500   67.669    0.421    0.338   23.030
  106.750   67.708    0.429    0.336   23.109
  107.000   66.643    0.424    0.336   23.149
  107.250   66.121    0.409    0.335   23.202
  107.500   65.056    0.408    0.332   23.269
  107.750   65.114    0.408    0.331   23.336
  108.000   64.630    0.406    0.332   23.390
  108.250   64.688    0.409    0.334   23.430
  108.500   64.785    0.415    0.334   23.471
  108.750   64.281    0.422    0.330   23.994
  109.000   64.378    0.428    0.324   24.036
  109.250   64.997    0.420    0.318   24.558
  109.500   66.256    0.388    0.300   26.503
  109.750   66.333    0.364    0.263   28.602
  110.000   65.249    0.332    0.206   29.224
  110.250   64.165    0.308    0.184   27.173
  110.500   63.661    0.332    0.200   25.755
  110.750   60.816    0.361    0.278   25.338
  111.000   52.182    0.369    0.301   25.411
  111.250   55.183    0.352    0.341   27.455
  111.500   58.144    0.308    0.313   28.546
  111.750   58.222    0.265    0.189   31.422
  112.000   54.253    0.241    0.053   32.709
  112.250   50.266    0.299    0.150   33.362
  112.500   49.743    0.414    0.228   33.439
  112.750   54.486    0.428    0.301   33.516
  113.000   57.447    0.415    0.316   32.365
  113.250   59.286    0.356    0.183   29.009
  113.500   60.525    0.343    0.198   26.989
  113.750   61.183    0.353    0.287   25.123
  114.000   60.680    0.375    0.334   24.260
  114.250   59.034    0.423    0.346   23.867
  114.500   60.854    0.427    0.347   23.467
  114.750   59.770    0.417    0.347   23.101
  115.000   59.828    0.407    0.347   23.140
  115.250   58.782    0.411    0.349   22.766
  115.500   58.260    0.415    0.353   22.818
  115.750   56.014    0.412    0.359   22.449
  116.000   53.169    0.415    0.360   22.513
  116.250   51.504    0.417    0.360   22.552
  116.500   53.323    0.415    0.357   22.617
  116.750   53.981    0.405    0.357   22.656
  117.000   52.897    0.400    0.357   22.721
  117.250   51.252    0.393    0.355   22.787
  117.500   51.310    0.390    0.355   22.839
  117.750   50.245    0.389    0.360   23.322
  118.000   49.722    0.388    0.364   23.376
  118.250   49.239    0.387    0.366   23.429
  118.500   49.316    0.388    0.364   23.483
  118.750   49.974    0.389    0.363   23.980
  119.000   50.032    0.391    0.360   24.021
  119.250   50.109    0.394    0.358   24.090
  119.500   50.206    0.394    0.351   24.146
  119.750   50.284    0.391    0.349   23.755
  120.000   50.342    0.390    0.347   23.809
  120.250   48.115    0.382    0.346   23.410
  120.500   44.108    0.389    0.348   23.464
  120.750   39.540    0.398    0.354   23.518
  121.000   39.036    0.412    0.358   22.710
  121.250   44.921    0.427    0.366   22.355
  121.500   47.902    0.441    0.370   22.394
  121.750   52.083    0.438    0.377   22.459
  122.000   53.903    0.432    0.376   22.523
  122.250   55.142    0.430    0.373   22.146
  122.500   55.200    0.434    0.371   21.800
  122.750   55.858    0.435    0.367   20.662
  123.000   55.935    0.437    0.364   18.520
  123.250   56.013    0.432    0.361   17.534
