~VERSION INFORMATION
 VERS.                 2.0:   CWLS LOG ASCII STANDARD -VERSION 2.0
 WRAP.                  NO:   ONE LINE PER DEPTH STEP
~WELL INFORMATION BLOCK
#MNEM.UNIT           DATA                    DESCRIPTION OF MNEMONIC
#---------    -------------------            -------------------------------
# Generated from Intellog Unique Number	CS_73_76/WELL/2276
WELL.         BOW VALLEY EXPLORATION         : Well_name    - WELL
LOC .         00/07-22-076-16W4/0            : Location     - LOCATION
UWI .         00/07-22-076-16W4/0            : Uwi          - UNIQUE WELL ID
ENTR.         SP                             : Entered      - ENTERED BY
SRVC.         SCHLUMBERGER                   : Scn          - SERVICE COMPANY
STRT.M        353.568                        : top_depth    - START DEPTH
STOP.M        588.068                        : bot_depth    - STOP DEPTH
STEP.M        0.25                           : increment    - STEP LENGTH
 NULL. -999.2500:NULL Value
~CURVE INFORMATION BLOCK
#MNEM UNIT       ERCB CURVE CODE    CURVE DESCRIPTION
#-----------   ------------------   ----------------------------------
DEPT.M        00 001 00 00         : DEPTH        - DEPTH
GR  .API      00 310 00 00         : GR           - GAMMA RAY
DPHI.V/V      00 890 00 00         : PHID         - DENSITY POROSITY (SANDSTONE)
NPHI.V/V      00 330 00 00         : PHIN         - NEUTRON POROSITY (SANDSTONE)
ILD .OHMM     00 120 00 00         : RESD         - DEEP RESISTIVITY (DIL)
~PARAMETER INFORMATION
#MNEM.UNIT           DATA             DESCRIPTION OF MNEMONIC
#---------         -----------     ------------------------------
GL  .M        714.146              : gl           - GROUND LEVEL ELEVATION
EREF.M        723.595              : kb           - ELEVATION OF DEPTH REFERENCE
DATM.M        714.146              : datum        - DATUM ELEVATION
TDD .M        594.36               : tdd          - TOTAL DEPTH DRILLER
RUN .         ONE                  : Run          - RUN NUMBER
ENG .         BILL                 : Engineer     - RECORDING ENGINEER
WIT .         JIM                  : Witness      - WITNESSED BY
MUD .         GEL                  : Mud_type     - MUD TYPE
MATR.         SANDSTONE            : Logunit      - NEUTRON MATRIX
TMAX.C        25.5556              : BHT          - MAXIMUM RECORDED TEMPERATURE
BHTD.M        594.36               : BHTDEP       - MAXIMUM RECORDED TEMPERATURE
MATR.         1                    : LOGUNIT      - NEUTRON MATRIX
RMT .C        25                   : MDTP         - TEMPERATURE OF MUD
NEUT.         1                    : NEUTRON      - NEUTRON TYPE
RESI.         0                    : RESIST       - RESISTIVITY TYPE
RMC .OHMM     0.25                 : RMC          - RESISTIVITY OF MUD CAKE
RMF .OHMM     0.25                 : RMF          - RESISTIVITY OF MUD FILTRATE
SUFT.C        15                   : SUFT         - SURFACE TEMPERATURE
~A  DEPTH       GR     PHID     PHIN     RESD
# ...
  397.068   83.101    0.257    0.494    6.327
  397.318   72.644    0.269    0.514    7.374
  397.568   62.175    0.278    0.540    8.384
  397.818   50.011    0.292    0.513    9.834
  398.068   40.790    0.327    0.488   11.017
  398.318   35.931    0.417    0.507   11.687
  398.568   35.627    0.423    0.546   12.305
  398.818   40.585    0.332    0.517   11.883
  399.068   42.418    0.309    0.469   11.551
  399.318   40.432    0.310    0.429   10.963
  399.568   39.946    0.318    0.428   10.636
  399.818   40.737    0.338    0.437   10.526
  400.068   40.694    0.334    0.442   10.408
  400.318   40.686    0.326    0.451   10.217
  400.568   40.671    0.317    0.445   10.226
  400.818   40.664    0.310    0.448   10.226
  401.068   41.870    0.325    0.435   10.225
  401.318   43.199    0.321    0.435   10.224
  401.568   44.212    0.324    0.447   10.223
  401.818   45.237    0.329    0.456   10.221
  402.068   45.414    0.322    0.458   10.221
  402.318   45.419    0.327    0.449   10.218
  402.568   45.444    0.344    0.447   10.199
  402.818   44.639    0.344    0.448   10.421
  403.068   43.106    0.329    0.449   10.402
  403.318   42.101    0.328    0.444   10.386
  403.568   41.810    0.349    0.446   10.603
  403.818   44.104    0.347    0.449   10.741
  404.068   46.269    0.344    0.439   10.791
  404.318   45.974    0.351    0.431   10.791
  404.568   45.281    0.346    0.439   11.008
  404.818   46.132    0.355    0.453   10.992
  405.068   47.087    0.356    0.450   10.989
  405.318   47.834    0.353    0.438   10.989
  405.568   47.028    0.357    0.430   10.989
  405.818   45.518    0.354    0.436   10.970
  406.068   44.693    0.320    0.441   11.210
  406.318   44.711    0.317    0.450   11.189
  406.568   45.149    0.329    0.461   11.187
  406.818   46.179    0.340    0.459   11.186
  407.068   46.492    0.334    0.454   11.184
  407.318   46.557    0.340    0.444   11.183
  407.568   45.811    0.333    0.439   11.182
  407.818   45.898    0.334    0.443   11.181
  408.068   45.294    0.339    0.436   11.174
  408.318   44.627    0.321    0.424   11.137
  408.568   44.601    0.326    0.437   10.965
  408.818   45.972    0.336    0.443   10.865
  409.068   45.853    0.331    0.452   10.773
  409.318   45.880    0.340    0.471   10.773
  409.568   44.934    0.329    0.456   10.857
  409.818   43.151    0.318    0.447   10.974
  410.068   38.233    0.300    0.441   11.319
  410.318   36.641    0.301    0.425   11.607
  410.568   35.056    0.308    0.404   11.587
  410.818   37.457    0.310    0.396   11.588
  411.068   39.544    0.331    0.448   11.599
  411.318   41.546    0.353    0.484   11.381
  411.568   42.594    0.334    0.458   11.267
  411.818   42.867    0.340    0.438   10.884
  412.068   43.888    0.348    0.436   10.387
  412.318   44.566    0.352    0.442   10.062
  412.568   45.208    0.361    0.458    9.971
  412.818   45.140    0.361    0.475    9.810
  413.068   44.949    0.357    0.484    9.602
  413.318   43.913    0.349    0.493    9.622
  413.568   41.935    0.358    0.476    9.621
  413.818   40.152    0.365    0.467    9.620
  414.068   38.590    0.361    0.476    9.619
  414.318   37.566    0.372    0.483    9.623
  414.568   37.458    0.367    0.476    9.655
  414.818   38.510    0.363    0.467    9.801
  415.068   38.836    0.358    0.462    9.891
  415.318   39.091    0.355    0.466    9.965
  415.568   39.621    0.359    0.472   10.131
  415.818   39.633    0.357    0.459   10.136
  416.068   40.319    0.351    0.448   10.356
  416.318   40.760    0.346    0.457   10.343
  416.568   41.079    0.340    0.464   10.348
  416.818   41.478    0.332    0.468   10.345
  417.068   41.190    0.333    0.464   10.571
  417.318   39.474    0.346    0.473   10.323
  417.568   37.947    0.341    0.487   10.341
  417.818   37.244    0.335    0.500   10.339
  418.068   37.271    0.341    0.498   10.338
  418.318   37.212    0.360    0.504   10.337
  418.568   37.851    0.347    0.504   10.337
  418.818   38.486    0.354    0.509   10.340
  419.068   38.388    0.355    0.498   10.180
  419.318   39.344    0.346    0.485   10.148
  419.568   39.638    0.333    0.483   10.142
  419.818   40.263    0.340    0.473   10.161
  420.068   40.359    0.351    0.467    9.936
  420.318   41.381    0.360    0.475    9.953
  420.568   42.408    0.358    0.482    9.836
  420.818   42.588    0.363    0.486    9.774
  421.068   42.040    0.362    0.490    9.765
  421.318   41.054    0.348    0.492    9.669
  421.568   40.088    0.338    0.494    9.591
  421.818   38.515    0.345    0.491    9.585
  422.068   38.236    0.349    0.481    9.586
  422.318   36.517    0.341    0.491    9.587
  422.568   36.164    0.333    0.498    9.447
  422.818   35.306    0.326    0.503    9.412
  423.068   35.346    0.330    0.495    9.405
  423.318   35.769    0.336    0.478    9.404
  423.568   36.040    0.348    0.455    9.403
  423.818   37.109    0.350    0.461    9.402
  424.068   37.403    0.355    0.474    9.403
  424.318   38.348    0.365    0.487    9.408
  424.568   38.285    0.370    0.496    9.245
  424.818   37.991    0.365    0.502    9.231
  425.068   37.705    0.381    0.498    9.226
  425.318   37.639    0.385    0.486    9.220
  425.568   38.529    0.368    0.480    9.153
  425.818   39.474    0.357    0.485    9.054
  426.068   39.905    0.353    0.503    9.069
  426.318   40.191    0.363    0.509    8.868
  426.568   41.231    0.369    0.500    8.885
  426.818   42.208    0.376    0.488    8.884
  427.068   43.189    0.362    0.481    8.883
  427.318   44.124    0.367    0.493    8.881
  427.568   45.764    0.367    0.502    8.863
  427.818   46.611    0.374    0.502    9.061
  428.068   47.057    0.382    0.492    9.030
  428.318   46.363    0.375    0.489    9.234
  428.568   44.716    0.369    0.484    9.227
  428.818   44.197    0.364    0.476    9.374
  429.068   43.449    0.368    0.475    9.579
  429.318   44.169    0.374    0.481    9.558
  429.568   44.073    0.367    0.469    9.850
  429.818   44.765    0.359    0.462   10.104
  430.068   45.313    0.348    0.474   10.272
  430.318   45.245    0.354    0.484   10.464
  430.568   45.944    0.358    0.493   10.678
  430.818   46.467    0.363    0.493   10.846
  431.068   46.892    0.357    0.498   10.861
  431.318   46.596    0.354    0.495   10.870
  431.568   47.702    0.340    0.484   10.692
  431.818   48.398    0.342    0.477   10.569
  432.068   47.628    0.342    0.485   10.676
  432.318   46.643    0.325    0.495   11.288
  432.568   45.615    0.314    0.509   12.488
  432.818   45.270    0.287    0.305   15.138
  433.068   44.336    0.231    0.235   26.258
  433.318   42.640    0.125    0.164   48.387
  433.568   41.717    0.005    0.143   60.971
  433.818   40.661    0.023    0.139   68.666
  434.068   40.371    0.014    0.138   71.909
  434.318   39.841    0.016    0.137   73.081
  434.568   40.084    0.011    0.137   67.317
  434.818   41.112    0.021    0.150   48.764
  435.068   41.978    0.034    0.182   31.485
  435.318   44.551    0.073    0.273   20.175
  435.568   46.424    0.161    0.355   15.299
  435.818   48.254    0.262    0.455   12.130
  436.068   49.749    0.347    0.521   10.427
  436.318   50.559    0.375    0.532    9.901
  436.568   51.507    0.362    0.528    9.401
  436.818   52.312    0.367    0.505    9.406
  437.068   50.700    0.366    0.500   10.170
  437.318   49.061    0.361    0.502   11.969
  437.568   47.462    0.321    0.483   14.184
  437.818   47.509    0.291    0.484   17.407
  438.068   48.407    0.123    0.202   18.166
  438.318   49.363    0.028    0.207   14.290
  438.568   53.126    0.021    0.246   10.275
  438.818   59.148    0.151    0.381    7.261
  439.068   69.648    0.256    0.416    5.668
  439.318   81.550    0.309    0.490    4.997
  439.568   83.874    0.333    0.533    4.293
  439.818   78.097    0.322    0.545    4.682
  440.068   73.767    0.324    0.567    5.619
  440.318   71.223    0.332    0.579    6.313
