~VERSION INFORMATION
 VERS.                 2.0:   CWLS LOG ASCII STANDARD -VERSION 2.0
 WRAP.                  NO:   ONE LINE PER DEPTH STEP
~WELL INFORMATION BLOCK
#MNEM.UNIT           DATA                    DESCRIPTION OF MNEMONIC
#---------    -------------------            -------------------------------
# Generated from Intellog Unique Number	CX_WELLS/WELL/3115
WELL.         CDNOXY NEWBY                   : Well_name    - WELL
LOC .         00/07-06-083-03W4/0            : Location     - LOCATION
UWI .         00/07-06-083-03W400            : Uwi          - UNIQUE WELL ID
ENTR.         TIM                            : Entered      - ENTERED BY
SRVC.         SCHLUMBERGER                   : Scn          - SERVICE COMPANY
STRT.M        100                            : top_depth    - START DEPTH
STOP.M        300                            : bot_depth    - STOP DEPTH
STEP.M        0.25                           : increment    - STEP LENGTH
 NULL. -999.2500:NULL Value
~CURVE INFORMATION BLOCK
#MNEM UNIT       ERCB CURVE CODE    CURVE DESCRIPTION
#-----------   ------------------   ----------------------------------
DEPT.M        00 001 00 00         : DEPTH        - DEPTH
GR  .API      00 310 00 00         : GR           - GAMMA RAY
NPHI.V/V      00 330 00 00         : PHIN         - NEUTRON POROSITY (SANDSTONE)
DPHI.V/V      00 890 00 00         : PHID         - DENSITY POROSITY (SANDSTONE)
ILD .OHMM     00 120 00 00         : RESD         - DEEP RESISTIVITY (OTHER)
~PARAMETER INFORMATION
#MNEM.UNIT           DATA             DESCRIPTION OF MNEMONIC
#---------         -----------     ------------------------------
GL  .M        502.3                : gl           - GROUND LEVEL ELEVATION
EREF.M        507.1                : kb           - ELEVATION OF DEPTH REFERENCE
DATM.M        507.1                : datum        - DATUM ELEVATION
TDD .M        311                  : tdd          - TOTAL DEPTH DRILLER
RUN .         ONE                  : Run          - RUN NUMBER
ENG .         BILL                 : Engineer     - RECORDING ENGINEER
WIT .         JIM                  : Witness      - WITNESSED BY
MUD .         GEL                  : Mud_type     - MUD TYPE
MATR.         SANDSTONE            : Logunit      - NEUTRON MATRIX
TMAX.C        17                   : BHT          - MAXIMUM RECORDED TEMPERATURE
BHTD.M        311                  : BHTDEP       - MAXIMUM RECORDED TEMPERATURE
MATR.         1                    : LOGUNIT      - NEUTRON MATRIX
RMT .C        17                   : MDTP         - TEMPERATURE OF MUD
NEUT.         1                    : NEUTRON      - NEUTRON TYPE
RESI.         4                    : RESIST       - RESISTIVITY TYPE
RMC .OHMM     7.7                  : RMC          - RESISTIVITY OF MUD CAKE
RMF .OHMM     8.4                  : RMF          - RESISTIVITY OF MUD FILTRATE
SUFT.C        4                    : SUFT         - SURFACE TEMPERATURE
~A  DEPTH       GR     PHIN     PHID     RESD
# ...
  274.000   36.954    0.393    0.319    1.514
  274.250   45.042    0.384    0.269    1.601
  274.500   58.115    0.377    0.245    1.792
  274.750   69.943    0.371    0.283    1.896
  275.000   74.286    0.363    0.305    1.896
  275.250   78.014    0.343    0.315    1.896
  275.500   76.129    0.364    0.323    1.896
  275.750   62.400    0.397    0.330    1.896
  276.000   51.165    0.413    0.339    1.792
  276.250   43.046    0.419    0.352    1.726
  276.500   37.420    0.420    0.357    1.693
  276.750   31.791    0.418    0.357    1.662
  277.000   29.274    0.414    0.357    1.631
  277.250   28.639    0.411    0.358    1.600
  277.500   28.004    0.402    0.358    1.600
  277.750   27.984    0.390    0.353    1.570
  278.000   27.968    0.384    0.350    1.570
  278.250   29.823    0.391    0.344    1.600
  278.500   32.928    0.397    0.334    1.693
  278.750   38.522    0.397    0.317    1.757
  279.000   42.246    0.386    0.288    1.894
  279.250   47.216    0.374    0.248    2.160
  279.500   54.057    0.388    0.221    2.418
  279.750   70.875    0.408    0.194    2.863
  280.000   84.572    0.447    0.189    3.327
  280.250  105.125    0.462    0.192    3.724
  280.500  108.849    0.460    0.193    4.090
  280.750  110.700    0.458    0.197    4.247
  281.000  111.307    0.463    0.206    4.327
  281.250  110.041    0.469    0.211    4.327
  281.500  108.787    0.480    0.224    4.327
  281.750  105.027    0.497    0.232    4.167
  282.000  102.522    0.505    0.231    4.013
  282.250  103.126    0.495    0.225    3.865
  282.500  106.226    0.486    0.221    3.793
  282.750  111.197    0.482    0.204    3.793
  283.000  114.921    0.473    0.197    3.792
  283.250  116.776    0.468    0.193    3.792
  283.500  116.760    0.466    0.188    3.864
  283.750  114.251    0.465    0.185    3.864
  284.000  109.249    0.461    0.184    3.721
  284.250  101.753    0.457    0.196    3.452
  284.500   88.025    0.448    0.232    3.202
  284.750   78.659    0.377    0.287    3.026
  285.000   56.204    0.344    0.291    2.755
  285.250   40.602    0.339    0.285    2.555
  285.500   34.968    0.331    0.279    2.326
  285.750   32.464    0.327    0.276    2.117
  286.000   31.201    0.326    0.282    1.856
  286.250   30.566    0.326    0.290    1.755
  286.500   31.166    0.324    0.288    1.722
  286.750   31.781    0.329    0.285    1.722
  287.000   37.999    0.329    0.282    1.754
  287.250   67.278    0.341    0.282    1.788
  287.500   75.362    0.364    0.304    1.787
  287.750   74.100    0.392    0.310    1.627
  288.000   70.348    0.397    0.319    1.538
  288.250   60.983    0.380    0.328    1.454
  288.500   46.631    0.374    0.332    1.426
  288.750   36.642    0.385    0.332    1.426
  289.000   34.752    0.384    0.331    1.453
  289.250   33.490    0.380    0.328    1.481
  289.500   31.604    0.373    0.324    1.537
  289.750   30.342    0.368    0.322    1.657
  290.000   30.326    0.357    0.317    1.721
  290.250   30.311    0.344    0.305    1.753
  290.500   29.671    0.336    0.291    1.786
  290.750   30.279    0.333    0.280    1.820
  291.000   30.887    0.333    0.280    1.855
  291.250   32.117    0.340    0.282    1.890
  291.500   33.348    0.345    0.285    1.925
  291.750   33.329    0.344    0.288    1.999
  292.000   33.313    0.339    0.288    2.037
  292.250   33.297    0.333    0.287    2.037
  292.500   33.282    0.332    0.279    2.075
  292.750   34.512    0.329    0.273    2.075
  293.000   35.124    0.328    0.261    2.114
  293.250   36.978    0.338    0.248    2.114
  293.500   41.326    0.340    0.225    2.114
  293.750   46.296    0.349    0.201    2.154
  294.000   45.657    0.401    0.181    2.195
  294.250   43.148    0.390    0.183    2.366
  294.500   39.393    0.371    0.210    2.550
  294.750   35.010    0.352    0.198    2.908
  295.000   32.505    0.321    0.175    3.576
  295.250   29.996    0.275    0.171    4.479
  295.500   25.613    0.282    0.185    8.325
  295.750   23.727    0.401    0.205   14.901
  296.000   23.088    0.388    0.204   17.979
  296.250   22.445    0.357    0.164   19.381
  296.500   22.438    0.295    0.147   19.747
  296.750   22.414    0.213    0.118   19.379
  297.000   22.406    0.202    0.092   19.378
  297.250   23.014    0.186    0.065   19.017
  297.500   23.617    0.173    0.048   18.662
  297.750   24.844    0.168    0.039   18.313
  298.000   24.836    0.170    0.031   19.013
  298.250   26.067    0.173    0.023   19.373
  298.500   26.667    0.178    0.014   19.372
  298.750   26.647    0.181    0.010   18.309
  299.000   27.263    0.195    0.008   17.306
  299.250   29.109    0.214    0.007   15.460
  299.500   30.348    0.225    0.007   14.890
  299.750   32.202    0.234    0.007   14.340
  300.000   32.810    0.237    0.009   14.339
