~VERSION INFORMATION
 VERS.                 2.0:   CWLS LOG ASCII STANDARD -VERSION 2.0
 WRAP.                  NO:   ONE LINE PER DEPTH STEP
~WELL INFORMATION BLOCK
#MNEM.UNIT           DATA                    DESCRIPTION OF MNEMONIC
#---------    -------------------            -------------------------------
# Generated from Intellog Unique Number	CX_WELLS/WELL/2544
WELL.         DOME ET AL NEWBY               : Well_name    - WELL
LOC .         00/07-25-080-03W4/0            : Location     - LOCATION
UWI .         00/07-25-080-03W400            : Uwi          - UNIQUE WELL ID
ENTR.         T                              : Entered      - ENTERED BY
SRVC.         SCHLUMBERGER                   : Scn          - SERVICE COMPANY
STRT.M        75                             : top_depth    - START DEPTH
STOP.M        330                            : bot_depth    - STOP DEPTH
STEP.M        0.25                           : increment    - STEP LENGTH
 NULL. -999.2500:NULL Value
~CURVE INFORMATION BLOCK
#MNEM UNIT       ERCB CURVE CODE    CURVE DESCRIPTION
#-----------   ------------------   ----------------------------------
DEPT.M        00 001 00 00         : DEPTH        - DEPTH
GR  .API      00 310 00 00         : GR           - GAMMA RAY
NPHI.V/V      00 330 00 00         : PHIN         - NEUTRON POROSITY (SANDSTONE)
DPHI.V/V      00 890 00 00         : PHID         - DENSITY POROSITY (SANDSTONE)
ILD .OHMM     00 120 00 00         : RESD         - DEEP RESISTIVITY (DIL)
~PARAMETER INFORMATION
#MNEM.UNIT           DATA             DESCRIPTION OF MNEMONIC
#---------         -----------     ------------------------------
GL  .M        482.7                : gl           - GROUND LEVEL ELEVATION
EREF.M        486.3                : kb           - ELEVATION OF DEPTH REFERENCE
DATM.M        486.3                : datum        - DATUM ELEVATION
TDD .M        338                  : tdd          - TOTAL DEPTH DRILLER
RUN .         ONE                  : Run          - RUN NUMBER
ENG .         BILL                 : Engineer     - RECORDING ENGINEER
WIT .         JIM                  : Witness      - WITNESSED BY
MUD .         GEL                  : Mud_type     - MUD TYPE
MATR.         SANDSTONE            : Logunit      - NEUTRON MATRIX
TMAX.C        20                   : BHT          - MAXIMUM RECORDED TEMPERATURE
BHTD.M        338                  : BHTDEP       - MAXIMUM RECORDED TEMPERATURE
MATR.         1                    : LOGUNIT      - NEUTRON MATRIX
RMT .C        18                   : MDTP         - TEMPERATURE OF MUD
NEUT.         1                    : NEUTRON      - NEUTRON TYPE
RESI.         2.4                  : RESIST       - RESISTIVITY TYPE
RMC .OHMM     2.16                 : RMC          - RESISTIVITY OF MUD CAKE
RMF .OHMM     2.16                 : RMF          - RESISTIVITY OF MUD FILTRATE
SUFT.C        5                    : SUFT         - SURFACE TEMPERATURE
~A  DEPTH       GR     PHIN     PHID     RESD
   75.000   95.853    0.466    0.295    5.673
   75.250   88.284    0.449    0.307    5.990
   75.500   77.223    0.437    0.306    5.874
   75.750   74.290    0.444    0.297    5.350
   76.000   80.657    0.452    0.269    5.060
   76.250   89.929    0.462    0.274    4.608
   76.500   96.877    0.467    0.283    4.691
   76.750   98.016    0.481    0.298    5.045
   77.000   97.987    0.506    0.303    5.527
   77.250   97.969    0.478    0.270    5.733
   77.500   97.366    0.460    0.250    6.518
   77.750   95.019    0.462    0.253    7.142
   78.000   90.924    0.474    0.283    8.120
   78.250   85.667    0.601    0.445    9.404
   78.500   82.745    0.592    0.394   15.469
   78.750   78.074    0.473    0.362   17.916
   79.000   69.913    0.442    0.352   20.370
   79.250   65.242    0.395    0.361   23.154
   79.500   61.153    0.375    0.365   25.372
   79.750   59.387    0.378    0.367   25.344
   80.000   61.107    0.381    0.357   24.409
   80.250   64.569    0.383    0.344   22.651
   80.500   69.194    0.389    0.333   19.162
   80.750   74.399    0.407    0.322   17.141
   81.000   80.755    0.441    0.320   15.608
   81.250   77.821    0.450    0.323   15.892
   81.500   76.061    0.439    0.332   16.779
   81.750   73.720    0.433    0.337   17.080
   82.000   73.116    0.428    0.339   17.380
   82.250   74.255    0.429    0.342   16.735
   82.500   76.544    0.432    0.343   17.032
   82.750   77.689    0.439    0.336   16.399
   83.000   80.565    0.444    0.319   16.082
   83.250   84.033    0.439    0.301   17.299
   83.500   86.328    0.432    0.291   18.268
   83.750   85.143    0.430    0.300   18.939
   84.000   83.377    0.425    0.306   19.279
   84.250   81.031    0.422    0.314   19.612
   84.500   79.265    0.420    0.306   19.604
   84.750   79.823    0.416    0.305   19.586
   85.000   80.381    0.424    0.305   19.565
   85.250   79.771    0.441    0.306   19.543
   85.500   78.000    0.435    0.306   19.526
   85.750   77.988    0.417    0.305   19.509
   86.000   80.289    0.405    0.299   18.785
   86.250   84.913    0.419    0.292   17.432
   86.500   89.526    0.454    0.278   15.881
   86.750   88.341    0.453    0.268   15.576
   87.000   88.313    0.415    0.278   17.386
   87.250   87.714    0.413    0.293   18.706
   87.500   85.368    0.434    0.305   21.268
   87.750   83.602    0.443    0.324   22.460
   88.000   82.417    0.450    0.336   22.430
   88.250   81.813    0.451    0.340   22.000
   88.500   81.790    0.456    0.341   21.584
   88.750   82.342    0.460    0.343   21.550
   89.000   82.906    0.462    0.345   21.541
   89.250   85.201    0.456    0.349   21.527
   89.500   88.669    0.443    0.351   21.498
   89.750   93.869    0.432    0.347   21.091
   90.000   96.751    0.433    0.341   21.077
   90.250   97.895    0.453    0.325   19.915
   90.500   99.603    0.489    0.302   18.829
   90.750  101.904    0.487    0.276   17.146
   91.000  105.953    0.481    0.259   16.211
   91.250  111.159    0.475    0.262   15.606
   91.500  115.202    0.467    0.267   15.310
   91.750  118.653    0.447    0.276   15.300
   92.000  115.156    0.446    0.280   15.287
   92.250  108.743    0.457    0.266   15.270
   92.500   97.677    0.456    0.252   15.257
   92.750   87.778    0.456    0.235   14.687
   93.000   84.844    0.454    0.226   14.409
   93.250   86.570    0.443    0.241   13.617
   93.500   88.865    0.449    0.276   13.115
   93.750   91.166    0.456    0.286   11.943
   94.000   93.460    0.461    0.281   11.292
   94.250   94.599    0.465    0.281   10.674
   94.500   93.990    0.467    0.280   10.085
   94.750   93.978    0.466    0.279    9.896
   95.000   93.955    0.472    0.277   10.070
   95.250   96.831    0.478    0.273   11.034
   95.500   99.138    0.486    0.270   12.548
   95.750  102.589    0.492    0.268   14.267
   96.000  103.727    0.468    0.282   16.523
   96.250  100.806    0.453    0.327   19.136
   96.500   94.973    0.434    0.356   22.158
   96.750   86.236    0.422    0.363   23.835
   97.000   74.583    0.410    0.355   25.645
   97.250   76.303    0.412    0.346   26.587
   97.500   79.772    0.419    0.340   28.064
   97.750   84.971    0.425    0.339   28.052
   98.000   90.182    0.457    0.350   28.021
   98.250   93.639    0.541    0.377   25.997
   98.500   90.717    0.614    0.581   25.043
   98.750   81.394    0.618    0.542   24.103
   99.000   57.553    0.593    0.502   24.988
   99.250   53.463    0.557    0.440   25.911
   99.500   55.758    0.449    0.389   26.862
   99.750   56.310    0.396    0.376   27.332
  100.000   59.779    0.407    0.366   27.817
  100.250   67.308    0.430    0.363   26.295
  100.500   70.189    0.439    0.362   23.955
  100.750   74.814    0.441    0.361   21.823
  101.000   78.857    0.440    0.352   19.513
  101.250   83.476    0.437    0.335   19.139
  101.500   88.681    0.437    0.328   20.972
  101.750   92.725    0.441    0.328   21.746
  102.000   91.545    0.434    0.329   22.127
  102.250   85.713    0.424    0.327   22.515
  102.500   80.456    0.416    0.306   22.500
  102.750   81.014    0.422    0.277   21.670
  103.000   90.867    0.422    0.248   20.109
  103.250   97.809    0.409    0.237   17.325
  103.500   93.144    0.402    0.247   16.682
  103.750   87.312    0.423    0.280   17.294
  104.000   85.546    0.509    0.288   18.263
  104.250   93.651    0.552    0.304   17.581
  104.500   89.561    0.576    0.372   17.893
  104.750   83.729    0.494    0.330   18.219
  105.000   72.087    0.391    0.335   20.326
  105.250   65.668    0.388    0.346   21.474
  105.500   58.093    0.403    0.357   23.969
  105.750   45.865    0.427    0.353   27.246
  106.000   48.752    0.420    0.346   29.848
  106.250   52.215    0.390    0.341   30.391
  106.500   55.678    0.396    0.342   30.930
  106.750   57.967    0.420    0.349   27.650
  107.000   57.944    0.430    0.358   25.664
  107.250   57.340    0.445    0.363   22.528
  107.500   57.317    0.451    0.316   20.148
  107.750   66.013    0.454    0.289   18.359
  108.000   75.285    0.452    0.283   16.118
  108.250   85.719    0.450    0.286   17.018
  108.500   95.566    0.443    0.288   19.705
  108.750   90.320    0.435    0.293   21.201
  109.000   85.069    0.423    0.301   22.806
  109.250   78.650    0.410    0.305   24.527
  109.500   76.303    0.411    0.316   24.968
  109.750   72.789    0.411    0.349   25.873
  110.000   69.286    0.414    0.342   26.343
  110.250   66.934    0.427    0.348   26.805
  110.500   66.917    0.424    0.349   27.280
  110.750   66.882    0.419    0.337   27.758
  111.000   66.865    0.418    0.340   27.746
  111.250   66.261    0.421    0.351   27.721
  111.500   66.813    0.427    0.363   26.693
  111.750   67.371    0.432    0.357   26.170
  112.000   66.767    0.430    0.344   26.146
  112.250   63.253    0.429    0.333   26.616
  112.500   61.493    0.428    0.330   27.082
  112.750   59.146    0.420    0.333   27.058
  113.000   63.184    0.413    0.334   27.029
  113.250   69.551    0.408    0.334   27.011
  113.500   73.014    0.414    0.336   26.987
  113.750   72.991    0.418    0.339   26.957
  114.000   71.219    0.392    0.342   26.945
  114.250   70.034    0.396    0.344   26.910
  114.500   70.011    0.424    0.350   26.886
  114.750   69.982    0.434    0.354   27.363
  115.000   69.971    0.439    0.353   27.848
  115.250   69.356    0.429    0.349   28.348
  115.500   68.763    0.411    0.352   28.851
  115.750   67.578    0.396    0.357   28.826
  116.000   65.226    0.415    0.360   29.877
  116.250   65.203    0.421    0.352   30.400
  116.500   69.246    0.424    0.335   30.953
  116.750   73.871    0.432    0.322   29.805
  117.000   78.489    0.440    0.329   27.652
  117.250   83.120    0.449    0.310   24.730
  117.500   86.576    0.455    0.307   22.529
  117.750   88.877    0.463    0.313   20.907
  118.000   90.591    0.460    0.318   19.763
  118.250   91.160    0.459    0.327   18.677
