~VERSION INFORMATION
 VERS.                 2.0:   CWLS LOG ASCII STANDARD -VERSION 2.0
 WRAP.                  NO:   ONE LINE PER DEPTH STEP
~WELL INFORMATION BLOCK
#MNEM.UNIT           DATA                    DESCRIPTION OF MNEMONIC
#---------    -------------------            -------------------------------
# Generated from Intellog Unique Number	CW_76_78/WELL/2566
WELL.         NOVALTA PORTAGE                : Well_name    - WELL
LOC .         00/05-29-078-19W4/0            : Location     - LOCATION
UWI .         00/05-29-078-19W4/0            : Uwi          - UNIQUE WELL ID
ENTR.         MAX                            : Entered      - ENTERED BY
SRVC.         WESTERN ATLAS                  : Scn          - SERVICE COMPANY
STRT.M        190                            : top_depth    - START DEPTH
STOP.M        400                            : bot_depth    - STOP DEPTH
STEP.M        0.25                           : increment    - STEP LENGTH
 NULL. -999.2500:NULL Value
~CURVE INFORMATION BLOCK
#MNEM UNIT       ERCB CURVE CODE    CURVE DESCRIPTION
#-----------   ------------------   ----------------------------------
DEPT.M        00 001 00 00         : DEPTH        - DEPTH
ILD .OHMM     00 120 00 00         : RESD         - DEEP RESISTIVITY (DIL)
NPHI.V/V      00 330 00 00         : PHIN         - NEUTRON POROSITY (SANDSTONE)
DPHI.V/V      00 890 00 00         : PHID         - DENSITY POROSITY (SANDSTONE)
CALI.MM       00 280 01 00         : CAL          - CALIPER
GR  .API      00 310 00 00         : GR           - GAMMA RAY
~PARAMETER INFORMATION
#MNEM.UNIT           DATA             DESCRIPTION OF MNEMONIC
#---------         -----------     ------------------------------
GL  .M        559.38               : gl           - GROUND LEVEL ELEVATION
EREF.M        563.38               : kb           - ELEVATION OF DEPTH REFERENCE
DATM.M        559.38               : datum        - DATUM ELEVATION
TDD .M        433.8                : tdd          - TOTAL DEPTH DRILLER
RUN .         ONE                  : Run          - RUN NUMBER
ENG .         BILL                 : Engineer     - RECORDING ENGINEER
WIT .         JIM                  : Witness      - WITNESSED BY
MUD .         GEL                  : Mud_type     - MUD TYPE
MATR.         SANDSTONE            : Logunit      - NEUTRON MATRIX
TMAX.C        24                   : BHT          - MAXIMUM RECORDED TEMPERATURE
BHTD.M        433.8                : BHTDEP       - MAXIMUM RECORDED TEMPERATURE
RMT .C        17                   : MDTP         - TEMPERATURE OF MUD
MUDD.KG/M     1160                 : MWT          - MUD DENSITY
NEUT.         1                    : NEUTRON      - NEUTRON TYPE
RESI.         0                    : RESIST       - RESISTIVITY TYPE
RM  .OHMM     5                    : RM           - RESISTIVITY OF MUD
RMC .OHMM     0.25                 : RMC          - RESISTIVITY OF MUD CAKE
RMF .OHMM     0.25                 : RMF          - RESISTIVITY OF MUD FILTRATE
SUFT.C        -20                  : SUFT         - SURFACE TEMPERATURE
~A  DEPTH     RESD     PHIN     PHID      CAL       GR
# ...
  263.000   14.484    0.475    0.357  176.670   56.459
  263.250   14.346    0.476    0.355  174.167   57.950
  263.500   14.345    0.478    0.364  173.159   58.244
  263.750   14.342    0.475    0.360  173.159   57.340
  264.000   14.340    0.466    0.345  172.637   56.436
  264.250   14.337    0.457    0.339  172.633   56.130
  264.500   14.203    0.445    0.338  171.625   56.423
  264.750   14.071    0.443    0.343  170.119   56.719
  265.000   14.068    0.443    0.372  169.610   57.911
  265.250   14.196    0.446    0.398  171.598   59.702
  265.500   14.325    0.455    0.397  172.586   60.595
  265.750   14.455    0.456    0.374  172.078   59.989
  266.000   14.320    0.457    0.349  170.072   59.985
  266.250   13.928    0.460    0.336  168.565   60.877
  266.500   13.178    0.462    0.335  166.559   62.070
  266.750   12.700    0.466    0.351  166.549   63.861
  267.000   12.352    0.470    0.375  166.549   67.449
  267.250   12.237    0.472    0.373  166.027   68.341
  267.500   12.237    0.471    0.364  165.025   66.540
  267.750   12.346    0.467    0.363  162.519   62.342
  268.000   12.806    0.454    0.361  162.010   61.437
  268.250   12.922    0.446    0.361  162.000   62.929
  268.500   13.160    0.432    0.358  161.494   65.319
  268.750   13.279    0.415    0.353  161.483   67.110
  269.000   13.399    0.403    0.385  161.473   68.302
  269.250   13.399    0.392    0.380  161.465   69.196
  269.500   13.518    0.372    0.360  161.455   69.788
  269.750   13.895    0.367    0.367  161.455   69.782
  270.000   13.895    0.361    0.365  161.435   69.479
  270.250   14.279    0.381    0.358  160.928   69.472
  270.500   15.796    0.379    0.351  160.920   68.867
  270.750   19.336    0.353    0.339  160.409   68.263
  271.000   21.195    0.313    0.300  160.402   67.360
  271.250   26.917    0.117    0.269  159.891   64.659
  271.500   31.179    0.116    0.156  159.883   56.568
  271.750   36.787    0.118    0.165  159.872   49.074
  272.000   41.834    0.115    0.207  159.864   50.567
  272.250   40.690    0.120    0.284  159.854   61.341
  272.500   35.440    0.159    0.309  159.847   63.433
  272.750   23.640    0.310    0.324  159.837   67.020
  273.000   18.102    0.329    0.346  159.827   68.213
  273.250   16.208    0.333    0.367  159.319   68.507
  273.500   15.194    0.336    0.368  159.310   68.501
  273.750   14.779    0.341    0.362  159.300   68.496
  274.000   14.507    0.347    0.346  158.792   68.490
  274.250   14.240    0.359    0.323  158.782   67.585
  274.500   13.850    0.363    0.314  158.773   66.383
  274.750   13.470    0.369    0.304  159.261   66.676
  275.000   13.223    0.373    0.323  159.251   69.366
  275.250   13.100    0.375    0.331  159.244   72.655
  275.500   12.978    0.377    0.319  159.235   75.644
  275.750   12.622    0.382    0.339  160.224   75.039
  276.000   12.053    0.390    0.356  160.714   76.830
  276.250   11.509    0.398    0.363  161.701   80.718
  276.500   10.691    0.409    0.368  162.191   89.098
  276.750    9.750    0.425    0.377  163.680   90.588
  277.000    9.140    0.440    0.385  165.166   89.686
  277.250    8.413    0.447    0.370  166.655   89.379
  277.500    7.887    0.450    0.364  169.141   90.572
  277.750    7.259    0.458    0.382  171.628   89.069
  278.000    6.995    0.473    0.395  175.113   89.363
  278.250    6.930    0.482    0.394  175.603   91.454
  278.500    7.189    0.476    0.371  176.091   90.251
  278.750    7.596    0.461    0.359  176.083   81.261
  279.000    9.212    0.447    0.358  176.073   76.164
  279.250    9.733    0.430    0.354  175.064   71.367
  279.500   10.475    0.425    0.361  174.558   67.169
  279.750   11.695    0.421    0.362  174.049   65.366
  280.000   12.586    0.418    0.351  173.540   65.360
  280.250   13.055    0.414    0.346  173.031   63.558
  280.500   13.053    0.410    0.346  173.021   61.756
  280.750   12.931    0.409    0.344  173.013   59.353
  281.000   12.694    0.411    0.346  173.003   59.347
  281.250   11.900    0.411    0.350  172.994   59.643
  281.500   11.156    0.411    0.360  172.985   60.536
  281.750   10.653    0.410    0.361  172.977   61.728
  282.000   10.361    0.408    0.365  172.966   62.920
  282.250   10.359    0.409    0.374  172.957   64.412
  282.500   10.550    0.410    0.372  172.957   65.303
  282.750   10.943    0.405    0.367  172.937   65.598
  283.000   11.456    0.396    0.369  173.429   65.293
  283.250   11.775    0.388    0.370  173.420   62.593
  283.500   11.775    0.379    0.369  173.910   58.095
  283.750   11.989    0.370    0.362  174.399   55.692
  284.000   12.210    0.358    0.364  174.388   56.587
  284.250   11.767    0.353    0.358  174.379   58.976
  284.500   11.133    0.356    0.364  173.871   61.067
  284.750   10.534    0.371    0.395  172.865   63.158
  285.000   10.245    0.391    0.379  172.865   66.146
  285.250   10.338    0.395    0.366  171.843   69.136
  285.500   10.923    0.380    0.339  171.839   73.323
  285.750   11.864    0.353    0.298  171.839   77.510
  286.000   13.004    0.317    0.271  171.819   76.606
  286.250   14.124    0.250    0.252  172.308   69.712
  286.500   15.341    0.232    0.226  171.799   63.717
  286.750   15.767    0.233    0.199  171.792   59.220
  287.000   16.205    0.276    0.202  170.783   61.609
  287.250   16.055    0.417    0.288  170.775   65.498
  287.500   13.983    0.456    0.370  170.265   70.583
  287.750   11.525    0.466    0.371  169.756   72.374
  288.000   10.038    0.467    0.362  169.746   72.668
  288.250    9.585    0.464    0.347  169.739   73.261
  288.500    9.585    0.460    0.349  169.723   74.753
  288.750    9.151    0.458    0.357  169.719   73.848
  289.000    8.819    0.459    0.369  169.711   72.945
  289.250    8.578    0.461    0.379  169.701   72.940
  289.500    8.420    0.463    0.377  170.690   73.533
  289.750    8.265    0.461    0.361  171.180   76.223
  290.000    8.188    0.455    0.359  171.669   77.414
  290.250    8.111    0.447    0.370  172.159   76.211
  290.500    8.036    0.442    0.375  172.649   76.505
  290.750    7.816    0.444    0.363  173.139   77.997
  291.000    7.672    0.446    0.362  174.128   80.386
  291.250    7.462    0.446    0.370  175.614   82.777
  291.500    7.325    0.446    0.369  176.605   83.371
  291.750    7.124    0.449    0.353  178.092   83.066
  292.000    6.866    0.453    0.349  179.579   83.066
  292.250    6.740    0.453    0.366  180.569   83.054
  292.500    6.740    0.457    0.380  182.557   83.947
  292.750    6.614    0.468    0.397  185.043   84.540
  293.000    6.433    0.470    0.401  186.031   85.432
  293.250    6.432    0.464    0.394  184.524   85.426
  293.500    6.550    0.451    0.391  181.022   86.320
  293.750    6.733    0.452    0.393  177.019   90.506
  294.000    7.048    0.452    0.394  174.515   93.196
  294.250    7.379    0.448    0.378  172.009   90.795
  294.500    7.515    0.452    0.369  170.503   87.496
  294.750    7.309    0.472    0.370  169.995   84.195
  295.000    6.979    0.535    0.377  169.485   83.591
  295.250    6.788    0.513    0.381  169.974   83.585
  295.500    6.663    0.344    0.383  169.967   83.879
  295.750    6.663    0.148    0.376  170.955   83.874
  296.000    6.661    0.190    0.375  172.943   84.767
  296.250    6.909    0.405    0.374  174.931   86.258
  296.500    7.436    0.530    0.369  175.418   87.750
  296.750    8.302    0.465    0.352  172.912   86.845
  297.000    9.528    0.209    0.324  170.909   84.745
  297.250   12.439    0.157    0.283  166.905   79.348
  297.500   14.409    0.132    0.231  163.901   75.150
  297.750   21.006    0.121    0.197  163.901   66.759
  298.000   25.949    0.147    0.169  162.883   60.465
  298.250   25.946    0.173    0.223  163.373   61.657
  298.500   20.995    0.218    0.249  164.862   64.047
  298.750   16.679    0.252    0.278  165.345   70.930
  299.000   14.934    0.290    0.347  166.341   83.801
  299.250   12.770    0.403    0.352  167.331   84.393
