~VERSION INFORMATION
 VERS.                 2.0:   CWLS LOG ASCII STANDARD -VERSION 2.0
 WRAP.                  NO:   ONE LINE PER DEPTH STEP
~WELL INFORMATION BLOCK
#MNEM.UNIT           DATA                    DESCRIPTION OF MNEMONIC
#---------    -------------------            -------------------------------
# Generated from Intellog Unique Number	CS_77_79/WELL/921
WELL.         HUDSONS BAY OIL AND GAS        : Well_name    - WELL
LOC .         00/08-29-077-10W4/0            : Location     - LOCATION
UWI .         00/08-29-077-10W4/0            : Uwi          - UNIQUE WELL ID
ENTR.         SP                             : Entered      - ENTERED BY
SRVC.         SCHLUMBERGER                   : Scn          - SERVICE COMPANY
STRT.M        345.138                        : top_depth    - START DEPTH
STOP.M        424.888                        : bot_depth    - STOP DEPTH
STEP.M        0.25                           : increment    - STEP LENGTH
 NULL. -999.2500:NULL Value
~CURVE INFORMATION BLOCK
#MNEM UNIT       ERCB CURVE CODE    CURVE DESCRIPTION
#-----------   ------------------   ----------------------------------
DEPT.M        00 001 00 00         : DEPTH        - DEPTH
GR  .API      00 310 00 00         : GR           - GAMMA RAY
DPHI.V/V      00 890 00 00         : PHID         - DENSITY POROSITY (SANDSTONE)
NPHI.V/V      00 330 00 00         : PHIN         - NEUTRON POROSITY (SANDSTONE)
ILD .OHMM     00 120 00 00         : RESD         - DEEP RESISTIVITY (DIL)
~PARAMETER INFORMATION
#MNEM.UNIT           DATA             DESCRIPTION OF MNEMONIC
#---------         -----------     ------------------------------
GL  .M        663.245              : gl           - GROUND LEVEL ELEVATION
EREF.M        640.69               : kb           - ELEVATION OF DEPTH REFERENCE
DATM.M        663.245              : datum        - DATUM ELEVATION
TDD .M        489.204              : tdd          - TOTAL DEPTH DRILLER
RUN .         ONE                  : Run          - RUN NUMBER
ENG .         BILL                 : Engineer     - RECORDING ENGINEER
WIT .         JIM                  : Witness      - WITNESSED BY
MUD .         GEL                  : Mud_type     - MUD TYPE
MATR.         SANDSTONE            : Logunit      - NEUTRON MATRIX
TMAX.C        5.55556              : BHT          - MAXIMUM RECORDED TEMPERATURE
BHTD.M        489.204              : BHTDEP       - MAXIMUM RECORDED TEMPERATURE
MATR.         1                    : LOGUNIT      - NEUTRON MATRIX
RMT .C        25                   : MDTP         - TEMPERATURE OF MUD
NEUT.         1                    : NEUTRON      - NEUTRON TYPE
RESI.         0                    : RESIST       - RESISTIVITY TYPE
RMC .OHMM     0.25                 : RMC          - RESISTIVITY OF MUD CAKE
RMF .OHMM     0.25                 : RMF          - RESISTIVITY OF MUD FILTRATE
SUFT.C        15                   : SUFT         - SURFACE TEMPERATURE
~A  DEPTH       GR     PHID     PHIN     RESD
  345.138   92.139    0.229    0.542    5.164
  345.388   93.784    0.234    0.557    5.528
  345.638   94.276    0.248    0.564    6.060
  345.888   93.615    0.236    0.557    6.716
  346.138   92.427    0.244    0.555    7.237
  346.388   92.964    0.253    0.554    7.817
  346.638   93.650    0.256    0.563    8.071
  346.888   93.444    0.251    0.561    7.912
  347.138   91.407    0.253    0.525    6.772
  347.388   89.257    0.250    0.477    5.999
  347.638   88.745    0.243    0.483    5.439
  347.888   89.618    0.245    0.494    5.453
  348.138   90.663    0.247    0.486    5.474
  348.388   92.941    0.238    0.479    5.648
  348.638   94.016    0.230    0.500    5.754
  348.888   93.407    0.218    0.517    5.711
  349.138   91.284    0.208    0.539    5.450
  349.388   89.553    0.202    0.510    5.139
  349.638   88.662    0.202    0.503    4.737
  349.888   88.494    0.193    0.499    4.386
  350.138   93.302    0.196    0.509    4.138
  350.388   96.003    0.214    0.548    3.987
  350.638   97.175    0.213    0.544    3.928
  350.888   96.352    0.215    0.540    3.849
  351.138   97.055    0.224    0.552    3.780
  351.388   97.982    0.229    0.554    3.668
  351.638   99.858    0.226    0.555    3.544
  351.888  101.175    0.230    0.562    3.391
  352.138  102.856    0.244    0.574    3.528
  352.388  102.900    0.252    0.569    3.755
  352.638  101.817    0.260    0.579    4.486
  352.888  101.716    0.259    0.595    5.326
  353.138  102.405    0.255    0.619    6.272
  353.388  102.270    0.239    0.601    7.543
  353.638  102.763    0.228    0.562    8.743
  353.888  101.622    0.235    0.567    9.432
  354.138   96.085    0.223    0.545    9.461
  354.388   92.041    0.240    0.503    9.416
  354.638   87.821    0.232    0.488    9.411
  354.888   83.113    0.233    0.500    9.411
  355.138   81.058    0.247    0.506    9.412
  355.388   81.710    0.269    0.489    9.407
  355.638   82.843    0.272    0.469    9.277
  355.888   81.518    0.257    0.485    9.616
  356.138   81.084    0.238    0.495    9.594
  356.388   82.232    0.260    0.480    9.409
  356.638   84.206    0.281    0.467    9.229
  356.888   85.163    0.298    0.457    9.244
  357.138   86.357    0.302    0.479    9.255
  357.388   87.703    0.267    0.484    9.069
  357.638   88.683    0.255    0.481    9.077
  357.888   89.643    0.230    0.482    9.074
  358.138   90.644    0.228    0.489    9.073
  358.388   91.017    0.228    0.509    9.056
  358.638   91.319    0.225    0.518    9.259
  358.888   91.925    0.217    0.512    9.229
  359.138   89.201    0.209    0.523    9.427
  359.388   88.859    0.204    0.511    9.411
  359.638   89.849    0.221    0.503    9.412
  359.888   90.653    0.226    0.499    9.427
  360.138   89.886    0.231    0.500    9.235
  360.388   89.248    0.238    0.511    9.130
  360.638   90.022    0.245    0.507    8.856
  360.888   89.302    0.227    0.493    8.433
  361.138   87.891    0.220    0.487    7.985
  361.388   86.679    0.223    0.477    7.634
  361.638   86.256    0.224    0.470    7.560
  361.888   86.587    0.223    0.466    7.486
  362.138   86.814    0.224    0.492    7.452
  362.388   86.839    0.224    0.516    7.566
  362.638   87.319    0.217    0.528    7.564
  362.888   89.432    0.212    0.524    7.566
  363.138   91.501    0.204    0.507    7.447
  363.388   92.280    0.202    0.503    7.357
  363.638   91.521    0.197    0.501    7.263
  363.888   89.451    0.191    0.517    5.679
  364.138   88.235    0.200    0.512    4.464
  364.388   89.093    0.216    0.502    3.462
  364.638   90.087    0.207    0.489    3.090
  364.888   91.237    0.220    0.500    2.846
  365.138   94.890    0.225    0.524    2.633
  365.388   96.360    0.230    0.535    2.524
  365.638   96.266    0.244    0.554    2.547
  365.888   94.196    0.247    0.579    2.785
  366.138   92.202    0.252    0.569    3.140
  366.388   89.539    0.260    0.595    3.885
  366.638   87.247    0.269    0.606    4.431
  366.888   85.133    0.268    0.616    5.677
  367.138   84.147    0.256    0.583    6.428
  367.388   82.502    0.243    0.535    6.992
  367.638   81.546    0.238    0.520    7.326
  367.888   80.541    0.231    0.498    7.163
  368.138   79.170    0.234    0.489    7.071
  368.388   77.844    0.263    0.497    7.170
  368.638   76.361    0.276    0.497    7.267
  368.888   74.646    0.280    0.485    7.429
  369.138   74.527    0.263    0.479    7.603
  369.388   76.613    0.259    0.475    7.831
  369.638   77.648    0.253    0.475    8.230
  369.888   78.625    0.259    0.480    8.287
  370.138   77.775    0.274    0.479    8.556
  370.388   75.568    0.273    0.476    8.547
  370.638   73.163    0.270    0.463    8.287
  370.888   69.343    0.285    0.451    8.120
  371.138   66.812    0.279    0.446    8.099
  371.388   64.787    0.270    0.455    7.984
  371.638   63.060    0.295    0.458    7.986
  371.888   62.029    0.303    0.453    7.987
  372.138   60.506    0.316    0.470    7.987
  372.388   59.757    0.330    0.481    7.987
  372.638   59.834    0.313    0.483    7.987
  372.888   62.452    0.315    0.488    7.991
  373.138   62.759    0.316    0.478    8.040
  373.388   62.134    0.318    0.477    8.132
  373.638   61.627    0.321    0.475    8.242
  373.888   60.066    0.336    0.475    8.313
  374.138   59.126    0.337    0.476    8.583
  374.388   59.119    0.336    0.478    8.827
  374.638   59.168    0.332    0.485    9.302
  374.888   60.203    0.327    0.497    9.411
  375.138   61.416    0.320    0.500    9.340
  375.388   63.377    0.312    0.447    9.060
  375.638   64.359    0.321    0.438    9.212
  375.888   64.409    0.333    0.424    9.224
  376.138   64.391    0.334    0.439    9.424
  376.388   63.753    0.327    0.474    9.708
  376.638   63.585    0.339    0.492    9.999
  376.888   63.182    0.329    0.492   10.308
  377.138   62.113    0.318    0.482   10.429
  377.388   61.928    0.305    0.470   10.492
  377.638   62.495    0.304    0.479   10.498
  377.888   62.175    0.297    0.478   10.498
  378.138   61.943    0.298    0.471   10.498
  378.388   61.421    0.308    0.471   10.498
  378.638   60.694    0.309    0.482   10.498
  378.888   60.025    0.299    0.472   10.497
  379.138   60.077    0.310    0.460   10.514
  379.388   60.276    0.296    0.452   10.264
  379.638   60.635    0.291    0.463   10.285
  379.888   62.032    0.305    0.453    9.742
  380.138   62.864    0.312    0.445    9.732
  380.388   62.409    0.321    0.452    9.589
  380.638   61.660    0.335    0.458    9.477
  380.888   62.417    0.337    0.467    9.379
  381.138   62.385    0.327    0.477    9.244
  381.388   61.430    0.324    0.475    8.971
  381.638   60.486    0.323    0.460    8.913
  381.888   60.533    0.325    0.458    8.897
  382.138   60.754    0.314    0.462    9.133
  382.388   61.075    0.317    0.452    9.823
  382.638   61.530    0.321    0.446   11.393
  382.888   61.651    0.318    0.447   13.517
  383.138   61.651    0.307    0.434   15.677
  383.388   61.702    0.283    0.423   18.313
  383.638   60.904    0.255    0.406   21.606
  383.888   58.743    0.220    0.341   25.500
  384.138   57.017    0.188    0.302   27.806
  384.388   56.023    0.065    0.125   27.511
  384.638   55.539   -0.002    0.142   25.187
  384.888   55.530    0.001    0.153   19.283
  385.138   55.515   -0.000    0.162   14.308
  385.388   55.957   -0.000    0.172   11.575
  385.638   57.086    0.013    0.211    9.777
  385.888   59.773    0.067    0.266    8.885
  386.138   61.749    0.131    0.393    8.425
  386.388   62.728    0.170    0.464    8.253
  386.638   62.675    0.270    0.484    8.433
  386.888   62.351    0.316    0.482    8.529
  387.138   61.389    0.299    0.480    8.587
  387.388   61.928    0.306    0.481    8.591
  387.638   63.605    0.319    0.483    8.591
  387.888   64.541    0.314    0.485    8.591
  388.138   65.024    0.315    0.486    8.587
  388.388   64.852    0.318    0.486    8.523
