~VERSION INFORMATION
 VERS.                 2.0:   CWLS LOG ASCII STANDARD -VERSION 2.0
 WRAP.                  NO:   ONE LINE PER DEPTH STEP
~WELL INFORMATION BLOCK
#MNEM.UNIT           DATA                    DESCRIPTION OF MNEMONIC
#---------    -------------------            -------------------------------
# Generated from Intellog Unique Number	CS_73_76/WELL/2811
WELL.         ESSO RESOURCES CANADA LTD.     : Well_name    - WELL
LOC .         00/06-32-075-04W4/0            : Location     - LOCATION
UWI .         00/06-32-075-04W4/0            : Uwi          - UNIQUE WELL ID
ENTR.         JOETTE                         : Entered      - ENTERED BY
SRVC.         COMPUTALOG                     : Scn          - SERVICE COMPANY
DATE.         05/22/92                       : Date         - LOG DATE
STRT.M        200                            : top_depth    - START DEPTH
STOP.M        450                            : bot_depth    - STOP DEPTH
STEP.M        0.25                           : increment    - STEP LENGTH
 NULL. -999.2500:NULL Value
~CURVE INFORMATION BLOCK
#MNEM UNIT       ERCB CURVE CODE    CURVE DESCRIPTION
#-----------   ------------------   ----------------------------------
DEPT.M        00 001 00 00         : DEPTH        - DEPTH
ILD .OHMM     00 120 00 00         : RESD         - DEEP RESISTIVITY (DIL)
RHOB.KG/M3    00 350 00 00         : DENS         - BULK DENSITY
NPHI.V/V      00 330 00 00         : PHIN         - NEUTRON POROSITY (SANDSTONE)
GR  .API      00 310 00 00         : GR           - GAMMA RAY
~PARAMETER INFORMATION
#MNEM.UNIT           DATA             DESCRIPTION OF MNEMONIC
#---------         -----------     ------------------------------
GL  .M        598.7                : gl           - GROUND LEVEL ELEVATION
EREF.M        602.4                : kb           - ELEVATION OF DEPTH REFERENCE
DATM.M        602.4                : datum        - DATUM ELEVATION
TDD .M        456.6                : tdd          - TOTAL DEPTH DRILLER
RUN .         ONE                  : Run          - RUN NUMBER
ENG .         BILL                 : Engineer     - RECORDING ENGINEER
WIT .         JIM                  : Witness      - WITNESSED BY
MUD .         GEL                  : Mud_type     - MUD TYPE
MATR.         SANDSTONE            : Logunit      - NEUTRON MATRIX
TMAX.C        32                   : BHT          - MAXIMUM RECORDED TEMPERATURE
BHTD.M        456.6                : BHTDEP       - MAXIMUM RECORDED TEMPERATURE
MATR.         1                    : LOGUNIT      - NEUTRON MATRIX
RMT .C        19.7                 : MDTP         - TEMPERATURE OF MUD
NEUT.         1                    : NEUTRON      - NEUTRON TYPE
RESI.         0                    : RESIST       - RESISTIVITY TYPE
RMC .OHMM     6.4                  : RMC          - RESISTIVITY OF MUD CAKE
RMF .OHMM     4.2                  : RMF          - RESISTIVITY OF MUD FILTRATE
SUFT.C        5                    : SUFT         - SURFACE TEMPERATURE
~A  DEPTH     RESD     DENS     PHIN       GR
# ...
  330.500    1.437 2110.750    0.517   56.713
  330.750    1.360 2113.020    0.495   54.881
  331.000    1.311 2125.200    0.478   53.520
  331.250    1.288 2121.410    0.477   52.158
  331.500    1.242 2109.610    0.467   53.625
  331.750    1.220 2107.820    0.459   54.136
  332.000    1.198 2110.040    0.467   55.144
  332.250    1.178 2108.250    0.477   53.796
  332.500    1.157 2094.450    0.494   55.249
  332.750    1.137 2126.760    0.492   60.027
  333.000    1.117 2122.970    0.470   62.894
  333.250    1.058 2089.090    0.469   64.858
  333.500    1.039 2079.290    0.478   63.942
  333.750    1.020 2091.630    0.496   62.581
  334.000    1.021 2097.850    0.502   62.660
  334.250    1.062 2090.050    0.503   63.183
  334.500    1.084 2090.220    0.502   63.236
  334.750    1.066 2084.420    0.503   63.760
  335.000    1.046 2090.650    0.522   64.270
  335.250    1.048 2096.920    0.527   65.292
  335.500    1.048 2097.080    0.531   66.274
  335.750    1.050 2109.360    0.534   67.740
  336.000    1.071 2135.610    0.539   69.678
  336.250    1.113 2157.910    0.541   68.330
  336.500    1.136 2130.030    0.532   67.413
  336.750    1.226 2126.240    0.528   67.964
  337.000    1.348 2154.490    0.528   70.372
  337.250    1.599 2192.810    0.514   73.239
  337.500    1.759 2207.090    0.516   75.661
  337.750    1.828 2211.310    0.518   74.287
  338.000    1.973 2211.470    0.513   74.340
  338.250    1.975 2191.660    0.505   76.748
  338.500    1.905 2195.940    0.496   75.387
  338.750    1.871 2210.220    0.510   74.039
  339.000    1.947 2224.450    0.510   73.621
  339.250    1.985 2212.600    0.496   75.087
  339.500    1.985 2204.860    0.466   78.465
  339.750    2.271 2217.090    0.458   78.020
  340.000    2.029 2223.260    0.464   76.658
  340.250    2.033 2215.460    0.465   75.769
  340.500    2.073 2209.720    0.463   75.350
  340.750    2.155 2209.880    0.467   75.403
  341.000    2.157 2212.100    0.474   75.455
  341.250    2.243 2218.320    0.481   77.864
  341.500    2.377 2220.590    0.492   82.171
  341.750    2.424 2220.760    0.500   83.166
  342.000    2.472 2220.970    0.518   79.920
  342.250    2.570 2237.260    0.530   74.789
  342.500    2.622 2243.480    0.523   73.899
  342.750    2.674 2243.700    0.519   75.365
  343.000    2.679 2249.920    0.525   78.245
  343.250    2.632 2254.190    0.543   81.138
  343.500    2.490 2252.400    0.586   81.675
  343.750    2.145 2240.550    0.615   82.199
  344.000    1.813 2204.720    0.616   84.124
  344.250    1.533 2182.960    0.606   85.603
  344.500    1.397 2169.050    0.598   84.242
  344.750    1.347 2139.230    0.612   80.983
  345.000    1.427 2121.430    0.623   77.724
  345.250    1.724 2159.740    0.538   72.592
  345.500    2.006 2079.800    0.494   70.773
  345.750    2.335 2073.960    0.459   69.399
  346.000    2.667 2074.280    0.412   69.923
  346.250    2.772 2062.370    0.387   68.103
  346.500    2.827 2036.560    0.413   64.373
  346.750    2.885 2032.770    0.445   59.713
  347.000    2.889 2042.990    0.452   57.410
  347.250    2.892 2057.280    0.453   58.405
  347.500    2.841 2065.560    0.453   60.840
  347.750    2.844 2071.780    0.455   62.293
  348.000    2.743 2085.960    0.454   64.231
  348.250    2.644 2100.190    0.462   62.869
  348.500    2.504 2110.520    0.480   60.094
  348.750    2.458 2094.720    0.483   57.306
  349.000    2.605 2096.940    0.471   54.060
  349.250    2.864 2197.270    0.387   46.573
  349.500    3.661 2690.450    0.315   45.225
  349.750    5.046 2682.660    0.214   46.220
  350.000    7.220 2712.910    0.175   42.974
  350.250   10.138 2679.080    0.182   41.129
  350.500   15.357 2637.200    0.231   42.124
  350.750   12.499 2501.140    0.286   45.004
  351.000    7.675 2140.710    0.451   48.355
  351.250    3.556 2124.950    0.480   54.547
  351.500    2.895 2119.110    0.503   58.369
  351.750    2.357 2103.250    0.558   62.663
  352.000    2.069 2091.450    0.552   60.360
  352.250    1.922 2069.640    0.530   55.242
  352.500    1.888 2061.840    0.514   57.637
  352.750    1.890 2062.110    0.522   62.874
  353.000    1.893 2056.320    0.531   64.824
  353.250    1.894 2076.510    0.535   63.476
  353.500    1.932 2144.860    0.530   64.000
  353.750    2.009 2203.190    0.523   67.351
  354.000    2.168 2231.550    0.516   69.747
  354.250    2.297 2245.730    0.512   74.996
  354.500    2.433 2262.020    0.505   76.476
  354.750    2.677 2256.220    0.504   77.942
  355.000    2.836 2246.370    0.510   80.338
  355.250    2.947 2232.620    0.505   77.092
  355.500    3.008 2232.790    0.512   73.872
  355.750    3.067 2243.010    0.506   73.912
  356.000    3.014 2247.230    0.497   74.893
  356.250    2.962 2237.430    0.507   76.373
  356.500    2.964 2229.690    0.532   82.080
  356.750    3.025 2225.900    0.539   81.662
  357.000    3.085 2218.060    0.532   77.931
  357.250    3.147 2232.340    0.513   73.743
  357.500    3.333 2218.480    0.496   70.038
  357.750    3.466 2174.650    0.455   69.620
  358.000    3.603 2228.980    0.446   71.086
  358.250    3.677 2247.270    0.454   76.322
  358.500    3.682 2233.410    0.464   80.616
  358.750    3.685 2225.670    0.481   81.624
  359.000    3.688 2239.850    0.479   80.748
  359.250    3.624 2252.080    0.471   79.832
  359.500    3.628 2238.330    0.480   77.057
  359.750    3.632 2242.550    0.505   77.122
  360.000    3.374 2252.830    0.526   77.646
  360.250    3.018 2259.000    0.510   76.285
  360.500    3.021 2265.220    0.493   75.866
  360.750    3.082 2249.420    0.493   76.390
  361.000    2.808 2223.550    0.505   75.500
  361.250    2.161 2183.710    0.548   74.139
  361.500    1.761 2151.890    0.577   75.134
  361.750    1.729 2174.130    0.640   74.258
  362.000    1.731 2190.370    0.641   75.240
  362.250    1.766 2200.590    0.630   76.706
  362.500    1.801 2178.780    0.640   75.816
  362.750    1.838 2148.960    0.646   76.811
  363.000    1.840 2149.230    0.644   69.795
  363.250    1.809 2163.410    0.623   68.918
  363.500    1.776 2191.710    0.622   72.256
  363.750    1.779 2201.990    0.616   75.608
  364.000    1.849 2192.140    0.599   80.373
  364.250    1.960 2196.360    0.584   80.439
  364.500    2.075 2216.600    0.573   77.664
  364.750    2.282 2244.900    0.551   75.818
  365.000    2.463 2237.100    0.532   75.884
  365.250    2.760 2229.360    0.543   76.892
  365.500    2.979 2235.530    0.536   75.518
  365.750    3.402 2233.800    0.512   75.099
  366.000    3.672 2234.010    0.496   75.152
  366.250    4.039 2246.190    0.482   72.848
  366.500    4.444 2254.410    0.486   69.615
  366.750    4.619 2242.670    0.479   69.668
  367.000    4.623 2254.840    0.470   71.147
  367.250    4.628 2285.150    0.470   71.658
  367.500    4.549 2287.360    0.488   71.710
  367.750    4.553 2267.610    0.508   73.648
  368.000    4.474 2261.820    0.506   75.114
  368.250    4.313 2251.970    0.497   72.798
  368.500    4.159 2202.070    0.502   75.206
  368.750    3.517 2192.270    0.513   82.812
  369.000    3.144 2142.370    0.557   88.519
  369.250    2.709 2106.540    0.600   90.457
  369.500    2.564 2188.910    0.548   74.029
  369.750    2.615 2239.240    0.521   74.553
  370.000    2.823 2259.530    0.517   77.891
  370.250    2.992 2249.730    0.530   81.727
  370.500    2.941 2241.940    0.531   84.607
  370.750    2.888 2238.150    0.553   86.073
  371.000    2.783 2224.350    0.528   87.553
  371.250    2.635 2226.560    0.502   85.236
  371.500    2.589 2224.780    0.479   75.851
  371.750    2.690 2204.910    0.459   66.950
  372.000    3.250 2223.150    0.492   70.772
  372.250    3.856 2235.430    0.496   77.920
  372.500    5.117 2243.660    0.482   76.087
  372.750    5.221 2251.880    0.470   74.700
  373.000    4.668 2264.160    0.461   71.467
  373.250    5.231 2254.310    0.426   69.150
  373.500    6.087 2214.480    0.392   64.019
  373.750    6.822 2132.540    0.387   60.773
