~VERSION INFORMATION
 VERS.                 2.0:   CWLS LOG ASCII STANDARD -VERSION 2.0
 WRAP.                  NO:   ONE LINE PER DEPTH STEP
~WELL INFORMATION BLOCK
#MNEM.UNIT           DATA                    DESCRIPTION OF MNEMONIC
#---------    -------------------            -------------------------------
# Generated from Intellog Unique Number	CW_82_90/WELL/532
WELL.         06-26-082-20W4                 : Well_name    - WELL
LOC .         00/06-26-082-20W4/0            : Location     - LOCATION
UWI .         00/06-26-082-20W4/0            : Uwi          - UNIQUE WELL ID
ENTR.         JAYE                           : Entered      - ENTERED BY
SRVC.         SCHLUMBERGER                   : Scn          - SERVICE COMPANY
DATE.         22 JAN 75                      : Date         - LOG DATE
STRT.M        179.832                        : top_depth    - START DEPTH
STOP.M        365.832                        : bot_depth    - STOP DEPTH
STEP.M        0.25                           : increment    - STEP LENGTH
 NULL. -999.2500:NULL Value
~CURVE INFORMATION BLOCK
#MNEM UNIT       ERCB CURVE CODE    CURVE DESCRIPTION
#-----------   ------------------   ----------------------------------
DEPT.M        00 001 00 00         : DEPTH        - DEPTH
CALI.MM       00 280 01 00         : CAL          - CALIPER
GR  .API      00 310 00 00         : GR           - GAMMA RAY
NPHI.V/V      00 330 00 00         : PHIN         - NEUTRON POROSITY (SANDSTONE)
DPHI.V/V      00 890 00 00         : PHID         - DENSITY POROSITY (SANDSTONE)
ILD .OHMM     00 120 00 00         : RESD         - DEEP RESISTIVITY (DIL)
~PARAMETER INFORMATION
#MNEM.UNIT           DATA             DESCRIPTION OF MNEMONIC
#---------         -----------     ------------------------------
GL  .M        594.36               : gl           - GROUND LEVEL ELEVATION
EREF.M        596.798              : kb           - ELEVATION OF DEPTH REFERENCE
DATM.M        594.36               : datum        - DATUM ELEVATION
TDD .M        369.418              : tdd          - TOTAL DEPTH DRILLER
RUN .         ONE                  : Run          - RUN NUMBER
ENG .         CURRIE               : Engineer     - RECORDING ENGINEER
WIT .         CUMMINS              : Witness      - WITNESSED BY
BASE.         EDMONTON             : Branch       - HOME BASE OF LOGGING UNIT
MUD .         GEL CHEM             : Mud_type     - MUD TYPE
MATR.         SANDSTONE            : Logunit      - NEUTRON MATRIX
TMAX.C        20                   : BHT          - MAXIMUM RECORDED TEMPERATURE
BHTD.M        369.418              : BHTDEP       - MAXIMUM RECORDED TEMPERATURE
RMT .C        21.1111              : MDTP         - TEMPERATURE OF MUD
MUDD.KG/M     9100                 : MWT          - MUD DENSITY
NEUT.         1                    : NEUTRON      - NEUTRON TYPE
RESI.         0                    : RESIST       - RESISTIVITY TYPE
RM  .OHMM     4.62                 : RM           - RESISTIVITY OF MUD
RMC .OHMM     0.25                 : RMC          - RESISTIVITY OF MUD CAKE
RMF .OHMM     5.52                 : RMF          - RESISTIVITY OF MUD FILTRATE
SUFT.C        4                    : SUFT         - SURFACE TEMPERATURE
~A  DEPTH      CAL       GR     PHIN     PHID     RESD
  179.832  192.031   89.611    0.550    0.271    3.843
  180.082  192.685   90.356    0.563    0.267    3.939
  180.332  193.235   91.585    0.570    0.257    4.006
  180.582  194.302   95.362    0.582    0.213    4.001
  180.832  195.275   96.348    0.596    0.246    4.036
  181.082  194.674   94.609    0.571    0.254    4.072
  181.332  192.523   94.745    0.573    0.266    4.011
  181.582  190.581   95.310    0.569    0.273    3.999
  181.832  188.847   95.325    0.549    0.270    4.009
  182.082  188.563   94.010    0.531    0.275    4.201
  182.332  189.323   92.329    0.540    0.265    4.411
  182.582  190.288   84.829    0.513    0.260    4.819
  182.832  187.407   77.388    0.458    0.267    5.287
  183.082  167.181   66.856    0.433    0.289    6.147
  183.332  164.098   60.446    0.419    0.320    8.603
  183.582  163.715   53.249    0.415    0.351   14.558
  183.832  163.326   51.452    0.415    0.388   21.679
  184.082  163.046   51.345    0.432    0.409   31.457
  184.332  162.451   53.301    0.452    0.386   45.551
  184.582  161.754   53.319    0.472    0.371   55.998
  184.832  161.892   53.155    0.486    0.358   52.890
  185.082  162.130   54.444    0.487    0.359   62.850
  185.332  162.163   56.220    0.475    0.363   69.645
  185.582  162.088   55.570    0.473    0.364   79.836
  185.832  162.221   56.377    0.479    0.355   83.154
  186.082  162.664   57.546    0.488    0.347   83.556
  186.332  162.695   58.047    0.493    0.347   82.138
  186.582  162.727   58.549    0.488    0.349   83.864
  186.832  162.547   60.268    0.480    0.332   85.273
  187.082  162.370   57.432    0.489    0.341   88.473
  187.332  162.400   56.906    0.500    0.336   87.656
  187.582  162.433   59.225    0.512    0.318   82.475
  187.832  162.461   59.062    0.501    0.334   82.031
  188.082  162.594   57.683    0.491    0.343   80.957
  188.332  162.731   56.429    0.494    0.324   72.163
  188.582  162.866   57.597    0.514    0.312   59.027
  188.832  162.794   56.825    0.546    0.311   44.757
  189.082  162.513   55.388    0.538    0.338   51.102
  189.332  162.332   51.588    0.482    0.354   46.935
  189.582  161.847   50.269    0.486    0.350   45.315
  189.832  161.249   50.043    0.479    0.355   41.204
  190.082  160.654   50.244    0.486    0.363   38.453
  190.332  160.274   49.775    0.493    0.364   36.102
  190.582  160.303   48.458    0.483    0.365   35.135
  190.832  160.438   49.447    0.487    0.367   34.952
  191.082  160.256   50.311    0.493    0.365   34.773
  191.332  160.599   49.359    0.487    0.369   34.802
  191.582  160.740   47.742    0.475    0.365   35.250
  191.832  160.972   47.395    0.473    0.361   36.279
  192.082  161.736   47.775    0.480    0.370   36.525
  192.332  162.181   46.518    0.467    0.367   36.262
  192.582  162.308   45.689    0.462    0.362   35.928
  192.832  162.340   47.159    0.475    0.360   35.388
  193.082  162.374   49.965    0.487    0.363   36.859
  193.332  162.611   51.377    0.473    0.369   37.557
  193.582  163.052   51.091    0.454    0.370   38.116
  193.832  163.500   52.809    0.468    0.367   36.803
  194.082  163.847   54.642    0.467    0.358   34.069
  194.332  163.870   60.116    0.464    0.343   20.696
  194.582  164.941   70.926    0.478    0.324   13.006
  194.832  168.505   85.069    0.508    0.290    9.050
  195.082  173.315   89.392    0.536    0.257    6.502
  195.332  176.770   91.409    0.554    0.255    5.151
  195.582  179.401   89.729    0.549    0.246    4.684
  195.832  179.739   88.961    0.533    0.270    4.363
  196.082  182.477   88.917    0.545    0.278    4.146
  196.332  184.890   87.718    0.565    0.285    4.034
  196.582  181.179   85.069    0.577    0.302    3.981
  196.832  174.979   85.876    0.585    0.303    4.205
  197.082  179.266   86.497    0.566    0.305    4.577
  197.332  174.519   82.392    0.475    0.278    5.216
  197.582  169.666   78.286    0.456    0.296    5.620
  197.832  166.269   73.090    0.471    0.289    7.649
  198.082  165.160   67.469    0.480    0.269   10.227
  198.332  165.706   61.423    0.475    0.302   13.375
  198.582  165.840   54.711    0.481    0.329   16.607
  198.832  165.974   51.701    0.480    0.332   20.955
  199.082  165.283   51.532    0.484    0.341   21.825
  199.332  164.893   55.794    0.476    0.334   22.062
  199.582  165.135   57.872    0.448    0.315   22.300
  199.832  165.786   55.889    0.448    0.292   22.997
  200.082  165.920   54.761    0.448    0.281   23.575
  200.332  165.747   54.589    0.443    0.309   23.878
  200.582  165.980   54.667    0.448    0.333   23.659
  200.832  165.490   56.079    0.453    0.351   22.569
  201.082  165.212   58.703    0.451    0.342   21.319
  201.332  164.304   62.300    0.451    0.336   19.814
  201.582  163.815   65.104    0.452    0.324   18.307
  201.832  163.640   68.030    0.456    0.308   16.648
  202.082  163.252   73.141    0.455    0.285   15.383
  202.332  163.282   75.341    0.458    0.278   15.768
  202.582  163.834   75.177    0.468    0.282   17.129
  202.832  164.175   74.710    0.480    0.323   17.662
  203.082  164.100   75.213    0.484    0.337   17.018
  203.332  164.138   76.501    0.475    0.346   14.031
  203.582  164.788   79.004    0.465    0.335   11.050
  203.832  166.167   80.719    0.474    0.309    9.184
  204.082  169.416   83.283    0.497    0.274    7.161
  204.332  179.316   92.455    0.512    0.255    6.779
  204.582  180.592   97.565    0.520    0.266    7.116
  204.832  179.065  101.101    0.508    0.269    8.592
  205.082  174.940   98.509    0.491    0.276    9.635
  205.332  180.059   95.919    0.492    0.254   11.158
  205.582  187.570   93.696    0.480    0.243   11.438
  205.832  191.754   93.105    0.481    0.244   11.630
  206.082  191.371   93.124    0.472    0.241   11.851
  206.332  192.753   95.565    0.461    0.242   12.172
  206.582  193.092   97.159    0.473    0.261   12.729
  206.832  184.919   96.751    0.480    0.268   13.339
  207.082  177.363   90.462    0.469    0.262   13.644
  207.332  167.006   86.722    0.450    0.270   13.765
  207.582  163.711   85.406    0.449    0.277   13.611
  207.832  163.637   85.664    0.448    0.268   13.595
  208.082  164.500   89.319    0.437    0.257   13.310
  208.332  166.817   89.822    0.427    0.253   12.723
  208.582  169.028   91.294    0.423    0.238   12.018
  208.832  174.771   92.040    0.432    0.220   11.081
  209.082  179.891   97.392    0.443    0.200    9.509
  209.332  180.128   98.444    0.451    0.238    7.385
  209.582  187.333   99.244    0.475    0.233    6.350
  209.832  187.674  103.447    0.517    0.226    5.856
  210.082  183.752  103.947    0.541    0.213    5.837
  210.332  180.360  107.967    0.540    0.204    5.996
  210.582  178.310  111.017    0.524    0.190    6.170
  210.832  176.986  112.185    0.498    0.221    6.237
  211.082  178.059  107.108    0.494    0.220    6.118
  211.332  178.710  109.127    0.523    0.219    5.476
  211.582  180.095  113.873    0.550    0.225    4.920
  211.832  179.602  116.012    0.542    0.227    4.483
  212.082  178.903  114.516    0.555    0.232    4.337
  212.332  178.415  115.016    0.569    0.255    4.375
  212.582  177.823  109.942    0.597    0.260    5.086
  212.832  175.050  104.927    0.567    0.289    6.365
  213.082  171.340   99.611    0.521    0.311    8.143
  213.332  167.736   95.381    0.472    0.296   11.332
  213.582  168.595   92.428    0.450    0.285   12.657
  213.832  165.409   92.748    0.467    0.276   11.555
  214.082  166.059   91.613    0.455    0.272   10.486
  214.332  171.597   90.358    0.469    0.277    9.274
  214.582  177.234   90.799    0.498    0.270    8.568
  214.832  176.848   92.454    0.501    0.279    8.125
  215.082  173.970   94.109    0.502    0.276    8.362
  215.332  179.198   94.246    0.529    0.262    9.377
  215.582  181.302   90.990    0.537    0.277   12.411
  215.832  177.803   81.064    0.527    0.302   17.030
  216.082  172.846   74.593    0.504    0.349   21.399
