~VERSION INFORMATION
 VERS.                 2.0:   CWLS LOG ASCII STANDARD -VERSION 2.0
 WRAP.                  NO:   ONE LINE PER DEPTH STEP
~WELL INFORMATION BLOCK
#MNEM.UNIT           DATA                    DESCRIPTION OF MNEMONIC
#---------    -------------------            -------------------------------
# Generated from Intellog Unique Number	CW_79_81/WELL/201
WELL.         SCURRY ATKINSON MISTEHAE 07-34 : Well_name    - WELL
LOC .         00/07-34-079-03W5/0            : Location     - LOCATION
UWI .         00/07-34-079-03W5/0            : Uwi          - UNIQUE WELL ID
ENTR.         JJ                             : Entered      - ENTERED BY
SRVC.         SCHLUMBERGER                   : Scn          - SERVICE COMPANY
DATE.         23 FEB 73                      : Date         - LOG DATE
STRT.M        383.438                        : top_depth    - START DEPTH
STOP.M        511.438                        : bot_depth    - STOP DEPTH
STEP.M        0.25                           : increment    - STEP LENGTH
 NULL. -999.2500:NULL Value
~CURVE INFORMATION BLOCK
#MNEM UNIT       ERCB CURVE CODE    CURVE DESCRIPTION
#-----------   ------------------   ----------------------------------
DEPT.M        00 001 00 00         : DEPTH        - DEPTH
DELT.US/F     00 520 00 00         : DELT         - SONIC TRAVEL TIME
GR  .API      00 310 00 00         : GR           - GAMMA RAY
ILD .OHMM     00 120 00 00         : RESD         - DEEP RESISTIVITY (DIL)
~PARAMETER INFORMATION
#MNEM.UNIT           DATA             DESCRIPTION OF MNEMONIC
#---------         -----------     ------------------------------
GL  .M        595.793              : gl           - GROUND LEVEL ELEVATION
EREF.M        599.084              : kb           - ELEVATION OF DEPTH REFERENCE
DATM.M        599.084              : datum        - DATUM ELEVATION
TDD .M        515.722              : tdd          - TOTAL DEPTH DRILLER
RUN .         ONE                  : Run          - RUN NUMBER
ENG .         CUTRESS & BENOWSKI   : Engineer     - RECORDING ENGINEER
WIT .         MARTYNA              : Witness      - WITNESSED BY
BASE.         EDMONTON             : Branch       - HOME BASE OF LOGGING UNIT
MUD .         GEL-CHEM             : Mud_type     - MUD TYPE
MATR.         SANDSTONE            : Logunit      - NEUTRON MATRIX
TMAX.C        23.8889              : BHT          - MAXIMUM RECORDED TEMPERATURE
BHTD.M        516.026              : BHTDEP       - MAXIMUM RECORDED TEMPERATURE
RMT .C        20                   : MDTP         - TEMPERATURE OF MUD
MUDD.KG/M     1044                 : MWT          - MUD DENSITY
NEUT.         1                    : NEUTRON      - NEUTRON TYPE
RESI.         0                    : RESIST       - RESISTIVITY TYPE
RM  .OHMM     6.62                 : RM           - RESISTIVITY OF MUD
RMC .OHMM     6.62                 : RMC          - RESISTIVITY OF MUD CAKE
RMF .OHMM     6.62                 : RMF          - RESISTIVITY OF MUD FILTRATE
SUFT.C        5                    : SUFT         - SURFACE TEMPERATURE
~A  DEPTH     DELT       GR     RESD
  383.438  382.307   85.941    7.189
  383.688  385.592   86.306    7.204
  383.938  386.774   83.746    7.121
  384.188  385.788   88.987    7.077
  384.438  385.196   94.107    6.953
  384.688  390.190   96.423    6.789
  384.938  397.812   96.728    6.665
  385.188  396.629   95.813    6.360
  385.438  389.729   86.853    6.577
  385.688  388.480   84.902    6.775
  385.938  393.671   86.548    7.073
  386.188  390.648   91.119    7.592
  386.438  383.748   86.852    8.793
  386.688  374.088   79.843    9.994
  386.938  365.940   79.233   11.456
  387.188  365.151   75.880   12.798
  387.438  373.364   74.783   13.156
  387.688  383.286   71.126   12.128
  387.938  391.893   69.419   11.342
  388.188  393.799   75.940   11.077
  388.438  381.576   77.281   11.415
  388.688  368.106   71.612   12.696
  388.938  359.760   66.980   14.620
  389.188  355.292   63.261   16.284
  389.438  356.737   63.688   18.087
  389.688  359.365   61.798   19.751
  389.938  357.853   59.908   20.671
  390.188  354.896   59.603   17.756
  390.438  348.390   60.457   14.318
  390.688  339.585   63.992   11.885
  390.938  350.886   73.561    9.673
  391.188  372.044   80.204    7.782
  391.438  385.843   86.665    6.915
  391.688  386.302   89.163    6.630
  391.938  384.462   85.384    6.667
  392.188  387.221   82.946    6.763
  392.438  390.309   82.031    7.081
  392.688  388.863   79.410    7.058
  392.938  386.038   78.496    7.175
  393.188  387.351   83.981    7.151
  393.438  385.774   89.222    7.167
  393.688  381.634   83.249    7.184
  393.938  376.837   83.127    7.161
  394.188  374.537   81.847    6.875
  394.438  376.376   82.700    6.592
  394.688  379.924   89.648    6.286
  394.938  386.560   91.720    6.203
  395.188  389.845   89.160    6.280
  395.438  388.399   85.076    6.377
  395.688  386.033   84.893    6.453
  395.938  384.062   86.965    6.650
  396.188  388.595   86.843    6.768
  396.438  389.252   85.319    6.884
  396.688  383.272   84.892    6.881
  396.938  382.089   83.124    6.757
  397.188  389.711   79.954    6.312
  397.438  395.887   81.966    6.087
  397.688  392.076   84.159    6.164
  397.938  395.821   85.622    6.502
  398.188  389.644   82.940    7.060
  398.438  378.735   85.012    7.639
  398.688  366.776   80.075    8.238
  398.938  373.741   72.517    9.058
  399.188  372.821   65.324    9.978
  399.438  372.163   61.423   10.878
  399.688  372.688   60.082   12.280
  399.938  376.565   60.569   13.100
  400.188  378.470   61.788   12.654
  400.438  380.047   64.409   11.587
  400.688  384.711   72.271   10.318
  400.938  391.939   82.389    9.271
  401.188  392.859   87.935    7.902
  401.438  385.302   81.596    7.537
  401.688  379.453   80.255    8.195
  401.938  372.159   75.501    8.835
  402.188  365.128   69.771    9.354
  402.438  360.594   69.222    9.852
  402.688  360.790   74.159   10.109
  402.938  363.747   72.147    9.664
  403.188  365.849   71.172    9.159
  403.438  366.309   75.804    8.593
  403.688  365.914   80.253    7.947
  403.938  365.322   81.594    7.421
  404.188  364.928   84.153    7.116
  404.438  364.270   85.372    6.992
  404.688  364.073   87.079    6.909
  404.938  365.387   84.945    6.865
  405.188  370.249   89.028    6.901
  405.438  376.885   90.979    6.998
  405.688  381.484   92.076    7.156
  405.938  379.447   93.721    7.333
  406.188  376.161   99.023    7.730
  406.438  376.818   89.515    8.129
  406.688  377.671   77.812    8.868
  406.938  379.182   73.606    9.387
  407.188  381.876   74.154    9.343
  407.438  383.715   73.545    8.918
  407.688  383.387   72.691    8.191
  407.938  381.809   72.508    7.706
  408.188  383.451   72.264    7.441
  408.438  386.802   75.372    7.177
  408.688  388.182   80.614    6.812
  408.938  387.459   75.859    6.708
  409.188  387.327   74.579    7.387
  409.438  389.166   76.712    8.367
  409.688  391.137   80.735    9.569
  409.938  377.404   81.771   11.152
  410.188  300.064   78.114   13.779
  410.438  266.618   73.298   17.329
  410.688  266.026   70.250   23.611
  410.938  284.621   65.984   30.334
  411.188  244.210   59.827   30.210
  411.438  206.493   52.757   27.576
  411.688  186.057   48.490   23.436
  411.938  195.781   58.059   17.067
  412.188  255.773   64.337   12.405
  412.438  300.980   67.811   10.213
  412.688  350.327   70.492    7.900
  412.938  352.692   72.625    6.310
  413.188  352.495   75.124    5.524
  413.438  363.599   75.063    5.239
  413.688  381.669   79.085    5.215
  413.938  388.962   78.659    5.332
  414.188  387.122   74.879    5.308
  414.438  385.216   79.511    5.225
  414.688  388.698   85.423    5.221
  414.938  393.757   91.579    5.217
  415.188  396.911   90.543    5.154
  415.438  393.297   83.411    5.050
  415.688  390.865   78.596    4.966
  415.938  396.121   83.350    4.883
  416.188  396.581   86.336    4.939
  416.438  393.821   87.006    4.916
  416.688  394.215   84.873    4.912
  416.938  395.726   79.204    4.909
  417.188  394.674   74.267    5.005
  417.438  388.497   84.202    5.102
  417.688  396.316   87.005    5.179
  417.938  395.987   88.102    5.175
  418.188  392.570   90.418    5.031
  418.438  393.292   94.684    4.867
  418.688  395.329  102.303    4.783
  418.938  393.028   98.585    4.699
  419.188  388.823   95.598    4.837
  419.438  383.171   95.719    5.255
  419.688  376.272   97.609    5.994
  419.938  386.982  100.168    6.652
  420.188  388.493   98.766    7.072
  420.438  377.125   92.854    7.971
  420.688  362.865   86.332    8.891
  420.938  352.483   80.846    9.410
  421.188  336.450   75.604    9.668
  421.438  329.813   75.238    9.423
  421.688  330.404   75.604    9.239
  421.938  344.465   76.944    8.994
  422.188  354.584   79.260    8.590
  422.438  362.797   81.637    7.903
  422.688  369.170   83.160    7.337
  422.938  365.490   85.294    6.972
  423.188  362.467   88.646    6.848
  423.438  359.839   82.794    6.824
  423.688  363.255   79.868    6.841
  423.938  371.271   80.416    6.818
  424.188  373.373   85.292    6.814
  424.438  375.081   89.559    6.730
  424.688  377.775   90.107    6.626
  424.938  379.615   93.337    6.482
  425.188  378.760   91.265    6.358
  425.438  376.788   87.729    6.274
  425.688  379.285   88.338    6.231
  425.938  378.956   89.496    6.147
  426.188  374.290   86.936    6.304
  426.438  372.253   87.058    6.501
  426.688  374.947   91.751    6.578
  426.938  370.215   86.204    6.634
  427.188  360.687   85.168    6.631
  427.438  367.455   90.775    6.467
  427.688  374.354   91.811    6.263
  427.938  381.056   86.995    6.199
  428.188  372.842   82.972    6.135
  428.438  363.116   82.241    6.191
  428.688  356.479   85.166    6.309
  428.938  359.042   89.493    6.466
  429.188  356.676   93.028    6.663
  429.438  352.864   92.480    6.740
  429.688  349.973   88.822    6.777
  429.938  348.198   83.154    6.753
  430.188  349.380   82.300    6.649
  430.438  355.031   86.993    6.284
  430.688  361.602   91.137    6.140
  430.938  369.223   90.223    5.916
  431.188  378.028   87.175    5.591
  431.438  384.204   88.333    5.346
  431.688  383.284   90.771    5.202
  431.938  381.312   86.382    5.139
  432.188  382.692   84.614    5.055
  432.438  384.728   89.185    5.111
  432.688  386.896   89.856    5.309
  432.938  389.262   86.686    4.943
  433.188  394.781   86.686    4.699
  433.438  401.417   91.013    4.515
  433.688  399.314   92.780    4.531
  433.938  391.428   94.852    4.849
  434.188  382.032   94.913    5.810
  434.438  379.469   87.477    7.332
  434.688  370.729   81.991    9.296
  434.938  341.357   75.286   11.381
  435.188  337.151   69.983   14.751
  435.438  347.927   72.665   19.025
  435.688  356.731   73.457   21.109
  435.938  360.871   73.579   22.813
  436.188  349.897   73.761   19.155
  436.438  334.389   74.249   15.035
  436.688  333.797   75.894   11.236
  436.938  348.319   81.197    8.642
  437.188  368.097   87.109    6.651
  437.438  380.055   86.316    5.362
