~VERSION INFORMATION
 VERS.                 2.0:   CWLS LOG ASCII STANDARD -VERSION 2.0
 WRAP.                  NO:   ONE LINE PER DEPTH STEP
~WELL INFORMATION BLOCK
#MNEM.UNIT           DATA                    DESCRIPTION OF MNEMONIC
#---------    -------------------            -------------------------------
# Generated from Intellog Unique Number	CX_WELLS/WELL/4026
WELL.         PACIFIC WILLOW                 : Well_name    - WELL
LOC .         00/07-09-077-04W5/0            : Location     - LOCATION
UWI .         00/07-09-077-04W5/0            : Uwi          - UNIQUE WELL ID
ENTR.         T                              : Entered      - ENTERED BY
SRVC.         SCHLUMBERGER                   : Scn          - SERVICE COMPANY
STRT.F        1400                           : top_depth    - START DEPTH
STOP.F        2149.67                        : bot_depth    - STOP DEPTH
STEP.F        0.82                           : increment    - STEP LENGTH
 NULL. -999.2500:NULL Value
~CURVE INFORMATION BLOCK
#MNEM UNIT       ERCB CURVE CODE    CURVE DESCRIPTION
#-----------   ------------------   ----------------------------------
DEPT.F        00 001 00 00         : DEPTH        - DEPTH
GR  .API      00 310 00 00         : GR           - GAMMA RAY
NPHI.V/V      00 330 00 00         : PHIN         - NEUTRON POROSITY (SANDSTONE)
DPHI.V/V      00 890 00 00         : PHID         - DENSITY POROSITY (SANDSTONE)
ILD .OHMM     00 120 00 00         : RESD         - DEEP RESISTIVITY (DIL)
~PARAMETER INFORMATION
#MNEM.UNIT           DATA             DESCRIPTION OF MNEMONIC
#---------         -----------     ------------------------------
GL  .F        2352                 : gl           - GROUND LEVEL ELEVATION
EREF.F        2364.5               : kb           - ELEVATION OF DEPTH REFERENCE
DATM.F        2364.5               : datum        - DATUM ELEVATION
TDD .F        2166                 : tdd          - TOTAL DEPTH DRILLER
RUN .         ONE                  : Run          - RUN NUMBER
ENG .         BILL                 : Engineer     - RECORDING ENGINEER
WIT .         JIM                  : Witness      - WITNESSED BY
MUD .         GEL                  : Mud_type     - MUD TYPE
MATR.         SANDSTONE            : Logunit      - NEUTRON MATRIX
TMAX.F        82                   : BHT          - MAXIMUM RECORDED TEMPERATURE
BHTD.F        2166                 : BHTDEP       - MAXIMUM RECORDED TEMPERATURE
MATR.         1                    : LOGUNIT      - NEUTRON MATRIX
RMT .F        65                   : MDTP         - TEMPERATURE OF MUD
NEUT.         1                    : NEUTRON      - NEUTRON TYPE
RESI.         4.1                  : RESIST       - RESISTIVITY TYPE
RMC .OHMM     3.5                  : RMC          - RESISTIVITY OF MUD CAKE
RMF .OHMM     3.5                  : RMF          - RESISTIVITY OF MUD FILTRATE
SUFT.F        35                   : SUFT         - SURFACE TEMPERATURE
~A  DEPTH       GR     PHIN     PHID     RESD
 1400.000   99.339    0.548    0.191    3.726
 1400.820   95.707    0.531    0.174    4.098
 1401.640   91.478    0.384    0.158    3.951
 1402.460   87.248    0.405    0.171    3.669
 1403.280   91.612    0.408    0.188    3.346
 1404.100   94.123    0.431    0.187    3.285
 1404.920   91.732    0.452    0.157    3.353
 1405.740   85.664    0.455    0.150    3.619
 1406.560   73.469    0.479    0.127    3.905
 1407.380   70.450    0.483    0.121    4.294
 1408.200   63.157    0.341    0.099    4.548
 1409.020   61.378    0.369    0.112    4.640
 1409.840   66.340    0.390    0.135    4.916
 1410.660   74.395    0.412    0.164    4.920
 1411.480   77.504    0.430    0.257    4.572
 1412.300   80.627    0.445    0.269    4.490
 1413.120   82.540    0.447    0.270    4.579
 1413.940   82.600    0.454    0.270    4.852
 1414.760   78.983    0.461    0.271    5.438
 1415.580   73.528    0.463    0.272    5.869
 1416.400   69.299    0.457    0.273    6.099
 1417.220   65.667    0.452    0.274    6.582
 1418.040   62.051    0.449    0.276    7.241
 1418.860   59.675    0.452    0.282    7.384
 1419.690   58.524    0.453    0.298    7.678
 1420.510   57.956    0.456    0.289    7.832
 1421.330   58.045    0.455    0.284    8.298
 1422.150   58.075    0.446    0.284    8.625
 1422.970   56.940    0.444    0.284    8.968
 1423.790   56.969    0.442    0.284    9.143
 1424.610   55.819    0.445    0.285    9.510
 1425.430   55.863    0.446    0.285    9.515
 1426.250   57.761    0.449    0.286    9.709
 1427.070   59.719    0.448    0.286    9.905
 1427.890   59.749    0.443    0.283   10.104
 1428.710   59.181    0.439    0.283   10.118
 1429.530   58.643    0.438    0.284   10.127
 1430.350   58.703    0.438    0.286   10.732
 1431.170   59.405    0.435    0.286   11.149
 1431.990   59.435    0.434    0.289   12.268
 1432.810   59.480    0.441    0.292   12.511
 1433.630   59.555    0.451    0.297   13.255
 1434.450   59.614    0.453    0.293   13.518
 1435.270   60.900    0.444    0.288   13.790
 1436.090   60.362    0.434    0.294   13.809
 1436.910   61.034    0.431    0.296   13.316
 1437.730   62.304    0.427    0.297   12.366
 1438.550   63.605    0.438    0.301   11.698
 1439.370   64.277    0.450    0.302   10.464
 1440.190   64.337    0.447    0.304    9.188
 1441.010   65.009    0.444    0.303    8.856
 1441.830   65.084    0.443    0.295    8.232
 1442.650   66.369    0.439    0.291    8.081
 1443.470   68.282    0.442    0.282    7.940
 1444.290   69.537    0.454    0.282    7.801
 1445.110   73.289    0.460    0.285    7.669
 1445.930   74.574    0.472    0.291    7.675
 1446.750   73.438    0.481    0.294    7.684
 1447.570   72.885    0.489    0.286    7.693
 1448.390   72.915    0.486    0.286    7.702
 1449.210   71.764    0.470    0.286    7.856
 1450.030   69.971    0.465    0.286    7.868
 1450.850   66.967    0.466    0.287    8.026
 1451.670   66.414    0.467    0.290    8.033
 1452.490   65.248    0.466    0.295    8.042
 1453.310   64.710    0.467    0.298    7.906
 1454.130   66.623    0.474    0.297    7.768
 1454.950   67.281    0.481    0.295    7.774
 1455.770   67.983    0.481    0.292    7.640
 1456.590   68.028    0.482    0.291    7.794
 1457.410   68.073    0.484    0.291    7.953
 1458.230   67.535    0.483    0.289    7.960
 1459.060   67.609    0.480    0.288    7.967
 1459.880   67.041    0.477    0.288    7.980
 1460.700   67.116    0.466    0.286    7.987
 1461.520   67.789    0.447    0.285    7.852
 1462.340   65.995    0.430    0.281    7.859
 1463.160   63.006    0.411    0.276    7.719
 1463.980   59.987    0.396    0.268    7.730
 1464.800   56.386    0.374    0.042    8.991
 1465.620   56.445    0.339    0.024   10.864
 1466.440   57.716    0.254    0.016   11.079
 1467.260   60.226    0.204    0.034   11.517
 1468.080   61.512    0.248    0.099   10.505
 1468.900   62.184    0.444    0.171    9.753
 1469.720   60.450    0.451    0.241    9.055
 1470.540   59.898    0.464    0.267    8.253
 1471.360   59.315    0.469    0.264    7.664
 1472.180   58.777    0.450    0.259    7.532
 1473.000   57.013    0.419    0.258    8.127
 1473.820   55.205    0.385    0.185   12.536
 1474.640   52.231    0.317    0.070   15.143
 1475.460   51.050    0.222    0.070   18.639
 1476.280   48.659    0.229    0.045   19.747
 1477.100   51.169    0.239    0.044   18.339
 1477.920   54.906    0.281    0.090   12.607
 1478.740   58.029    0.432    0.279   11.276
 1479.560   59.927    0.430    0.277    9.714
 1480.380   62.468    0.422    0.276    8.060
 1481.200   63.140    0.419    0.273    7.077
 1482.020   63.170    0.416    0.264    6.822
 1482.840   63.260    0.427    0.250    6.578
 1483.660   62.707    0.442    0.222    6.463
 1484.480   61.526    0.439    0.200    6.350
 1485.300   61.003    0.440    0.194    6.726
 1486.120   60.420    0.447    0.221    6.610
 1486.940   60.510    0.454    0.253    6.617
 1487.760   61.167    0.459    0.275    6.500
 1488.580   61.855    0.454    0.273    6.511
 1489.400   62.512    0.444    0.272    6.399
 1490.220   63.170    0.454    0.270    6.774
 1491.040   63.857    0.473    0.271    7.315
 1491.860   63.932    0.476    0.272    7.319
 1492.680   64.590    0.472    0.270    7.466
 1493.500   66.488    0.461    0.268    7.475
 1494.320   67.803    0.450    0.266    7.483
 1495.140   67.833    0.449    0.272    7.494
 1495.960   67.280    0.444    0.273    7.502
 1496.780   65.516    0.438    0.273    7.801
 1497.600   64.350    0.434    0.270    7.955
 1498.430   62.572    0.403    0.254    8.118
 1499.250   60.809    0.399    0.228    8.440
 1500.070   60.255    0.388    0.215    8.445
 1500.890   56.011    0.379    0.207    8.615
 1501.710   54.263    0.402    0.233    8.625
 1502.530   54.905    0.408    0.254    8.798
 1503.350   56.833    0.419    0.259    8.813
 1504.170   57.476    0.431    0.264    8.821
 1504.990   58.776    0.422    0.266    8.349
 1505.810   58.836    0.417    0.266    8.051
 1506.630   57.057    0.412    0.262    7.910
 1507.450   54.053    0.411    0.253    8.067
 1508.270   52.260    0.409    0.245    8.076
 1509.090   51.109    0.409    0.235    8.087
 1509.910   53.007    0.407    0.234    8.094
 1510.730   54.307    0.401    0.241    7.953
 1511.550   54.367    0.388    0.249    7.668
 1512.370   52.589    0.383    0.233    7.536
 1513.190   50.182    0.382    0.214    7.269
 1514.010   46.581    0.380    0.231    7.144
 1514.830   46.013    0.383    0.244    7.148
 1515.650   49.749    0.411    0.241    6.896
 1516.470   54.726    0.434    0.231    6.900
 1517.290   60.913    0.441    0.230    6.653
 1518.110   60.987    0.424    0.249    6.419
 1518.930   60.434    0.407    0.249    6.072
 1519.750   76.425    0.399    0.219    5.854
 1520.570   98.559    0.409    0.194    5.539
 1521.390  101.697    0.429    0.183    5.547
 1522.210  100.517    0.452    0.189    5.552
 1523.030   97.543    0.475    0.207    5.560
 1523.850   96.975    0.483    0.216    5.264
 1524.670   98.260    0.463    0.208    5.073
 1525.490  101.996    0.467    0.199    4.800
 1526.310  106.973    0.491    0.195    4.375
 1527.130  110.709    0.498    0.219    3.842
 1527.950  111.381    0.529    0.245    3.567
 1528.770  107.750    0.543    0.251    3.375
 1529.590   95.555    0.560    0.270    3.380
 1530.410   82.134    0.526    0.284    3.717
 1531.230   74.228    0.495    0.290    4.086
 1532.050   71.209    0.481    0.274    5.033
 1532.870   74.961    0.483    0.266    5.431
 1533.690   78.084    0.496    0.244    4.950
 1534.510   82.448    0.506    0.237    4.683
 1535.330   83.120    0.515    0.231    4.515
 1536.150   79.504    0.488    0.229    4.784
 1536.980   77.098    0.447    0.232    4.971
 1537.800   72.868    0.427    0.239    5.267
 1538.620   67.413    0.417    0.258    5.475
 1539.440   61.958    0.417    0.266    5.802
 1540.260   57.116    0.416    0.276    6.029
 1541.080   53.514    0.416    0.273    6.149
 1541.900   52.976    0.416    0.271    6.391
