~VERSION INFORMATION
 VERS.                 2.0:   CWLS LOG ASCII STANDARD -VERSION 2.0
 WRAP.                  NO:   ONE LINE PER DEPTH STEP
~WELL INFORMATION BLOCK
#MNEM.UNIT           DATA                    DESCRIPTION OF MNEMONIC
#---------    -------------------            -------------------------------
# Generated from Intellog Unique Number	CW_73_75/WELL/3518
WELL.         PINNACLE RT AL NARTINHILL      : Well_name    - WELL
LOC .         00/03-05-075-02W5/0            : Location     - LOCATION
UWI .         00/03-05-075-02W5/0            : Uwi          - UNIQUE WELL ID
ENTR.         TIM                            : Entered      - ENTERED BY
SRVC.         SCHLUMBERGER                   : Scn          - SERVICE COMPANY
DATE.         05/25/92                       : Date         - LOG DATE
STRT.M        405                            : top_depth    - START DEPTH
STOP.M        650                            : bot_depth    - STOP DEPTH
STEP.M        0.25                           : increment    - STEP LENGTH
 NULL. -999.2500:NULL Value
~CURVE INFORMATION BLOCK
#MNEM UNIT       ERCB CURVE CODE    CURVE DESCRIPTION
#-----------   ------------------   ----------------------------------
DEPT.M        00 001 00 00         : DEPTH        - DEPTH
ILD .OHMM     00 120 00 00         : RESD         - DEEP RESISTIVITY (DIL)
DPHI.V/V      00 890 00 00         : PHID         - DENSITY POROSITY (SANDSTONE)
NPHI.V/V      00 330 00 00         : PHIN         - NEUTRON POROSITY (SANDSTONE)
GR  .API      00 310 00 00         : GR           - GAMMA RAY
~PARAMETER INFORMATION
#MNEM.UNIT           DATA             DESCRIPTION OF MNEMONIC
#---------         -----------     ------------------------------
GL  .M        702                  : gl           - GROUND LEVEL ELEVATION
EREF.M        706                  : kb           - ELEVATION OF DEPTH REFERENCE
DATM.M        706                  : datum        - DATUM ELEVATION
TDD .M        659                  : tdd          - TOTAL DEPTH DRILLER
RUN .         ONE                  : Run          - RUN NUMBER
ENG .         BILL                 : Engineer     - RECORDING ENGINEER
WIT .         JIM                  : Witness      - WITNESSED BY
MUD .         GEL                  : Mud_type     - MUD TYPE
MATR.         SANDSTONE            : Logunit      - NEUTRON MATRIX
TMAX.C        36                   : BHT          - MAXIMUM RECORDED TEMPERATURE
BHTD.M        658                  : BHTDEP       - MAXIMUM RECORDED TEMPERATURE
RMT .C        16                   : MDTP         - TEMPERATURE OF MUD
MUDD.KG/M     1045                 : MWT          - MUD DENSITY
NEUT.         1                    : NEUTRON      - NEUTRON TYPE
RESI.         0                    : RESIST       - RESISTIVITY TYPE
RM  .OHMM     9.2                  : RM           - RESISTIVITY OF MUD
RMC .OHMM     6.78                 : RMC          - RESISTIVITY OF MUD CAKE
RMF .OHMM     7.28                 : RMF          - RESISTIVITY OF MUD FILTRATE
SUFT.C        4                    : SUFT         - SURFACE TEMPERATURE
~A  DEPTH     RESD     PHID     PHIN       GR
# ...
  492.000    3.829    0.382    0.441   41.961
  492.250    3.821    0.376    0.442   41.261
  492.500    3.808    0.374    0.454   40.583
  492.750    3.797    0.383    0.459   39.927
  493.000    3.789    0.394    0.445   37.480
  493.250    3.846    0.384    0.432   40.341
  493.500    3.838    0.366    0.421   47.329
  493.750    3.825    0.360    0.409   52.571
  494.000    3.883    0.359    0.425   64.867
  494.250    3.877    0.331    0.452   66.548
  494.500    3.936    0.320    0.463   59.973
  494.750    4.002    0.293    0.436   55.167
  495.000    4.139    0.327    0.415   53.288
  495.250    4.280    0.348    0.423   52.610
  495.500    4.352    0.352    0.438   52.522
  495.750    4.342    0.355    0.458   53.023
  496.000    4.324    0.360    0.437   54.705
  496.250    4.318    0.353    0.433   54.616
  496.500    4.300    0.355    0.427   52.715
  496.750    4.291    0.366    0.427   52.081
  497.000    4.359    0.364    0.438   51.403
  497.250    4.350    0.361    0.450   53.084
  497.500    4.335    0.351    0.447   55.945
  497.750    4.316    0.328    0.431   53.476
  498.000    4.388    0.312    0.419   52.798
  498.250    4.461    0.294    0.422   55.091
  498.500    4.529    0.409    0.587   53.212
  498.750    4.868    0.463    0.635   38.358
  499.000    5.739    0.512    0.703   35.911
  499.250    6.522    0.655    0.582   43.512
  499.500    7.547    0.572    0.504   52.859
  499.750    7.117    0.436    0.468   59.848
  500.000    6.467    0.371    0.438   66.859
  500.250    5.658    0.270    0.417   58.492
  500.500    5.535    0.269    0.416   57.814
  500.750    5.627    0.269    0.415   57.726
  501.000    5.716    0.277    0.403   57.048
  501.250    5.591    0.304    0.399   59.319
  501.500    5.372    0.313    0.416   59.187
  501.750    5.457    0.313    0.464   59.711
  502.000    5.976    0.319    0.459   59.623
  502.250    7.040    0.320    0.443   57.765
  502.500    7.423    0.309    0.427   55.318
  502.750    7.266    0.303    0.413   49.901
  503.000    6.976    0.303    0.405   45.707
  503.250    6.584    0.297    0.397   46.186
  503.500    6.330    0.297    0.388   49.069
  503.750    5.856    0.302    0.382   52.497
  504.000    5.844    0.314    0.378   52.409
  504.250    5.611    0.315    0.373   51.163
  504.500    5.591    0.315    0.384   49.262
  504.750    5.567    0.313    0.393   52.123
  505.000    5.560    0.303    0.406   53.848
  505.250    5.548    0.298    0.414   57.866
  505.500    5.524    0.289    0.419   60.158
  505.750    5.513    0.287    0.425   62.429
  506.000    5.400    0.279    0.423   59.982
  506.250    5.188    0.264    0.427   61.663
  506.500    4.800    0.268    0.473   65.114
  506.750    4.530    0.266    0.467   66.795
  507.000    4.187    0.249    0.449   63.146
  507.250    4.102    0.249    0.439   63.670
  507.500    4.012    0.280    0.441   60.021
  507.750    3.927    0.298    0.445   59.344
  508.000    3.919    0.287    0.429   58.054
  508.250    4.056    0.263    0.391   52.658
  508.500    4.438    0.196    0.339   50.779
  508.750    4.945    0.149    0.299   49.534
  509.000    5.725    0.102    0.352   49.446
  509.250    6.387    0.185    0.393   51.716
  509.500    7.391    0.228    0.424   55.166
  509.750    8.712    0.240    0.435   55.646
  510.000    7.628    0.263    0.434   54.968
  510.250    6.430    0.277    0.427   56.082
  510.500    5.324    0.276    0.433   57.763
  510.750    4.661    0.274    0.454   61.213
  511.000    4.152    0.257    0.462   62.894
  511.250    3.992    0.243    0.455   67.546
  511.500    3.908    0.244    0.444   70.406
  511.750    3.970    0.242    0.443   66.736
  512.000    3.953    0.223    0.456   69.007
  512.250    3.945    0.208    0.476   70.732
  512.500    3.931    0.210    0.443   72.981
  512.750    3.850    0.218    0.417   71.713
  513.000    3.842    0.228    0.405   73.984
  513.250    3.761    0.230    0.438   75.075
  513.500    3.679    0.216    0.466   72.628
  513.750    3.732    0.201    0.475   73.108
  514.000    3.727    0.180    0.465   75.379
  514.250    3.783    0.181    0.442   78.829
  514.500    3.775    0.200    0.439   79.964
  514.750    3.765    0.205    0.451   83.392
  515.000    3.682    0.201    0.484   79.154
  515.250    3.675    0.196    0.489   77.319
  515.500    3.597    0.194    0.466   79.000
  515.750    3.587    0.195    0.464   83.608
  516.000    3.577    0.224    0.469   84.721
  516.250    3.562    0.255    0.478   75.787
  516.500    3.621    0.272    0.474   69.780
  516.750    3.747    0.267    0.446   70.871
  517.000    4.181    0.249    0.442   71.962
  517.250    5.021    0.233    0.440   68.336
  517.500    5.294    0.201    0.425   65.299
  517.750    5.182    0.192    0.437   71.108
  518.000    4.975    0.223    0.441   76.306
  518.250    4.780    0.234    0.433   76.218
  518.500    4.593    0.237    0.426   76.719
  518.750    4.413    0.231    0.456   79.602
  519.000    4.319    0.217    0.446   84.231
  519.250    4.307    0.224    0.423   77.067
  519.500    4.295    0.249    0.412   71.081
  519.750    4.286    0.257    0.408   70.382
  520.000    4.271    0.233    0.425   74.444
  520.250    4.256    0.227    0.432   76.125
  520.500    4.241    0.239    0.430   72.454
  520.750    4.235    0.231    0.429   72.366
  521.000    4.302    0.212    0.439   75.816
  521.250    4.284    0.197    0.466   78.109
  521.500    4.278    0.197    0.458   79.178
  521.750    4.185    0.197    0.455   79.112
  522.000    4.018    0.197    0.461   79.024
  522.250    4.012    0.216    0.454   80.705
  522.500    3.924    0.241    0.441   81.207
  522.750    3.916    0.252    0.432   75.222
  523.000    3.976    0.256    0.429   75.133
  523.250    4.042    0.265    0.446   73.866
  523.500    4.103    0.275    0.438   67.269
  523.750    4.247    0.299    0.435   67.181
  524.000    4.154    0.310    0.441   65.323
  524.250    3.917    0.314    0.442   61.697
  524.500    3.692    0.317    0.433   52.741
  524.750    3.614    0.317    0.422   56.169
  525.000    3.609    0.304    0.419   54.334
  525.250    3.658    0.304    0.426   50.708
  525.500    3.719    0.303    0.418   50.620
  525.750    3.852    0.299    0.416   52.868
  526.000    3.987    0.303    0.430   55.161
  526.250    3.978    0.318    0.443   55.073
  526.500    3.680    0.329    0.436   55.575
  526.750    3.533    0.324    0.420   56.644
  527.000    3.526    0.317    0.425   56.534
  527.250    3.519    0.315    0.446   57.014
  527.500    3.639    0.314    0.443   57.559
  527.750    3.769    0.317    0.444   59.808
  528.000    3.901    0.320    0.441   60.921
  528.250    4.037    0.323    0.436   57.273
  528.500    4.172    0.317    0.446   53.646
  528.750    4.164    0.312    0.452   52.968
  529.000    4.073    0.310    0.446   54.650
  529.250    3.838    0.316    0.434   56.920
  529.500    3.693    0.322    0.424   60.960
  529.750    3.615    0.311    0.422   66.180
  530.000    3.533    0.292    0.436   71.443
  530.250    3.528    0.262    0.449   80.791
  530.500    3.451    0.239    0.464   85.420
  530.750    3.439    0.207    0.474   87.669
  531.000    3.434    0.208    0.486   81.116
  531.250    3.425    0.213    0.473   76.900
  531.500    3.408    0.233    0.438   70.303
  531.750    3.467    0.280    0.409   65.497
  532.000    3.457    0.289    0.425   54.772
  532.250    3.512    0.297    0.439   53.504
  532.500    3.568    0.299    0.450   56.343
  532.750    3.759    0.291    0.428   56.255
  533.000    3.964    0.244    0.353   56.167
  533.250    4.108    0.169    0.324   56.056
  533.500    4.410    0.226    0.372   56.602
  533.750    4.737    0.258    0.426   57.082
  534.000    4.994    0.270    0.413   58.785
  534.250    5.074    0.209    0.375   60.466
  534.500    4.966    0.187    0.324   63.304
  534.750    5.144    0.144    0.312   64.396
  535.000    5.423    0.161    0.321   60.180
  535.250    5.826    0.199    0.337   57.121
