~VERSION INFORMATION
 VERS.                 2.0:   CWLS LOG ASCII STANDARD -VERSION 2.0
 WRAP.                  NO:   ONE LINE PER DEPTH STEP
~WELL INFORMATION BLOCK
#MNEM.UNIT           DATA                    DESCRIPTION OF MNEMONIC
#---------    -------------------            -------------------------------
# Generated from Intellog Unique Number	CW_70_72/WELL/3007
NULL.         -999.25                        : NULL_VALUE
WELL.         SULPETRO ET AL PARKER 06-17    : Well_name    - WELL              
LOC .         06-17-070-04W5                 : Location     - LOCATION          
UWI .         00/06-17-070-04W5/0            : Uwi          - UNIQUE WELL ID    
ENTR.         J                              : Entered      - ENTERED BY        
SRVC.         WESTERN ATLAS                  : Scn          - SERVICE COMPANY   
DATE.         4 JUNE 83                      : Date         - LOG DATE          
STRT.M        600                            : top_depth    - START DEPTH       
STOP.M        840                            : bot_depth    - STOP DEPTH        
STEP.M        0.25                           : increment    - STEP LENGTH       
~CURVE INFORMATION BLOCK
#MNEM UNIT       ERCB CURVE CODE    CURVE DESCRIPTION
#-----------   ------------------   ----------------------------------
DEPT.M        00 001 00 00         : DEPTH        - DEPTH                       
ILD .OHMM     00 120 00 00         : RESD         - DEEP RESISTIVITY (DIL)      
CALI.MM       00 280 01 00         : CAL          - CALIPER                     
GR  .API      00 310 00 00         : GR           - GAMMA RAY                   
NPHI.V/V      00 330 00 00         : PHIN         - NEUTRON POROSITY (SANDSTONE)
DPHI.V/V      00 890 00 00         : PHID         - DENSITY POROSITY (SANDSTONE)
~PARAMETER INFORMATION       
#MNEM.UNIT           DATA             DESCRIPTION OF MNEMONIC
#---------         -----------     ------------------------------
GL  .M        710.35               : gl           - GROUND LEVEL ELEVATION      
EREF.M        714.05               : kb           - ELEVATION OF DEPTH REFERENCE
DATM.M        710.35               : datum        - DATUM ELEVATION             
TDD .M        905                  : tdd          - TOTAL DEPTH DRILLER         
RUN .         ONE                  : Run          - RUN NUMBER                  
ENG .         ADAMOWSKI            : Engineer     - RECORDING ENGINEER          
WIT .         DAVID                : Witness      - WITNESSED BY                
BASE.         EDM                  : Branch       - HOME BASE OF LOGGING UNIT   
MUD .         GEL CHEM             : Mud_type     - MUD TYPE                    
MATR.         SANDSTONE            : Logunit      - NEUTRON MATRIX              
TMAX.C        33                   : BHT          - MAXIMUM RECORDED TEMPERATURE
BHTD.M        902.5                : BHTDEP       - MAXIMUM RECORDED TEMPERATURE
RMT .C        17                   : MDTP         - TEMPERATURE OF MUD          
MUDD.KG/M     1150                 : MWT          - MUD DENSITY                 
NEUT.         1                    : NEUTRON      - NEUTRON TYPE                
RESI.         0                    : RESIST       - RESISTIVITY TYPE            
RM  .OHMM     2.3                  : RM           - RESISTIVITY OF MUD          
RMC .OHMM     2.5                  : RMC          - RESISTIVITY OF MUD CAKE     
RMF .OHMM     1.9                  : RMF          - RESISTIVITY OF MUD FILTRATE 
SUFT.C        0                    : SUFT         - SURFACE TEMPERATURE         
~A  DEPTH     RESD      CAL       GR     PHIN     PHID
# ...
  673.000    1.928  150.785   66.787    0.347    0.299
  673.250    1.768  150.392   60.849    0.355    0.302
  673.500    1.621  150.096   58.855    0.356    0.304
  673.750    1.492  150.119   58.368    0.352    0.301
  674.000    1.405  150.137   59.073    0.349    0.293
  674.250    1.378  149.953   60.086    0.345    0.288
  674.500    1.413  149.762   61.288    0.342    0.288
  674.750    1.452  149.793   67.004    0.342    0.288
  675.000    1.493  149.810   68.020    0.371    0.284
  675.250    1.540  149.810   64.586    0.366    0.279
  675.500    1.595  149.810   62.155    0.357    0.272
  675.750    1.645  149.985   65.990    0.343    0.267
  676.000    1.713  150.214   71.392    0.342    0.263
  676.250    1.838  150.336   71.845    0.339    0.257
  676.500    1.968  150.668   67.848    0.329    0.242
  676.750    2.200  150.704   63.348    0.316    0.225
  677.000    2.330  150.713   57.786    0.295    0.209
  677.250    2.268  150.948   56.297    0.276    0.222
  677.500    2.103  151.173   57.936    0.278    0.246
  677.750    1.897  151.524   64.968    0.306    0.260
  678.000    1.716  151.327   70.119    0.324    0.270
  678.250    1.634  151.239   72.829    0.343    0.280
  678.500    1.561  151.260   71.273    0.352    0.286
  678.750    1.506  151.260   68.591    0.355    0.289
  679.000    1.483  151.323   65.034    0.352    0.291
  679.250    1.481  151.332   63.729    0.343    0.289
  679.500    1.491  151.139   61.863    0.344    0.286
  679.750    1.577  150.221   61.189    0.339    0.278
  680.000    1.711  148.675   63.520    0.329    0.265
  680.250    1.835  148.593   64.097    0.318    0.248
  680.500    1.987  148.408   63.546    0.306    0.234
  680.750    2.213  145.731   62.681    0.295    0.218
  681.000    2.502  147.404   59.122    0.282    0.202
  681.250    2.992  149.725   54.812    0.266    0.174
  681.500    3.799  149.537   51.441    0.238    0.134
  681.750    5.226  150.083   50.201    0.159    0.076
  682.000    7.148  149.900   49.525    0.136    0.049
  682.250   10.056  149.707   49.850    0.127    0.032
  682.500   12.887  149.832   50.490    0.120    0.020
  682.750   13.247  149.752   45.680    0.115    0.006
  683.000   12.214  150.296   46.006    0.114   -0.001
  683.250   10.373  150.630   47.334    0.117    0.010
  683.500    7.502  150.546   49.543    0.127    0.053
  683.750    5.168  150.572   51.810    0.165    0.091
  684.000    3.953  149.859   54.831    0.219    0.141
  684.250    2.957  148.836   58.163    0.248    0.191
  684.500    2.474  148.025   62.188    0.269    0.245
  684.750    2.078  149.506   63.202    0.294    0.260
  685.000    1.867  148.903   61.461    0.308    0.256
  685.250    1.797  148.509   61.035    0.322    0.250
  685.500    1.756  148.318   60.422    0.339    0.248
  685.750    1.735  148.551   57.364    0.363    0.259
  686.000    1.721  148.572   56.816    0.378    0.265
  686.250    1.799  147.866   58.957    0.354    0.268
  686.500    1.887  147.677   62.041    0.342    0.267
  686.750    2.006  148.329   62.117    0.336    0.259
  687.000    2.172  148.769   60.062    0.330    0.243
  687.250    2.362  149.307   59.073    0.325    0.228
  687.500    2.469  149.856   61.654    0.312    0.210
  687.750    2.513  149.559   69.062    0.303    0.220
  688.000    2.388  149.477   71.956    0.293    0.246
  688.250    2.118  149.709   73.849    0.315    0.265
  688.500    2.000  150.251   70.103    0.343    0.277
  688.750    1.835  150.274   61.970    0.349    0.289
  689.000    1.740  150.715   57.096    0.352    0.298
  689.250    1.681  150.735   58.425    0.361    0.295
  689.500    1.649  150.756   65.644    0.378    0.277
  689.750    1.627  150.046   71.421    0.387    0.270
  690.000    1.622  149.128   75.883    0.380    0.272
  690.250    1.609  148.422   71.698    0.371    0.277
  690.500    1.602  148.337   67.889    0.362    0.281
  690.750    1.610  148.569   64.894    0.357    0.287
  691.000    1.624  148.698   64.594    0.361    0.290
  691.250    1.641  148.611   64.106    0.360    0.293
  691.500    1.668  148.221   67.565    0.353    0.295
  691.750    1.766  148.134   70.523    0.345    0.292
  692.000    1.909  148.884   73.732    0.341    0.269
  692.250    2.037  150.267   77.630    0.338    0.242
  692.500    2.235  152.064   81.591    0.340    0.212
  692.750    2.411  153.754   85.051    0.346    0.186
  693.000    2.626  155.552   88.133    0.346    0.172
  693.250    2.775  156.621   91.655    0.341    0.161
  693.500    2.895  157.056   85.466    0.343    0.154
  693.750    2.998  157.602   79.838    0.355    0.168
  694.000    2.957  157.833   77.282    0.353    0.189
  694.250    2.944  158.062   75.917    0.344    0.199
  694.500    2.981  157.667   78.126    0.329    0.203
  694.750    2.990  156.540   81.269    0.319    0.188
  695.000    2.945  155.830   85.857    0.318    0.177
  695.250    2.861  155.434   83.114    0.334    0.193
  695.500    2.718  155.350   75.169    0.342    0.210
  695.750    2.460  155.061   71.673    0.335    0.229
  696.000    2.177  153.306   74.569    0.330    0.238
  696.250    1.981  153.223   71.699    0.331    0.245
  696.500    1.787  152.621   66.071    0.346    0.261
  696.750    1.632  152.535   65.834    0.353    0.278
  697.000    1.531  152.351   67.414    0.345    0.283
  697.250    1.471  151.956   62.979    0.338    0.284
  697.500    1.400  151.870   59.421    0.337    0.286
  697.750    1.353  152.622   61.501    0.343    0.288
  698.000    1.334  154.210   64.459    0.337    0.291
  698.250    1.321  156.217   66.667    0.333    0.294
  698.500    1.296  156.970   64.799    0.329    0.295
  698.750    1.281  156.680   60.239    0.326    0.297
  699.000    1.258  156.282   57.743    0.334    0.298
  699.250    1.225  155.367   60.829    0.342    0.301
  699.500    1.201  155.910   63.473    0.335    0.304
  699.750    1.174  156.138   64.550    0.326    0.307
  700.000    1.137  155.536   61.931    0.323    0.310
  700.250    1.119  154.616   59.001    0.320    0.311
  700.500    1.100  152.861   58.386    0.312    0.310
  700.750    1.090  152.989   57.271    0.327    0.309
  701.000    1.086  153.638   57.660    0.344    0.311
  701.250    1.083  154.078   60.620    0.363    0.310
  701.500    1.087  154.726   63.075    0.372    0.309
  701.750    1.104  154.436   63.150    0.373    0.307
  702.000    1.099  153.620   62.663    0.359    0.305
  702.250    1.098  151.868   61.299    0.351    0.307
  702.500    1.094  150.741   59.304    0.341    0.310
  702.750    1.089  150.865   55.746    0.334    0.313
  703.000    1.084  151.829   53.942    0.348    0.313
  703.250    1.077  152.474   55.461    0.364    0.312
  703.500    1.073  152.604   55.535    0.364    0.310
  703.750    1.062  152.832   53.104    0.356    0.310
  704.000    1.057  153.166   55.937    0.346    0.310
  704.250    1.054  153.817   58.895    0.338    0.311
  704.500    1.048  154.255   56.715    0.361    0.313
  704.750    1.037  154.695   54.034    0.374    0.315
  705.000    1.026  154.612   56.929    0.367    0.320
  705.250    1.027  154.528   58.634    0.350    0.322
  705.500    1.028  155.281   56.892    0.342    0.321
  705.750    1.031  155.095   56.343    0.347    0.321
  706.000    1.032  155.121   56.608    0.354    0.323
  706.250    1.028  154.517   57.747    0.355    0.324
  706.500    1.021  153.703   61.769    0.357    0.325
  706.750    1.017  153.407   66.859    0.364    0.326
  707.000    1.012  153.431   68.688    0.371    0.326
  707.250    1.012  153.764   62.375    0.382    0.326
  707.500    1.012  154.939   57.124    0.384    0.325
  707.750    0.983  155.375   55.757    0.373    0.323
  708.000    0.982  155.812   56.460    0.363    0.321
  708.250    0.978  156.148   57.913    0.360    0.319
  708.500    0.990  156.591   60.997    0.367    0.315
  708.750    1.007  156.925   57.626    0.364    0.310
  709.000    1.093  156.946   55.824    0.361    0.303
  709.250    1.208  156.653   58.656    0.363    0.292
