~VERSION INFORMATION
 VERS.                 2.0:   CWLS LOG ASCII STANDARD -VERSION 2.0
 WRAP.                  NO:   ONE LINE PER DEPTH STEP
~WELL INFORMATION BLOCK
#MNEM.UNIT           DATA                    DESCRIPTION OF MNEMONIC
#---------    -------------------            -------------------------------
# Generated from Intellog Unique Number	CW_70_72/WELL/903
NULL.         -999.25                        : NULL_VALUE
WELL.         CHIEFTAIN ET AL SMITH 07-19    : Well_name    - WELL              
LOC .         07-19-071-26W4                 : Location     - LOCATION          
UWI .         00/07-19-071-26W4/0            : Uwi          - UNIQUE WELL ID    
ENTR.         JAYE                           : Entered      - ENTERED BY        
SRVC.         SCHLUMBERGER                   : Scn          - SERVICE COMPANY   
DATE.         13 JUNE 76                     : Date         - LOG DATE          
STRT.M        445.008                        : top_depth    - START DEPTH       
STOP.M        702.258                        : bot_depth    - STOP DEPTH        
STEP.M        0.25                           : increment    - STEP LENGTH       
~CURVE INFORMATION BLOCK
#MNEM UNIT       ERCB CURVE CODE    CURVE DESCRIPTION
#-----------   ------------------   ----------------------------------
DEPT.M        00 001 00 00         : DEPTH        - DEPTH                       
DPHI.V/V      00 890 00 00         : PHID         - DENSITY POROSITY (SANDSTONE)
NPHI.V/V      00 330 00 00         : PHIN         - NEUTRON POROSITY (SANDSTONE)
GR  .API      00 310 00 00         : GR           - GAMMA RAY                   
CALI.MM       00 280 01 00         : CAL          - CALIPER                     
ILD .OHMM     00 120 00 00         : RESD         - DEEP RESISTIVITY (DIL)      
~PARAMETER INFORMATION       
#MNEM.UNIT           DATA             DESCRIPTION OF MNEMONIC
#---------         -----------     ------------------------------
GL  .M        633.374              : gl           - GROUND LEVEL ELEVATION      
EREF.M        636.422              : kb           - ELEVATION OF DEPTH REFERENCE
DATM.M        633.374              : datum        - DATUM ELEVATION             
TDD .M        627.888              : tdd          - TOTAL DEPTH DRILLER         
RUN .         ONE                  : Run          - RUN NUMBER                  
BASE.         EDM                  : Branch       - HOME BASE OF LOGGING UNIT   
MUD .         GEL CHEM             : Mud_type     - MUD TYPE                    
MATR.         SANDSTONE            : Logunit      - NEUTRON MATRIX              
TMAX.C        27.2222              : BHT          - MAXIMUM RECORDED TEMPERATURE
BHTD.M        627.888              : BHTDEP       - MAXIMUM RECORDED TEMPERATURE
RMT .C        16.6667              : MDTP         - TEMPERATURE OF MUD          
MUDD.KG/M     0                    : MWT          - MUD DENSITY                 
NEUT.         1                    : NEUTRON      - NEUTRON TYPE                
RESI.         0                    : RESIST       - RESISTIVITY TYPE            
RM  .OHMM     4.87                 : RM           - RESISTIVITY OF MUD          
RMC .OHMM     0                    : RMC          - RESISTIVITY OF MUD CAKE     
RMF .OHMM     3.87                 : RMF          - RESISTIVITY OF MUD FILTRATE 
SUFT.C        -17.7778             : SUFT         - SURFACE TEMPERATURE         
~A  DEPTH     PHID     PHIN       GR      CAL     RESD
# ...
  518.008    0.133    0.236   46.333  152.144    9.106
  518.258    0.116    0.208   42.988  152.174    8.673
  518.508    0.065    0.163   42.634  152.001    7.352
  518.758    0.011    0.145   44.650  151.923    5.744
  519.008    0.006    0.187   46.288  151.856    4.349
  519.258    0.027    0.213   47.804  151.784    3.533
  519.508    0.068    0.255   50.006  151.711    2.912
  519.758    0.112    0.318   54.636  151.638    2.339
  520.008    0.193    0.364   57.087  151.671    1.987
  520.258    0.269    0.403   54.053  151.706    1.857
  520.508    0.317    0.416   52.205  151.746    1.816
  520.758    0.307    0.427   51.663  151.775    1.798
  521.008    0.298    0.431   51.745  151.702    1.800
  521.258    0.300    0.422   52.263  151.522    1.803
  521.508    0.307    0.408   52.221  151.454    1.815
  521.758    0.299    0.406   51.245  151.273    1.828
  522.008    0.290    0.411   50.581  151.208    1.840
  522.258    0.278    0.417   50.725  151.238    1.853
  522.508    0.264    0.424   51.491  151.267    1.866
  522.758    0.260    0.433   54.378  151.202    1.882
  523.008    0.287    0.445   56.392  151.229    1.892
  523.258    0.299    0.441   55.728  151.267    1.905
  523.508    0.308    0.432   54.437  151.299    1.921
  523.758    0.320    0.433   54.209  151.330    1.935
  524.008    0.313    0.427   53.233  151.471    1.955
  524.258    0.305    0.421   54.310  151.505    1.976
  524.508    0.308    0.422   58.008  151.744    1.997
  524.758    0.311    0.436   55.660  151.677    2.026
  525.008    0.310    0.448   53.186  151.705    2.051
  525.258    0.307    0.446   53.705  151.635    2.104
  525.508    0.305    0.434   54.908  151.675    2.182
  525.758    0.298    0.423   56.362  151.707    2.318
  526.008    0.277    0.415   58.376  151.636    2.477
  526.258    0.257    0.432   61.325  151.669    2.593
  526.508    0.238    0.459   64.897  151.797    2.679
  526.758    0.223    0.497   68.034  151.934    2.749
  527.008    0.216    0.515   69.611  152.182    2.814
  527.258    0.277    0.500   66.640  152.317    2.935
  527.508    0.281    0.471   59.742  152.451    3.078
  527.758    0.290    0.425   61.323  152.701    3.344
  528.008    0.293    0.411   63.835  152.842    3.818
  528.258    0.277    0.403   65.847  153.083    4.272
  528.508    0.260    0.390   66.865  153.216    4.590
  528.758    0.192    0.356   67.260  153.251    4.841
  529.008    0.163    0.350   69.521  153.382    4.893
  529.258    0.156    0.361   66.738  153.629    4.609
  529.508    0.161    0.344   61.460  153.764    4.215
  529.758    0.177    0.360   55.935  153.900    3.741
  530.008    0.198    0.378   52.465  154.040    3.396
  530.258    0.243    0.407   49.304  154.072    3.049
  530.508    0.267    0.399   47.705  154.216    2.768
  530.758    0.268    0.403   48.973  154.246    2.466
  531.008    0.278    0.407   50.736  153.960    2.226
  531.258    0.278    0.410   53.747  153.892    2.097
  531.508    0.280    0.411   53.582  153.712    1.975
  531.758    0.291    0.411   52.790  153.546    1.960
  532.008    0.308    0.408   54.243  153.470    2.021
  532.258    0.300    0.405   58.439  153.290    2.108
  532.508    0.293    0.397   59.456  153.327    2.223
  532.758    0.292    0.387   59.351  153.359    2.366
  533.008    0.282    0.383   60.804  153.393    2.585
  533.258    0.257    0.396   63.192  153.318    2.767
  533.508    0.226    0.406   67.263  153.350    3.017
  533.758    0.202    0.420   71.459  153.494    3.283
  534.008    0.181    0.431   73.971  153.941    3.437
  534.258    0.182    0.431   76.422  154.184    3.565
  534.508    0.174    0.421   78.250  154.321    3.663
  534.758    0.162    0.410   79.330  154.355    3.723
  535.008    0.137    0.403   79.659  154.388    3.735
  535.258    0.164    0.401   80.118  154.418    3.719
  535.508    0.161    0.401   80.948  154.454    3.704
  535.758    0.163    0.404   81.900  154.277    3.661
  536.008    0.170    0.407   82.671  154.415    3.585
  536.258    0.176    0.413   83.438  154.446    3.511
  536.508    0.184    0.428   84.143  154.588    3.369
  536.758    0.194    0.434   85.409  154.723    3.245
  537.008    0.187    0.427   86.801  155.385    3.085
  537.258    0.176    0.430   89.561  156.358    2.863
  537.508    0.166    0.437   87.338  157.021    2.652
  537.758    0.233    0.438   81.374  157.054    2.498
  538.008    0.258    0.438   74.726  156.561    2.415
  538.258    0.281    0.433   68.265  155.549    2.396
  538.508    0.292    0.430   62.178  154.855    2.421
  538.758    0.291    0.430   60.640  154.775    2.466
  539.008    0.288    0.425   64.524  154.917    2.562
  539.258    0.274    0.416   66.351  155.057    2.687
  539.508    0.274    0.425   69.861  154.984    2.881
  539.758    0.266    0.438   72.811  155.122    3.033
  540.008    0.246    0.448   75.074  155.258    3.199
  540.258    0.230    0.454   76.901  155.294    3.324
  540.508    0.220    0.431   79.413  155.222    3.454
  540.758    0.198    0.420   82.923  155.149    3.549
  541.008    0.204    0.430   85.874  154.976    3.620
  541.258    0.206    0.435   88.571  154.905    3.672
  541.508    0.191    0.424   88.779  154.933    3.691
  541.758    0.183    0.416   85.931  154.963    3.682
  542.008    0.183    0.421   82.773  154.687    3.653
  542.258    0.179    0.430   79.990  154.508    3.584
  542.508    0.186    0.446   77.952  154.439    3.536
  542.758    0.209    0.466   78.783  154.263    3.450
  543.008    0.231    0.480   79.613  154.190    3.366
  543.258    0.237    0.476   78.946  154.010    3.236
  543.508    0.244    0.450   74.417  154.045    3.094
  543.758    0.255    0.463   74.064  153.971    2.904
  544.008    0.283    0.488   70.904  153.902    2.715
  544.258    0.338    0.513   67.061  153.725    2.529
  544.508    0.369    0.532   62.533  153.550    2.374
  544.758    0.355    0.430   62.615  153.476    2.278
  545.008    0.319    0.416   63.260  151.314    2.198
  545.258    0.304    0.438   63.153  150.617    2.141
  545.508    0.306    0.442   63.297  150.540    2.108
  545.758    0.306    0.437   63.317  150.267    2.084
  546.008    0.302    0.426   63.526  150.298    2.063
  546.258    0.296    0.418   64.106  150.537    2.058
  546.508    0.288    0.416   64.688  150.569    2.057
  546.758    0.277    0.416   64.644  150.920    2.060
  547.008    0.283    0.414   64.976  151.474    2.059
  547.258    0.282    0.416   65.808  152.139    2.058
  547.508    0.269    0.425   66.386  152.692    2.060
  547.758    0.275    0.432   67.031  152.935    2.059
  548.008    0.284    0.428   67.485  152.556    2.058
  548.258    0.292    0.420   68.128  152.067    2.061
  548.508    0.297    0.421   68.274  152.091    2.087
  548.758    0.304    0.420   67.546  151.811    2.125
  549.008    0.315    0.418   66.070  151.742    2.167
  549.258    0.321    0.422   64.907  151.457    2.244
  549.508    0.302    0.428   64.302  150.973    2.327
  549.758    0.291    0.427   64.945  150.685    2.491
  550.008    0.279    0.418   66.337  150.828    2.691
  550.258    0.260    0.405   65.359  151.167    2.896
  550.508    0.255    0.413   64.132  151.204    3.066
  550.758    0.246    0.408   64.402  150.503    3.209
  551.008    0.232    0.360   66.045  149.907    3.085
  551.258    0.185    0.344   67.435  150.360    2.906
  551.508    0.208    0.364   67.329  151.020    2.825
  551.758    0.245    0.401   62.425  151.367    2.850
  552.008    0.265    0.417   58.643  151.922    2.918
  552.258    0.258    0.421   59.412  152.480    3.054
  552.508    0.248    0.412   61.426  153.148    3.221
  552.758    0.249    0.391   62.755  153.804    3.441
  553.008    0.251    0.402   63.396  154.356    3.543
  553.258    0.250    0.405   63.667  154.708    3.634
  553.508    0.246    0.394   64.373  154.427    3.646
  553.758    0.237    0.378   63.457  154.353    3.564
  554.008    0.229    0.376   62.667  154.493    3.490
  554.258    0.248    0.389   64.622  154.316    3.469
