~VERSION INFORMATION
 VERS.                 2.0:   CWLS LOG ASCII STANDARD -VERSION 2.0
 WRAP.                  NO:   ONE LINE PER DEPTH STEP
~WELL INFORMATION BLOCK
#MNEM.UNIT           DATA                    DESCRIPTION OF MNEMONIC
#---------    -------------------            -------------------------------
# Generated from Intellog Unique Number	CW_76_78/WELL/2571
WELL.         07-07-078-23W4                 : Well_name    - WELL
LOC .         00/07-07-078-23W4/0            : Location     - LOCATION
UWI .         00/07-07-078-23W4/0            : Uwi          - UNIQUE WELL ID
ENTR.         MAX                            : Entered      - ENTERED BY
SRVC.         WESTERN ATLAS                  : Scn          - SERVICE COMPANY
STRT.M        290                            : top_depth    - START DEPTH
STOP.M        562                            : bot_depth    - STOP DEPTH
STEP.M        0.25                           : increment    - STEP LENGTH
 NULL. -999.2500:NULL Value
~CURVE INFORMATION BLOCK
#MNEM UNIT       ERCB CURVE CODE    CURVE DESCRIPTION
#-----------   ------------------   ----------------------------------
DEPT.M        00 001 00 00         : DEPTH        - DEPTH
ILD .OHMM     00 120 00 00         : RESD         - DEEP RESISTIVITY (DIL)
NPHI.V/V      00 330 00 00         : PHIN         - NEUTRON POROSITY (SANDSTONE)
DPHI.V/V      00 890 00 00         : PHID         - DENSITY POROSITY (SANDSTONE)
CALI.MM       00 280 01 00         : CAL          - CALIPER
GR  .API      00 310 00 00         : GR           - GAMMA RAY
~PARAMETER INFORMATION
#MNEM.UNIT           DATA             DESCRIPTION OF MNEMONIC
#---------         -----------     ------------------------------
GL  .M        601.9                : gl           - GROUND LEVEL ELEVATION
EREF.M        606                  : kb           - ELEVATION OF DEPTH REFERENCE
DATM.M        601.9                : datum        - DATUM ELEVATION
TDD .M        566                  : tdd          - TOTAL DEPTH DRILLER
RUN .         ONE                  : Run          - RUN NUMBER
ENG .         BILL                 : Engineer     - RECORDING ENGINEER
WIT .         JIM                  : Witness      - WITNESSED BY
MUD .         GEL                  : Mud_type     - MUD TYPE
MATR.         SANDSTONE            : Logunit      - NEUTRON MATRIX
TMAX.C        27                   : BHT          - MAXIMUM RECORDED TEMPERATURE
BHTD.M        566                  : BHTDEP       - MAXIMUM RECORDED TEMPERATURE
RMT .C        20                   : MDTP         - TEMPERATURE OF MUD
MUDD.KG/M     1110                 : MWT          - MUD DENSITY
NEUT.         1                    : NEUTRON      - NEUTRON TYPE
RESI.         0                    : RESIST       - RESISTIVITY TYPE
RM  .OHMM     5                    : RM           - RESISTIVITY OF MUD
RMC .OHMM     5.5                  : RMC          - RESISTIVITY OF MUD CAKE
RMF .OHMM     4.8                  : RMF          - RESISTIVITY OF MUD FILTRATE
SUFT.C        -20                  : SUFT         - SURFACE TEMPERATURE
~A  DEPTH     RESD     PHIN     PHID      CAL       GR
# ...
  472.500   15.698    0.270    0.136  207.136  100.248
  472.750   15.837    0.256    0.057  206.119   98.452
  473.000   15.543    0.264    0.047  206.088   96.659
  473.250   14.568    0.298    0.115  206.049   95.159
  473.500   13.782    0.303    0.171  206.014   97.213
  473.750   12.918    0.291    0.193  205.498  103.110
  474.000   12.913    0.298    0.183  204.970  103.977
  474.250   13.027    0.316    0.173  204.446  104.254
  474.500   13.264    0.322    0.158  203.918  103.644
  474.750   14.011    0.292    0.152  203.891  108.360
  475.000   14.531    0.290    0.158  203.860  112.185
  475.250   14.796    0.278    0.153  203.829  106.253
  475.500   14.654    0.233    0.069  204.291   94.400
  475.750   14.250    0.236    0.072  205.242   88.466
  476.000   13.356    0.266    0.080  205.701  100.575
  476.250   12.405    0.293    0.100  205.677  103.218
  476.500   10.223    0.310    0.123  206.132  108.524
  476.750    9.582    0.331    0.149  206.594  109.980
  477.000    9.579    0.335    0.165  206.570  108.782
  477.250    9.934    0.330    0.167  206.539  109.355
  477.500   10.688    0.325    0.151  206.501  107.560
  477.750   12.960    0.317    0.103  205.981  102.217
  478.000   15.428    0.314    0.107  204.467   98.649
  478.250   16.002    0.310    0.196  202.957   93.306
  478.500   17.375    0.304    0.205  201.940   79.383
  478.750   18.696    0.295    0.213  201.420   77.294
  479.000   20.302    0.309    0.236  200.896   73.726
  479.250   22.871    0.323    0.257  200.861   74.594
  479.500   25.065    0.328    0.248  200.826   73.688
  479.750   26.970    0.331    0.256  200.803   69.526
  480.000   29.557    0.333    0.269  200.760   66.252
  480.250   33.298    0.329    0.275  200.729   63.869
  480.500   36.830    0.319    0.276  201.195   60.597
  480.750   41.110    0.313    0.275  201.657   53.775
  481.000   41.475    0.313    0.275  202.608   49.315
  481.250   40.701    0.315    0.278  202.585   50.186
  481.500   39.945    0.315    0.286  202.554   49.576
  481.750   39.203    0.304    0.292  202.519   48.963
  482.000   38.478    0.293    0.292  201.995   52.790
  482.250   37.417    0.293    0.273  201.961   53.067
  482.500   36.051    0.292    0.268  202.423   51.274
  482.750   34.417    0.287    0.281  202.395   47.112
  483.000   33.161    0.286    0.282  202.361   46.800
  483.250   31.662    0.283    0.276  201.340   48.847
  483.500   29.951    0.285    0.267  199.834   50.014
  483.750   27.560    0.289    0.269  198.821   49.998
  484.000   25.597    0.286    0.283  198.790   51.752
  484.250   23.770    0.282    0.282  200.230   49.958
  484.500   22.282    0.279    0.270  202.171   49.646
  484.750   18.703    0.287    0.253  202.637   52.290
  485.000   18.187    0.290    0.253  202.109   57.596
  485.250   17.363    0.286    0.249  202.078   61.124
  485.500   16.275    0.287    0.235  202.540   64.657
  485.750   14.840    0.291    0.238  202.540   65.230
  486.000   13.163    0.284    0.256  202.956   68.466
  486.250   11.891    0.289    0.252  203.437   71.996
  486.500   11.458    0.295    0.245  203.891   72.567
  486.750   11.040    0.303    0.253  203.860   74.326
  487.000   10.735    0.305    0.266  203.833   80.814
  487.250   10.536    0.291    0.267  203.802   81.679
  487.500   10.246    0.275    0.266  203.771   79.296
  487.750    9.872    0.255    0.240  204.722   75.723
  488.000    9.600    0.277    0.202  205.677   83.992
  488.250    9.165    0.308    0.148  206.632  104.681
  488.500    8.750    0.320    0.148  208.573  110.280
  488.750    8.588    0.303    0.108  210.025  113.222
  489.000    8.584    0.304    0.145  212.455  112.611
  489.250    9.236    0.302    0.153  212.913  101.350
  489.500   11.303    0.305    0.159  213.379   86.542
  489.750   13.833    0.307    0.165  212.362   71.140
  490.000   18.560    0.302    0.248  210.359   60.473
  490.250   30.204    0.302    0.270  207.863   58.088
  490.500   32.201    0.295    0.268  205.857   60.433
  490.750   33.092    0.297    0.263  205.333   68.399
  491.000   33.385    0.294    0.255  205.306   65.721
  491.250   33.372    0.285    0.254  205.756   65.702
  491.500   32.156    0.281    0.241  206.218   67.754
  491.750   29.318    0.279    0.225  206.688   69.803
  492.000   25.531    0.275    0.214  207.146   70.968
  492.250   21.041    0.265    0.189  207.092   75.682
  492.500   17.823    0.247    0.012  207.577   76.847
  492.750   15.665    0.247    0.067  208.043   81.267
  493.000   13.270    0.259    0.100  208.004   89.827
  493.250   10.541    0.280    0.140  207.977   98.386
  493.500    8.607    0.321    0.159  208.431  105.171
  493.750    7.564    0.339    0.152  209.394  119.057
  494.000    7.423    0.348    0.151  211.828  124.067
  494.250    7.353    0.348    0.147  213.765  127.006
  494.500    7.216    0.344    0.147  213.730  110.714
  494.750    7.017    0.328    0.152  211.731  110.994
  495.000    6.886    0.329    0.154  210.221  114.522
  495.250    6.884    0.335    0.180  210.221  119.535
  495.500    7.407    0.332    0.201  209.173  117.741
  495.750    8.579    0.316    0.191  207.659  109.142
  496.000   10.693    0.302    0.175  207.659   99.363
  496.250   12.271    0.289    0.165  207.101   93.428
  496.500   15.294    0.296    0.177  206.584   85.421
  496.750   16.917    0.305    0.201  206.060   83.034
  497.000   17.870    0.301    0.176  206.026   85.381
  497.250   17.538    0.291    0.167  205.991   85.957
  497.500   16.590    0.284    0.160  205.968   90.375
  497.750   15.839    0.282    0.145  205.933   88.281
  498.000   14.846    0.286    0.152  205.898   90.042
  498.250   14.174    0.293    0.147  205.867   89.136
  498.500   13.163    0.287    0.148  205.840   99.766
  498.750   12.338    0.284    0.154  206.298   99.156
  499.000   11.779    0.288    0.160  206.267   92.327
  499.250   11.245    0.289    0.166  206.725   91.125
  499.500   10.936    0.284    0.174  207.191   91.109
  499.750   10.831    0.292    0.157  207.156   91.389
  500.000   11.337    0.299    0.147  207.622   89.891
  500.250   12.424    0.296    0.176  208.080   79.816
  500.500   13.616    0.314    0.212  208.049   70.623
  500.750   14.923    0.333    0.238  208.515   77.114
  501.000   16.967    0.327    0.270  208.977   81.236
  501.250   19.649    0.327    0.278  208.946   81.514
  501.500   21.733    0.339    0.273  209.408   77.647
  501.750   21.133    0.352    0.281  209.866   79.406
  502.000   18.746    0.359    0.282  209.835   90.332
  502.250   13.212    0.369    0.280  209.307   90.313
  502.500    9.312    0.390    0.286  208.783   91.773
  502.750    7.888    0.402    0.314  208.263   97.077
  503.000    6.870    0.420    0.374  208.232  104.455
  503.250    6.037    0.436    0.463  207.212  102.070
  503.500    6.037    0.422    0.432  207.177  107.376
  503.750    5.604    0.414    0.282  207.146  110.611
  504.000    5.254    0.417    0.287  207.608  109.407
  504.250    5.016    0.416    0.248  209.060  113.236
  504.500    4.923    0.411    0.270  210.508  121.204
  504.750    4.966    0.371    0.289  210.473  127.397
  505.000    5.246    0.361    0.254  209.929  106.671
  505.250    5.541    0.348    0.228  208.936   97.778
  505.500    6.243    0.339    0.092  206.925   99.236
  505.750    7.230    0.329    0.128  206.409   92.710
  506.000    8.372    0.331    0.205  205.881   93.577
  506.250    8.525    0.343    0.234  205.854  105.392
  506.500    8.214    0.366    0.248  205.819  115.137
  506.750    7.771    0.352    0.224  205.765  123.105
  507.000    7.282    0.331    0.207  206.250  120.424
  507.250    7.484    0.327    0.203  206.215   99.994
  507.500    9.074    0.313    0.230  206.180   77.197
  507.750   10.803    0.301    0.268  206.157   67.713
  508.000   15.317    0.301    0.293  205.625   65.030
  508.250   18.236    0.305    0.288  205.594   70.631
  508.500   30.508    0.309    0.277  205.070   67.361
  508.750   29.667    0.316    0.278  205.043   64.087
