~VERSION INFORMATION
 VERS.                 2.0:   CWLS LOG ASCII STANDARD -VERSION 2.0
 WRAP.                  NO:   ONE LINE PER DEPTH STEP
~WELL INFORMATION BLOCK
#MNEM.UNIT           DATA                    DESCRIPTION OF MNEMONIC
#---------    -------------------            -------------------------------
# Generated from Intellog Unique Number	CS_69_70/WELL/806
NULL.         -999.25                        : NULL_VALUE
WELL.         HUSKY OIL OPERATION LTD.       : Well_name    - WELL              
LOC .         00/06-33-070-05W4/0            : Location     - LOCATION          
UWI .         00/06-33-070-05W4/0            : Uwi          - UNIQUE WELL ID    
ENTR.         SP                             : Entered      - ENTERED BY        
SRVC.         SCHLUMBERGER                   : Scn          - SERVICE COMPANY   
STRT.M        290                            : top_depth    - START DEPTH       
STOP.M        510                            : bot_depth    - STOP DEPTH        
STEP.M        0.25                           : increment    - STEP LENGTH       
~CURVE INFORMATION BLOCK
#MNEM UNIT       ERCB CURVE CODE    CURVE DESCRIPTION
#-----------   ------------------   ----------------------------------
DEPT.M        00 001 00 00         : DEPTH        - DEPTH                       
ILD .OHMM     00 120 00 00         : RESD         - DEEP RESISTIVITY (DIL)      
DPHI.V/V      00 890 00 00         : PHID         - DENSITY POROSITY (LIMESTONE)
NPHI.V/V      00 330 00 00         : PHIN         - NEUTRON POROSITY (LIMESTONE)
GR  .API      00 310 00 00         : GR           - GAMMA RAY                   
~PARAMETER INFORMATION       
#MNEM.UNIT           DATA             DESCRIPTION OF MNEMONIC
#---------         -----------     ------------------------------
GL  .M        653.8                : gl           - GROUND LEVEL ELEVATION      
EREF.M        657.5                : kb           - ELEVATION OF DEPTH REFERENCE
DATM.M        653.8                : datum        - DATUM ELEVATION             
TDD .M        517                  : tdd          - TOTAL DEPTH DRILLER         
RUN .         ONE                  : Run          - RUN NUMBER                  
ENG .         BILL                 : Engineer     - RECORDING ENGINEER          
WIT .         JIM                  : Witness      - WITNESSED BY                
MUD .         GEL                  : Mud_type     - MUD TYPE                    
MATR.         LIMESTONE            : Logunit      - NEUTRON MATRIX              
TMAX.C        26                   : BHT          - MAXIMUM RECORDED TEMPERATURE
BHTD.M        517                  : BHTDEP       - MAXIMUM RECORDED TEMPERATURE
MATR.         1                    : LOGUNIT      - NEUTRON MATRIX              
RMT .C        25                   : MDTP         - TEMPERATURE OF MUD          
NEUT.         1                    : NEUTRON      - NEUTRON TYPE                
RESI.         0                    : RESIST       - RESISTIVITY TYPE            
RMC .OHMM     0.25                 : RMC          - RESISTIVITY OF MUD CAKE     
RMF .OHMM     0.25                 : RMF          - RESISTIVITY OF MUD FILTRATE 
SUFT.C        15                   : SUFT         - SURFACE TEMPERATURE         
~A  DEPTH     RESD     PHID     PHIN       GR
# ...
  333.500    8.685    0.283    0.438   95.075
  333.750    8.851    0.273    0.429   92.050
  334.000    9.019    0.262    0.421   90.850
  334.250    9.190    0.234    0.425   92.691
  334.500    9.366    0.224    0.453   92.699
  334.750    9.367    0.233    0.470   91.496
  335.000    9.369    0.251    0.459   90.290
  335.250    9.027    0.257    0.476   87.877
  335.500    8.862    0.266    0.459   86.674
  335.750    8.381    0.272    0.444   90.939
  336.000    8.075    0.265    0.433   93.987
  336.250    7.781    0.253    0.426   96.426
  336.500    8.231    0.248    0.433   90.975
  336.750    8.387    0.261    0.439   83.090
  337.000    8.547    0.277    0.428   76.423
  337.250    8.548    0.284    0.423   79.472
  337.500    8.392    0.284    0.414   83.739
  337.750    8.238    0.285    0.415   82.536
  338.000    8.087    0.273    0.427   76.477
  338.250    7.940    0.266    0.445   73.448
  338.500    7.794    0.280    0.461   67.995
  338.750    7.652    0.308    0.456   62.543
  339.000    7.511    0.326    0.451   56.486
  339.250    7.513    0.332    0.445   52.246
  339.500    7.376    0.339    0.439   47.397
  339.750    7.376    0.349    0.430   44.983
  340.000    7.378    0.352    0.420   47.421
  340.250    7.243    0.352    0.424   46.828
  340.500    7.245    0.354    0.422   45.017
  340.750    7.246    0.362    0.415   48.071
  341.000    7.247    0.363    0.423   52.941
  341.250    7.248    0.362    0.439   55.379
  341.500    7.250    0.359    0.428   55.392
  341.750    7.388    0.356    0.419   54.795
  342.000    7.389    0.351    0.436   54.816
  342.250    7.391    0.352    0.452   55.430
  342.500    7.531    0.353    0.442   56.656
  342.750    7.533    0.342    0.436   57.284
  343.000    7.535    0.342    0.435   57.898
  343.250    7.536    0.352    0.448   61.554
  343.500    7.537    0.358    0.453   60.957
  343.750    7.539    0.352    0.440   60.362
  344.000    7.540    0.347    0.431   64.625
  344.250    7.541    0.343    0.441   67.674
  344.500    7.543    0.342    0.440   67.687
  344.750    7.544    0.345    0.449   65.876
  345.000    7.546    0.351    0.453   67.711
  345.250    7.547    0.338    0.432   70.762
  345.500    7.691    0.335    0.417   73.202
  345.750    7.693    0.338    0.412   74.428
  346.000    7.694    0.338    0.429   74.439
  346.250    7.696    0.335    0.440   73.241
  346.500    7.842    0.333    0.447   72.036
  346.750    7.698    0.338    0.437   70.835
  347.000    7.700    0.331    0.421   70.849
  347.250    7.701    0.327    0.413   73.895
  347.500    7.703    0.331    0.429   67.229
  347.750    7.704    0.335    0.433   66.632
  348.000    7.706    0.337    0.432   67.257
  348.250    7.707    0.337    0.435   66.049
  348.500    7.708    0.330    0.411   72.744
  348.750    7.855    0.319    0.398   78.225
  349.000    8.005    0.307    0.414   81.270
  349.250    8.311    0.296    0.420   83.711
  349.500    8.469    0.285    0.404   83.722
  349.750    8.471    0.287    0.409   77.663
  350.000    7.863    0.302    0.430   70.996
  350.250    7.163    0.310    0.444   67.366
  350.500    6.287    0.320    0.461   67.985
  350.750    4.933    0.318    0.461   71.035
  351.000    4.666    0.312    0.471   68.011
  351.250    4.495    0.305    0.467   64.983
  351.500    4.331    0.303    0.492   72.290
  351.750    4.332    0.306    0.529   75.334
  352.000    4.333    0.307    0.537   78.381
  352.250    4.499    0.309    0.521   78.398
  352.500    4.940    0.313    0.514   75.369
  352.750    4.849    0.319    0.497   68.097
  353.000    4.850    0.323    0.489   69.930
  353.250    4.851    0.330    0.497   71.157
  353.500    4.944    0.335    0.502   65.703
  353.750    4.944    0.336    0.473   60.858
  354.000    4.854    0.336    0.462   61.480
  354.250    4.765    0.335    0.457   63.920
  354.500    4.678    0.334    0.453   63.934
  354.750    4.679    0.333    0.470   62.122
  355.000    4.680    0.335    0.476   60.919
  355.250    4.769    0.357    0.487   62.754
  355.500    4.769    0.385    0.485   63.980
  355.750    4.952    0.417    0.477   55.495
  356.000    5.046    0.432    0.550   49.434
  356.250    5.047    0.410    0.587   45.798
  356.500    4.863    0.394    0.475   39.133
  356.750    4.686    0.372    0.437   43.397
  357.000    4.432    0.365    0.425   46.444
  357.250    4.350    0.360    0.411   45.247
  357.500    4.271    0.359    0.392   44.646
  357.750    4.271    0.358    0.391   50.128
  358.000    4.273    0.358    0.401   51.959
  358.250    4.273    0.355    0.415   51.972
  358.500    4.274    0.353    0.420   51.376
  358.750    4.275    0.355    0.419   53.212
  359.000    4.275    0.365    0.418   50.798
  359.250    4.276    0.371    0.420   50.201
  359.500    4.277    0.364    0.432   49.607
  359.750    4.278    0.359    0.432   49.622
  360.000    4.359    0.362    0.426   50.239
  360.250    4.526    0.364    0.435   51.465
  360.500    4.612    0.356    0.430   52.690
  360.750    4.879    0.349    0.436   53.309
  361.000    4.972    0.347    0.444   48.468
  361.250    5.667    0.328    0.433   46.048
  361.500    5.994    0.271    0.445   46.061
  361.750    7.501    0.230    0.413   49.108
  362.000    8.550    0.208    0.354   51.550
  362.250    9.044    0.167    0.325   51.566
  362.500    9.390    0.133    0.302   50.968
  362.750    8.242    0.150    0.317   54.017
  363.000    6.713    0.255    0.436   57.071
  363.250    5.891    0.294    0.466   58.293
  363.500    5.268    0.330    0.478   59.520
  363.750    4.890    0.341    0.457   58.319
  364.000    4.712    0.345    0.455   58.336
  364.250    4.712    0.350    0.460   60.775
  364.500    4.802    0.350    0.469   63.213
  364.750    4.804    0.347    0.467   68.697
  365.000    4.805    0.341    0.458   71.741
  365.250    4.805    0.330    0.467   74.789
  365.500    4.806    0.329    0.486   79.051
  365.750    4.718    0.327    0.506   86.962
  366.000    4.719    0.319    0.512   87.578
  366.250    4.720    0.312    0.487   81.519
  366.500    4.721    0.320    0.472   77.889
  366.750    4.811    0.339    0.456   74.865
  367.000    4.903    0.342    0.455   73.052
  367.250    4.903    0.333    0.470   74.287
  367.500    4.997    0.323    0.487   74.902
  367.750    5.092    0.314    0.495   72.484
  368.000    5.189    0.311    0.504   71.891
  368.250    5.489    0.329    0.509   70.686
  368.500    5.593    0.351    0.467   60.982
  368.750    5.699    0.358    0.429   53.099
  369.000    5.808    0.365    0.424   56.759
  369.250    5.919    0.367    0.435   57.983
  369.500    6.031    0.357    0.443   57.996
  369.750    6.032    0.355    0.465   56.796
  370.000    6.033    0.356    0.476   56.197
  370.250    6.149    0.350    0.445   56.212
  370.500    6.150    0.347    0.432   56.836
  370.750    6.151    0.353    0.442   58.062
  371.000    5.926    0.358    0.446   59.285
  371.250    5.710    0.360    0.449   60.512
  371.500    5.712    0.353    0.442   61.132
  371.750    5.713    0.344    0.441   60.535
  372.000    5.821    0.336    0.464   62.979
  372.250    5.932    0.334    0.467   63.598
  372.500    6.045    0.342    0.452   61.184
  372.750    5.935    0.348    0.450   60.592
  373.000    5.826    0.350    0.443   61.205
  373.250    5.613    0.339    0.435   64.253
  373.500    5.511    0.320    0.427   67.910
  373.750    5.722    0.312    0.447   72.781
  374.000    5.723    0.334    0.465   69.757
  374.250    5.724    0.355    0.443   61.880
  374.500    5.833    0.366    0.422   60.064
  374.750    5.943    0.361    0.420   63.725
  375.000    6.057    0.351    0.421   67.381
  375.250    6.058    0.351    0.422   70.427
  375.500    6.173    0.355    0.419   73.476
  375.750    6.174    0.358    0.422   74.701
  376.000    6.175    0.353    0.425   72.895
  376.250    6.062    0.342    0.446   72.298
  376.500    5.951    0.322    0.456   75.348
  376.750    5.735    0.301    0.442   75.361
