~VERSION INFORMATION
 VERS.                 2.0:   CWLS LOG ASCII STANDARD -VERSION 2.0
 WRAP.                  NO:   ONE LINE PER DEPTH STEP
~WELL INFORMATION BLOCK
#MNEM.UNIT           DATA                    DESCRIPTION OF MNEMONIC
#---------    -------------------            -------------------------------
# Generated from Intellog Unique Number	CW_79_81/WELL/619
WELL.         07-26-079-26W4                 : Well_name    - WELL
LOC .         00/07-26-079-26W4/0            : Location     - LOCATION
UWI .         00/07-26-079-26W4/0            : Uwi          - UNIQUE WELL ID
ENTR.         MAX                            : Entered      - ENTERED BY
SRVC.         SCHLUMBERGER                   : Scn          - SERVICE COMPANY
STRT.M        207.264                        : top_depth    - START DEPTH
STOP.M        487.764                        : bot_depth    - STOP DEPTH
STEP.M        0.25                           : increment    - STEP LENGTH
 NULL. -999.2500:NULL Value
~CURVE INFORMATION BLOCK
#MNEM UNIT       ERCB CURVE CODE    CURVE DESCRIPTION
#-----------   ------------------   ----------------------------------
DEPT.M        00 001 00 00         : DEPTH        - DEPTH
ILD .OHMM     00 120 00 00         : RESD         - DEEP RESISTIVITY (DIL)
NPHI.V/V      00 330 00 00         : PHIN         - NEUTRON POROSITY (SANDSTONE)
DPHI.V/V      00 890 00 00         : PHID         - DENSITY POROSITY (SANDSTONE)
CALI.MM       00 280 01 00         : CAL          - CALIPER
GR  .API      00 310 00 00         : GR           - GAMMA RAY
~PARAMETER INFORMATION
#MNEM.UNIT           DATA             DESCRIPTION OF MNEMONIC
#---------         -----------     ------------------------------
GL  .M        558.394              : gl           - GROUND LEVEL ELEVATION
EREF.M        562.051              : kb           - ELEVATION OF DEPTH REFERENCE
DATM.M        558.394              : datum        - DATUM ELEVATION
TDD .M        463.601              : tdd          - TOTAL DEPTH DRILLER
RUN .         ONE                  : Run          - RUN NUMBER
ENG .         BILL                 : Engineer     - RECORDING ENGINEER
WIT .         JIM                  : Witness      - WITNESSED BY
MUD .         GEL                  : Mud_type     - MUD TYPE
MATR.         SANDSTONE            : Logunit      - NEUTRON MATRIX
TMAX.C        22.2222              : BHT          - MAXIMUM RECORDED TEMPERATURE
BHTD.M        463.601              : BHTDEP       - MAXIMUM RECORDED TEMPERATURE
RMT .C        25.5556              : MDTP         - TEMPERATURE OF MUD
MUDD.KG/M     10200                : MWT          - MUD DENSITY
NEUT.         1                    : NEUTRON      - NEUTRON TYPE
RESI.         0                    : RESIST       - RESISTIVITY TYPE
RM  .OHMM     6.28                 : RM           - RESISTIVITY OF MUD
RMC .OHMM     0                    : RMC          - RESISTIVITY OF MUD CAKE
RMF .OHMM     0                    : RMF          - RESISTIVITY OF MUD FILTRATE
SUFT.C        -20.5556             : SUFT         - SURFACE TEMPERATURE
~A  DEPTH     RESD     PHIN     PHID      CAL       GR
# ...
  316.764    5.090    0.499    0.249  216.608  103.763
  317.014    4.959    0.493    0.263  216.661  102.308
  317.264    4.831    0.506    0.282  216.742  102.355
  317.514    4.707    0.494    0.294  216.822  102.992
  317.764    4.544    0.511    0.298  216.902  102.737
  318.014    4.155    0.554    0.286  216.955  104.865
  318.264    4.010    0.551    0.283  216.577  108.766
  318.514    4.052    0.563    0.281  216.603  107.030
  318.764    4.326    0.565    0.280  216.603  104.694
  319.014    5.296    0.541    0.276  216.269  104.439
  319.264    5.550    0.517    0.270  215.819  104.783
  319.514    6.090    0.503    0.266  215.944  104.226
  319.764    6.441    0.485    0.271  215.971  106.646
  320.014    6.511    0.471    0.267  216.024  108.768
  320.264    6.170    0.466    0.247  216.643  107.032
  320.514    5.797    0.475    0.251  216.670  104.107
  320.764    5.753    0.481    0.280  217.263  102.355
  321.014    5.758    0.481    0.270  217.316  100.911
  321.264    5.768    0.486    0.259  217.405   98.878
  321.514    5.782    0.494    0.261  218.024   98.028
  321.764    5.783    0.496    0.279  218.042   97.768
  322.014    5.791    0.497    0.283  219.641   97.221
  322.264    5.745    0.494    0.274  220.701   95.192
  322.514    5.548    0.488    0.278  220.701   96.116
  322.764    5.212    0.492    0.263  221.356   98.833
  323.014    4.850    0.515    0.264  222.443  103.042
  323.264    4.433    0.505    0.256  222.514  103.684
  323.514    4.203    0.500    0.240  222.091  103.726
  323.764    4.131    0.491    0.246  221.650  104.951
  324.014    4.213    0.473    0.250  221.730  106.480
  324.264    4.417    0.485    0.248  221.730  107.414
  324.514    4.672    0.491    0.238  222.358  107.753
  324.764    4.942    0.487    0.240  222.438  104.828
  325.014    5.323    0.475    0.236  223.057  103.086
  325.264    5.789    0.463    0.229  223.084  102.237
  325.514    6.066    0.424    0.216  223.173  103.468
  325.764    6.358    0.378    0.198  223.226  105.591
  326.014    6.367    0.420    0.225  223.298  105.935
  326.264    6.316    0.450    0.245  223.369  106.280
  326.514    6.043    0.451    0.246  222.937  107.208
  326.764    5.728    0.460    0.253  223.008  110.228
  327.014    5.332    0.472    0.252  222.594  110.859
  327.264    5.101    0.469    0.256  222.665  112.388
  327.514    5.016    0.466    0.236  222.736  113.916
  327.764    4.933    0.472    0.218  222.799  112.769
  328.014    4.899    0.480    0.226  222.411  112.217
  328.264    4.812    0.502    0.224  222.438  111.967
  328.514    4.688    0.511    0.225  222.509  113.798
  328.764    4.695    0.490    0.220  222.086  115.023
  329.014    4.877    0.494    0.210  221.151  112.693
  329.264    5.017    0.495    0.225  219.721  112.135
  329.514    5.118    0.489    0.232  218.273  112.177
  329.764    5.124    0.490    0.230  217.338  112.522
  330.014    4.948    0.505    0.215  216.914  114.050
  330.264    4.864    0.522    0.221  216.914  114.989
  330.514    4.915    0.526    0.222  217.066  113.545
  330.764    5.012    0.498    0.228  217.119  110.609
  331.014    5.207    0.478    0.230  217.244  104.707
  331.264    5.508    0.513    0.230  217.271  100.285
  331.514    5.878    0.521    0.231  217.271   95.571
  331.764    6.449    0.533    0.238  217.422   91.749
  332.014    7.341    0.519    0.263  216.990   93.877
  332.264    7.764    0.504    0.240  217.061   97.481
  332.514    7.991    0.492    0.217  217.124  101.992
  332.764    7.999    0.476    0.224  217.213  101.142
  333.014    7.867    0.485    0.234  217.769  100.584
  333.264    7.526    0.482    0.240  218.353  100.335
  333.514    7.069    0.468    0.242  218.919  100.377
  333.764    6.701    0.476    0.239  219.017  100.413
  334.014    6.537    0.475    0.229  219.070  101.358
  334.264    6.419    0.481    0.232  219.204  102.286
  334.514    5.921    0.494    0.233  218.718  104.706
  334.764    5.665    0.487    0.231  218.277  108.029
  335.014    5.571    0.475    0.227  217.863  108.357
  335.264    5.526    0.484    0.215  217.925  108.410
  335.514    5.636    0.487    0.204  217.502  107.258
  335.764    5.907    0.475    0.166  217.502  104.333
  336.014    6.247    0.458    0.142  217.150   96.933
  336.264    6.796    0.436    0.139  217.221   97.867
  336.514    6.990    0.411    0.190  217.221  104.157
  336.764    7.328    0.453    0.256  217.373  105.096
  337.014    7.270    0.476    0.254  216.923  103.662
  337.264    7.213    0.469    0.239  217.048  102.499
  337.514    7.095    0.463    0.242  217.074  100.163
  337.764    6.976    0.458    0.243  217.145   99.016
  338.014    6.984    0.456    0.248  216.722  100.842
  338.264    7.057    0.463    0.254  216.290  105.056
  338.514    7.068    0.478    0.241  216.344  106.579
  338.764    6.886    0.476    0.240  216.415  107.216
  339.014    6.648    0.470    0.233  216.486  109.046
  339.264    6.595    0.457    0.235  216.072  109.099
  339.514    6.606    0.458    0.230  216.072  107.050
  339.764    6.615    0.472    0.231  216.223  106.503
  340.014    6.505    0.472    0.232  216.223  108.620
  340.264    6.336    0.478    0.236  216.896  109.857
  340.514    6.173    0.478    0.240  216.931  108.704
  340.764    6.125    0.473    0.235  216.931  107.568
  341.014    6.078    0.476    0.237  217.092  107.302
  341.264    6.030    0.479    0.243  217.136  108.836
  341.514    5.984    0.481    0.240  217.208  110.661
  341.764    5.993    0.478    0.234  217.297  111.001
  342.014    6.112    0.460    0.232  217.368  108.665
  342.264    6.289    0.460    0.222  217.430  105.437
  342.514    6.532    0.458    0.236  217.007  101.021
  342.764    6.848    0.448    0.246  216.566   92.735
  343.014    7.046    0.450    0.259  216.134   90.404
  343.264    7.662    0.468    0.268  215.711   91.630
  343.514    8.103    0.461    0.285  215.827   93.461
  343.764    8.728    0.467    0.282  215.862   94.108
  344.014    9.843    0.480    0.286  215.421   92.064
  344.264   11.408    0.486    0.290  215.501   89.139
  344.514   13.964    0.486    0.298  215.564   89.765
  344.764   14.775    0.491    0.306  215.644   94.568
  345.014   14.259    0.499    0.304  215.715   95.205
  345.264   13.035    0.485    0.276  215.777   92.572
  345.514   12.932    0.480    0.266  216.361   87.863
  345.764   13.556    0.491    0.270  216.432   87.894
  346.014   14.467    0.500    0.262  216.495   90.330
  346.264   15.587    0.494    0.295  216.601   92.145
  346.514   15.608    0.469    0.294  216.601   96.943
  346.764   14.661    0.479    0.294  216.717   99.671
  347.014   12.570    0.484    0.292  216.797  101.491
  347.264   10.976    0.480    0.283  216.886  103.927
  347.514    9.324    0.463    0.265  216.940  106.629
  347.764    8.292    0.451    0.272  217.020  106.968
  348.014    7.578    0.452    0.282  217.082  105.227
  348.264    7.658    0.468    0.284  217.154   96.065
  348.514    8.559    0.463    0.279  217.234   91.638
  348.764   10.099    0.444    0.261  217.305   86.626
  349.014   21.980    0.423    0.230  217.367   81.318
  349.264   26.427    0.412    0.210  217.448   79.582
  349.514   25.513    0.402    0.186  217.510   81.105
  349.764   20.892    0.394    0.209  217.590   87.692
  350.014   16.505    0.411    0.229  217.661   95.170
  350.264   13.764    0.434    0.238  217.733   98.774
  350.514   11.481    0.466    0.247  218.325  101.502
  350.764    8.104    0.459    0.258  225.636   98.161
  351.014    9.386    0.480    0.265  225.183   96.115
  351.264   10.677    0.493    0.243  224.748   94.953
  351.514   11.394    0.432    0.215  224.822   93.796
  351.764   11.944    0.360    0.177  224.822   95.339
  352.014   11.958    0.367    0.148  225.513   98.389
  352.264   11.546    0.409    0.233  225.069  102.934
  352.514   11.048    0.458    0.246  225.124  105.083
  352.764    9.742    0.474    0.255  225.253  103.620
  353.014    8.827    0.491    0.248  224.763  102.474
