~VERSION INFORMATION
 VERS.                 2.0:   CWLS LOG ASCII STANDARD -VERSION 2.0
 WRAP.                  NO:   ONE LINE PER DEPTH STEP
~WELL INFORMATION BLOCK
#MNEM.UNIT           DATA                    DESCRIPTION OF MNEMONIC
#---------    -------------------            -------------------------------
# Generated from Intellog Unique Number	CS_77_79/WELL/897
WELL.         KANDEX CAN-SUP THORNBURY       : Well_name    - WELL
LOC .         00/07-14-078-13W4/0            : Location     - LOCATION
UWI .         00/07-14-078-13W4/0            : Uwi          - UNIQUE WELL ID
ENTR.         JHS                            : Entered      - ENTERED BY
SRVC.         SCHLUMBERGER                   : Scn          - SERVICE COMPANY
STRT.M        259.080                        : top_depth    - START DEPTH
STOP.M        487.330                        : bot_depth    - STOP DEPTH
STEP.M        0.25                           : increment    - STEP LENGTH
 NULL. -999.2500:NULL Value
~CURVE INFORMATION BLOCK
#MNEM UNIT       ERCB CURVE CODE    CURVE DESCRIPTION
#-----------   ------------------   ----------------------------------
DEPT.M        00 001 00 00         : DEPTH        - DEPTH
RHOB.KG/M3    00 350 00 00         : DENS         - BULK DENSITY
GR  .API      00 310 00 00         : GR           - GAMMA RAY
DPHI.V/V      00 890 00 00         : PHID         - DENSITY POROSITY (SANDSTONE)
NPHI.V/V      00 330 00 00         : PHIN         - NEUTRON POROSITY (SANDSTONE)
ILD .OHMM     00 120 00 00         : RESD         - DEEP RESISTIVITY (DIL)
~PARAMETER INFORMATION
#MNEM.UNIT           DATA             DESCRIPTION OF MNEMONIC
#---------         -----------     ------------------------------
GL  .M        681.533              : gl           - GROUND LEVEL ELEVATION
EREF.M        684.886              : kb           - ELEVATION OF DEPTH REFERENCE
DATM.M        684.886              : datum        - DATUM ELEVATION
TDD .M        492.252              : tdd          - TOTAL DEPTH DRILLER
RUN .         ONE                  : Run          - RUN NUMBER
ENG .         BILL                 : Engineer     - RECORDING ENGINEER
WIT .         JIM                  : Witness      - WITNESSED BY
MUD .         GEL                  : Mud_type     - MUD TYPE
MATR.         SANDSTONE            : Logunit      - NEUTRON MATRIX
TMAX.C        21.1111              : BHT          - MAXIMUM RECORDED TEMPERATURE
BHTD.M        492.252              : BHTDEP       - MAXIMUM RECORDED TEMPERATURE
MATR.         1                    : LOGUNIT      - NEUTRON MATRIX
RMT .C        25                   : MDTP         - TEMPERATURE OF MUD
NEUT.         1                    : NEUTRON      - NEUTRON TYPE
RESI.         0                    : RESIST       - RESISTIVITY TYPE
RMC .OHMM     0.25                 : RMC          - RESISTIVITY OF MUD CAKE
RMF .OHMM     0.25                 : RMF          - RESISTIVITY OF MUD FILTRATE
SUFT.C        15                   : SUFT         - SURFACE TEMPERATURE
~A  DEPTH     DENS       GR     PHID     PHIN     RESD
# ...
  332.080    0.000   58.741    0.353    0.468   14.194
  332.330    0.000   55.608    0.367    0.489   13.911
  332.580    0.000   54.267    0.367    0.531   13.886
  332.830    0.000   53.879    0.366    0.522   13.676
  333.080    0.000   49.532    0.370    0.487   13.953
  333.330    0.000   47.294    0.354    0.471   14.248
  333.580    0.000   49.434    0.357    0.468   14.471
  333.830   -0.000   48.952    0.385    0.466   14.518
  334.080   -0.000   45.184    0.375    0.456   14.550
  334.330    0.000   45.835    0.371    0.465   14.815
  334.580    0.000   45.933    0.361    0.476   14.717
  334.830    0.000   45.959    0.346    0.476   14.553
  335.080   -0.000   46.827    0.363    0.475   14.556
  335.330   -0.000   47.046    0.380    0.467   14.567
  335.580    0.000   46.042    0.365    0.469   14.574
  335.830    0.000   45.681    0.358    0.473   14.592
  336.080    0.000   47.847    0.351    0.456   14.660
  336.330   -0.000   49.822    0.360    0.450   14.632
  336.580   -0.000   48.729    0.373    0.465   14.616
  336.830   -0.000   49.278    0.369    0.477   14.615
  337.080    0.000   49.842    0.361    0.476   14.626
  337.330    0.000   48.900    0.366    0.485   14.656
  337.580    0.000   47.919    0.369    0.471   14.356
  337.830   -0.000   49.315    0.356    0.451   14.381
  338.080   -0.000   50.558    0.360    0.457   14.386
  338.330    0.000   48.619    0.366    0.458   14.391
  338.580    0.000   45.277    0.373    0.460   14.372
  338.830    0.000   44.311    0.368    0.467   14.707
  339.080   -0.000   44.331    0.353    0.475   14.690
  339.330   -0.000   45.233    0.348    0.460   14.726
  339.580   -0.000   47.799    0.349    0.462   14.408
  339.830    0.000   48.759    0.348    0.472   14.442
  340.080    0.000   47.686    0.342    0.480   14.448
  340.330    0.000   48.142    0.330    0.472   14.456
  340.580   -0.000   48.653    0.323    0.462   14.463
  340.830   -0.000   47.847    0.328    0.463   14.476
  341.080   -0.000   46.879    0.341    0.472   14.482
  341.330    0.000   45.604    0.347    0.466   14.489
  341.580    0.000   46.785    0.371    0.453   14.496
  341.830   -0.000   47.003    0.365    0.462   14.505
  342.080   -0.000   46.133    0.354    0.472   14.543
  342.330   -0.000   43.616    0.368    0.476   14.228
  342.580    0.000   43.359    0.341    0.476   14.260
  342.830    0.000   42.921    0.347    0.464   14.241
  343.080    0.000   44.027    0.349    0.455   14.570
  343.330   -0.000   43.002    0.359    0.466   14.525
  343.580   -0.000   40.622    0.339    0.477   14.868
  343.830   -0.000   39.692    0.350    0.479   14.846
  344.080    0.000   40.980    0.363    0.456   14.854
  344.330    0.000   42.893    0.334    0.441   14.861
  344.580    0.000   42.822    0.354    0.439   14.871
  344.830   -0.000   43.804    0.349    0.451   14.881
  345.080   -0.000   46.987    0.353    0.462   14.904
  345.330    0.000   50.270    0.362    0.475   14.633
  345.580    0.000   49.337    0.366    0.485   14.634
  345.830    0.000   47.586    0.365    0.485   14.635
  346.080   -0.000   47.249    0.358    0.475   14.646
  346.330   -0.000   46.896    0.351    0.468   14.680
  346.580   -0.000   46.569    0.353    0.477   14.371
  346.830    0.000   48.768    0.359    0.472   14.392
  347.080    0.000   49.084    0.369    0.465   14.300
  347.330    0.000   48.437    0.379    0.479   14.148
  347.580   -0.000   46.853    0.374    0.499   13.965
  347.830   -0.000   46.203    0.363    0.483   13.906
  348.080    0.000   46.694    0.365    0.476   13.905
  348.330    0.000   48.060    0.360    0.487   13.908
  348.580    0.000   50.176    0.364    0.498   13.864
  348.830   -0.000   53.868    0.370    0.507   13.666
  349.080   -0.000   56.678    0.360    0.493   13.700
  349.330   -0.000   56.810    0.358    0.499   13.411
  349.580    0.000   53.394    0.341    0.507   13.461
  349.830    0.000   56.166    0.343    0.503   13.170
  350.080    0.000   55.919    0.365    0.490   13.202
  350.330   -0.000   53.903    0.358    0.483   13.214
  350.580   -0.000   53.386    0.356    0.486   13.244
  350.830   -0.000   54.862    0.356    0.493   12.981
  351.080    0.000   59.067    0.360    0.499   13.264
  351.330    0.000   57.306    0.366    0.496   13.310
  351.580   -0.000   53.124    0.375    0.501   13.501
  351.830   -0.000   53.040    0.366    0.511   13.515
  352.080   -0.000   53.827    0.361    0.474   13.561
  352.330    0.000   54.832    0.368    0.466   13.784
  352.580    0.000   55.849    0.366    0.488   13.788
  352.830    0.000   56.855    0.356    0.495   13.801
  353.080   -0.000   58.447    0.350    0.480   13.584
  353.330   -0.000   58.666    0.362    0.489   13.452
  353.580   -0.000   58.003    0.351    0.491   13.299
  353.830    0.000   58.293    0.346    0.480   13.047
  354.080    0.000   59.627    0.363    0.476   13.001
  354.330   -0.000   62.368    0.370    0.475   12.839
  354.580   -0.000   65.100    0.366    0.466   13.250
  354.830   -0.000   66.140    0.359    0.465   14.212
  355.080    0.000   66.675    0.355    0.474   16.865
  355.330    0.000   69.389    0.304    0.489   18.982
  355.580    0.000   71.115    0.019    0.354   19.362
  355.830   -0.000   67.473    0.016    0.288   18.505
  356.080   -0.000   63.659    0.039    0.251   16.737
  356.330   -0.000   63.242    0.139    0.276   15.129
  356.580    0.000   72.155    0.193    0.365   13.587
  356.830    0.000   81.534    0.300    0.444   12.464
  357.080    0.000   82.812    0.337    0.475   11.748
  357.330   -0.000   80.309    0.320    0.489   11.575
  357.580   -0.000   80.010    0.289    0.500   12.343
  357.830    0.000   80.445    0.282    0.508   12.240
  358.080    0.000   79.105    0.300    0.515   11.888
  358.330    0.000   77.997    0.310    0.491   10.745
  358.580   -0.000   80.302    0.324    0.489    9.353
  358.830   -0.000   80.382    0.334    0.477    8.195
  359.080   -0.000   81.174    0.328    0.488    6.993
  359.330    0.000   85.822    0.311    0.495    5.647
  359.580    0.000   90.831    0.305    0.506    4.420
  359.830    0.000   97.424    0.295    0.516    3.148
  360.080   -0.000  104.549    0.286    0.555    2.510
  360.330   -0.000  105.750    0.285    0.576    2.280
  360.580    0.000  106.389    0.272    0.584    2.118
  360.830    0.000  109.279    0.273    0.586    2.105
  361.080    0.000  110.805    0.261    0.585    2.319
  361.330   -0.000  109.147    0.250    0.590    2.719
  361.580   -0.000  104.360    0.263    0.601    3.303
  361.830   -0.000  101.160    0.246    0.595    4.547
  362.080    0.000   99.237    0.247    0.556    5.245
  362.330    0.000   97.850    0.228    0.515    6.091
  362.580    0.000   97.311    0.237    0.516    6.422
  362.830   -0.000   97.513    0.238    0.523    6.424
  363.080   -0.000   97.855    0.236    0.516    6.425
  363.330   -0.000   98.600    0.225    0.495    6.429
  363.580    0.000  101.963    0.241    0.473    6.314
  363.830    0.000  103.801    0.248    0.460    6.129
  364.080   -0.000  104.126    0.241    0.463    5.872
  364.330   -0.000  105.442    0.247    0.478    5.749
  364.580   -0.000  106.234    0.237    0.499    5.736
  364.830    0.000  102.526    0.234    0.508    5.755
  365.080    0.000  101.261    0.249    0.511    5.776
  365.330    0.000  103.250    0.230    0.509    5.649
  365.580   -0.000  105.457    0.225    0.503    5.487
  365.830   -0.000  104.657    0.218    0.504    5.128
  366.080   -0.000  106.138    0.225    0.513    4.878
  366.330    0.000  106.118    0.239    0.520    4.569
  366.580    0.000  106.578    0.251    0.526    4.538
  366.830    0.000  109.818    0.247    0.540    4.627
  367.080   -0.000  108.580    0.258    0.555    4.763
  367.330   -0.000  105.200    0.251    0.558    5.020
  367.580    0.000  100.932    0.254    0.518    5.354
  367.830    0.000   97.203    0.272    0.512    5.715
  368.080    0.000   89.576    0.288    0.513    5.672
  368.330   -0.000   88.961    0.297    0.501    5.341
