~VERSION INFORMATION
 VERS.                 2.0:   CWLS LOG ASCII STANDARD -VERSION 2.0
 WRAP.                  NO:   ONE LINE PER DEPTH STEP
~WELL INFORMATION BLOCK
#MNEM.UNIT           DATA                    DESCRIPTION OF MNEMONIC
#---------    -------------------            -------------------------------
# Generated from Intellog Unique Number	CS_77_79/WELL/923
WELL.         ANDERSON EXPLORATION LTD.      : Well_name    - WELL
LOC .         00/09-11-077-11W4/0            : Location     - LOCATION
UWI .         00/09-11-077-11W4/0            : Uwi          - UNIQUE WELL ID
ENTR.         SP                             : Entered      - ENTERED BY
SRVC.         SCHLUMBERGER                   : Scn          - SERVICE COMPANY
STRT.M        270                            : top_depth    - START DEPTH
STOP.M        515                            : bot_depth    - STOP DEPTH
STEP.M        0.25                           : increment    - STEP LENGTH
 NULL. -999.2500:NULL Value
~CURVE INFORMATION BLOCK
#MNEM UNIT       ERCB CURVE CODE    CURVE DESCRIPTION
#-----------   ------------------   ----------------------------------
DEPT.M        00 001 00 00         : DEPTH        - DEPTH
ILD .OHMM     00 120 00 00         : RESD         - DEEP RESISTIVITY (DIL)
DPHI.V/V      00 890 00 00         : PHID         - DENSITY POROSITY (LIMESTONE)
NPHI.V/V      00 330 00 00         : PHIN         - NEUTRON POROSITY (LIMESTONE)
GR  .API      00 310 00 00         : GR           - GAMMA RAY
~PARAMETER INFORMATION
#MNEM.UNIT           DATA             DESCRIPTION OF MNEMONIC
#---------         -----------     ------------------------------
GL  .M        678.1                : gl           - GROUND LEVEL ELEVATION
EREF.M        681.6                : kb           - ELEVATION OF DEPTH REFERENCE
DATM.M        678.1                : datum        - DATUM ELEVATION
TDD .M        515                  : tdd          - TOTAL DEPTH DRILLER
RUN .         ONE                  : Run          - RUN NUMBER
ENG .         BILL                 : Engineer     - RECORDING ENGINEER
WIT .         JIM                  : Witness      - WITNESSED BY
MUD .         GEL                  : Mud_type     - MUD TYPE
MATR.         LIMESTONE            : Logunit      - NEUTRON MATRIX
TMAX.C        25                   : BHT          - MAXIMUM RECORDED TEMPERATURE
BHTD.M        515                  : BHTDEP       - MAXIMUM RECORDED TEMPERATURE
MATR.         1                    : LOGUNIT      - NEUTRON MATRIX
RMT .C        25                   : MDTP         - TEMPERATURE OF MUD
NEUT.         1                    : NEUTRON      - NEUTRON TYPE
RESI.         0                    : RESIST       - RESISTIVITY TYPE
RMC .OHMM     0.25                 : RMC          - RESISTIVITY OF MUD CAKE
RMF .OHMM     0.25                 : RMF          - RESISTIVITY OF MUD FILTRATE
SUFT.C        15                   : SUFT         - SURFACE TEMPERATURE
~A  DEPTH     RESD     PHID     PHIN       GR
# ...
  313.500   14.701    0.315    0.460   88.538
  313.750   13.663    0.311    0.450   89.755
  314.000   12.935    0.301    0.468   93.381
  314.250   12.249    0.293    0.483   95.800
  314.500   11.599    0.316    0.479   95.207
  314.750   10.982    0.342    0.465   90.397
  315.000   10.398    0.372    0.444   85.589
  315.250   10.217    0.395    0.444   84.398
  315.500   10.814    0.403    0.447   84.404
  315.750   11.440    0.288    0.453   87.428
  316.000   11.885    0.262    0.477   91.051
  316.250   11.682    0.269    0.486   95.881
  316.500   11.475    0.245    0.479   96.495
  316.750   10.868    0.256    0.471   93.494
  317.000   10.480    0.280    0.489   90.490
  317.250    9.387    0.315    0.501   88.091
  317.500    8.406    0.346    0.519   88.704
  317.750    8.113    0.384    0.530   89.918
  318.000    8.117    0.358    0.468   86.917
  318.250    8.276    0.420    0.464   83.915
  318.500    8.924    0.450    0.448   81.516
  318.750    9.268    0.393    0.451   79.118
  319.000    9.810    0.411    0.467   80.330
  319.250    9.816    0.476    0.519   86.366
  319.500    9.831    0.463    0.540   90.592
  319.750    9.657    0.445    0.447   97.232
  320.000    9.312    0.458    0.473   97.842
  320.250    8.983    0.469    0.507   95.446
  320.500    8.665    0.353    0.550   97.864
  320.750    8.054    0.316    0.566  102.092
  321.000    7.625    0.313    0.529  103.908
  321.250    7.220    0.301    0.514  102.713
  321.500    6.711    0.292    0.498  100.315
  321.750    6.125    0.299    0.474   99.122
  322.000    5.798    0.304    0.458   97.926
  322.250    5.491    0.340    0.475   95.526
  322.500    5.496    0.383    0.502   91.921
  322.750    5.500    0.335    0.528   88.316
  323.000    5.820    0.297    0.535   82.904
  323.250    6.275    0.287    0.460   78.097
  323.500    6.889    0.290    0.445   75.696
  323.750    8.149    0.296    0.424   72.696
  324.000    9.458    0.301    0.427   71.500
  324.250   11.395    0.303    0.431   70.306
  324.500   13.227    0.308    0.437   67.906
  324.750   15.074    0.320    0.441   70.325
  325.000   16.248    0.325    0.453   67.324
  325.250   17.194    0.330    0.467   67.332
  325.500   17.861    0.330    0.463   70.357
  325.750   17.881    0.327    0.454   67.958
  326.000   18.233    0.335    0.440   66.161
  326.250   18.250    0.347    0.414   64.969
  326.500   18.268    0.345    0.418   64.375
  326.750   18.289    0.331    0.418   66.190
  327.000   18.304    0.318    0.403   68.008
  327.250   18.318    0.320    0.412   67.416
  327.500   17.996    0.321    0.418   65.621
  327.750   17.686    0.321    0.421   66.837
  328.000   17.700    0.332    0.424   68.050
  328.250   17.725    0.342    0.423   68.661
  328.500   17.739    0.328    0.418   67.467
  328.750   17.758    0.316    0.420   68.681
  329.000   17.447    0.316    0.430   68.692
  329.250   17.460    0.323    0.437   68.701
  329.500   17.160    0.336    0.433   69.314
  329.750   16.864    0.339    0.437   70.533
  330.000   16.875    0.332    0.444   72.950
  330.250   16.888    0.332    0.443   77.177
  330.500   17.221    0.344    0.437   74.779
  330.750   17.248    0.343    0.437   70.571
  331.000   16.937    0.341    0.446   69.978
  331.250   17.275    0.345    0.449   71.196
  331.500   17.290    0.341    0.452   73.013
  331.750   17.965    0.346    0.437   73.624
  332.000   18.314    0.350    0.420   74.844
  332.250   18.676    0.346    0.415   74.850
  332.500   19.045    0.344    0.411   74.257
  332.750   19.779    0.351    0.408   74.270
  333.000   20.173    0.355    0.398   76.690
  333.250   20.562    0.350    0.392   79.710
  333.500   21.375    0.346    0.394   84.540
  333.750   21.798    0.346    0.403   76.719
  334.000   20.623    0.347    0.412   70.704
  334.250   21.427    0.345    0.422   66.498
  334.500   21.855    0.329    0.435   67.713
  334.750   21.873    0.324    0.426   71.942
  335.000   21.895    0.337    0.416   69.541
  335.250   21.912    0.346    0.418   64.733
  335.500   21.533    0.341    0.423   59.923
  335.750   21.549    0.333    0.429   59.931
  336.000   21.178    0.339    0.432   59.343
  336.250   21.199    0.341    0.423   59.952
  336.500   21.219    0.346    0.430   61.169
  336.750   21.633    0.348    0.432   66.002
  337.000   21.665    0.342    0.434   70.830
  337.250   22.079    0.331    0.446   74.454
  337.500   22.106    0.336    0.450   69.645
  337.750   22.123    0.345    0.436   66.038
  338.000   21.736    0.343    0.437   61.231
  338.250   21.372    0.336    0.446   63.049
  338.500   20.997    0.343    0.449   63.660
  338.750   21.018    0.355    0.454   64.272
  339.000   21.427    0.349    0.445   62.475
  339.250   21.441    0.337    0.431   62.488
  339.500   21.472    0.326    0.435   65.513
  339.750   21.888    0.317    0.439   63.711
  340.000   21.918    0.313    0.429   60.709
  340.250   22.343    0.325    0.434   60.722
  340.500   22.357    0.335    0.448   60.126
  340.750   22.383    0.330    0.455   55.921
  341.000   21.991    0.336    0.441   55.331
  341.250   21.217    0.347    0.449   55.940
  341.500   20.854    0.354    0.453   59.569
  341.750   20.874    0.348    0.455   60.178
  342.000   20.892    0.341    0.453   57.780
  342.250   20.908    0.337    0.450   59.597
  342.500   20.923    0.332    0.449   60.215
  342.750   21.340    0.327    0.446   59.618
  343.000   21.768    0.326    0.453   55.410
  343.250   21.782    0.330    0.456   54.820
  343.500   22.206    0.334    0.448   55.434
  343.750   22.232    0.340    0.439   54.838
  344.000   22.251    0.345    0.445   57.863
  344.250   20.302    0.354    0.409   60.287
  344.500   18.871    0.363    0.422   60.896
  344.750   18.205    0.367    0.439   59.700
  345.000   17.885    0.356    0.453   58.506
  345.250   17.576    0.333    0.468   58.518
  345.500   17.588    0.333    0.444   59.129
  345.750   17.282    0.337    0.431   60.950
  346.000   17.299    0.345    0.422   62.161
  346.250   17.007    0.351    0.420   60.967
  346.500   17.019    0.358    0.433   58.566
  346.750   16.415    0.357    0.439   62.195
  347.000   16.134    0.349    0.448   63.407
  347.250   16.144    0.339    0.451   64.020
  347.500   16.157    0.333    0.454   62.222
  347.750   16.482    0.350    0.457   59.822
  348.000   16.191    0.357    0.464   60.439
  348.250   15.909    0.361    0.466   61.650
  348.500   15.345    0.361    0.464   62.266
  348.750   15.079    0.364    0.446   59.262
  349.000   15.375    0.356    0.438   58.668
  349.250   15.677    0.351    0.456   61.090
  349.500   15.693    0.356    0.470   62.303
  349.750   16.004    0.354    0.450   57.496
  350.000   16.316    0.353    0.451   57.508
  350.250   16.648    0.356    0.457   58.119
  350.500   16.660    0.364    0.476   58.734
  350.750   16.985    0.368    0.467   56.934
  351.000   17.319    0.371    0.456   54.533
  351.250   17.340    0.375    0.454   59.369
  351.500   17.681    0.377    0.464   61.786
  351.750   17.698    0.378    0.475   64.206
  352.000   18.049    0.365    0.471   66.627
  352.250   18.062    0.355    0.465   67.236
  352.500   18.073    0.360    0.459   61.224
  352.750   18.096    0.365    0.458   61.234
  353.000   18.447    0.364    0.452   63.051
  353.250   18.465    0.359    0.457   60.650
  353.500   18.481    0.352    0.462   63.077
  353.750   18.507    0.343    0.462   65.496
  354.000   18.867    0.313    0.481   66.709
  354.250   18.889    0.306    0.489   67.923
  354.500   18.905    0.320    0.442   67.934
  354.750   18.920    0.337    0.441   67.941
  355.000   18.936    0.343    0.455   66.147
  355.250   18.956    0.345    0.483   64.951
  355.500   18.988    0.345    0.478   66.768
  355.750   19.005    0.331    0.479   68.589
  356.000   19.026    0.318    0.489   69.198
  356.250   19.040    0.315    0.478   69.210
  356.500   19.052    0.310    0.465   69.219
  356.750   18.719    0.303    0.458   69.230
