~VERSION INFORMATION
 VERS.                 2.0:   CWLS LOG ASCII STANDARD -VERSION 2.0
 WRAP.                  NO:   ONE LINE PER DEPTH STEP
~WELL INFORMATION BLOCK
#MNEM.UNIT           DATA                    DESCRIPTION OF MNEMONIC
#---------    -------------------            -------------------------------
# Generated from Intellog Unique Number	CW_70_72/WELL/3303
NULL.         -999.25                        : NULL_VALUE
WELL.         BVX ET AL SMITH                : Well_name    - WELL              
LOC .         07-16-072-26W4                 : Location     - LOCATION          
UWI .         00/07-16-072-26W4/0            : Uwi          - UNIQUE WELL ID    
ENTR.         CAMPBELL                       : Entered      - ENTERED BY        
SRVC.         WESTERN ATLAS                  : Scn          - SERVICE COMPANY   
DATE.         15 NOV 73                      : Date         - LOG DATE          
STRT.M        557.784                        : top_depth    - START DEPTH       
STOP.M        701.034                        : bot_depth    - STOP DEPTH        
STEP.M        0.25                           : increment    - STEP LENGTH       
~CURVE INFORMATION BLOCK
#MNEM UNIT       ERCB CURVE CODE    CURVE DESCRIPTION
#-----------   ------------------   ----------------------------------
DEPT.M        00 001 00 00         : DEPTH        - DEPTH                       
ILD .OHMM     00 120 00 00         : RESD         - DEEP RESISTIVITY (DIL)      
CALI.MM       00 280 01 00         : CAL          - CALIPER                     
DELT.US/F     00 520 00 00         : DELT         - SONIC TRAVEL TIME           
GR  .API      00 310 00 00         : GR           - GAMMA RAY                   
~PARAMETER INFORMATION       
#MNEM.UNIT           DATA             DESCRIPTION OF MNEMONIC
#---------         -----------     ------------------------------
GL  .M        627.888              : gl           - GROUND LEVEL ELEVATION      
EREF.M        630.936              : kb           - ELEVATION OF DEPTH REFERENCE
DATM.M        630.936              : datum        - DATUM ELEVATION             
TDD .M        880.872              : tdd          - TOTAL DEPTH DRILLER         
RUN .         ONE                  : Run          - RUN NUMBER                  
ENG .         KAWOLSKI             : Engineer     - RECORDING ENGINEER          
WIT .         BROWN                : Witness      - WITNESSED BY                
MUD .         GEL                  : Mud_type     - MUD TYPE                    
MATR.         SANDSTONE            : Logunit      - NEUTRON MATRIX              
TMAX.C        34.4444              : BHT          - MAXIMUM RECORDED TEMPERATURE
BHTD.M        880.872              : BHTDEP       - MAXIMUM RECORDED TEMPERATURE
RMT .C        22.2222              : MDTP         - TEMPERATURE OF MUD          
MUDD.KG/M     9600                 : MWT          - MUD DENSITY                 
NEUT.         1                    : NEUTRON      - NEUTRON TYPE                
RESI.         0                    : RESIST       - RESISTIVITY TYPE            
RM  .OHMM     3.25                 : RM           - RESISTIVITY OF MUD          
RMC .OHMM     0.25                 : RMC          - RESISTIVITY OF MUD CAKE     
RMF .OHMM     0.25                 : RMF          - RESISTIVITY OF MUD FILTRATE 
SUFT.C        0                    : SUFT         - SURFACE TEMPERATURE         
~A  DEPTH     RESD      CAL     DELT       GR
  557.784    3.459  174.722  387.018   79.709
  558.034    3.575  174.759  386.017   83.550
  558.284    3.591  174.295  383.076   83.274
  558.534    3.708  173.836  382.078   82.111
  558.784    4.219  173.372  381.410   81.835
  559.034    4.729  172.912  380.415   80.674
  559.284    5.337  172.444  380.065   76.868
  559.534    5.946  172.486  378.745   78.062
  559.784    6.951  172.026  377.102   78.372
  560.034    8.350  171.558  357.949   77.504
  560.284    8.267  170.597  309.292   69.284
  560.534    7.001  170.630  244.102   63.420
  560.784    6.027  170.175  244.728   60.496
  561.034    4.958  170.208  263.508   63.157
  561.284    4.581  170.241  316.330   68.177
  561.534    4.298  170.772  338.028   70.839
  561.784    4.118  171.306  343.190   74.679
  562.034    4.330  171.335  359.376   78.518
  562.284    4.348  171.870  361.626   80.006
  562.534    4.464  171.907  366.787   80.318
  562.784    4.776  171.439  371.951   83.567
  563.034    5.090  171.477  373.550   82.701
  563.284    5.302  171.514  375.148   78.306
  563.534    5.418  172.546  359.237   75.383
  563.784    5.236  173.573  344.947   78.632
  564.034    4.857  174.103  339.737   83.650
  564.284    4.379  174.629  356.896   86.607
  564.534    4.199  174.675  365.951   86.623
  564.784    4.118  174.704  374.354   83.993
  565.034    4.134  174.737  369.469   85.185
  565.284    4.049  174.775  373.336   84.319
  565.534    4.067  174.804  369.423   82.278
  565.784    4.085  174.837  360.644   84.646
  566.034    4.098  175.372  348.948   84.368
  566.284    4.116  175.405  348.601   81.153
  566.534    4.134  174.941  362.518   80.876
  566.784    4.148  174.481  367.356   81.182
  567.034    4.067  174.018  368.632   85.319
  567.284    3.984  173.554  369.579   85.921
  567.534    4.000  172.605  370.205   87.412
  567.784    4.017  172.634  370.828   88.604
  568.034    4.037  172.166  376.316   89.500
  568.284    4.053  172.208  375.969   87.459
  568.534    4.067  172.734  374.647   87.475
  568.784    4.183  173.273  373.646   88.373
  569.034    4.199  174.304  372.980   88.391
  569.284    4.215  174.830  371.658   92.230
  569.534    4.229  175.858  374.226   90.187
  569.784    4.246  176.396  370.964   92.265
  570.034    4.262  176.918  370.293   91.691
  570.284    4.377  177.461  372.858   92.591
  570.534    4.398  177.486  373.159   95.552
  570.784    4.412  177.524  373.785   96.740
  571.034    4.527  177.561  373.438   97.346
  571.284    4.527  177.590  374.712   97.658
  571.534    4.560  177.627  374.041   98.262
  571.784    4.772  177.661  374.661   99.452
  572.034    4.888  177.694  372.369   96.236
  572.284    5.200  177.731  372.349   94.487
  572.534    5.216  177.765  372.969   95.386
  572.784    5.532  177.301  371.004   94.227
  573.034    5.749  177.334  372.923   96.005
  573.284    5.759  176.883  372.897   95.141
  573.534    5.876  176.908  370.932   92.805
  573.784    5.992  176.945  367.341   91.057
  574.034    6.006  176.978  364.724   90.778
  574.284    5.923  177.016  360.487   89.912
  574.534    5.842  177.053  352.033   86.398
  574.784    5.858  177.090  343.578   83.473
  575.034    5.876  176.627  347.122   88.492
  575.284    5.891  176.652  356.500   89.683
  575.534    6.008  176.693  362.961   93.228
  575.784    6.320  177.219  367.798   95.010
  576.034    6.731  177.257  368.100   93.849
  576.284    7.241  177.787  365.159   90.338
  576.534    7.357  177.820  360.595   88.883
  576.784    7.079  177.858  356.679   88.899
  577.034    6.304  177.891  356.332   89.505
  577.284    5.923  177.924  356.958   91.581
  577.534    5.546  177.957  359.529   94.242
  577.784    5.265  177.999  364.045   98.669
  578.034    5.083  177.539  365.640  102.217
  578.284    5.101  177.577  364.320  100.468
  578.534    5.115  178.103  363.649   95.483
  578.784    5.231  178.140  368.165   92.266
  579.034    5.054  178.178  369.758   90.517
  579.284    4.674  178.700  365.847   89.650
  579.534    4.690  178.733  361.607   92.021
  579.784    4.412  179.272  362.881   92.625
  580.034    4.621  179.305  368.370   96.172
  580.284    4.935  179.831  375.479   98.249
  580.534    5.050  179.873  378.374   97.970
  580.784    5.164  179.902  379.645   95.337
  581.034    5.279  179.935  380.268   93.884
  581.284    5.494  178.982  379.924   95.667
  581.534    5.808  178.518  383.464   91.565
  581.784    6.219  178.051  380.524   90.992
  582.034    6.334  177.591  371.097   90.422
  582.284    6.744  177.127  360.376   92.494
  582.534    7.454  177.160  352.570   95.161
  582.784    8.165  176.705  350.602   95.765
  583.034    8.374  176.245  347.334   91.073
  583.284    8.591  176.274  348.608   84.032
  583.534    8.410  176.307  344.047   79.636
  583.784    8.226  176.341  329.757   77.593
  584.034    7.947  176.378  344.644   76.432
  584.284    7.766  176.411  348.190   79.980
  584.534    7.781  176.445  354.651   80.289
  584.784    8.490  175.981  346.845   76.778
  585.034    9.296  176.022  346.174   74.443
  585.284   10.106  176.060  307.567   75.045
  585.534    9.826  176.582  257.616   77.415
  585.784    8.951  176.619  249.486   78.901
  586.034    8.275  177.150  288.045   79.802
  586.284    7.503  178.181  312.984   81.876
  586.534    6.630  178.711  323.011   86.010
  586.784    6.053  179.246  352.492   88.672
  587.034    5.280  179.283  354.736   89.868
  587.284    5.195  179.813  345.636   88.414
  587.534    5.211  180.344  351.122   89.016
  587.784    5.428  180.878  356.934   90.506
  588.034    5.541  180.912  355.939   90.226
  588.284    5.656  180.941  346.512   88.183
  588.534    5.772  179.996  339.357   85.847
  588.784    5.891  179.524  331.227   84.393
  589.034    5.902  179.056  328.286   84.410
  589.284    5.918  178.605  328.585   84.720
  589.534    6.037  178.630  329.853   85.030
  589.784    6.149  178.170  331.133   88.281
  590.034    6.264  178.203  331.756   88.887
  590.284    6.384  178.237  330.760   86.844
  590.534    6.499  178.274  329.117   83.919
  590.784    6.611  178.307  327.467   87.762
  591.034    6.726  178.345  328.744   88.070
  591.284    6.742  178.382  328.397   88.676
  591.534    6.760  178.420  327.072   89.576
  591.784    6.775  178.445  325.752   89.591
  592.034    6.793  178.478  322.166   88.135
  592.284    6.809  178.515  323.432   88.448
  592.534    6.726  179.045  324.706   91.405
  592.784    6.742  179.083  325.661   93.772
  593.034    6.560  179.621  326.281   90.556
  593.284    6.477  180.148  335.014   89.396
  593.534    6.200  180.682  347.959   90.292
  593.784    6.019  181.709  357.013   94.721
  594.034    5.934  182.240  349.859   94.149
  594.284    5.853  182.778  350.157   97.402
  594.534    5.868  182.306  349.807  100.361
  594.784    5.886  181.345  354.326   98.024
  595.034    5.900  180.389  338.091   94.214
  595.284    5.819  179.925  323.801   93.055
  595.534    5.738  178.968  297.840   94.541
  595.784    5.752  179.498  324.080   96.618
  596.034    5.673  180.029  358.745   98.104
  596.284    5.590  181.056  359.695  101.355
  596.534    5.604  181.595  359.348  105.493
  596.784    5.523  182.125  358.671  105.508
  597.034    5.442  185.136  357.354  104.640
  597.284    5.459  185.675  359.925  102.893
  597.534    5.372  185.708  366.383  100.852
  597.784    5.390  184.743  367.330   98.807
  598.034    5.406  182.797  368.931   98.236
  598.284    5.422  181.836  368.579   97.370
  598.534    5.339  181.368  357.861   91.797
  598.784    5.258  180.415  348.758   90.050
  599.034    5.175  179.947  346.463   93.007
  599.284    5.094  178.991  347.415   97.435
  599.534    5.011  178.038  359.063  102.452
  599.784    5.027  178.063  372.332  104.527
  600.034    5.143  178.597  375.549  104.839
  600.284    5.360  182.110  373.905  103.972
  600.534    5.473  186.124  360.585  100.459
  600.784    5.787  185.163  357.644   99.888
  601.034    6.099  182.719  355.352   98.727
