~VERSION INFORMATION
 VERS.                 2.0:   CWLS LOG ASCII STANDARD -VERSION 2.0
 WRAP.                  NO:   ONE LINE PER DEPTH STEP
~WELL INFORMATION BLOCK
#MNEM.UNIT           DATA                    DESCRIPTION OF MNEMONIC
#---------    -------------------            -------------------------------
# Generated from Intellog Unique Number	CX_WELLS/WELL/1046
LOC .         00/02-32-089-12W4/0            : Location     - LOCATION
UWI .         00/02-32-089-12W400            : Uwi          - UNIQUE WELL ID
ENTR.         DW                             : Entered      - ENTERED BY
SRVC.         SCHLUMBERGER                   : Scn          - SERVICE COMPANY
STRT.M        90                             : top_depth    - START DEPTH
STOP.M        240                            : bot_depth    - STOP DEPTH
STEP.M        0.25                           : increment    - STEP LENGTH
 NULL. -999.2500:NULL Value
~CURVE INFORMATION BLOCK
#MNEM UNIT       ERCB CURVE CODE    CURVE DESCRIPTION
#-----------   ------------------   ----------------------------------
DEPT.M        00 001 00 00         : DEPTH        - DEPTH
GR  .API      00 310 00 00         : GR           - GAMMA RAY
NPHI.V/V      00 330 00 00         : PHIN         - NEUTRON POROSITY (SANDSTONE)
DPHI.V/V      00 890 00 00         : PHID         - DENSITY POROSITY (SANDSTONE)
ILD .OHMM     00 120 00 00         : RESD         - DEEP RESISTIVITY (DIL)
~PARAMETER INFORMATION
#MNEM.UNIT           DATA             DESCRIPTION OF MNEMONIC
#---------         -----------     ------------------------------
GL  .M        525.15               : gl           - GROUND LEVEL ELEVATION
EREF.M        528.85               : kb           - ELEVATION OF DEPTH REFERENCE
DATM.M        528.85               : datum        - DATUM ELEVATION
TDD .M        717                  : tdd          - TOTAL DEPTH DRILLER
RUN .         ONE                  : Run          - RUN NUMBER
ENG .         BILL                 : Engineer     - RECORDING ENGINEER
WIT .         JIM                  : Witness      - WITNESSED BY
MUD .         GEL                  : Mud_type     - MUD TYPE
MATR.         SANDSTONE            : Logunit      - NEUTRON MATRIX
TMAX.C        18                   : BHT          - MAXIMUM RECORDED TEMPERATURE
BHTD.M        717                  : BHTDEP       - MAXIMUM RECORDED TEMPERATURE
MATR.         1                    : LOGUNIT      - NEUTRON MATRIX
RMT .C        25                   : MDTP         - TEMPERATURE OF MUD
NEUT.         1                    : NEUTRON      - NEUTRON TYPE
RESI.         0                    : RESIST       - RESISTIVITY TYPE
RMC .OHMM     0.25                 : RMC          - RESISTIVITY OF MUD CAKE
RMF .OHMM     0.25                 : RMF          - RESISTIVITY OF MUD FILTRATE
SUFT.C        15                   : SUFT         - SURFACE TEMPERATURE
~A  DEPTH       GR     PHIN     PHID     RESD
   90.000   51.192    0.391    0.340   82.584
   90.250   54.849    0.383    0.336   81.134
   90.500   57.284    0.373    0.332   75.431
   90.750   65.749    0.366    0.327   65.156
   91.000   70.008    0.379    0.342   43.507
   91.250   70.044    0.417    0.361   33.660
   91.500   71.284    0.443    0.342   34.308
   91.750   70.718    0.446    0.315   34.331
   92.000   66.531    0.436    0.311   32.505
   92.250   59.944    0.371    0.322   28.078
   92.500   55.164    0.366    0.332   28.096
   92.750   51.596    0.367    0.329   28.116
   93.000   48.011    0.372    0.327   27.622
   93.250   46.852    0.366    0.322   24.757
   93.500   47.490    0.352    0.316   20.992
   93.750   48.730    0.346    0.309   17.478
   94.000   49.970    0.345    0.306   14.822
   94.250   50.608    0.350    0.307   12.118
   94.500   48.838    0.343    0.308   11.475
   94.750   46.466    0.340    0.314   15.411
   95.000   43.491    0.346    0.324   13.312
   95.250   43.518    0.355    0.324   10.881
   95.500   44.758    0.354    0.322   12.159
   95.750   45.396    0.357    0.322   52.985
   96.000   44.228    0.356    0.342   71.170
   96.250   43.060    0.358    0.328   62.606
   96.500   43.698    0.359    0.318   44.174
   96.750   45.540    0.359    0.318   40.321
   97.000   45.576    0.359    0.332   30.064
   97.250   44.417    0.357    0.335   26.942
   97.500   43.851    0.357    0.325   22.432
   97.750   45.100    0.357    0.312   26.487
   98.000   45.738    0.356    0.301   46.016
   98.250   45.774    0.356    0.302   45.216
   98.500   46.412    0.353    0.304   37.646
   98.750   47.050    0.351    0.328   58.571
   99.000   47.086    0.351    0.325   56.504
   99.250   47.724    0.349    0.316   49.705
   99.500   48.964    0.348    0.311   44.542
   99.750   47.194    0.348    0.309   39.189
  100.000   46.026    0.347    0.305   38.501
  100.250   45.460    0.347    0.306   44.633
  100.500   45.496    0.349    0.306   42.266
  100.750   45.532    0.350    0.310   35.849
  101.000   45.568    0.353    0.318   36.539
  101.250   46.206    0.350    0.322   40.086
  101.500   45.639    0.343    0.315   33.375
  101.750   43.878    0.339    0.305   23.549
  102.000   43.294    0.339    0.295   20.723
  102.250   46.340    0.343    0.295   21.513
  102.500   48.182    0.345    0.300   24.039
  102.750   48.829    0.350    0.309   27.863
  103.000   48.865    0.350    0.315   41.023
  103.250   48.901    0.348    0.324   55.113
  103.500   49.548    0.348    0.336   61.573
  103.750   49.566    0.348    0.334   60.492
  104.000   49.000    0.347    0.326   54.209
  104.250   49.036    0.344    0.316   45.134
  104.500   49.072    0.341    0.308   36.894
  104.750   48.506    0.339    0.304   33.676
  105.000   46.736    0.344    0.307   42.019
  105.250   44.975    0.348    0.323   57.478
  105.500   45.002    0.347    0.309   47.856
  105.750   46.242    0.342    0.310   40.584
  106.000   49.306    0.343    0.318   41.372
  106.250   49.935    0.343    0.324   37.763
  106.500   51.786    0.341    0.329   27.136
  106.750   51.831    0.343    0.332   30.327
  107.000   51.849    0.346    0.331   35.809
  107.250   51.292    0.347    0.329   30.368
  107.500   50.726    0.347    0.325   25.284
  107.750   50.160    0.347    0.318   24.844
  108.000   50.196    0.346    0.305   25.793
  108.250   49.630    0.347    0.296   27.274
  108.500   48.461    0.349    0.293   27.288
  108.750   47.895    0.355    0.305   24.907
  109.000   46.727    0.357    0.319   21.518
  109.250   46.161    0.358    0.332   20.752
  109.500   44.993    0.361    0.341   20.387
  109.750   43.223    0.365    0.339   20.405
  110.000   45.667    0.372    0.343   20.047
  110.250   46.898    0.377    0.335   19.695
  110.500   44.526    0.295    0.175   20.074
  110.750   42.756    0.262    0.123   21.230
  111.000   41.587    0.221    0.078   22.040
  111.250   39.826    0.173    0.031   22.465
  111.500   38.056    0.086    0.020   23.318
  111.750   36.286    0.073    0.018   25.119
  112.000   35.118    0.059    0.016   23.787
  112.250   37.562    0.060    0.019   20.176
  112.500   38.793    0.076    0.037   19.460
  112.750   41.246    0.089    0.079   18.428
  113.000   42.477    0.119    0.100   18.441
  113.250   43.726    0.182    0.124   19.142
  113.500   44.364    0.244    0.151   23.449
  113.750   45.002    0.286    0.181   31.491
  114.000   45.029    0.331    0.222   42.300
  114.250   45.667    0.361    0.285   45.559
  114.500   45.703    0.376    0.343   50.908
  114.750   45.137    0.384    0.342   57.941
  115.000   45.173    0.378    0.339   67.180
  115.250   47.033    0.372    0.334   72.356
  115.500   48.273    0.371    0.329   63.650
  115.750   48.911    0.371    0.322   54.979
  116.000   47.743    0.369    0.318   44.941
  116.250   46.575    0.367    0.322   34.131
  116.500   46.009    0.372    0.322   25.921
  116.750   46.647    0.377    0.321   22.394
  117.000   47.887    0.380    0.326   23.248
  117.250   49.729    0.365    0.326   24.136
  117.500   50.969    0.356    0.330   23.712
  117.750   49.810    0.357    0.333   22.455
  118.000   47.429    0.355    0.333   20.876
  118.250   45.056    0.353    0.334   20.510
  118.500   44.490    0.353    0.334   22.500
  118.750   46.323    0.354    0.336   24.688
  119.000   47.563    0.358    0.336   25.630
  119.250   48.812    0.362    0.334   23.825
  119.500   49.441    0.366    0.330   20.204
  119.750   49.477    0.362    0.328   16.825
  120.000   50.727    0.356    0.327   16.228
  120.250   50.160    0.352    0.330   15.943
  120.500   49.594    0.352    0.330   16.552
  120.750   49.630    0.351    0.325   18.498
  121.000   50.268    0.355    0.321   19.924
  121.250   49.693    0.359    0.321   21.068
  121.500   48.525    0.358    0.324   19.951
  121.750   48.570    0.356    0.324   18.210
  122.000   48.615    0.347    0.321   16.928
  122.250   48.633    0.352    0.320   17.253
  122.500   49.882    0.366    0.319   20.005
  122.750   50.520    0.363    0.321   21.546
  123.000   51.158    0.355    0.326   21.565
  123.250   51.203    0.355    0.331   21.576
  123.500   50.628    0.356    0.337   21.594
  123.750   50.062    0.356    0.334   21.608
  124.000   50.098    0.359    0.333   21.623
  124.250   50.745    0.365    0.337   25.063
  124.500   51.374    0.371    0.338   22.880
  124.750   52.021    0.366    0.339   22.069
  125.000   52.057    0.361    0.339   22.911
  125.250   51.482    0.361    0.339   21.700
  125.500   50.925    0.366    0.341   20.549
  125.750   50.358    0.364    0.342   20.189
  126.000   49.792    0.361    0.337   20.202
  126.250   49.828    0.360    0.332   20.212
  126.500   49.855    0.365    0.327   20.608
  126.750   50.493    0.366    0.316   20.998
  127.000   50.529    0.358    0.308   21.803
  127.250   50.565    0.361    0.306   22.219
  127.500   51.203    0.364    0.325   23.075
  127.750   51.841    0.372    0.340   23.087
  128.000   51.877    0.383    0.344   23.539
  128.250   52.533    0.377    0.344   23.547
  128.500   52.551    0.367    0.343   24.903
  128.750   52.587    0.357    0.340   25.383
  129.000   52.021    0.367    0.339   24.937
  129.250   56.280    0.381    0.339   26.365
  129.500   56.316    0.384    0.339   28.401
  129.750   55.759    0.373    0.337   26.401
  130.000   55.777    0.361    0.334   28.440
  130.250   55.220    0.361    0.330   28.459
  130.500   55.265    0.364    0.329   26.459
  130.750   55.903    0.374    0.334   25.521
  131.000   56.541    0.387    0.338   26.986
  131.250   57.781    0.380    0.341   28.016
  131.500   58.410    0.355    0.339   28.555
  131.750   59.048    0.350    0.338   25.124
  132.000   58.482    0.364    0.333   24.233
  132.250   57.323    0.393    0.328   25.625
  132.500   57.952    0.413    0.324   27.096
  132.750   62.202    0.427    0.324   29.189
  133.000   64.646    0.440    0.324   30.303
  133.250   65.284    0.441    0.324   29.238
