~VERSION INFORMATION
 VERS.                 2.0:   CWLS LOG ASCII STANDARD -VERSION 2.0
 WRAP.                  NO:   ONE LINE PER DEPTH STEP
~WELL INFORMATION BLOCK
#MNEM.UNIT           DATA                    DESCRIPTION OF MNEMONIC
#---------    -------------------            -------------------------------
# Generated from Intellog Unique Number	CW_79_81/WELL/2442
WELL.         CHEVRON MISTEHAEN              : Well_name    - WELL
LOC .         00/03-19-081-05W5/0            : Location     - LOCATION
UWI .         00/03-19-081-05W5/0            : Uwi          - UNIQUE WELL ID
ENTR.         MAX                            : Entered      - ENTERED BY
SRVC.         SCHLUMBERGER                   : Scn          - SERVICE COMPANY
STRT.M        304.8                          : top_depth    - START DEPTH
STOP.M        533.05                         : bot_depth    - STOP DEPTH
STEP.M        0.25                           : increment    - STEP LENGTH
 NULL. -999.2500:NULL Value
~CURVE INFORMATION BLOCK
#MNEM UNIT       ERCB CURVE CODE    CURVE DESCRIPTION
#-----------   ------------------   ----------------------------------
DEPT.M        00 001 00 00         : DEPTH        - DEPTH
ILD .OHMM     00 120 00 00         : RESD         - DEEP RESISTIVITY (DIL)
NPHI.V/V      00 330 00 00         : PHIN         - NEUTRON POROSITY (SANDSTONE)
DPHI.V/V      00 890 00 00         : PHID         - DENSITY POROSITY (SANDSTONE)
GR  .API      00 310 00 00         : GR           - GAMMA RAY
CALI.MM       00 280 01 00         : CAL          - CALIPER
~PARAMETER INFORMATION
#MNEM.UNIT           DATA             DESCRIPTION OF MNEMONIC
#---------         -----------     ------------------------------
GL  .M        611.734              : gl           - GROUND LEVEL ELEVATION
EREF.M        614.111              : kb           - ELEVATION OF DEPTH REFERENCE
DATM.M        611.734              : datum        - DATUM ELEVATION
TDD .M        550.774              : tdd          - TOTAL DEPTH DRILLER
RUN .         ONE                  : Run          - RUN NUMBER
ENG .         BILL                 : Engineer     - RECORDING ENGINEER
WIT .         JIM                  : Witness      - WITNESSED BY
MUD .         GEL                  : Mud_type     - MUD TYPE
MATR.         SANDSTONE            : Logunit      - NEUTRON MATRIX
TMAX.C        29.4444              : BHT          - MAXIMUM RECORDED TEMPERATURE
BHTD.M        550.774              : BHTDEP       - MAXIMUM RECORDED TEMPERATURE
MATR.         1                    : LOGUNIT      - NEUTRON MATRIX
RMT .C        20                   : MDTP         - TEMPERATURE OF MUD
NEUT.         1                    : NEUTRON      - NEUTRON TYPE
RESI.         0                    : RESIST       - RESISTIVITY TYPE
RMC .OHMM     4.1                  : RMC          - RESISTIVITY OF MUD CAKE
RMF .OHMM     5.07                 : RMF          - RESISTIVITY OF MUD FILTRATE
SUFT.C        -20.5556             : SUFT         - SURFACE TEMPERATURE
~A  DEPTH     RESD     PHIN     PHID       GR      CAL
# ...
  341.300    4.167    0.531    0.273   66.721  204.930
  341.550    4.243    0.533    0.263   68.240  205.306
  341.800    4.232    0.533    0.253   69.407  205.582
  342.050    4.180    0.536    0.240   70.862  205.549
  342.300    4.083    0.551    0.230   72.323  205.521
  342.550    3.992    0.543    0.250   73.488  206.297
  342.800    3.946    0.533    0.254   74.475  207.675
  343.050    3.887    0.527    0.253   74.931  209.849
  343.300    3.786    0.529    0.246   75.093  212.121
  343.550    3.632    0.539    0.226   76.225  213.223
  343.800    3.548    0.548    0.222   78.421  214.861
  344.050    3.520    0.578    0.218   80.059  216.032
  344.300    3.550    0.594    0.210   80.457  216.306
  344.550    3.575    0.595    0.201   81.267  217.879
  344.800    3.559    0.581    0.194   82.315  220.250
  345.050    3.484    0.556    0.195   81.441  219.969
  345.300    3.378    0.571    0.203   80.689  218.700
  345.550    3.327    0.585    0.202   80.677  217.475
  345.800    3.331    0.597    0.207   81.193  217.152
  346.050    3.426    0.602    0.215   82.122  216.529
  346.300    3.598    0.597    0.220   82.933  215.106
  346.550    3.758    0.585    0.218   82.683  213.084
  346.800    3.930    0.545    0.217   80.011  212.551
  347.050    4.049    0.533    0.215   77.781  212.941
  347.300    4.251    0.530    0.226   77.680  211.205
  347.550    4.457    0.527    0.236   76.724  208.984
  347.800    4.579    0.522    0.233   74.350  207.961
  348.050    4.577    0.522    0.213   71.975  209.934
  348.300    4.410    0.535    0.199   69.301  214.400
  348.550    3.957    0.560    0.211   70.516  220.196
  348.800    3.898    0.548    0.213   71.631  223.136
  349.050    3.981    0.515    0.207   71.853  224.310
  349.300    4.127    0.475    0.200   71.192  221.588
  349.550    4.278    0.453    0.198   70.706  210.780
  349.800    4.516    0.457    0.184   73.044  213.741
  350.050    4.723    0.471    0.210   72.293  211.638
  350.300    4.896    0.474    0.224   72.841  208.502
  350.550    5.021    0.474    0.240   73.179  206.081
  350.800    5.073    0.472    0.257   72.514  205.157
  351.050    5.070    0.468    0.261   70.615  205.133
  351.300    5.066    0.424    0.243   62.636  205.095
  351.550    4.987    0.387    0.220   55.738  205.486
  351.800    4.888    0.386    0.227   53.110  205.547
  352.050    4.779    0.421    0.254   51.681  205.522
  352.300    4.664    0.475    0.285   51.254  205.696
  352.550    4.528    0.511    0.299   53.126  206.475
  352.800    4.402    0.513    0.279   55.762  207.443
  353.050    4.268    0.510    0.249   57.466  209.497
  353.300    4.147    0.513    0.233   60.451  212.586
  353.550    4.011    0.509    0.230   64.211  212.161
  353.800    3.887    0.497    0.237   68.148  209.142
  354.050    3.834    0.498    0.234   71.510  210.728
  354.300    3.861    0.524    0.232   69.528  212.783
  354.550    3.887    0.513    0.265   68.807  207.563
  354.800    3.977    0.507    0.278   68.615  205.942
  355.050    4.034    0.531    0.279   68.718  205.717
  355.300    3.987    0.574    0.272   68.940  206.290
  355.550    3.736    0.596    0.251   69.550  210.241
  355.800    3.386    0.597    0.238   71.504  218.120
  356.050    2.830    0.590    0.269   76.207  216.495
  356.300    2.397    0.591    0.283   81.263  215.768
  356.550    2.123    0.596    0.284   84.196  215.744
  356.800    2.001    0.601    0.280   84.063  215.322
  357.050    2.077    0.604    0.287   80.862  211.503
  357.300    2.258    0.598    0.292   77.897  206.484
  357.550    2.753    0.572    0.289   75.995  206.057
  357.800    3.122    0.554    0.289   73.916  205.934
  358.050    3.442    0.542    0.289   70.718  205.708
  358.300    3.755    0.537    0.286   66.928  205.380
  358.550    3.904    0.540    0.281   64.844  205.351
  358.800    3.962    0.537    0.275   66.304  205.327
  359.050    3.959    0.523    0.278   68.652  205.302
  359.300    3.957    0.521    0.274   69.404  205.579
  359.550    3.926    0.532    0.260   69.153  207.353
  359.800    3.874    0.551    0.239   68.843  211.223
  360.050    3.825    0.571    0.220   70.114  216.352
  360.300    3.737    0.562    0.239   71.820  212.165
  360.550    3.495    0.558    0.248   70.861  209.744
  360.800    3.179    0.555    0.243   70.788  212.415
  361.050    2.857    0.550    0.232   73.133  217.383
  361.300    2.577    0.541    0.223   78.426  221.952
  361.550    2.346    0.533    0.215   87.028  223.771
  361.800    2.275    0.565    0.214   91.189  224.988
  362.050    2.291    0.576    0.218   94.950  221.373
  362.300    2.344    0.577    0.230   95.348  218.055
  362.550    2.386    0.568    0.241   93.445  217.629
  362.800    2.398    0.557    0.241   90.952  218.402
  363.050    2.392    0.552    0.227   90.277  213.798
  363.300    2.373    0.547    0.246   90.508  210.859
  363.550    2.372    0.546    0.238   91.202  210.435
  363.800    2.383    0.546    0.233   91.893  210.307
  364.050    2.408    0.545    0.228   92.231  210.278
  364.300    2.468    0.543    0.224   92.158  210.253
  364.550    2.650    0.539    0.227   90.875  210.061
  364.800    2.838    0.549    0.225   85.700  209.203
  365.050    3.071    0.566    0.205   81.675  213.173
  365.300    3.324    0.582    0.214   77.474  212.950
  365.550    3.538    0.581    0.230   75.100  209.928
  365.800    3.675    0.565    0.238   74.376  206.406
  366.050    3.719    0.562    0.230   72.944  205.332
  366.300    3.552    0.600    0.223   72.930  204.055
  366.550    3.447    0.606    0.215   75.746  202.433
  366.800    3.272    0.608    0.219   79.091  202.008
  367.050    3.061    0.608    0.226   82.024  202.185
  367.300    2.888    0.602    0.231   83.719  202.461
  367.550    2.853    0.580    0.243   83.221  202.512
  367.800    2.896    0.564    0.262   81.979  202.905
  368.050    2.914    0.596    0.258   76.774  203.681
  368.300    3.031    0.594    0.257   73.163  204.456
  368.550    3.200    0.574    0.245   71.497  206.227
  368.800    3.403    0.552    0.222   72.013  208.497
  369.050    3.714    0.546    0.203   75.170  209.266
  369.300    4.007    0.531    0.229   76.876  209.240
  369.550    4.305    0.518    0.221   76.860  208.816
  369.800    4.701    0.511    0.222   75.430  208.693
  370.050    5.113    0.506    0.227   72.820  208.669
  370.300    5.452    0.500    0.232   70.387  208.545
  370.550    5.668    0.500    0.235   70.756  208.032
  370.800    5.752    0.505    0.230   71.478  207.590
  371.050    5.791    0.511    0.235   70.988  207.563
  371.300    5.798    0.507    0.233   70.678  207.240
  371.550    5.773    0.494    0.226   70.665  207.016
  371.800    5.717    0.477    0.217   71.006  207.091
  372.050    5.596    0.462    0.215   71.694  207.544
  372.300    5.425    0.460    0.214   71.679  207.934
  372.550    5.113    0.484    0.216   73.079  207.510
  372.800    4.819    0.504    0.228   75.541  206.788
  373.050    4.543    0.511    0.246   76.235  206.364
  373.300    4.348    0.507    0.261   74.511  206.537
  373.550    4.371    0.500    0.254   71.308  207.475
  373.800    4.505    0.500    0.232   68.346  208.282
  374.050    4.635    0.530    0.214   69.512  208.257
  374.300    4.795    0.539    0.210   70.676  207.930
  374.550    4.917    0.530    0.217   70.897  207.304
  374.800    4.978    0.509    0.228   69.940  206.579
  375.050    5.003    0.491    0.231   68.270  206.318
  375.300    4.962    0.490    0.227   68.256  207.125
  375.550    4.746    0.518    0.234   70.128  209.099
  375.800    4.413    0.534    0.225   72.883  212.872
  376.050    3.991    0.540    0.227   75.462  219.039
  376.300    3.559    0.549    0.239   77.572  224.805
  376.550    3.178    0.583    0.236   79.875  222.477
  376.800    3.105    0.554    0.227   80.841  214.964
  377.050    3.194    0.555    0.222   80.356  214.138
  377.300    3.358    0.565    0.234   79.515  215.413
  377.550    3.533    0.561    0.241   77.613  214.789
