~VERSION INFORMATION
 VERS.                 2.0:   CWLS LOG ASCII STANDARD -VERSION 2.0
 WRAP.                  NO:   ONE LINE PER DEPTH STEP
~WELL INFORMATION BLOCK
#MNEM.UNIT           DATA                    DESCRIPTION OF MNEMONIC
#---------    -------------------            -------------------------------
# Generated from Intellog Unique Number	CS_67_68/WELL/2165
WELL.         GEOG et al HYLO                : Well_name    - WELL
LOC .         00/06-03-067-14W4/0            : Location     - LOCATION
UWI .         00/06-03-067-14W4/0            : Uwi          - UNIQUE WELL ID
ENTR.         SP                             : Entered      - ENTERED BY
SRVC.         SCHLUMBERGER                   : Scn          - SERVICE COMPANY
STRT.M        335                            : top_depth    - START DEPTH
STOP.M        520                            : bot_depth    - STOP DEPTH
STEP.M        0.25                           : increment    - STEP LENGTH
 NULL. -999.2500:NULL Value
~CURVE INFORMATION BLOCK
#MNEM UNIT       ERCB CURVE CODE    CURVE DESCRIPTION
#-----------   ------------------   ----------------------------------
DEPT.M        00 001 00 00         : DEPTH        - DEPTH
ILD .OHMM     00 120 00 00         : RESD         - DEEP RESISTIVITY (DIL)
DPHI.V/V      00 890 00 00         : PHID         - DENSITY POROSITY (LIMESTONE)
NPHI.V/V      00 330 00 00         : PHIN         - NEUTRON POROSITY (LIMESTONE)
GR  .API      00 310 00 00         : GR           - GAMMA RAY
CALI.MM       00 280 01 00         : CAL          - CALIPER
~PARAMETER INFORMATION
#MNEM.UNIT           DATA             DESCRIPTION OF MNEMONIC
#---------         -----------     ------------------------------
GL  .M        598.4                : gl           - GROUND LEVEL ELEVATION
EREF.M        601.36               : kb           - ELEVATION OF DEPTH REFERENCE
DATM.M        601.36               : datum        - DATUM ELEVATION
TDD .M        520                  : tdd          - TOTAL DEPTH DRILLER
RUN .         ONE                  : Run          - RUN NUMBER
ENG .         BILL                 : Engineer     - RECORDING ENGINEER
WIT .         JIM                  : Witness      - WITNESSED BY
MUD .         GEL                  : Mud_type     - MUD TYPE
MATR.         LIMESTONE            : Logunit      - NEUTRON MATRIX
TMAX.C        16.7                 : BHT          - MAXIMUM RECORDED TEMPERATURE
BHTD.M        521.2                : BHTDEP       - MAXIMUM RECORDED TEMPERATURE
MATR.         1                    : LOGUNIT      - NEUTRON MATRIX
RMT .C        25                   : MDTP         - TEMPERATURE OF MUD
NEUT.         1                    : NEUTRON      - NEUTRON TYPE
RESI.         0                    : RESIST       - RESISTIVITY TYPE
RMC .OHMM     0.25                 : RMC          - RESISTIVITY OF MUD CAKE
RMF .OHMM     0.25                 : RMF          - RESISTIVITY OF MUD FILTRATE
SUFT.C        15                   : SUFT         - SURFACE TEMPERATURE
~A  DEPTH     RESD     PHID     PHIN       GR      CAL
# ...
  371.500    1.988    0.318    0.360   61.567  180.055
  371.750    2.070    0.316    0.347   60.420  179.859
  372.000    2.164    0.313    0.351   60.727  179.462
  372.250    2.374    0.313    0.343   61.398  178.055
  372.500    2.693    0.321    0.328   62.069  177.053
  372.750    3.199    0.329    0.325   61.951  176.454
  373.000    4.201    0.322    0.313   61.228  176.562
  373.250    5.001    0.303    0.266   60.385  178.992
  373.500    5.887    0.273    0.213   59.480  182.432
  373.750    6.628    0.000    0.175   58.394  185.873
  374.000    3.964    0.000    0.155   55.854  187.899
  374.250    3.017    0.025    0.143   53.192  188.209
  374.500    2.806    0.070    0.199   52.167  187.712
  374.750    2.795    0.119    0.243   51.989  187.012
  375.000    3.084    0.145    0.268   52.296  186.615
  375.250    3.485    0.324    0.273   56.541  186.016
  375.500    3.887    0.354    0.250   59.332  184.812
  375.750    3.635    0.023    0.224   60.609  184.414
  376.000    3.122    0.004    0.186   59.947  185.937
  376.250    2.726    0.029    0.164   57.286  186.751
  376.500    2.256    0.166    0.214   54.927  185.647
  376.750    1.984    0.226    0.258   53.477  184.848
  377.000    1.691    0.262    0.307   56.692  184.653
  377.250    1.609    0.284    0.330   60.634  184.558
  377.500    1.576    0.296    0.341   63.062  182.445
  377.750    1.552    0.309    0.351   64.278  178.817
  378.000    1.552    0.317    0.358   64.767  176.300
  378.250    1.543    0.328    0.371   63.862  175.904
  378.500    1.546    0.332    0.392   63.200  176.113
  378.750    1.563    0.312    0.376   62.296  176.625
  379.000    1.557    0.301    0.364   61.573  178.146
  379.250    1.539    0.304    0.367   61.517  180.273
  379.500    1.536    0.310    0.363   62.611  182.401
  379.750    1.565    0.313    0.358   61.586  181.701
  380.000    1.630    0.315    0.370   59.954  180.193
  380.250    1.719    0.299    0.367   60.625  180.504
  380.500    1.758    0.282    0.375   62.689  181.924
  380.750    1.754    0.274    0.376   64.996  183.548
  381.000    1.738    0.273    0.376   66.150  184.564
  381.250    1.718    0.282    0.383   66.943  185.379
  381.500    1.674    0.285    0.378   66.765  185.789
  381.750    1.595    0.278    0.375   66.285  185.796
  382.000    1.533    0.289    0.374   65.865  185.399
  382.250    1.597    0.304    0.375   66.535  183.993
  382.500    1.710    0.313    0.377   67.691  182.182
  382.750    1.804    0.323    0.381   68.058  181.584
  383.000    1.890    0.329    0.379   67.881  182.197
  383.250    1.921    0.323    0.372   67.400  183.213
  383.500    1.925    0.302    0.365   66.799  184.230
  383.750    1.935    0.285    0.366   66.319  185.652
  384.000    1.878    0.278    0.374   66.383  186.163
  384.250    1.809    0.274    0.378   66.509  186.170
  384.500    1.776    0.279    0.385   66.634  185.975
  384.750    1.815    0.290    0.389   67.668  185.478
  385.000    1.884    0.298    0.382   68.581  184.070
  385.250    1.991    0.297    0.374   69.191  181.149
  385.500    2.140    0.298    0.368   69.984  178.128
  385.750    2.309    0.300    0.364   71.442  176.519
  386.000    2.542    0.296    0.363   74.172  174.912
  386.250    2.733    0.282    0.376   77.266  174.413
  386.500    2.915    0.266    0.387   81.330  181.792
  386.750    3.116    0.259    0.398   83.939  185.535
  387.000    3.306    0.253    0.404   85.942  188.470
  387.250    3.399    0.247    0.407   86.007  190.698
  387.500    3.348    0.240    0.404   88.071  192.421
  387.750    3.232    0.242    0.395   89.771  193.136
  388.000    3.028    0.237    0.388   87.231  192.335
  388.250    2.917    0.224    0.387   83.359  190.020
  388.500    2.890    0.205    0.392   80.575  188.108
  388.750    2.895    0.204    0.391   86.154  187.105
  389.000    2.927    0.223    0.385   87.430  187.213
  389.250    3.031    0.201    0.386   88.040  188.836
  389.500    3.104    0.174    0.404   89.498  192.175
  389.750    3.209    0.173    0.412   92.047  194.605
  390.000    3.293    0.202    0.414   94.777  196.835
  390.250    3.336    0.229    0.404   96.902  197.649
  390.500    3.317    0.236    0.392   98.845  197.354
  390.750    3.231    0.208    0.383   97.819  197.158
  391.000    3.096    0.191    0.375   95.885  195.549
  391.250    3.021    0.200    0.375   95.041  192.224
  391.500    3.066    0.233    0.370   92.865  188.395
  391.750    3.158    0.263    0.362   88.628  185.878
  392.000    3.228    0.261    0.360   85.239  182.452
  392.250    3.356    0.253    0.365   87.121  179.127
  392.500    3.508    0.256    0.360   90.942  176.710
  392.750    3.694    0.265    0.361   91.795  174.598
  393.000    3.891    0.249    0.354   90.345  173.999
  393.250    4.075    0.233    0.351   90.895  174.410
  393.500    4.197    0.217    0.353   92.595  176.437
  393.750    4.298    0.225    0.361   94.417  179.573
  394.000    4.330    0.232    0.372   95.088  183.720
  394.250    4.329    0.215    0.373   95.395  186.958
  394.500    4.304    0.193    0.381   95.823  191.004
  394.750    4.256    0.179    0.402   95.706  193.535
  395.000    4.169    0.169    0.414   95.347  194.755
  395.250    3.928    0.185    0.402   95.170  194.963
  395.500    3.633    0.213    0.389   95.477  197.494
  395.750    3.354    0.236    0.387   93.239  195.886
  396.000    3.034    0.253    0.381   88.397  190.137
  396.250    2.780    0.234    0.378   83.373  183.279
  396.500    2.557    0.221    0.379   78.349  182.276
  396.750    2.409    0.222    0.373   75.808  182.889
  397.000    2.338    0.233    0.367   75.146  183.704
  397.250    2.286    0.245    0.371   75.877  184.317
  397.500    2.232    0.257    0.376   76.731  185.435
  397.750    2.219    0.265    0.379   76.795  186.552
  398.000    2.307    0.255    0.384   77.163  186.964
  398.250    2.416    0.239    0.391   77.409  186.870
  398.500    2.447    0.230    0.381   78.262  185.968
  398.750    2.370    0.229    0.372   79.053  185.269
  399.000    2.309    0.225    0.372   79.967  185.174
  399.250    2.271    0.252    0.372   80.697  184.577
  399.500    2.321    0.270    0.370   81.126  183.775
  399.750    2.436    0.271    0.380   78.949  180.551
  400.000    2.546    0.280    0.384   75.924  177.225
  400.250    2.711    0.285    0.382   75.687  176.324
  400.500    2.941    0.262    0.373   78.659  179.764
  400.750    3.156    0.238    0.374   83.025  182.093
  401.000    3.330    0.217    0.369   87.210  178.769
  401.250    3.461    0.196    0.367   90.304  176.655
  401.500    3.512    0.180    0.367   91.277  178.379
  401.750    3.340    0.174    0.370   93.523  182.324
  402.000    3.095    0.183    0.376   96.799  185.461
  402.250    2.863    0.191    0.378   99.044  186.781
  402.500    2.643    0.200    0.381   97.413  186.688
  402.750    2.431    0.213    0.383   93.540  184.674
  403.000    2.273    0.220    0.391   90.091  182.763
  403.250    2.106    0.223    0.380   86.824  181.761
  403.500    2.037    0.254    0.369   83.556  181.364
  403.750    2.094    0.270    0.362   80.835  181.169
  404.000    2.149    0.277    0.357   79.445  181.681
  404.250    2.221    0.266    0.351   82.358  181.789
  404.500    2.374    0.259    0.346   83.331  182.098
  404.750    2.524    0.259    0.343   82.912  182.611
  405.000    2.692    0.246    0.341   83.401  182.417
  405.250    2.815    0.233    0.333   84.193  182.221
  405.500    2.970    0.240    0.321   85.530  181.825
  405.750    3.127    0.251    0.323   87.472  181.732
  406.000    3.269    0.236    0.330   89.475  181.940
  406.250    3.430    0.209    0.328   88.571  182.149
  406.500    3.586    0.201    0.328   91.483  182.458
  406.750    3.672    0.195    0.331   92.942  183.072
  407.000    3.768    0.207    0.328   93.370  183.079
  407.250    3.838    0.213    0.327   95.858  182.883
  407.500    3.910    0.204    0.344   97.983  183.092
  407.750    4.042    0.186    0.359  100.532  185.221
