~VERSION INFORMATION
 VERS.                 2.0:   CWLS LOG ASCII STANDARD -VERSION 2.0
 WRAP.                  NO:   ONE LINE PER DEPTH STEP
~WELL INFORMATION BLOCK
#MNEM.UNIT           DATA                    DESCRIPTION OF MNEMONIC
#---------    -------------------            -------------------------------
# Generated from Intellog Unique Number	CC_80_83/WELL/2308
NULL.         -999.25                        : NULL_VALUE
WELL.         BVX ET AL ALGAR                : Well_name    - WELL
LOC .         07-34-083-16W4                 : Location     - LOCATION          
UWI .         00/07-34-083-16W400            : Uwi          - UNIQUE WELL ID    
ENTR.         DW                             : Entered      - ENTERED BY        
SRVC.         SCHLUMBERGER                   : Scn          - SERVICE COMPANY   
DATE.         03 MAR 80                      : Date         - LOG DATE
STRT.M        95                             : top_depth    - START DEPTH       
STOP.M        283.101                        : bot_depth    - STOP DEPTH        
STEP.M        0.3                            : increment    - STEP LENGTH       
~CURVE INFORMATION BLOCK
#MNEM UNIT       ERCB CURVE CODE    CURVE DESCRIPTION
#-----------   ------------------   ----------------------------------
DEPT.M        00 001 00 00         : DEPTH        - DEPTH                       
DPHI.V/V      00 890 00 00         : PHID         - DENSITY POROSITY (LIMESTONE)
NPHI.V/V      00 330 00 00         : PHIN         - NEUTRON POROSITY (LIMESTONE)
GR  .API      00 310 00 00         : GR           - GAMMA RAY                   
ILD .OHMM     00 120 00 00         : RESD         - DEEP RESISTIVITY (DIL)      
~PARAMETER INFORMATION       
#MNEM.UNIT           DATA             DESCRIPTION OF MNEMONIC
#---------         -----------     ------------------------------
GL  .M        526.5                : gl           - GROUND LEVEL ELEVATION      
EREF.M        529.5                : kb           - ELEVATION OF DEPTH REFERENCE
DATM.M        529.5                : datum        - DATUM ELEVATION             
TDD .M        282                  : tdd          - TOTAL DEPTH DRILLER         
RUN .         ONE                  : Run          - RUN NUMBER                  
ENG .         BILL                 : Engineer     - RECORDING ENGINEER          
WIT .         JIM                  : Witness      - WITNESSED BY                
MUD .         GEL                  : Mud_type     - MUD TYPE                    
MATR.         LIMESTONE            : Logunit      - NEUTRON MATRIX              
TMAX.C        18                   : BHT          - MAXIMUM RECORDED TEMPERATURE
BHTD.M        282                  : BHTDEP       - MAXIMUM RECORDED TEMPERATURE
MATR.         1                    : LOGUNIT      - NEUTRON MATRIX              
RMT .C        25                   : MDTP         - TEMPERATURE OF MUD          
NEUT.         1                    : NEUTRON      - NEUTRON TYPE                
RESI.         0                    : RESIST       - RESISTIVITY TYPE            
RMC .OHMM     0.25                 : RMC          - RESISTIVITY OF MUD CAKE     
RMF .OHMM     0.25                 : RMF          - RESISTIVITY OF MUD FILTRATE 
SUFT.C        15                   : SUFT         - SURFACE TEMPERATURE         
~A  DEPTH     PHID     PHIN       GR     RESD
# ...
  251.602    0.176    0.398   94.211    6.154
  251.902    0.172    0.395   91.142    5.815
  252.202    0.180    0.392   91.136    5.192
  252.502    0.205    0.392   94.807    4.724
  252.802    0.219    0.420  102.156    4.298
  253.102    0.224    0.442  108.891    3.985
  253.402    0.212    0.462  111.948    3.838
  253.702    0.219    0.473  108.878    3.697
  254.002    0.226    0.465  107.036    3.697
  254.302    0.216    0.466  103.354    3.841
  254.602    0.175    0.474  100.898    3.841
  254.902    0.144    0.442   99.053    3.915
  255.202    0.191    0.417  109.464    3.843
  255.502    0.211    0.445  113.748    3.843
  255.802    0.216    0.465  115.582    3.992
  256.102    0.203    0.473  114.964    4.558
  256.402    0.178    0.460  110.054    5.406
  256.702    0.154    0.440  103.309    6.658
  257.002    0.136    0.403   91.048    8.200
  257.302    0.160    0.377   78.787   10.893
  257.602    0.207    0.383   68.977   12.439
  257.902    0.263    0.398   56.715   11.754
  258.202    0.302    0.383   54.869   10.695
  258.502    0.290    0.386   54.253   10.107
  258.802    0.264    0.391   62.827    9.919
  259.102    0.250    0.399   71.400   11.326
  259.401    0.261    0.412   62.816   15.047
  259.701    0.259    0.413   58.519   15.928
  260.001    0.225    0.346   61.579   13.955
  260.301    0.168    0.327   95.889    9.928
  260.601    0.215    0.333  117.331    3.929
  260.901    0.234    0.416  119.164    3.713
  261.201    0.220    0.434  114.257    3.856
  261.501    0.217    0.449  104.446    4.840
  261.801    0.225    0.453   88.508    8.541
  262.101    0.246    0.393   76.860   17.869
  262.401    0.268    0.361   77.467   20.404
  262.701    0.270    0.347  109.939   20.799
  263.001    0.244    0.389  114.836   19.656
  263.301    0.220    0.409  102.574   19.290
  263.601    0.184    0.418  101.956   19.662
  263.901    0.173    0.355   94.597   20.423
  264.201    0.216    0.338   84.174   21.215
  264.501    0.251    0.338   87.846   21.623
  264.801    0.267    0.343  102.546   21.224
  265.101    0.241    0.345  116.022   20.439
  265.401    0.180    0.343  113.566   18.596
  265.701    0.169    0.345  102.530   16.921
  266.001    0.215    0.343   96.397   17.247
  266.301    0.242    0.346  103.131   18.962
  266.601    0.252    0.360  108.028   19.696
  266.901    0.221    0.376  111.087   21.656
  267.201    0.198    0.364  110.469   22.072
  267.501    0.195    0.359  105.561   21.663
  267.801    0.204    0.351   98.814   21.668
  268.101    0.205    0.355   93.907   21.672
  268.401    0.221    0.367  101.254   21.675
  268.701    0.232    0.351  107.376   20.483
  269.001    0.209    0.351  107.984   18.638
  269.301    0.192    0.358   90.821   17.947
  269.601    0.203    0.355   93.879   17.614
  269.901    0.177    0.338  101.227   17.954
  270.201    0.162    0.353   95.094   19.370
  270.501    0.146    0.363   90.185   21.704
  270.801    0.166    0.348   87.115   24.317
  271.101    0.209    0.326   82.820   27.245
  271.401    0.251    0.314   81.590   32.309
  271.701    0.267    0.324   77.908   41.328
  272.001    0.289    0.351   72.999   47.191
  272.301    0.306    0.384   71.768   49.955
  272.601    0.303    0.365   75.439   47.206
  272.901    0.300    0.377   92.592   39.823
  273.201    0.287    0.402  101.779   33.593
  273.501    0.257    0.422   95.644   29.993
  273.801    0.279    0.405  101.767   28.342
  274.101    0.287    0.375  115.855   27.816
  274.401    0.268    0.374  116.462   27.300
  274.701    0.242    0.375  111.554   25.314
  275.001    0.223    0.373  106.647   22.178
  275.301    0.210    0.368  102.965   21.358
  275.601    0.223    0.361  103.568   22.185
  275.901    0.288    0.359  103.563   23.934
  276.201    0.279    0.366  104.171   25.822
  276.501    0.257    0.372  104.168   27.336
  276.801    0.234    0.359  104.774   27.861
  277.101    0.225    0.345  104.766   28.400
  277.401    0.239    0.341  105.376   30.639
  277.701    0.275    0.352  104.757   32.433
  278.001    0.300    0.362  104.141   37.034
  278.301    0.339    0.367   97.394   42.286
  278.601    0.342    0.366   86.359   48.287
  278.901    0.331    0.363   66.744   48.292
  279.201    0.316    0.362   63.060   42.309
  279.501    0.297    0.361   64.282   25.872
  279.801    0.273    0.360   61.824   19.855
  280.101    0.239    0.360   59.367   18.762
  280.401    0.267    0.361   58.136   18.415
  280.701    0.287    0.362   55.679   18.417
  281.001    0.287    0.363   53.222   18.772
  281.301    0.262    0.400   54.443   19.501
  281.601    0.232    0.395   61.179   19.503
  281.901    0.212    0.415   93.651   20.261
  282.201    0.193    0.425  105.288   20.651
  282.501    0.182    0.402  106.509   20.654
  282.801    0.172    0.381  105.890   20.657
  283.101    0.168    0.367  110.786   20.662
