~VERSION INFORMATION
 VERS.                 2.0:   CWLS LOG ASCII STANDARD -VERSION 2.0
 WRAP.                  NO:   ONE LINE PER DEPTH STEP
~WELL INFORMATION BLOCK
#MNEM.UNIT           DATA                    DESCRIPTION OF MNEMONIC
#---------    -------------------            -------------------------------
# Generated from Intellog Unique Number	CS_69_70/WELL/845
WELL.         BOW VALLEY EXPLORATIONS        : Well_name    - WELL
LOC .         00/07-31-069-13W4/0            : Location     - LOCATION
UWI .         00/07-31-069-13W4/0            : Uwi          - UNIQUE WELL ID
ENTR.         SP                             : Entered      - ENTERED BY
SRVC.         SCHLUMBERGER                   : Scn          - SERVICE COMPANY
STRT.M        265                            : top_depth    - START DEPTH
STOP.M        485                            : bot_depth    - STOP DEPTH
STEP.M        0.25                           : increment    - STEP LENGTH
 NULL. -999.2500:NULL Value
~CURVE INFORMATION BLOCK
#MNEM UNIT       ERCB CURVE CODE    CURVE DESCRIPTION
#-----------   ------------------   ----------------------------------
DEPT.M        00 001 00 00         : DEPTH        - DEPTH
ILD .OHMM     00 120 00 00         : RESD         - DEEP RESISTIVITY (DIL)
DPHI.V/V      00 890 00 00         : PHID         - DENSITY POROSITY (LIMESTONE)
NPHI.V/V      00 330 00 00         : PHIN         - NEUTRON POROSITY (LIMESTONE)
GR  .API      00 310 00 00         : GR           - GAMMA RAY
~PARAMETER INFORMATION
#MNEM.UNIT           DATA             DESCRIPTION OF MNEMONIC
#---------         -----------     ------------------------------
GL  .M        568.8                : gl           - GROUND LEVEL ELEVATION
EREF.M        576.5                : kb           - ELEVATION OF DEPTH REFERENCE
DATM.M        568.8                : datum        - DATUM ELEVATION
TDD .M        486                  : tdd          - TOTAL DEPTH DRILLER
RUN .         ONE                  : Run          - RUN NUMBER
ENG .         BILL                 : Engineer     - RECORDING ENGINEER
WIT .         JIM                  : Witness      - WITNESSED BY
MUD .         GEL                  : Mud_type     - MUD TYPE
MATR.         LIMESTONE            : Logunit      - NEUTRON MATRIX
TMAX.C        20                   : BHT          - MAXIMUM RECORDED TEMPERATURE
BHTD.M        486                  : BHTDEP       - MAXIMUM RECORDED TEMPERATURE
MATR.         1                    : LOGUNIT      - NEUTRON MATRIX
RMT .C        25                   : MDTP         - TEMPERATURE OF MUD
NEUT.         1                    : NEUTRON      - NEUTRON TYPE
RESI.         0                    : RESIST       - RESISTIVITY TYPE
RMC .OHMM     0.25                 : RMC          - RESISTIVITY OF MUD CAKE
RMF .OHMM     0.25                 : RMF          - RESISTIVITY OF MUD FILTRATE
SUFT.C        15                   : SUFT         - SURFACE TEMPERATURE
~A  DEPTH     RESD     PHID     PHIN       GR
# ...
  308.500    3.592    0.314    0.448   96.003
  308.750    3.793    0.288    0.439   94.501
  309.000    3.902    0.274    0.431   95.479
  309.250    3.969    0.268    0.428   95.853
  309.500    3.963    0.278    0.426   97.434
  309.750    3.927    0.287    0.420   99.198
  310.000    3.892    0.294    0.422  100.359
  310.250    3.843    0.323    0.451   98.251
  310.500    3.801    0.343    0.445   92.640
  310.750    3.739    0.358    0.437   89.445
  311.000    3.691    0.341    0.432   85.526
  311.250    3.665    0.347    0.432   86.809
  311.500    3.680    0.332    0.433   88.392
  311.750    3.736    0.326    0.427   89.186
  312.000    3.786    0.321    0.415   89.498
  312.250    3.830    0.318    0.406   88.542
  312.500    3.846    0.314    0.413   87.099
  312.750    3.847    0.305    0.423   85.902
  313.000    3.834    0.296    0.435   86.031
  313.250    3.835    0.287    0.458   87.977
  313.500    3.857    0.278    0.470   90.224
  313.750    3.866    0.276    0.473   92.531
  314.000    3.874    0.280    0.466   95.084
  314.250    3.919    0.278    0.461   97.028
  314.500    3.949    0.273    0.458   98.248
  314.750    3.973    0.275    0.455   97.168
  315.000    3.974    0.287    0.465   92.827
  315.250    3.960    0.294    0.475   94.046
  315.500    3.939    0.292    0.468   98.048
  315.750    3.933    0.276    0.449  100.959
  316.000    3.935    0.267    0.436  104.296
  316.250    3.928    0.254    0.425  105.272
  316.500    3.929    0.238    0.455  101.231
  316.750    3.960    0.238    0.470  101.667
  317.000    4.081    0.256    0.432  102.886
  317.250    4.151    0.259    0.410  103.076
  317.500    4.207    0.264    0.425   98.010
  317.750    4.232    0.268    0.444   95.963
  318.000    4.241    0.264    0.452   94.887
  318.250    4.234    0.256    0.442   96.649
  318.500    4.189    0.246    0.445   99.924
  318.750    4.143    0.242    0.469  103.139
  319.000    4.129    0.249    0.486  106.656
  319.250    4.185    0.253    0.499  108.541
  319.500    4.241    0.251    0.501  106.677
  319.750    4.362    0.248    0.474  100.157
  320.000    4.479    0.243    0.443   96.720
  320.250    4.599    0.245    0.419   99.453
  320.500    4.704    0.258    0.426   93.720
  320.750    4.732    0.272    0.436   90.948
  321.000    4.707    0.268    0.438   93.680
  321.250    4.683    0.263    0.439   96.712
  321.500    4.684    0.267    0.445   99.021
  321.750    4.711    0.276    0.448  100.239
  322.000    4.775    0.282    0.432   97.470
  322.250    4.894    0.281    0.415   94.758
  322.500    4.996    0.250    0.402   95.978
  322.750    5.092    0.225    0.391   97.923
  323.000    5.208    0.214    0.371   99.990
  323.250    5.348    0.211    0.380  101.632
  323.500    5.461    0.211    0.389  103.033
  323.750    5.534    0.221    0.400  103.406
  324.000    5.598    0.228    0.411  100.818
  324.250    5.620    0.229    0.419  101.431
  324.500    5.580    0.229    0.427  103.018
  324.750    5.428    0.228    0.438  103.570
  325.000    5.021    0.229    0.447  103.398
  325.250    4.722    0.238    0.429  101.897
  325.500    4.442    0.248    0.433   98.644
  325.750    4.070    0.256    0.454   91.518
  326.000    3.814    0.285    0.452   84.212
  326.250    3.696    0.301    0.442   76.241
  326.500    3.549    0.327    0.437   70.023
  326.750    3.465    0.345    0.441   71.666
  327.000    3.434    0.341    0.439   73.008
  327.250    3.416    0.335    0.433   71.022
  327.500    3.462    0.330    0.431   71.638
  327.750    3.561    0.326    0.432   72.616
  328.000    3.677    0.320    0.430   73.290
  328.250    3.882    0.313    0.419   75.538
  328.500    4.153    0.306    0.406   79.177
  328.750    4.377    0.293    0.395   81.726
  329.000    4.510    0.276    0.406   84.033
  329.250    4.623    0.263    0.421   86.100
  329.500    4.729    0.264    0.432   83.753
  329.750    4.829    0.276    0.437   82.856
  330.000    4.876    0.284    0.418   83.047
  330.250    4.876    0.287    0.402   85.476
  330.500    4.832    0.273    0.398   87.543
  330.750    4.798    0.267    0.396   89.368
  331.000    4.755    0.266    0.393   90.526
  331.250    4.634    0.267    0.391   90.717
  331.500    4.482    0.271    0.398   88.794
  331.750    4.336    0.279    0.410   86.507
  332.000    4.281    0.295    0.412   84.401
  332.250    4.290    0.306    0.400   82.960
  332.500    4.340    0.315    0.411   83.393
  332.750    4.414    0.287    0.407   86.426
  333.000    4.515    0.264    0.401   92.483
  333.250    4.741    0.247    0.397   97.753
  333.500    4.987    0.237    0.397  102.843
  333.750    5.198    0.250    0.405  104.244
  334.000    5.307    0.257    0.404  103.650
  334.250    5.348    0.249    0.394  104.809
  334.500    5.380    0.246    0.397  104.759
  334.750    5.402    0.251    0.409  102.290
  335.000    5.404    0.257    0.387   96.072
  335.250    5.355    0.262    0.370   91.125
  335.500    5.287    0.249    0.371   90.594
  335.750    5.182    0.252    0.379   92.053
  336.000    5.087    0.247    0.393   93.030
  336.250    5.032    0.260    0.393   85.241
  336.500    4.949    0.274    0.398   79.386
  336.750    4.951    0.285    0.412   75.829
  337.000    5.018    0.275    0.420   78.259
  337.250    5.047    0.255    0.418   81.897
  337.500    5.049    0.231    0.410   86.080
  337.750    5.050    0.213    0.404   89.839
  338.000    4.996    0.204    0.410   92.751
  338.250    4.923    0.215    0.414   95.058
  338.500    4.648    0.227    0.417   96.641
  338.750    4.307    0.233    0.420   99.131
  339.000    4.112    0.248    0.433  101.257
  339.250    4.022    0.249    0.443  103.265
  339.500    4.054    0.258    0.449  103.878
  339.750    4.123    0.253    0.464  104.311
  340.000    4.179    0.244    0.475  104.686
  340.250    4.243    0.234    0.476  103.969
  340.500    4.276    0.241    0.489  104.342
  340.750    4.293    0.251    0.482  105.320
  341.000    4.295    0.268    0.469   92.633
  341.250    4.296    0.289    0.444   84.602
  341.500    4.289    0.308    0.420   81.650
  341.750    4.274    0.314    0.418   79.484
  342.000    4.268    0.317    0.418   75.203
  342.250    4.277    0.319    0.435   73.518
  342.500    4.286    0.313    0.449   71.957
  342.750    4.303    0.308    0.448   70.879
  343.000    4.329    0.305    0.439   72.100
  343.250    4.355    0.312    0.415   73.439
  343.500    4.380    0.313    0.412   74.778
  343.750    4.398    0.301    0.434   75.516
  344.000    4.432    0.300    0.447   74.802
  344.250    4.442    0.307    0.436   74.629
  344.500    4.468    0.307    0.430   75.910
  344.750    4.486    0.301    0.430   77.674
  345.000    4.512    0.296    0.433   77.380
  345.250    4.522    0.295    0.429   74.308
  345.500    4.524    0.300    0.417   75.769
  345.750    4.525    0.305    0.408   77.715
  346.000    4.527    0.292    0.412   79.659
  346.250    4.511    0.294    0.415   81.061
  346.500    4.495    0.295    0.424   81.554
  346.750    4.447    0.284    0.439   84.648
  347.000    4.382    0.277    0.452   88.710
  347.250    4.335    0.272    0.455   92.348
  347.500    4.280    0.270    0.449   95.199
  347.750    4.225    0.273    0.447   96.177
  348.000    4.187    0.272    0.447   89.839
  348.250    4.166    0.277    0.464   83.441
  348.500    4.143    0.294    0.464   79.340
  348.750    4.160    0.308    0.442   75.541
  349.000    4.208    0.333    0.431   71.379
  349.250    4.281    0.289    0.420   69.394
  349.500    4.511    0.226    0.410   67.471
  349.750    5.028    0.144    0.399   66.212
  350.000    6.083    0.091    0.386   64.952
  350.250    7.011    0.061    0.190   63.631
  350.500    8.187    0.047    0.165   62.191
  350.750    9.578    0.049    0.156   60.629
  351.000   11.983    0.057    0.153   59.127
  351.250   10.540    0.078    0.151   57.989
  351.500    8.701    0.121    0.201   60.842
  351.750    6.767    0.209    0.312   64.178
