~VERSION INFORMATION
 VERS.                 2.0:   CWLS LOG ASCII STANDARD -VERSION 2.0
 WRAP.                  NO:   ONE LINE PER DEPTH STEP
~WELL INFORMATION BLOCK
#MNEM.UNIT           DATA                    DESCRIPTION OF MNEMONIC
#---------    -------------------            -------------------------------
# Generated from Intellog Unique Number	CS_73_76/WELL/1092
WELL.         BOW VALLLEY INDUSTRIES         : Well_name    - WELL
LOC .         00/02-07-076-13W4/0            : Location     - LOCATION
UWI .         00/02-07-076-13W4/0            : Uwi          - UNIQUE WELL ID
ENTR.         T                              : Entered      - ENTERED BY
SRVC.         SCHLUMBERGER                   : Scn          - SERVICE COMPANY
STRT.M        335                            : top_depth    - START DEPTH
STOP.M        565                            : bot_depth    - STOP DEPTH
STEP.M        0.25                           : increment    - STEP LENGTH
 NULL. -999.2500:NULL Value
~CURVE INFORMATION BLOCK
#MNEM UNIT       ERCB CURVE CODE    CURVE DESCRIPTION
#-----------   ------------------   ----------------------------------
DEPT.M        00 001 00 00         : DEPTH        - DEPTH
GR  .API      00 310 00 00         : GR           - GAMMA RAY
NPHI.V/V      00 330 00 00         : PHIN         - NEUTRON POROSITY (SANDSTONE)
DPHI.V/V      00 890 00 00         : PHID         - DENSITY POROSITY (SANDSTONE)
ILD .OHMM     00 120 00 00         : RESD         - DEEP RESISTIVITY (DIL)
~PARAMETER INFORMATION
#MNEM.UNIT           DATA             DESCRIPTION OF MNEMONIC
#---------         -----------     ------------------------------
GL  .M        709.6                : gl           - GROUND LEVEL ELEVATION
EREF.M        712.3                : kb           - ELEVATION OF DEPTH REFERENCE
DATM.M        712.3                : datum        - DATUM ELEVATION
TDD .M        572                  : tdd          - TOTAL DEPTH DRILLER
RUN .         ONE                  : Run          - RUN NUMBER
ENG .         BILL                 : Engineer     - RECORDING ENGINEER
WIT .         JIM                  : Witness      - WITNESSED BY
MUD .         GEL                  : Mud_type     - MUD TYPE
MATR.         SANDSTONE            : Logunit      - NEUTRON MATRIX
TMAX.C        24                   : BHT          - MAXIMUM RECORDED TEMPERATURE
BHTD.M        572                  : BHTDEP       - MAXIMUM RECORDED TEMPERATURE
MATR.         1                    : LOGUNIT      - NEUTRON MATRIX
RMT .C        25                   : MDTP         - TEMPERATURE OF MUD
NEUT.         1                    : NEUTRON      - NEUTRON TYPE
RESI.         0                    : RESIST       - RESISTIVITY TYPE
RMC .OHMM     0.25                 : RMC          - RESISTIVITY OF MUD CAKE
RMF .OHMM     0.25                 : RMF          - RESISTIVITY OF MUD FILTRATE
SUFT.C        15                   : SUFT         - SURFACE TEMPERATURE
~A  DEPTH       GR     PHIN     PHID     RESD
# ...
  378.500   80.099    0.473    0.274    7.010
  378.750   77.696    0.462    0.288    7.839
  379.000   75.331    0.453    0.300    8.136
  379.250   72.312    0.450    0.304    8.604
  379.500   71.158    0.461    0.296    9.621
  379.750   72.484    0.471    0.287    9.442
  380.000   73.214    0.480    0.285    8.927
  380.250   73.867    0.511    0.298    8.440
  380.500   72.136    0.520    0.309    7.686
  380.750   69.733    0.532    0.323    7.267
  381.000   67.330    0.531    0.330    7.684
  381.250   63.100    0.486    0.321    7.975
  381.500   59.467    0.467    0.302    8.754
  381.750   54.641    0.455    0.300   10.162
  382.000   58.389    0.448    0.303   11.364
  382.250   62.175    0.452    0.310   12.709
  382.500   65.327    0.459    0.311   14.480
  382.750   66.653    0.467    0.315   15.028
  383.000   66.710    0.493    0.315   15.027
  383.250   64.960    0.495    0.314   15.024
  383.500   62.576    0.492    0.318   14.744
  383.750   60.788    0.478    0.323   14.469
  384.000   58.404    0.471    0.324   14.466
  384.250   56.635    0.468    0.325   14.464
  384.500   56.115    0.468    0.326   14.462
  384.750   56.211    0.476    0.327   14.459
  385.000   56.268    0.482    0.328   14.190
  385.250   55.748    0.475    0.329   14.188
  385.500   55.190    0.464    0.331   13.923
  385.750   54.056    0.463    0.335   13.921
  386.000   54.132    0.465    0.340   13.662
  386.250   53.593    0.469    0.343   13.660
  386.500   53.074    0.470    0.340   13.405
  386.750   52.496    0.470    0.334   13.403
  387.000   51.977    0.479    0.334   13.154
  387.250   51.457    0.473    0.335   12.908
  387.500   50.899    0.472    0.336   12.906
  387.750   50.957    0.470    0.337   12.905
  388.000   50.418    0.469    0.340   12.664
  388.250   50.513    0.468    0.342   12.662
  388.500   50.590    0.464    0.340   12.660
  388.750   53.145    0.464    0.337   12.659
  389.000   54.433    0.464    0.334   12.656
  389.250   57.604    0.465    0.335   12.655
  389.500   60.122    0.471    0.337   12.653
  389.750   60.832    0.477    0.335   12.651
  390.000   60.274    0.472    0.331   12.649
  390.250   59.140    0.457    0.327   12.647
  390.500   57.352    0.456    0.331   12.646
  390.750   58.658    0.460    0.335   12.642
  391.000   59.369    0.475    0.328   12.879
  391.250   57.004    0.477    0.318   13.120
  391.500   54.004    0.462    0.305   13.365
  391.750   52.197    0.453    0.292   13.615
  392.000   49.813    0.438    0.272   14.130
  392.250   51.158    0.433    0.245   14.394
  392.500   56.136    0.456    0.242   14.663
  392.750   60.537    0.462    0.271   14.660
  393.000   61.844    0.469    0.301   14.659
  393.250   61.305    0.464    0.318   14.656
  393.500   60.151    0.453    0.319   14.655
  393.750   58.401    0.445    0.315   14.652
  394.000   57.843    0.443    0.308   14.650
  394.250   56.093    0.438    0.298   14.648
  394.500   54.940    0.416    0.264   14.921
  394.750   54.382    0.304    0.250   15.778
  395.000   53.881    0.255    0.220   16.998
  395.250   53.323    0.189    0.200   18.314
  395.500   52.785    0.183    0.184   21.660
  395.750   52.246    0.202    0.154   25.143
  396.000   52.303    0.297    0.131   24.675
  396.250   52.995    0.389    0.179   22.057
  396.500   56.146    0.422    0.223   20.853
  396.750   59.317    0.457    0.256   19.715
  397.000   60.643    0.468    0.306   18.295
  397.250   60.739    0.472    0.313   16.354
  397.500   60.777    0.477    0.318   14.894
  397.750   59.027    0.482    0.320   13.565
  398.000   56.662    0.468    0.309   12.587
  398.250   55.470    0.461    0.293   12.124
  398.500   52.470    0.461    0.265   12.123
  398.750   49.471    0.457    0.172   12.582
  399.000   46.472    0.420    0.065   12.817
  399.250   45.933    0.215    0.034   13.056
  399.500   49.700    0.240    0.045   12.813
  399.750   53.467    0.268    0.073   12.114
  400.000   57.273    0.386    0.146   12.112
  400.250   54.907    0.464    0.175   12.337
  400.500   54.331    0.482    0.206   12.568
  400.750   52.600    0.496    0.233   12.567
  401.000   52.042    0.494    0.302   12.801
  401.250   52.118    0.493    0.318   12.799
  401.500   52.791    0.490    0.325   12.797
  401.750   53.520    0.488    0.329   12.796
  402.000   54.193    0.485    0.332   12.557
  402.250   54.865    0.485    0.334   12.095
  402.500   55.556    0.487    0.338   11.223
  402.750   56.267    0.507    0.339   10.610
  403.000   56.382    0.508    0.343   10.221
  403.250   55.824    0.511    0.344    9.844
  403.500   55.881    0.506    0.339    9.660
  403.750   56.591    0.499    0.335    9.481
  404.000   57.264    0.497    0.336    9.479
  404.250   58.609    0.503    0.342    9.302
  404.500   58.666    0.510    0.345    9.301
  404.750   58.742    0.504    0.347    9.300
  405.000   58.222    0.492    0.347    9.298
  405.250   57.645    0.494    0.348    9.297
  405.500   57.145    0.506    0.348    9.296
  405.750   56.625    0.510    0.351    9.294
  406.000   56.048    0.506    0.354    9.293
  406.250   54.894    0.502    0.358    9.291
  406.500   54.356    0.501    0.360    9.290
  406.750   53.836    0.503    0.360    9.289
  407.000   53.893    0.512    0.357    9.287
  407.250   55.853    0.517    0.353    9.286
  407.500   56.526    0.513    0.346    9.285
  407.750   57.198    0.489    0.343    9.111
  408.000   57.908    0.485    0.342    9.110
  408.250   57.966    0.470    0.342    9.109
  408.500   58.042    0.475    0.342    9.107
  408.750   57.560    0.488    0.341    9.106
  409.000   57.618    0.506    0.340    9.105
  409.250   57.675    0.520    0.340    9.103
  409.500   57.770    0.517    0.337    9.102
  409.750   57.213    0.513    0.337    9.101
  410.000   57.327    0.506    0.336    9.099
  410.250   57.365    0.486    0.333    9.097
  410.500   58.076    0.482    0.333    9.096
  410.750   58.786    0.481    0.332    9.095
  411.000   59.459    0.480    0.332    9.093
  411.250   59.573    0.477    0.331    9.263
  411.500   59.630    0.478    0.332    9.262
  411.750   59.092    0.484    0.332    9.435
  412.000   58.534    0.488    0.331    9.434
  412.250   57.418    0.492    0.331    9.432
  412.500   56.841    0.492    0.329    9.431
  412.750   56.918    0.492    0.327    9.255
  413.000   56.994    0.496    0.318    9.254
  413.250   56.493    0.498    0.287    9.252
  413.500   55.916    0.488    0.232    9.079
  413.750   54.782    0.433    0.194    8.910
  414.000   55.473    0.393    0.179    8.583
  414.250   62.931    0.412    0.249    8.423
  414.500   69.158    0.448    0.275    7.963
  414.750   71.118    0.477    0.288    7.528
  415.000   71.156    0.492    0.288    7.251
  415.250   71.886    0.492    0.294    6.985
  415.500   71.347    0.488    0.302    6.728
  415.750   69.578    0.477    0.308    6.727
  416.000   67.175    0.472    0.313    6.981
  416.250   69.097    0.473    0.311    7.112
  416.500   73.479    0.492    0.303    8.103
  416.750   76.631    0.493    0.284    8.894
  417.000   81.051    0.474    0.234    9.060
  417.250   81.109    0.475    0.226    8.565
  417.500   81.223    0.483    0.227    8.251
  417.750   81.280    0.494    0.235    7.656
  418.000   81.357    0.486    0.237    7.104
  418.250   83.297    0.472    0.235    6.592
  418.500   83.951    0.471    0.232    6.232
  418.750   85.257    0.475    0.230    6.116
  419.000   87.236    0.481    0.227    5.782
  419.250   87.909    0.486    0.225    5.675
  419.500   87.966    0.488    0.224    5.674
  419.750   88.696    0.499    0.223    5.889
  420.000   88.734    0.505    0.222    5.887
  420.250   88.810    0.509    0.221    5.887
  420.500   88.886    0.501    0.221    5.777
  420.750   88.963    0.497    0.221    5.564
  421.000   89.039    0.503    0.220    5.461
  421.250   89.750    0.507    0.220    5.259
  421.500   89.845    0.515    0.220    5.162
  421.750   89.941    0.521    0.219    5.066
