~VERSION INFORMATION
 VERS.                 2.0:   CWLS LOG ASCII STANDARD -VERSION 2.0
 WRAP.                  NO:   ONE LINE PER DEPTH STEP
~WELL INFORMATION BLOCK
#MNEM.UNIT           DATA                    DESCRIPTION OF MNEMONIC
#---------    -------------------            -------------------------------
# Generated from Intellog Unique Number	CW_70_72/WELL/3004
NULL.         -999.25                        : NULL_VALUE
WELL.         SULPETRO BREND MITSUE 05-20    : Well_name    - WELL              
LOC .         05-20-070-05W5                 : Location     - LOCATION          
UWI .         00/05-20-070-05W5/0            : Uwi          - UNIQUE WELL ID    
ENTR.         JAYE                           : Entered      - ENTERED BY        
SRVC.         SCHLUMBERGER                   : Scn          - SERVICE COMPANY   
DATE.         5 FEB 80                       : Date         - LOG DATE          
STRT.M        635                            : top_depth    - START DEPTH       
STOP.M        885                            : bot_depth    - STOP DEPTH        
STEP.M        0.25                           : increment    - STEP LENGTH       
~CURVE INFORMATION BLOCK
#MNEM UNIT       ERCB CURVE CODE    CURVE DESCRIPTION
#-----------   ------------------   ----------------------------------
DEPT.M        00 001 00 00         : DEPTH        - DEPTH                       
ILD .OHMM     00 120 00 00         : RESD         - DEEP RESISTIVITY (DIL)      
CALI.MM       00 280 01 00         : CAL          - CALIPER                     
GR  .API      00 310 00 00         : GR           - GAMMA RAY                   
NPHI.V/V      00 330 00 00         : PHIN         - NEUTRON POROSITY (SANDSTONE)
DPHI.V/V      00 890 00 00         : PHID         - DENSITY POROSITY (SANDSTONE)
~PARAMETER INFORMATION       
#MNEM.UNIT           DATA             DESCRIPTION OF MNEMONIC
#---------         -----------     ------------------------------
GL  .M        738.2                : gl           - GROUND LEVEL ELEVATION      
EREF.M        742                  : kb           - ELEVATION OF DEPTH REFERENCE
DATM.M        738.2                : datum        - DATUM ELEVATION             
TDD .M        898                  : tdd          - TOTAL DEPTH DRILLER         
RUN .         ONE                  : Run          - RUN NUMBER                  
ENG .         DECKER               : Engineer     - RECORDING ENGINEER          
WIT .         CIAVARELLA           : Witness      - WITNESSED BY                
BASE.         EDM                  : Branch       - HOME BASE OF LOGGING UNIT   
MUD .         GEL CHEM             : Mud_type     - MUD TYPE                    
MATR.         SANDSTONE            : Logunit      - NEUTRON MATRIX              
TMAX.C        31.1                 : BHT          - MAXIMUM RECORDED TEMPERATURE
BHTD.M        899.5                : BHTDEP       - MAXIMUM RECORDED TEMPERATURE
RMT .C        12.7                 : MDTP         - TEMPERATURE OF MUD          
MUDD.KG/M     1000                 : MWT          - MUD DENSITY                 
NEUT.         1                    : NEUTRON      - NEUTRON TYPE                
RESI.         0                    : RESIST       - RESISTIVITY TYPE            
RM  .OHMM     0.25                 : RM           - RESISTIVITY OF MUD          
RMC .OHMM     0.25                 : RMC          - RESISTIVITY OF MUD CAKE     
RMF .OHMM     5                    : RMF          - RESISTIVITY OF MUD FILTRATE 
SUFT.C        0                    : SUFT         - SURFACE TEMPERATURE         
~A  DEPTH     RESD      CAL       GR     PHIN     PHID
  635.000    1.840  211.234   99.011    0.543    0.211
  635.250    1.805  216.941   97.599    0.558    0.226
  635.500    1.774  219.857   97.053    0.559    0.230
  635.750    1.763  219.259   95.949    0.514    0.260
  636.000    1.788  212.664   93.232    0.495    0.267
  636.250    1.828  206.378   94.858    0.481    0.222
  636.500    1.869  202.057  103.061    0.477    0.202
  636.750    1.914  200.112  106.918    0.509    0.189
  637.000    1.991  198.688  104.512    0.514    0.197
  637.250    2.042  197.777   99.872    0.498    0.201
  637.500    2.091  197.078   95.666    0.508    0.199
  637.750    2.137  197.098   90.469    0.516    0.182
  638.000    2.160  197.738   91.226    0.479    0.182
  638.250    2.200  199.211   95.395    0.465    0.180
  638.500    2.240  200.059   90.880    0.472    0.175
  638.750    2.239  201.114   86.301    0.465    0.195
  639.000    2.255  201.548   86.750    0.455    0.202
  639.250    2.270  201.985   91.228    0.474    0.189
  639.500    2.291  202.003   90.496    0.495    0.188
  639.750    2.351  199.336   83.437    0.493    0.195
  640.000    2.439  189.432   71.849    0.423    0.221
  640.250    2.484  175.184   62.308    0.398    0.156
  640.500    2.364  162.902   55.125    0.398    0.165
  640.750    2.250  157.030   56.565    0.410    0.272
  641.000    2.150  154.983   62.721    0.412    0.285
  641.250    2.101  155.004   66.641    0.402    0.264
  641.500    2.120  156.163   69.755    0.392    0.256
  641.750    2.183  158.154   73.614    0.378    0.252
  642.000    2.215  159.826   80.762    0.381    0.240
  642.250    2.222  162.639   85.799    0.432    0.227
  642.500    2.159  168.554   85.317    0.478    0.222
  642.750    2.075  176.745   79.436    0.509    0.258
  643.000    1.979  182.760   69.460    0.523    0.307
  643.250    1.859  164.793   59.918    0.447    0.293
  643.500    1.786  153.854   55.030    0.422    0.295
  643.750    1.745  152.428   60.069    0.405    0.285
  644.000    1.767  155.034   64.362    0.414    0.266
  644.250    1.834  157.332   64.623    0.434    0.249
  644.500    1.903  158.594   62.651    0.426    0.248
  644.750    1.945  159.546   64.463    0.414    0.257
  645.000    2.019  158.845   67.763    0.423    0.254
  645.250    2.095  156.486   63.248    0.433    0.263
  645.500    2.182  152.268   57.555    0.408    0.283
  645.750    2.201  155.184   53.535    0.418    0.271
  646.000    2.191  157.896   50.074    0.430    0.244
  646.250    2.174  158.433   52.319    0.438    0.208
  646.500    2.210  158.970   58.413    0.430    0.209
  646.750    2.263  159.821   59.789    0.414    0.255
  647.000    2.415  160.773   62.593    0.403    0.271
  647.250    2.676  161.621   66.452    0.411    0.252
  647.500    3.191  162.469   71.801    0.410    0.200
  647.750    3.869  162.283   70.944    0.373    0.148
  648.000    3.845  162.203   64.444    0.303    0.101
  648.250    3.572  161.913   67.684    0.345    0.081
  648.500    3.312  161.521   72.783    0.394    0.186
  648.750    3.082  160.922   75.587    0.408    0.226
  649.000    2.967  160.428   79.074    0.414    0.235
  649.250    3.016  160.346   82.561    0.425    0.216
  649.500    3.060  160.055   83.070    0.423    0.209
  649.750    3.110  160.080   83.083    0.411    0.198
  650.000    3.074  160.409   82.229    0.411    0.177
  650.250    2.893  160.739   83.170    0.418    0.179
  650.500    2.579  161.589   83.060    0.399    0.200
  650.750    2.387  162.852   87.291    0.412    0.192
  651.000    2.188  165.047   92.950    0.459    0.172
  651.250    2.025  167.859   97.492    0.480    0.159
  651.500    1.917  174.186  100.853    0.497    0.220
  651.750    2.007  187.854  104.403    0.511    0.253
  652.000    2.271  183.431  106.153    0.497    0.211
  652.250    2.612  177.559  104.738    0.453    0.185
  652.500    2.906  177.476  100.533    0.431    0.179
  652.750    3.178  172.224   96.265    0.419    0.197
  653.000    2.958  165.731   91.191    0.412    0.222
  653.250    2.636  161.722   83.759    0.419    0.204
  653.500    2.293  159.882   74.219    0.426    0.207
  653.750    2.126  159.075   63.313    0.424    0.235
  654.000    2.035  158.170   50.919    0.411    0.274
  654.250    2.206  157.156   48.700    0.398    0.264
  654.500    2.425  156.453   50.261    0.390    0.234
  654.750    2.517  155.955   52.632    0.379    0.222
  655.000    2.252  155.564   54.197    0.372    0.206
  655.250    1.944  155.282   53.651    0.369    0.208
  655.500    1.752  155.608   49.320    0.394    0.226
  655.750    1.568  155.940   44.805    0.389    0.258
  656.000    1.454  156.583   40.600    0.377    0.287
  656.250    1.389  157.536   38.937    0.369    0.301
  656.500    1.494  158.382   42.859    0.365    0.311
  656.750    1.680  159.232   50.378    0.359    0.306
  657.000    1.873  160.183   55.602    0.355    0.285
  657.250    1.918  161.549   62.501    0.373    0.258
  657.500    1.863  161.674   68.158    0.405    0.231
  657.750    1.771  161.281   59.858    0.427    0.219
  658.000    1.756  160.785   52.738    0.397    0.252
  658.250    1.788  160.187   50.456    0.382    0.297
  658.500    1.901  159.793   58.844    0.398    0.299
  658.750    2.171  159.815   70.830    0.422    0.269
  659.000    2.560  161.180   84.180    0.439    0.270
  659.250    2.906  167.095   94.738    0.477    0.256
  659.500    3.155  181.800   96.612    0.514    0.284
  659.750    3.267  169.929   87.941    0.479    0.394
  660.000    3.223  162.095   84.790    0.427    0.362
  660.250    3.162  161.804   81.144    0.390    0.287
  660.500    3.154  163.485   77.061    0.392    0.261
  660.750    3.230  165.364   78.686    0.410    0.259
  661.000    3.681  167.559   83.725    0.433    0.259
  661.250    4.219  169.233   89.073    0.494    0.281
  661.500    4.084  170.183   82.324    0.549    0.357
  661.750    3.655  165.448   75.574    0.619    0.494
  662.000    3.239  171.777   71.493    0.661    0.482
  662.250    2.740  186.274   80.749    0.656    0.413
  662.500    2.433  196.325   86.035    0.613    0.345
  662.750    2.209  206.168   88.840    0.576    0.319
  663.000    2.280  214.978   90.527    0.547    0.334
  663.250    2.388  215.414   89.919    0.553    0.330
  663.500    2.502  220.296   91.671    0.575    0.360
  663.750    2.538  200.362   94.537    0.543    0.352
  664.000    2.551  201.004   94.550    0.553    0.335
  664.250    2.569  206.711   94.749    0.582    0.319
  664.500    2.592  192.050   97.800    0.567    0.358
  664.750    2.605  181.113   95.394    0.563    0.308
  665.000    2.688  174.929   97.144    0.549    0.280
  665.250    2.826  171.332   98.646    0.520    0.275
  665.500    2.966  169.081  100.335    0.513    0.264
  665.750    3.054  167.757  102.331    0.518    0.255
  666.000    3.128  166.336  101.166    0.504    0.245
  666.250    3.245  165.524   96.340    0.485    0.215
  666.500    3.355  165.132   93.375    0.478    0.195
  666.750    3.423  164.638   95.250    0.470    0.200
  667.000    3.480  164.555   98.177    0.477    0.206
  667.250    3.491  164.579   95.833    0.495    0.218
  667.500    3.502  165.429   93.798    0.483    0.236
  667.750    3.500  166.066   94.307    0.442    0.223
  668.000    3.491  167.846   96.616    0.442    0.231
  668.250    3.509  168.901   97.498    0.472    0.236
  668.500    3.540  166.234   92.052    0.446    0.223
  668.750    3.612  163.155   89.458    0.446    0.237
  669.000    3.671  163.072   89.844    0.421    0.240
  669.250    3.678  164.541   90.849    0.426    0.217
  669.500    3.710  169.011   92.599    0.450    0.204
  669.750    3.742  168.311   96.519    0.450    0.198
  670.000    3.775  167.811   91.755    0.418    0.214
  670.250    3.766  167.008   89.722    0.408    0.195
  670.500    3.764  166.719   90.045    0.418    0.198
  670.750    3.756  166.740   89.872    0.415    0.212
  671.000    3.767  167.074   90.318    0.406    0.208
  671.250    3.737  167.608   91.200    0.441    0.186
