~VERSION INFORMATION
 VERS.                 2.0:   CWLS LOG ASCII STANDARD -VERSION 2.0
 WRAP.                  NO:   ONE LINE PER DEPTH STEP
~WELL INFORMATION BLOCK
#MNEM.UNIT           DATA                    DESCRIPTION OF MNEMONIC
#---------    -------------------            -------------------------------
# Generated from Intellog Unique Number	CS_77_79/WELL/3297
WELL.         LOGAN RESOURCES LTD.           : Well_name    - WELL
LOC .         00/07-13-078-14W4/0            : Location     - LOCATION
UWI .         00/07-13-078-14W4/0            : Uwi          - UNIQUE WELL ID
ENTR.         JOETTE                         : Entered      - ENTERED BY
SRVC.         SCHLUMBERGER                   : Scn          - SERVICE COMPANY
DATE.         08-14-92]                      : Date         - LOG DATE
STRT.M        310                            : top_depth    - START DEPTH
STOP.M        505                            : bot_depth    - STOP DEPTH
STEP.M        0.25                           : increment    - STEP LENGTH
 NULL. -999.2500:NULL Value
~CURVE INFORMATION BLOCK
#MNEM UNIT       ERCB CURVE CODE    CURVE DESCRIPTION
#-----------   ------------------   ----------------------------------
DEPT.M        00 001 00 00         : DEPTH        - DEPTH
GR  .API      00 310 00 00         : GR           - GAMMA RAY
NPHI.V/V      00 330 00 00         : PHIN         - NEUTRON POROSITY (SANDSTONE)
DPHI.V/V      00 890 00 00         : PHID         - DENSITY POROSITY (SANDSTONE)
ILD .OHMM     00 120 00 00         : RESD         - DEEP RESISTIVITY (DIL)
~PARAMETER INFORMATION
#MNEM.UNIT           DATA             DESCRIPTION OF MNEMONIC
#---------         -----------     ------------------------------
GL  .M        678.1                : gl           - GROUND LEVEL ELEVATION
EREF.M        676.6                : kb           - ELEVATION OF DEPTH REFERENCE
DATM.M        676.6                : datum        - DATUM ELEVATION
TDD .M        508                  : tdd          - TOTAL DEPTH DRILLER
RUN .         ONE                  : Run          - RUN NUMBER
ENG .         BILL                 : Engineer     - RECORDING ENGINEER
WIT .         JIM                  : Witness      - WITNESSED BY
MUD .         GEL                  : Mud_type     - MUD TYPE
MATR.         SANDSTONE            : Logunit      - NEUTRON MATRIX
TMAX.C        30                   : BHT          - MAXIMUM RECORDED TEMPERATURE
BHTD.M        508                  : BHTDEP       - MAXIMUM RECORDED TEMPERATURE
RMT .C        19                   : MDTP         - TEMPERATURE OF MUD
MUDD.KG/M     1160                 : MWT          - MUD DENSITY
NEUT.         1                    : NEUTRON      - NEUTRON TYPE
RESI.         0                    : RESIST       - RESISTIVITY TYPE
RM  .OHMM     3.54                 : RM           - RESISTIVITY OF MUD
RMC .OHMM     2.95                 : RMC          - RESISTIVITY OF MUD CAKE
RMF .OHMM     3.62                 : RMF          - RESISTIVITY OF MUD FILTRATE
SUFT.C        15                   : SUFT         - SURFACE TEMPERATURE
~A  DEPTH       GR     PHIN     PHID     RESD
# ...
  440.500   95.511    0.345    0.199    4.927
  440.750  101.555    0.362    0.207    5.408
  441.000  101.004    0.362    0.210    6.161
  441.250   93.844    0.355    0.216    6.764
  441.500   88.508    0.349    0.223    6.772
  441.750   86.146    0.340    0.188    6.182
  442.000   76.012    0.312    0.146    6.072
  442.250   82.644    0.316    0.137    5.341
  442.500   83.891    0.347    0.159    4.697
  442.750   85.139    0.357    0.188    4.208
  443.000  105.585    0.357    0.195    3.985
  443.250  106.833    0.387    0.215    3.706
  443.500  105.082    0.384    0.231    3.641
  443.750   98.534    0.386    0.225    3.580
  444.000   96.795    0.400    0.222    3.649
  444.250  102.828    0.399    0.218    3.792
  444.500  105.886    0.397    0.218    3.865
  444.750  101.125    0.403    0.218    4.089
  445.000   96.388    0.399    0.217    4.326
  445.250   95.836    0.386    0.207    4.495
  445.500   92.874    0.377    0.189    4.583
  445.750   92.922    0.378    0.183    4.588
  446.000  107.985    0.386    0.190    4.591
  446.250  110.419    0.379    0.196    4.598
  446.500  116.463    0.382    0.204    4.686
  446.750  105.718    0.383    0.208    4.867
  447.000   97.360    0.378    0.180    5.151
  447.250  105.815    0.372    0.164    5.869
  447.500  106.462    0.373    0.156    6.562
  447.750   95.106    0.376    0.183    7.205
  448.000   83.162    0.373    0.194    8.519
  448.250   70.018    0.355    0.206    9.353
  448.500   77.262    0.316    0.217    9.717
  448.750   79.720    0.299    0.263    9.905
  449.000   87.551    0.314    0.295    9.913
  449.250   83.402    0.329    0.266    9.925
  449.500   75.067    0.320    0.247   10.120
  449.750   72.705    0.294    0.239   10.907
  450.000   61.960    0.273    0.249   10.921
  450.250   72.201    0.262    0.260   10.729
  450.500   81.843    0.250    0.245   10.350
  450.750   86.100    0.308    0.229    9.984
  451.000   87.348    0.321    0.224    9.286
  451.250   65.198    0.323    0.216    9.293
  451.500   70.643    0.321    0.211    9.305
  451.750   83.894    0.315    0.212    9.662
  452.000   89.938    0.316    0.214   10.223
  452.250   94.184    0.331    0.218   10.043
  452.500  103.226    0.349    0.214    9.511
  452.750  109.882    0.356    0.207    8.842
  453.000  111.141    0.359    0.178    9.184
  453.250  108.778    0.357    0.185   10.463
  453.500  110.625    0.348    0.213   15.734
  453.750  121.466    0.320    0.266   16.953
  454.000   96.319    0.290    0.278   21.183
  454.250   77.180    0.255    0.258   26.961
  454.500   66.423    0.222    0.262   33.087
  454.750   69.481    0.173    0.345   30.760
  455.000   69.529    0.161    0.372   27.054
  455.250   74.973    0.206    0.251   24.685
  455.500   85.215    0.285    0.224   22.535
  455.750   85.862    0.322    0.206   20.561
  456.000   75.717    0.321    0.232   19.477
  456.250   81.761    0.281    0.256   20.230
  456.500   83.008    0.278    0.234   21.017
  456.750   72.263    0.282    0.231   21.425
  457.000   67.527    0.280    0.238   21.446
  457.250   69.374    0.270    0.236   21.473
  457.500   71.208    0.270    0.233   21.090
  457.750   80.251    0.315    0.228   20.345
  458.000   90.504    0.323    0.222   19.267
  458.250   96.548    0.321    0.208   18.246
  458.500  100.194    0.319    0.187   16.652
  458.750   91.260    0.323    0.191   15.198
  459.000   94.306    0.330    0.192   14.133
  459.250   98.539    0.337    0.192   14.150
  459.500  108.205    0.332    0.185   14.425
  459.750  104.032    0.326    0.174   14.979
  460.000   89.689    0.320    0.169   15.277
  460.250   87.339    0.314    0.175   16.160
  460.500   83.789    0.315    0.185   17.425
  460.750   72.445    0.322    0.195   17.763
  461.000   73.092    0.323    0.207   18.455
  461.250   69.543    0.305    0.206   19.173
  461.500   77.985    0.290    0.203   19.188
  461.750   80.444    0.296    0.209   19.202
  462.000   73.284    0.306    0.214   19.225
  462.250   76.930    0.280    0.212   19.240
  462.500   76.978    0.278    0.203   18.569
  462.750   77.026    0.289    0.193   18.583
  463.000   84.270    0.293    0.188   18.597
  463.250   72.338    0.290    0.194   18.620
  463.500   74.772    0.293    0.202   18.981
  463.750   77.830    0.299    0.197   19.720
  464.000   76.679    0.306    0.192   20.860
  464.250   74.916    0.293    0.201   22.913
  464.500   70.179    0.284    0.201   24.236
  464.750   68.416    0.283    0.200   27.118
  465.000   68.465    0.282    0.203   28.678
  465.250   68.513    0.272    0.215   30.358
  465.500   68.573    0.242    0.241   30.939
  465.750   70.419    0.234    0.292   30.977
  466.000   66.858    0.232    0.292   29.876
  466.250   62.109    0.252    0.262   27.273
  466.500   68.153    0.274    0.237   25.834
  466.750   70.612    0.298    0.223   24.915
  467.000   65.851    0.292    0.204   24.934
  467.250   67.098    0.277    0.166   24.965
  467.500   70.756    0.271    0.173   24.989
  467.750   72.603    0.278    0.207   25.481
  468.000   78.047    0.260    0.214   25.982
  468.250   78.095    0.247    0.255   26.007
  468.500   78.143    0.239    0.261   26.033
  468.750   76.992    0.250    0.253   26.065
  469.000   75.841    0.285    0.244   24.690
  469.250   69.293    0.306    0.238   23.806
  469.500   72.939    0.308    0.244   21.329
  469.750   71.188    0.308    0.253   19.471
  470.000   61.655    0.310    0.261   18.097
  470.250   64.089    0.317    0.267   16.828
  470.500   64.737    0.312    0.270   16.541
  470.750   64.785    0.313    0.268   16.557
  471.000   59.436    0.315    0.265   17.193
  471.250   60.108    0.313    0.261   19.233
  471.500   60.732    0.313    0.258   19.967
  471.750   61.979    0.314    0.258   22.330
  472.000   65.625    0.318    0.259   25.919
  472.250   65.073    0.316    0.266   28.463
  472.500   65.121    0.320    0.261   29.015
  472.750   70.566    0.325    0.266   30.145
  473.000   75.411    0.314    0.269   31.311
  473.250   71.861    0.309    0.245   32.522
  473.500   69.511    0.315    0.240   35.051
  473.750   74.356    0.318    0.239   36.406
  474.000   73.216    0.315    0.235   36.433
  474.250   66.657    0.327    0.259   36.478
  474.500   67.316    0.316    0.249   35.837
  474.750   73.361    0.301    0.247   35.225
  475.000   71.022    0.323    0.255   35.917
  475.250   71.670    0.323    0.268   38.711
  475.500   66.897    0.326    0.292   42.499
  475.750   57.951    0.332    0.301   44.143
  476.000   60.997    0.338    0.295   45.861
  476.250   59.846    0.339    0.284   46.751
  476.500   61.693    0.339    0.283   45.964
  476.750   53.946    0.338    0.282   44.329
  477.000   55.793    0.335    0.274   42.752
  477.250   63.648    0.331    0.247   40.497
  477.500   68.493    0.322    0.238   40.537
  477.750   61.357    0.312    0.226   40.567
  478.000   65.591    0.317    0.231   41.375
  478.250   70.436    0.318    0.238   45.424
  478.500   65.087    0.312    0.260   49.870
  478.750   63.336    0.316    0.265   51.812
  479.000   54.990    0.319    0.285   50.901
  479.250   57.436    0.317    0.297   50.043
  479.500   52.088    0.319    0.292   49.163
  479.750   51.536    0.323    0.285   49.212
  480.000   47.987    0.326    0.277   51.128
  480.250   49.834    0.329    0.270   53.079
  480.500   46.884    0.330    0.274   54.122
  480.750   46.332    0.331    0.290   55.200
  481.000   51.189    0.322    0.294   52.275
  481.250   51.237    0.314    0.278   50.416
  481.500   54.871    0.315    0.254   46.870
  481.750   59.716    0.319    0.249   44.398
  482.000   55.566    0.324    0.256   44.442
  482.250   51.429    0.327    0.260   43.682
  482.500   53.276    0.321    0.265   43.703
  482.750   55.723    0.312    0.267   42.160
  483.000   61.155    0.311    0.262   37.090
  483.250   64.225    0.310    0.259   33.223
  483.500   61.263    0.305    0.253   30.894
  483.750   57.702    0.300    0.247   29.795
