~VERSION INFORMATION
 VERS.                 2.0:   CWLS LOG ASCII STANDARD -VERSION 2.0
 WRAP.                  NO:   ONE LINE PER DEPTH STEP
~WELL INFORMATION BLOCK
#MNEM.UNIT           DATA                    DESCRIPTION OF MNEMONIC
#---------    -------------------            -------------------------------
# Generated from Intellog Unique Number	CS_73_76/WELL/2213
WELL.         PRECAMBRIAN SHIELD RESOURC     : Well_name    - WELL
LOC .         00/07-20-076-09W4/0            : Location     - LOCATION
UWI .         00/07-20-076-09W4/0            : Uwi          - UNIQUE WELL ID
ENTR.         SP                             : Entered      - ENTERED BY
SRVC.         SCHLUMBERGER                   : Scn          - SERVICE COMPANY
STRT.M        245                            : top_depth    - START DEPTH
STOP.M        495                            : bot_depth    - STOP DEPTH
STEP.M        0.25                           : increment    - STEP LENGTH
 NULL. -999.2500:NULL Value
~CURVE INFORMATION BLOCK
#MNEM UNIT       ERCB CURVE CODE    CURVE DESCRIPTION
#-----------   ------------------   ----------------------------------
DEPT.M        00 001 00 00         : DEPTH        - DEPTH
ILD .OHMM     00 120 00 00         : RESD         - DEEP RESISTIVITY (DIL)
DPHI.V/V      00 890 00 00         : PHID         - DENSITY POROSITY (LIMESTONE)
NPHI.V/V      00 330 00 00         : PHIN         - NEUTRON POROSITY (LIMESTONE)
GR  .API      00 310 00 00         : GR           - GAMMA RAY
~PARAMETER INFORMATION
#MNEM.UNIT           DATA             DESCRIPTION OF MNEMONIC
#---------         -----------     ------------------------------
GL  .M        677.49               : gl           - GROUND LEVEL ELEVATION
EREF.M        681.99               : kb           - ELEVATION OF DEPTH REFERENCE
DATM.M        677.49               : datum        - DATUM ELEVATION
TDD .M        498                  : tdd          - TOTAL DEPTH DRILLER
RUN .         ONE                  : Run          - RUN NUMBER
ENG .         BILL                 : Engineer     - RECORDING ENGINEER
WIT .         JIM                  : Witness      - WITNESSED BY
MUD .         GEL                  : Mud_type     - MUD TYPE
MATR.         LIMESTONE            : Logunit      - NEUTRON MATRIX
TMAX.C        20                   : BHT          - MAXIMUM RECORDED TEMPERATURE
BHTD.M        498                  : BHTDEP       - MAXIMUM RECORDED TEMPERATURE
MATR.         1                    : LOGUNIT      - NEUTRON MATRIX
RMT .C        25                   : MDTP         - TEMPERATURE OF MUD
NEUT.         1                    : NEUTRON      - NEUTRON TYPE
RESI.         0                    : RESIST       - RESISTIVITY TYPE
RMC .OHMM     0.25                 : RMC          - RESISTIVITY OF MUD CAKE
RMF .OHMM     0.25                 : RMF          - RESISTIVITY OF MUD FILTRATE
SUFT.C        15                   : SUFT         - SURFACE TEMPERATURE
~A  DEPTH     RESD     PHID     PHIN       GR
# ...
  332.000   26.635    0.315    0.390   52.802
  332.250   27.159    0.320    0.364   54.032
  332.500   26.659    0.325    0.386   56.488
  332.750   26.673    0.336    0.397   57.721
  333.000   27.198    0.338    0.411   57.115
  333.250   27.206    0.334    0.424   57.735
  333.500   28.268    0.332    0.423   57.131
  333.750   29.371    0.340    0.417   53.466
  334.000   29.387    0.333    0.409   53.474
  334.250   29.962    0.329    0.401   54.706
  334.500   30.548    0.337    0.394   55.324
  334.750   31.144    0.342    0.388   53.494
  335.000   31.161    0.344    0.387   52.276
  335.250   31.170    0.348    0.388   53.509
  335.500   30.605    0.352    0.397   52.904
  335.750   30.047    0.349    0.388   55.361
  336.000   29.498    0.346    0.382   59.042
  336.250   28.963    0.344    0.409   60.275
  336.500   28.979    0.351    0.428   59.669
  336.750   28.990    0.355    0.441   56.003
  337.000   29.556    0.362    0.435   58.461
  337.250   29.571    0.364    0.433   60.916
  337.500   30.154    0.364    0.439   62.147
  337.750   30.163    0.360    0.437   63.383
  338.000   30.174    0.357    0.430   64.001
  338.250   30.193    0.354    0.411   62.783
  338.500   30.203    0.350    0.429   60.341
  338.750   30.219    0.352    0.430   59.123
  339.000   30.813    0.348    0.425   57.907
  339.250   30.830    0.350    0.416   54.852
  339.500   30.841    0.358    0.406   54.862
  339.750   31.447    0.358    0.404   56.093
  340.000   31.458    0.358    0.409   55.487
  340.250   31.474    0.364    0.413   53.046
  340.500   30.901    0.366    0.415   53.668
  340.750   30.336    0.359    0.416   54.285
  341.000   29.788    0.353    0.419   53.680
  341.250   29.246    0.350    0.436   53.076
  341.500   29.255    0.345    0.442   53.697
  341.750   29.270    0.345    0.457   55.539
  342.000   28.736    0.350    0.446   54.935
  342.250   28.215    0.356    0.421   54.946
  342.500   27.184    0.365    0.425   55.564
  342.750   26.685    0.365    0.409   56.182
  343.000   26.198    0.359    0.421   58.639
  343.250   26.211    0.356    0.435   61.094
  343.500   26.224    0.356    0.439   59.879
  343.750   26.238    0.350    0.436   59.277
  344.000   26.752    0.337    0.451   59.280
  344.250   26.765    0.327    0.446   58.675
  344.500   26.780    0.307    0.420   53.788
  344.750   26.788    0.239    0.391   51.343
  345.000   26.300    0.293    0.389   51.965
  345.250   25.820    0.328    0.412   53.807
  345.500   25.355    0.355    0.446   55.040
  345.750   25.362    0.365    0.459   56.271
  346.000   25.376    0.362    0.447   56.891
  346.250   25.388    0.354    0.442   57.510
  346.500   25.398    0.345    0.449   58.130
  346.750   25.896    0.343    0.453   55.078
  347.000   26.403    0.347    0.445   55.700
  347.250   26.417    0.349    0.436   56.317
  347.500   26.429    0.349    0.428   58.161
  347.750   24.988    0.341    0.427   56.944
  348.000   22.748    0.338    0.426   58.177
  348.250   19.201    0.333    0.413   60.632
  348.500   14.475    0.310    0.402   65.536
  348.750    9.035    0.282    0.434   72.279
  349.000    5.968    0.255    0.453   84.532
  349.250    4.944    0.264    0.471   88.213
  349.500    5.645    0.284    0.474   72.302
  349.750    7.356    0.303    0.467   63.737
  350.000   10.143    0.326    0.465   53.337
  350.250   20.018    0.283    0.385   46.609
  350.500   39.510    0.239    0.227   41.106
  350.750   59.869    0.114    0.127   39.889
  351.000   81.015    0.005    0.087   41.121
  351.250  101.653    0.008    0.084   43.578
  351.500  101.716    0.153    0.105   47.261
  351.750   82.680    0.263    0.207   49.103
  352.000   63.516    0.311    0.377   50.335
  352.250   49.720    0.341    0.395   48.507
  352.500   42.772    0.353    0.408   49.126
  352.750   38.213    0.357    0.403   50.358
  353.000   36.124    0.352    0.388   50.365
  353.250   36.143    0.343    0.396   49.150
  353.500   36.858    0.335    0.404   47.931
  353.750   38.294    0.334    0.394   47.938
  354.000   39.040    0.335    0.378   47.948
  354.250   40.560    0.336    0.372   48.566
  354.500   40.573    0.345    0.370   48.574
  354.750   41.368    0.352    0.386   49.194
  355.000   42.176    0.359    0.399   49.200
  355.250   44.656    0.362    0.412   46.148
  355.500   47.283    0.363    0.403   46.154
  355.750   47.302    0.363    0.396   47.386
  356.000   47.328    0.354    0.405   46.168
  356.250   46.468    0.342    0.405   46.175
  356.500   44.766    0.332    0.394   49.248
  356.750   42.317    0.327    0.398   50.477
  357.000   40.770    0.341    0.382   51.096
  357.250   38.553    0.343    0.375   48.656
  357.500   37.137    0.335    0.386   46.827
  357.750   36.457    0.343    0.395   45.611
  358.000   37.175    0.349    0.392   45.617
  358.250   37.190    0.349    0.379   46.849
  358.500   37.218    0.352    0.388   48.081
  358.750   37.234    0.346    0.394   49.315
  359.000   37.244    0.331    0.394   49.931
  359.250   36.565    0.321    0.397   50.551
  359.500   33.926    0.333    0.405   51.784
  359.750   31.472    0.342    0.406   51.791
  360.000   29.754    0.342    0.398   49.962
  360.250   28.131    0.338    0.389   48.744
  360.500   27.099    0.338    0.385   49.980
  360.750   25.621    0.334    0.383   51.210
  361.000   24.682    0.310    0.378   51.827
  361.250   23.338    0.292    0.382   53.061
  361.500   22.911    0.312    0.389   54.904
  361.750   23.358    0.329    0.395   56.751
  362.000   22.932    0.324    0.412   57.980
  362.250   20.490    0.308    0.420   58.599
  362.500   18.653    0.209    0.378   55.546
  362.750   17.303    0.121    0.253   57.391
  363.000   14.067    0.225    0.317   61.684
  363.250   11.436    0.280    0.388   66.590
  363.500    9.123    0.285    0.433   73.945
  363.750    7.277    0.275    0.444   78.849
  364.000    5.805    0.268    0.458   81.918
  364.250    4.719    0.270    0.473   78.865
  364.500    4.296    0.270    0.484   77.034
  364.750    4.299    0.264    0.495   77.044
  365.000    4.466    0.250    0.490   78.274
  365.250    4.553    0.253    0.495   80.118
  365.500    4.642    0.249    0.506   77.676
  365.750    4.557    0.247    0.507   80.133
  366.000    4.150    0.250    0.503   83.202
  366.250    3.997    0.250    0.498   85.046
  366.500    3.925    0.242    0.475   88.730
  366.750    4.155    0.229    0.477   93.023
  367.000    4.483    0.226    0.497   96.089
  367.250    5.217    0.243    0.502   94.872
  367.500    6.070    0.266    0.469   84.471
  367.750    7.334    0.274    0.447   72.845
  368.000    8.861    0.269    0.401   65.507
  368.250    9.560    0.260    0.412   70.412
  368.500    9.933    0.262    0.421   75.317
  368.750    7.631    0.233    0.393   80.835
  369.000    6.442    0.206    0.401   86.965
  369.250    5.755    0.193    0.444   89.422
  369.500    5.141    0.187    0.451   85.144
  369.750    4.507    0.203    0.433   84.538
  370.000    4.103    0.224    0.443   86.994
  370.250    3.807    0.248    0.475   92.513
  370.500    3.881    0.260    0.512   93.744
  370.750    4.267    0.261    0.525   95.589
  371.000    5.060    0.240    0.501   88.862
  371.250    5.669    0.238    0.440   82.135
  371.500    7.249    0.243    0.420   76.632
  371.750    8.434    0.255    0.427   76.638
  372.000    8.127    0.262    0.431   76.647
  372.250    7.399    0.262    0.430   79.105
  372.500    6.994    0.254    0.426   80.335
  372.750    7.132    0.250    0.422   79.729
  373.000    7.270    0.247    0.429   75.451
  373.250    7.412    0.244    0.444   76.072
  373.500    7.701    0.244    0.455   77.915
  373.750    7.851    0.245    0.454   79.759
  374.000    8.157    0.249    0.434   78.542
  374.250    8.476    0.247    0.417   79.164
  374.500    8.641    0.245    0.414   80.395
  374.750    8.810    0.245    0.425   78.566
  375.000    8.984    0.267    0.442   75.511
  375.250    8.986    0.278    0.453   74.294
