~VERSION INFORMATION
 VERS.                 2.0:   CWLS LOG ASCII STANDARD -VERSION 2.0
 WRAP.                  NO:   ONE LINE PER DEPTH STEP
~WELL INFORMATION BLOCK
#MNEM.UNIT           DATA                    DESCRIPTION OF MNEMONIC
#---------    -------------------            -------------------------------
# Generated from Intellog Unique Number	CW_70_72/WELL/637
NULL.         -999.25                        : NULL_VALUE
WELL.         SUN ET AL TOMATO 06-12         : Well_name    - WELL              
LOC .         06-12-072-23W4                 : Location     - LOCATION          
UWI .         00/06-12-072-23W4/0            : Uwi          - UNIQUE WELL ID    
ENTR.         JAYE                           : Entered      - ENTERED BY        
SRVC.         COMPUTALOG                     : Scn          - SERVICE COMPANY   
DATE.         17 FEB 79                      : Date         - LOG DATE          
STRT.M        380                            : top_depth    - START DEPTH       
STOP.M        600                            : bot_depth    - STOP DEPTH        
STEP.M        0.25                           : increment    - STEP LENGTH       
~CURVE INFORMATION BLOCK
#MNEM UNIT       ERCB CURVE CODE    CURVE DESCRIPTION
#-----------   ------------------   ----------------------------------
DEPT.M        00 001 00 00         : DEPTH        - DEPTH                       
DPHI.V/V      00 890 00 00         : PHID         - DENSITY POROSITY (SANDSTONE)
NPHI.V/V      00 330 00 00         : PHIN         - NEUTRON POROSITY (SANDSTONE)
GR  .API      00 310 00 00         : GR           - GAMMA RAY                   
CALI.MM       00 280 01 00         : CAL          - CALIPER                     
ILD .OHMM     00 120 00 00         : RESD         - DEEP RESISTIVITY (DIL)      
~PARAMETER INFORMATION       
#MNEM.UNIT           DATA             DESCRIPTION OF MNEMONIC
#---------         -----------     ------------------------------
GL  .M        619.96               : gl           - GROUND LEVEL ELEVATION      
EREF.M        623.3                : kb           - ELEVATION OF DEPTH REFERENCE
DATM.M        619.96               : datum        - DATUM ELEVATION             
TDD .M        612                  : tdd          - TOTAL DEPTH DRILLER         
RUN .         ONE                  : Run          - RUN NUMBER                  
ENG .         ADAMS                : Engineer     - RECORDING ENGINEER          
WIT .         BOYAN                : Witness      - WITNESSED BY                
BASE.         EDM                  : Branch       - HOME BASE OF LOGGING UNIT   
MUD .         GEL CHEM             : Mud_type     - MUD TYPE                    
MATR.         SANDSTONE            : Logunit      - NEUTRON MATRIX              
TMAX.C        21                   : BHT          - MAXIMUM RECORDED TEMPERATURE
BHTD.M        614                  : BHTDEP       - MAXIMUM RECORDED TEMPERATURE
RMT .C        13                   : MDTP         - TEMPERATURE OF MUD          
MUDD.KG/M     1100                 : MWT          - MUD DENSITY                 
NEUT.         1                    : NEUTRON      - NEUTRON TYPE                
RESI.         0                    : RESIST       - RESISTIVITY TYPE            
RM  .OHMM     3.7                  : RM           - RESISTIVITY OF MUD          
RMC .OHMM     0                    : RMC          - RESISTIVITY OF MUD CAKE     
RMF .OHMM     0                    : RMF          - RESISTIVITY OF MUD FILTRATE 
SUFT.C        0                    : SUFT         - SURFACE TEMPERATURE         
~A  DEPTH     PHID     PHIN       GR      CAL     RESD
# ...
  453.000    0.293    0.413   42.512  140.758    2.901
  453.250    0.291    0.393   45.304  141.688    2.893
  453.500    0.292    0.358   40.153  145.722    2.896
  453.750    0.291    0.383   35.250  149.135    2.893
  454.000    0.297    0.377   33.884  150.376    2.896
  454.250    0.301    0.356   37.360  150.272    2.899
  454.500    0.297    0.347   39.842  149.547    2.896
  454.750    0.290    0.340   39.966  148.513    2.909
  455.000    0.280    0.332   41.020  147.271    2.918
  455.250    0.286    0.349   41.144  144.581    2.938
  455.500    0.287    0.367   42.385  142.306    2.945
  455.750    0.290    0.374   44.371  140.650    2.976
  456.000    0.293    0.384   36.303  139.409    3.013
  456.250    0.299    0.406   36.923  139.615    3.085
  456.500    0.302    0.431   43.129  141.580    3.129
  456.750    0.294    0.455   45.611  143.855    3.179
  457.000    0.283    0.446   46.108  146.027    3.225
  457.250    0.269    0.416   47.473  147.061    3.289
  457.500    0.278    0.399   46.976  147.268    3.362
  457.750    0.284    0.388   44.307  147.371    3.429
  458.000    0.284    0.393   39.404  147.681    3.511
  458.250    0.282    0.415   45.734  148.197    3.601
  458.500    0.282    0.432   54.174  148.197    3.736
  458.750    0.280    0.463   53.429  147.783    3.899
  459.000    0.270    0.407   51.443  146.645    4.014
  459.250    0.257    0.381   54.546  146.024    4.118
  459.500    0.242    0.387   58.332  146.024    4.161
  459.750    0.253    0.360   69.192  146.540    4.197
  460.000    0.258    0.403   65.344  146.850    4.208
  460.250    0.260    0.385   61.930  147.367    4.212
  460.500    0.257    0.367   61.682  147.574    4.216
  460.750    0.254    0.376   64.537  147.056    4.213
  461.000    0.255    0.408   63.543  146.228    4.216
  461.250    0.255    0.399   59.882  144.883    4.229
  461.500    0.258    0.362   56.965  143.952    4.265
  461.750    0.262    0.392   52.558  143.021    4.277
  462.000    0.267    0.394   53.178  142.193    4.338
  462.250    0.266    0.395   62.115  141.986    4.425
  462.500    0.277    0.395   67.266  142.192    4.530
  462.750    0.281    0.389   63.852  142.813    4.629
  463.000    0.273    0.394   62.300  144.467    4.714
  463.250    0.264    0.414   59.632  147.880    4.780
  463.500    0.252    0.430   55.535  152.431    4.849
  463.750    0.243    0.423   56.094  149.224    4.956
  464.000    0.238    0.487   63.727  147.052    5.036
  464.250    0.241    0.468   73.222  146.017    5.107
  464.500    0.243    0.443   70.119  144.982    5.180
  464.750    0.251    0.522   66.333  143.948    5.283
  465.000    0.264    0.493   67.139  143.327    5.451
  465.250    0.254    0.452   65.526  143.119    5.741
  465.500    0.239    0.420   65.898  143.740    6.150
  465.750    0.221    0.407   72.290  145.394    6.490
  466.000    0.201    0.382   75.144  147.773    6.375
  466.250    0.165    0.357   68.442  150.669    6.203
  466.500    0.066    0.320   71.793  152.944    5.823
  466.750    0.077    0.174   73.158  156.874    5.334
  467.000    0.133    0.235   75.019  161.528    4.831
  467.250    0.208    0.285   75.888  157.390    4.376
  467.500    0.248    0.460   68.689  151.908    4.146
  467.750    0.278    0.438   62.421  150.149    4.019
  468.000    0.271    0.426   55.346  149.218    4.076
  468.250    0.273    0.443   48.457  149.011    4.174
  468.500    0.277    0.445   53.297  149.217    4.314
  468.750    0.262    0.419   62.978  150.044    4.518
  469.000    0.239    0.451   70.301  150.458    4.697
  469.250    0.233    0.470   67.322  150.768    4.817
  469.500    0.239    0.438   73.838  151.078    4.923
  469.750    0.237    0.456   86.809  151.388    5.022
  470.000    0.233    0.440   79.609  151.180    5.103
  470.250    0.228    0.405   77.065  150.766    5.176
  470.500    0.221    0.375   82.526  151.800    5.220
  470.750    0.211    0.411   90.593  153.972    5.235
  471.000    0.203    0.449   96.675  157.075    5.161
  471.250    0.197    0.428   90.903  161.212    5.051
  471.500    0.192    0.411   82.028  161.522    5.008
  471.750    0.198    0.519   77.622  162.969    4.631
  472.000    0.204    0.492   86.683  168.555    4.202
  472.250    0.210    0.442   93.571  168.244    4.066
  472.500    0.215    0.418   98.908  169.174    4.194
  472.750    0.213    0.439  100.646  169.898    4.418
  473.000    0.205    0.479   97.046  169.794    4.618
  473.250    0.196    0.465   92.888  169.277    4.764
  473.500    0.187    0.363   85.750  167.725    4.742
  473.750    0.174    0.375   83.702  166.794    4.319
  474.000    0.177    0.425   86.246  165.862    3.963
  474.250    0.181    0.440   92.018  164.311    3.785
  474.500    0.173    0.436   93.259  162.966    3.752
  474.750    0.163    0.408   89.225  161.414    3.886
  475.000    0.157    0.383   92.762  159.552    4.077
  475.250    0.168    0.360   95.865  158.517    4.319
  475.500    0.180    0.375   96.175  157.482    4.356
  475.750    0.183    0.390   97.788  156.965    4.385
  476.000    0.177    0.377   98.036  156.654    4.373
  476.250    0.172    0.375   97.043  156.550    4.418
  476.500    0.173    0.387   91.768  155.929    4.515
  476.750    0.173    0.392   82.769  155.101    4.658
  477.000    0.165    0.383   83.203  154.791    4.689
  477.250    0.160    0.361   90.402  154.687    4.562
  477.500    0.160    0.372   92.015  154.687    4.307
  477.750    0.159    0.392   94.001  155.100    4.036
  478.000    0.161    0.415   99.090  155.927    3.868
  478.250    0.169    0.406   91.766  158.823    3.764
  478.500    0.186    0.437   85.064  162.132    3.788
  478.750    0.189    0.445   80.347  164.718    3.872
  479.000    0.188    0.418   73.892  165.959    3.987
  479.250    0.221    0.380   76.499  166.476    4.137
  479.500    0.225    0.380   82.084  166.992    4.316
  479.750    0.212    0.458   84.690  166.682    4.460
  480.000    0.186    0.444   84.131  165.751    4.516
  480.250    0.164    0.427   81.773  162.337    4.520
  480.500    0.185    0.435   80.469  159.751    4.465
  480.750    0.190    0.453   81.648  158.095    4.386
  481.000    0.180    0.454   87.358  157.268    4.251
  481.250    0.187    0.429   92.695  157.371    4.114
  481.500    0.227    0.439   85.123  156.336    4.025
  481.750    0.248    0.438   79.599  154.267    3.954
  482.000    0.259    0.428   80.406  152.301    3.876
  482.250    0.261    0.432   79.971  149.922    3.764
  482.500    0.256    0.497   74.013  146.922    3.615
  482.750    0.256    0.482   76.930  146.611    3.464
  483.000    0.272    0.482   72.027  146.301    3.500
  483.250    0.282    0.491   66.317  146.714    3.822
  483.500    0.287    0.445   57.442  147.541    4.349
  483.750    0.294    0.425   52.539  147.851    4.930
  484.000    0.270    0.415   47.699  148.161    6.062
  484.250    0.212    0.336   47.574  149.299    7.287
  484.500    0.088    0.273   50.118  151.470    8.758
  484.750    0.083    0.210   53.407  152.918    9.036
  485.000    0.102    0.258   56.448  154.676    8.076
  485.250    0.121    0.308   59.737  156.020    6.834
  485.500    0.143    0.331   63.957  157.054    5.915
  485.750    0.174    0.348   69.232  157.571    5.208
  486.000    0.202    0.368   75.686  157.881    4.789
  486.250    0.224    0.403   80.775  158.501    4.529
  486.500    0.237    0.410   71.652  158.811    4.441
  486.750    0.246    0.393   71.589  159.018    4.428
  487.000    0.251    0.392   77.795  159.535    4.424
  487.250    0.240    0.414   76.492  160.258    4.411
  487.500    0.237    0.410   75.126  160.775    4.358
  487.750    0.234    0.427   91.758  161.395    4.288
  488.000    0.231    0.429   94.861  161.809    4.149
  488.250    0.226    0.438   89.772  162.326    4.022
  488.500    0.237    0.485   84.869  162.739    3.928
  488.750    0.242    0.426   91.633  162.739    3.837
  489.000    0.230    0.434   97.467  162.738    3.797
  489.250    0.219    0.479  102.183  162.738    3.786
