~VERSION INFORMATION
 VERS.                 2.0:   CWLS LOG ASCII STANDARD -VERSION 2.0
 WRAP.                  NO:   ONE LINE PER DEPTH STEP
~WELL INFORMATION BLOCK
#MNEM.UNIT           DATA                    DESCRIPTION OF MNEMONIC
#---------    -------------------            -------------------------------
# Generated from Intellog Unique Number	CW_82_90/WELL/416
NULL.         -999.25                        : NULL_VALUE
WELL.         GULF WABASCA                   : Well_name    - WELL              
LOC .         00/05-06-083-22W4/0            : Location     - LOCATION          
UWI .         00/05-06-083-22W4/0            : Uwi          - UNIQUE WELL ID    
ENTR.         JAYE                           : Entered      - ENTERED BY        
SRVC.         SCHLUMBERGER                   : Scn          - SERVICE COMPANY   
DATE.         31 DEC 73                      : Date         - LOG DATE          
STRT.M        252.984                        : top_depth    - START DEPTH       
STOP.M        432.734                        : bot_depth    - STOP DEPTH        
STEP.M        0.25                           : increment    - STEP LENGTH       
~CURVE INFORMATION BLOCK
#MNEM UNIT       ERCB CURVE CODE    CURVE DESCRIPTION
#-----------   ------------------   ----------------------------------
DEPT.M        00 001 00 00         : DEPTH        - DEPTH                       
ILD .OHMM     00 120 00 00         : RESD         - DEEP RESISTIVITY (DIL)      
CALI.MM       00 280 01 00         : CAL          - CALIPER                     
GR  .API      00 310 00 00         : GR           - GAMMA RAY                   
DPHI.V/V      00 890 00 00         : PHID         - DENSITY POROSITY (SANDSTONE)
NPHI.V/V      00 330 00 00         : PHIN         - NEUTRON POROSITY (SANDSTONE)
~PARAMETER INFORMATION       
#MNEM.UNIT           DATA             DESCRIPTION OF MNEMONIC
#---------         -----------     ------------------------------
GL  .M        620.573              : gl           - GROUND LEVEL ELEVATION      
EREF.M        623.926              : kb           - ELEVATION OF DEPTH REFERENCE
DATM.M        620.573              : datum        - DATUM ELEVATION             
TDD .M        441.046              : tdd          - TOTAL DEPTH DRILLER         
RUN .         TWO                  : Run          - RUN NUMBER                  
ENG .         WARKIW               : Engineer     - RECORDING ENGINEER          
WIT .         CAMPBELL             : Witness      - WITNESSED BY                
BASE.         EDMONTON             : Branch       - HOME BASE OF LOGGING UNIT   
MUD .         GEL CHEM             : Mud_type     - MUD TYPE                    
MATR.         SANDSTONE            : Logunit      - NEUTRON MATRIX              
TMAX.C        29.4                 : BHT          - MAXIMUM RECORDED TEMPERATURE
BHTD.M        441.046              : BHTDEP       - MAXIMUM RECORDED TEMPERATURE
RMT .C        15.5556              : MDTP         - TEMPERATURE OF MUD          
MUDD.KG/M     9200                 : MWT          - MUD DENSITY                 
NEUT.         1                    : NEUTRON      - NEUTRON TYPE                
RESI.         0                    : RESIST       - RESISTIVITY TYPE            
RM  .OHMM     2.1                  : RM           - RESISTIVITY OF MUD          
RMC .OHMM     0                    : RMC          - RESISTIVITY OF MUD CAKE     
RMF .OHMM     0                    : RMF          - RESISTIVITY OF MUD FILTRATE 
SUFT.C        -17.7778             : SUFT         - SURFACE TEMPERATURE         
~A  DEPTH     RESD      CAL       GR     PHID     PHIN
# ...
  362.484   21.591  250.983   69.223    0.179    0.300
  362.734   18.793  250.289   75.330    0.243    0.350
  362.984   15.762  250.209   75.471    0.258    0.548
  363.234   14.233  250.648   74.448    0.247    0.505
  363.484   13.555  250.883   68.007    0.231    0.454
  363.734   14.607  251.332   68.085    0.188    0.383
  363.984   15.478  251.561   69.381    0.155    0.341
  364.234   16.770  251.901   71.469    0.157    0.356
  364.484   17.573  252.135   73.130    0.180    0.407
  364.734   18.082  252.363   72.535    0.172    0.395
  364.984   17.510  252.495   72.430    0.155    0.386
  365.234   14.880  252.730   74.272    0.151    0.384
  365.484   13.166  252.759   80.686    0.164    0.407
  365.734   11.716  252.787   83.077    0.180    0.452
  365.984   10.695  252.717   84.011    0.226    0.490
  366.234   10.092  252.944   85.061    0.225    0.541
  366.484    9.684  253.292   87.512    0.223    0.532
  366.734    9.465  253.621   90.149    0.227    0.559
  366.984    9.351  254.170   91.138    0.224    0.560
  367.234    9.429  254.720   92.617    0.220    0.537
  367.484    9.528  254.944   94.461    0.222    0.515
  367.734    9.500  255.176   96.730    0.217    0.528
  367.984    9.497  255.617   97.782    0.205    0.539
  368.234    9.519  256.057   93.411    0.190    0.544
  368.484    9.706  255.782   89.162    0.172    0.553
  368.734    9.877  256.014   86.135    0.194    0.557
  368.984    9.976  255.732   86.211    0.222    0.546
  369.234   10.360  254.518   88.483    0.209    0.535
  369.484   10.981  253.622   88.435    0.195    0.510
  369.734   11.338  253.622   86.258    0.195    0.492
  369.984   11.688  252.464   85.117    0.219    0.482
  370.234   11.785  252.166   84.769    0.223    0.493
  370.484   11.583  252.189   84.906    0.234    0.518
  370.734   11.318  252.216   85.469    0.225    0.515
  370.984   10.880  252.251   86.827    0.216    0.528
  371.234   10.460  252.379   88.913    0.206    0.570
  371.484   10.146  252.715   93.560    0.202    0.560
  371.734    9.824  254.186   91.138    0.190    0.567
  371.984    9.531  255.138   90.180    0.220    0.551
  372.234    9.180  260.114   90.074    0.239    0.531
  372.484    8.939  267.967   89.056    0.230    0.545
  372.734    8.768  274.587   84.806    0.245    0.583
  372.984    8.663  261.331   84.274    0.265    0.638
  373.234    8.561  266.509   85.753    0.285    0.626
  373.484    8.600  281.572   88.752    0.275    0.612
  373.734    8.784  271.712   92.729    0.282    0.588
  373.984    9.155  255.776   90.127    0.273    0.618
  374.234    9.773  251.276   88.012    0.267    0.626
  374.484   10.765  250.689   86.382    0.253    0.608
  374.734   12.257  249.477   81.400    0.243    0.578
  374.984   13.700  249.823   78.918    0.236    0.496
  375.234   15.008  250.254   81.310    0.239    0.487
  375.484   15.049  251.734   80.473    0.244    0.512
  375.734   14.654  251.655   80.553    0.223    0.545
  375.984   14.269  252.302   76.182    0.209    0.537
  376.234   15.040  253.273   73.395    0.229    0.534
  376.484   16.113  253.394   70.487    0.238    0.525
  376.734   18.110  253.719   70.324    0.253    0.504
  376.984   20.132  252.722   71.679    0.247    0.484
  377.234   22.255  252.128   72.971    0.233    0.464
  377.484   24.112  251.745   73.598    0.217    0.452
  377.734   25.410  251.880   72.764    0.191    0.407
  377.984   26.293  251.595   71.496    0.147    0.363
  378.234   26.852  251.418   70.843    0.122    0.336
  378.484   26.729  252.062   69.944    0.121    0.336
  378.734   24.539  252.404   70.023    0.129    0.357
  378.984   19.302  252.844   71.804    0.154    0.381
  379.234   16.676  253.180   76.390    0.164    0.449
  379.484   14.729  253.309   81.401    0.153    0.477
  379.734   13.008  254.166   86.534    0.175    0.518
  379.984   11.301  254.498   88.864    0.198    0.546
  380.234   10.431  253.809   90.710    0.216    0.574
  380.484    9.845  253.527   92.613    0.227    0.570
  380.734    9.603  253.662   95.797    0.228    0.553
  380.984    9.720  253.492   95.938    0.226    0.558
  381.234    9.785  253.819   95.528    0.224    0.550
  381.484    9.883  253.853   95.298    0.222    0.540
  381.734   10.078  253.880   95.069    0.218    0.530
  381.984   10.234  253.907   95.454    0.211    0.523
  382.234   10.377  253.829   95.894    0.202    0.522
  382.484   10.521  254.381   96.579    0.194    0.526
  382.734   10.747  254.714   94.767    0.188    0.527
  382.984   11.038  254.738   93.020    0.181    0.519
  383.234   11.294  254.660   93.337    0.161    0.510
  383.484   11.412  254.791   93.782    0.210    0.518
  383.734   11.444  255.541   90.141    0.210    0.539
  383.984   11.474  257.321   89.429    0.195    0.531
  384.234   11.463  258.895   90.235    0.178    0.525
  384.484   11.329  258.895   95.064    0.188    0.540
  384.734   11.194  258.895   92.277    0.185    0.534
  384.984   11.204  260.128   90.282    0.180    0.512
  385.234   11.318  260.247   90.724    0.185    0.478
  385.484   11.475  260.588   93.240    0.190    0.485
  385.734   11.725  260.818   95.694    0.200    0.514
  385.984   11.819  260.428   96.013    0.199    0.513
  386.234   12.029  260.354   94.872    0.189    0.502
  386.484   12.243  260.074   93.241    0.162    0.512
  386.734   12.412  260.006   91.616    0.147    0.529
  386.984   12.468  259.413   91.202    0.158    0.547
  387.234   12.529  259.233   91.524    0.188    0.542
  387.484   12.561  258.749   93.914    0.192    0.532
  387.734   12.413  257.851   96.917    0.186    0.528
  387.984   12.311  257.673   96.750    0.197    0.540
  388.234   12.098  257.184   95.244    0.192    0.510
  388.484   11.911  256.905   94.530    0.186    0.467
  388.734   11.748  257.134   95.215    0.190    0.470
  388.984   11.607  257.681   94.803    0.181    0.483
  389.234   11.387  258.016   92.811    0.169    0.484
  389.484   11.171  258.042   94.654    0.156    0.550
  389.734   10.977  258.197   97.410    0.191    0.568
  389.984   10.825  258.106   95.111    0.189    0.561
  390.234   10.778  258.541   95.553    0.187    0.551
  390.484   10.789  258.578   95.147    0.188    0.559
  390.734   10.758  258.601   93.883    0.182    0.557
  390.984   10.828  258.936   91.218    0.169    0.544
  391.234   10.859  258.551   90.500    0.148    0.484
  391.484   10.850  258.584   92.954    0.135    0.459
  391.734   10.839  259.429   96.629    0.178    0.426
  391.984   10.730  259.457   97.311    0.172    0.414
  392.234   10.779  260.105   97.083    0.133    0.422
  392.484   10.951  260.972   96.062    0.148    0.491
  392.734   11.081  261.087   96.265    0.160    0.514
  392.984   11.256  261.431   96.949    0.169    0.505
  393.234   11.287  261.763   98.307    0.174    0.493
  393.484   11.236  261.276   99.969    0.180    0.487
  393.734   11.206  260.896  101.200    0.185    0.488
  393.984   11.175  261.541  102.982    0.152    0.528
  394.234   11.187  262.596  104.704    0.170    0.495
  394.484   11.052  262.623  105.451    0.165    0.481
  394.734   10.962  262.139  103.461    0.161    0.484
  394.984   10.912  261.651  100.975    0.188    0.487
  395.234   10.883  261.992  101.783    0.202    0.450
  395.484   10.994  264.076  103.750    0.199    0.435
  395.734   11.271  265.760  105.045    0.196    0.455
  395.984   12.210  265.373  101.771    0.207    0.469
  396.234   14.187  260.658   91.977    0.214    0.461
  396.484   16.787  249.975   83.100    0.171    0.443
  396.734   20.648  251.445   74.038    0.142    0.392
  396.984   25.493  251.582   74.971    0.100    0.317
  397.234   29.023  251.300   78.822    0.051    0.342
  397.484   29.541  250.503   83.896    0.124    0.370
  397.734   28.499  250.221   85.860    0.200    0.440
  397.984   26.745  250.762   80.760    0.210    0.453
  398.234   26.818  250.793   75.234    0.197    0.437
  398.484   27.544  251.031   75.429    0.188    0.452
  398.734   28.449  251.058   73.680    0.175    0.450
