~VERSION INFORMATION
 VERS.                 2.0:   CWLS LOG ASCII STANDARD -VERSION 2.0
 WRAP.                  NO:   ONE LINE PER DEPTH STEP
~WELL INFORMATION BLOCK
#MNEM.UNIT           DATA                    DESCRIPTION OF MNEMONIC
#---------    -------------------            -------------------------------
# Generated from Intellog Unique Number	CS_67_68/WELL/2163
WELL.         ESSO AEC 85 FISHCK             : Well_name    - WELL
LOC .         00/03-25-067-07W4/0            : Location     - LOCATION
UWI .         00/03-25-067-07W4/0            : Uwi          - UNIQUE WELL ID
ENTR.         SP                             : Entered      - ENTERED BY
SRVC.         SCHLUMBERGER                   : Scn          - SERVICE COMPANY
STRT.M        325                            : top_depth    - START DEPTH
STOP.M        545                            : bot_depth    - STOP DEPTH
STEP.M        0.25                           : increment    - STEP LENGTH
 NULL. -999.2500:NULL Value
~CURVE INFORMATION BLOCK
#MNEM UNIT       ERCB CURVE CODE    CURVE DESCRIPTION
#-----------   ------------------   ----------------------------------
DEPT.M        00 001 00 00         : DEPTH        - DEPTH
ILD .OHMM     00 120 00 00         : RESD         - DEEP RESISTIVITY (DIL)
DPHI.V/V      00 890 00 00         : PHID         - DENSITY POROSITY (LIMESTONE)
NPHI.V/V      00 330 00 00         : PHIN         - NEUTRON POROSITY (LIMESTONE)
GR  .API      00 310 00 00         : GR           - GAMMA RAY
CALI.MM       00 280 01 00         : CAL          - CALIPER
~PARAMETER INFORMATION
#MNEM.UNIT           DATA             DESCRIPTION OF MNEMONIC
#---------         -----------     ------------------------------
GL  .M        649.9                : gl           - GROUND LEVEL ELEVATION
EREF.M        653.5                : kb           - ELEVATION OF DEPTH REFERENCE
DATM.M        653.5                : datum        - DATUM ELEVATION
TDD .M        549                  : tdd          - TOTAL DEPTH DRILLER
RUN .         ONE                  : Run          - RUN NUMBER
ENG .         BILL                 : Engineer     - RECORDING ENGINEER
WIT .         JIM                  : Witness      - WITNESSED BY
MUD .         GEL                  : Mud_type     - MUD TYPE
MATR.         LIMESTONE            : Logunit      - NEUTRON MATRIX
TMAX.C        19                   : BHT          - MAXIMUM RECORDED TEMPERATURE
BHTD.M        548                  : BHTDEP       - MAXIMUM RECORDED TEMPERATURE
MATR.         1                    : LOGUNIT      - NEUTRON MATRIX
RMT .C        25                   : MDTP         - TEMPERATURE OF MUD
NEUT.         1                    : NEUTRON      - NEUTRON TYPE
RESI.         0                    : RESIST       - RESISTIVITY TYPE
RMC .OHMM     0.25                 : RMC          - RESISTIVITY OF MUD CAKE
RMF .OHMM     0.25                 : RMF          - RESISTIVITY OF MUD FILTRATE
SUFT.C        15                   : SUFT         - SURFACE TEMPERATURE
~A  DEPTH     RESD     PHID     PHIN       GR      CAL
# ...
  361.500    5.528    0.380    0.477   91.427  172.703
  361.750    5.404    0.347    0.450   92.056  171.426
  362.000    5.354    0.316    0.455   92.267  170.248
  362.250    5.394    0.265    0.461   91.744  169.171
  362.500    5.506    0.234    0.466   92.375  168.088
  362.750    5.706    0.229    0.468   94.476  166.506
  363.000    6.093    0.245    0.475   91.270  165.027
  363.250    6.232    0.259    0.484   93.795  164.348
  363.500    6.197    0.272    0.497   96.872  163.882
  363.750    6.059    0.278    0.505   96.041  163.618
  364.000    5.968    0.276    0.494   92.165  163.050
  364.250    5.912    0.280    0.482   90.054  162.686
  364.500    5.846    0.280    0.477   88.798  162.122
  364.750    5.791    0.275    0.483   87.964  162.056
  365.000    5.747    0.268    0.490   85.183  161.793
  365.250    5.651    0.280    0.498   87.469  161.530
  365.500    5.566    0.281    0.473   90.178  161.474
  365.750    5.514    0.278    0.455   92.092  161.615
  366.000    5.473    0.276    0.449   91.446  161.861
  366.250    5.692    0.271    0.451   90.134  161.806
  366.500    5.888    0.268    0.455   89.970  161.743
  366.750    5.833    0.269    0.457   89.811  161.781
  367.000    5.735    0.273    0.455   89.837  162.030
  367.250    5.681    0.274    0.447   90.901  162.678
  367.500    5.607    0.270    0.439   94.285  163.635
  367.750    5.380    0.300    0.427   97.848  164.705
  368.000    5.181    0.362    0.447   99.335  165.856
  368.250    5.037    0.417    0.486   95.150  168.234
  368.500    4.869    0.459    0.519   92.123  175.092
  368.750    4.752    0.473    0.553   97.398  183.278
  369.000    4.689    0.463    0.559  100.720  187.077
  369.250    4.672    0.412    0.521  103.737  181.019
  369.500    4.680    0.364    0.498  102.903  176.079
  369.750    4.707    0.328    0.482   97.742  172.555
  370.000    4.769    0.302    0.468   94.898  169.241
  370.250    4.887    0.291    0.458   93.458  166.841
  370.500    4.979    0.298    0.455   90.799  165.256
  370.750    5.064    0.305    0.479   86.064  164.583
  371.000    4.997    0.312    0.468   81.572  164.525
  371.250    4.840    0.320    0.454   80.803  164.159
  371.500    4.714    0.325    0.461   83.699  163.997
  371.750    4.768    0.327    0.448   81.769  163.633
  372.000    4.840    0.329    0.437   80.085  163.268
  372.250    4.876    0.332    0.446   79.621  163.107
  372.500    4.903    0.325    0.452   80.135  162.851
  372.750    4.959    0.318    0.455   80.345  162.580
  373.000    5.043    0.316    0.453   79.941  162.013
  373.250    5.266    0.313    0.455   78.320  161.851
  373.500    5.730    0.303    0.472   74.072  161.391
  373.750    6.609    0.168    0.471   68.848  161.224
  374.000    7.191    0.064    0.171   64.051  161.059
  374.250    7.840    0.024    0.151   56.083  160.799
  374.500    8.499    0.050    0.144   56.657  160.841
  374.750    8.974    0.182    0.412   68.950  160.585
  375.000    8.216    0.276    0.437   76.725  160.515
  375.250    6.925    0.301    0.452   79.988  160.155
  375.500    6.164    0.307    0.462   82.084  159.897
  375.750    5.374    0.313    0.476   77.656  159.828
  376.000    4.873    0.320    0.466   72.558  159.665
  376.250    4.615    0.339    0.454   69.587  159.708
  376.500    4.470    0.356    0.444   68.090  159.645
  376.750    4.387    0.368    0.435   66.711  159.688
  377.000    4.337    0.364    0.426   64.718  159.424
  377.250    4.329    0.354    0.441   62.059  159.465
  377.500    4.345    0.352    0.454   59.947  159.306
  377.750    4.378    0.348    0.453   59.789  159.044
  378.000    4.386    0.344    0.440   61.401  158.781
  378.250    4.386    0.347    0.440   64.114  158.416
  378.500    4.402    0.357    0.450   68.901  158.160
  378.750    4.502    0.353    0.445   72.284  157.885
  379.000    4.666    0.345    0.443   73.587  157.729
  379.250    4.799    0.336    0.448   73.977  157.359
  379.500    4.826    0.328    0.442   72.971  157.106
  379.750    4.807    0.322    0.433   72.076  156.933
  380.000    4.709    0.325    0.426   71.371  156.873
  380.250    4.587    0.334    0.431   70.721  156.713
  380.500    4.493    0.343    0.437   69.282  156.655
  380.750    4.401    0.348    0.431   67.904  156.597
  381.000    4.343    0.352    0.422   66.951  156.440
  381.250    4.270    0.352    0.431   66.366  156.474
  381.500    4.230    0.359    0.445   67.000  156.514
  381.750    4.230    0.369    0.458   69.412  156.555
  382.000    4.198    0.368    0.468   70.593  156.602
  382.250    4.182    0.358    0.459   71.349  157.250
  382.500    4.198    0.350    0.448   71.191  158.207
  382.750    4.221    0.344    0.440   70.058  137.399
  383.000    4.253    0.348    0.431   68.071  139.676
  383.250    4.269    0.356    0.439   67.665  139.517
  383.500    4.285    0.359    0.446   70.131  141.488
  383.750    4.285    0.360    0.450   72.476  145.498
  384.000    4.277    0.360    0.457   73.477  149.607
  384.250    4.268    0.356    0.460   73.078  146.907
  384.500    4.252    0.349    0.449   72.062  142.785
  384.750    4.260    0.345    0.440   68.367  140.682
  385.000    4.308    0.355    0.445   67.106  144.794
  385.250    4.373    0.362    0.461   66.585  149.108
  385.500    4.414    0.360    0.444   65.633  152.302
  385.750    4.549    0.350    0.430   70.295  152.147
  386.000    4.794    0.331    0.417   83.199  151.576
  386.250    4.950    0.317    0.441   90.180  152.731
  386.500    5.081    0.306    0.465   86.975  155.214
  386.750    5.197    0.299    0.457   84.004  158.306
  387.000    5.266    0.294    0.428   79.880  159.672
  387.250    5.375    0.291    0.421   84.421  160.019
  387.500    5.518    0.293    0.430   87.680  159.653
  387.750    5.633    0.295    0.432   90.333  154.614
  388.000    5.762    0.296    0.427   92.125  154.040
  388.250    5.882    0.298    0.434   89.407  158.354
  388.500    6.015    0.307    0.456   88.764  162.772
  388.750    6.152    0.316    0.472   89.454  166.679
  389.000    6.281    0.322    0.469   92.904  170.079
  389.250    6.352    0.314    0.463   94.753  172.562
  389.500    6.292    0.318    0.459   97.100  169.353
  389.750    6.186    0.325    0.459   96.085  166.649
  390.000    6.060    0.305    0.465   94.462  164.854
  390.250    5.902    0.289    0.455   90.461  162.358
  390.500    5.738    0.281    0.438   85.845  160.768
  390.750    5.485    0.280    0.424   84.223  159.585
  391.000    5.292    0.281    0.412   82.417  158.711
  391.250    5.165    0.303    0.425   79.085  158.147
  391.500    5.021    0.314    0.449   76.364  157.987
  391.750    4.927    0.321    0.461   74.558  158.025
  392.000    4.918    0.323    0.456   73.546  158.273
  392.250    4.992    0.318    0.434   79.370  158.932
  392.500    5.077    0.266    0.419   84.704  159.370
  392.750    5.232    0.234    0.402   89.307  160.024
  393.000    5.086    0.221    0.392   90.185  160.573
  393.250    4.808    0.209    0.408   83.192  160.617
  393.500    4.570    0.282    0.429   71.743  160.766
  393.750    4.368    0.321    0.412   62.858  160.798
  394.000    4.255    0.330    0.392   54.949  160.748
  394.250    4.199    0.325    0.385   54.426  160.780
  394.500    4.175    0.319    0.392   62.268  160.533
  394.750    4.191    0.313    0.393   64.608  160.565
  395.000    4.222    0.307    0.379   61.459  160.200
  395.250    4.278    0.320    0.368   58.066  160.034
  395.500    4.294    0.327    0.383   53.451  159.870
  395.750    4.246    0.336    0.408   50.547  159.916
  396.000    4.206    0.331    0.407   50.756  160.055
  396.250    4.151    0.324    0.396   48.950  160.404
  396.500    4.190    0.316    0.394   58.861  161.165
  396.750    4.261    0.307    0.394   70.787  161.609
  397.000    4.317    0.297    0.393   78.686  161.546
  397.250    4.374    0.289    0.387   82.006  161.388
  397.500    4.415    0.283    0.397   84.167  161.119
  397.750    4.457    0.285    0.417   82.849  161.060
