~VERSION INFORMATION
 VERS.                 2.0:   CWLS LOG ASCII STANDARD -VERSION 2.0
 WRAP.                  NO:   ONE LINE PER DEPTH STEP
~WELL INFORMATION BLOCK
#MNEM.UNIT           DATA                    DESCRIPTION OF MNEMONIC
#---------    -------------------            -------------------------------
# Generated from Intellog Unique Number	CS_77_79/WELL/855
WELL.         CWWE HARDY                     : Well_name    - WELL
LOC .         00/05-15-078-04W4/0            : Location     - LOCATION
UWI .         00/05-15-078-04W4/0            : Uwi          - UNIQUE WELL ID
ENTR.         JHS                            : Entered      - ENTERED BY
SRVC.         SCHLUMBERGER                   : Scn          - SERVICE COMPANY
STRT.M        140                            : top_depth    - START DEPTH
STOP.M        405                            : bot_depth    - STOP DEPTH
STEP.M        0.25                           : increment    - STEP LENGTH
 NULL. -999.2500:NULL Value
~CURVE INFORMATION BLOCK
#MNEM UNIT       ERCB CURVE CODE    CURVE DESCRIPTION
#-----------   ------------------   ----------------------------------
DEPT.M        00 001 00 00         : DEPTH        - DEPTH
DPHI.V/V      00 890 00 00         : PHID         - DENSITY POROSITY (LIMESTONE)
NPHI.V/V      00 330 00 00         : PHIN         - NEUTRON POROSITY (LIMESTONE)
GR  .API      00 310 00 00         : GR           - GAMMA RAY
ILD .OHMM     00 120 00 00         : RESD         - DEEP RESISTIVITY (DIL)
RHOB.KG/M3    00 350 00 00         : DENS         - BULK DENSITY
~PARAMETER INFORMATION
#MNEM.UNIT           DATA             DESCRIPTION OF MNEMONIC
#---------         -----------     ------------------------------
GL  .M        562.55               : gl           - GROUND LEVEL ELEVATION
EREF.M        566.5                : kb           - ELEVATION OF DEPTH REFERENCE
DATM.M        566.5                : datum        - DATUM ELEVATION
TDD .M        420                  : tdd          - TOTAL DEPTH DRILLER
RUN .         ONE                  : Run          - RUN NUMBER
ENG .         BILL                 : Engineer     - RECORDING ENGINEER
WIT .         JIM                  : Witness      - WITNESSED BY
MUD .         GEL                  : Mud_type     - MUD TYPE
MATR.         LIMESTONE            : Logunit      - NEUTRON MATRIX
TMAX.C        23                   : BHT          - MAXIMUM RECORDED TEMPERATURE
BHTD.M        420                  : BHTDEP       - MAXIMUM RECORDED TEMPERATURE
MATR.         1                    : LOGUNIT      - NEUTRON MATRIX
RMT .C        25                   : MDTP         - TEMPERATURE OF MUD
NEUT.         1                    : NEUTRON      - NEUTRON TYPE
RESI.         0                    : RESIST       - RESISTIVITY TYPE
RMC .OHMM     0.25                 : RMC          - RESISTIVITY OF MUD CAKE
RMF .OHMM     0.25                 : RMF          - RESISTIVITY OF MUD FILTRATE
SUFT.C        15                   : SUFT         - SURFACE TEMPERATURE
~A  DEPTH     PHID     PHIN       GR     RESD     DENS
# ...
  213.000    0.291    0.370   99.575   16.463    0.000
  213.250    0.279    0.379  100.862   18.111    0.000
  213.500    0.292    0.377   97.777   19.188    0.000
  213.750    0.304    0.383   93.431   19.956    0.000
  214.000    0.289    0.387   89.720   19.592    0.000
  214.250    0.265    0.386  100.387   19.252    0.000
  214.500    0.242    0.382  101.047   18.558    0.000
  214.750    0.237    0.381   82.957   18.223    0.000
  215.000    0.250    0.385   77.374   17.905    0.000
  215.250    0.257    0.393   74.918   17.925    0.000
  215.500    0.248    0.393   74.322   17.954    0.000
  215.750    0.254    0.384   72.482   18.306    0.000
  216.000    0.246    0.362   69.390   18.682    0.000
  216.250    0.228    0.351   71.310   18.689    0.000
  216.500    0.225    0.352   72.602   19.071    0.000
  216.750    0.243    0.373   72.629   19.095    0.000
  217.000    0.265    0.375   69.546   19.107    0.000
  217.250    0.281    0.376   67.084   18.781    0.000
  217.500    0.291    0.383   63.373   18.790    0.000
  217.750    0.308    0.407   60.903   18.812    0.000
  218.000    0.336    0.420   60.321   18.834    0.000
  218.250    0.331    0.410   64.105   19.217    0.000
  218.500    0.326    0.405   66.639   19.231    0.000
  218.750    0.328    0.439   66.059   19.628    0.000
  219.000    0.331    0.430   66.100   19.279    0.000
  219.250    0.327    0.404   66.127   19.659    0.000
  219.500    0.324    0.388   66.159   19.312    0.000
  219.750    0.315    0.394   64.956   19.334    0.000
  220.000    0.304    0.388   64.987   18.994    0.000
  220.250    0.307    0.385   63.146   19.011    0.000
  220.500    0.312    0.400   66.942   19.041    0.000
  220.750    0.308    0.415   67.604   19.416    0.000
  221.000    0.298    0.390   65.774   19.816    0.000
  221.250    0.291    0.379   66.428   19.828    0.000
  221.500    0.285    0.365   68.959   19.852    0.000
  221.750    0.285    0.362   69.002   19.872    0.000
  222.000    0.287    0.381   67.795   19.895    0.000
  222.250    0.292    0.385   67.825   19.916    0.000
  222.500    0.299    0.368   69.113   19.937    0.000
  222.750    0.309    0.366   69.146   19.585    0.000
  223.000    0.313    0.368   66.060   19.237    0.000
  223.250    0.304    0.382   63.590   18.899    0.000
  223.500    0.299    0.387   61.130   18.567    0.000
  223.750    0.310    0.388   64.924   18.578    0.000
  224.000    0.315    0.411   67.461   18.601    0.000
  224.250    0.319    0.417   68.114   18.624    0.000
  224.500    0.321    0.411   65.030   18.638    0.000
  224.750    0.329    0.406   60.070   18.659    0.000
  225.000    0.326    0.406   62.611   18.683    0.000
  225.250    0.310    0.408   64.513   18.705    0.000
  225.500    0.302    0.406   64.552   18.718    0.000
  225.750    0.312    0.397   63.967   18.394    0.000
  226.000    0.314    0.385   67.749   18.411    0.000
  226.250    0.309    0.373   72.159   18.433    0.000
  226.500    0.303    0.368   74.075   18.100    0.000
  226.750    0.301    0.368   65.986   18.129    0.000
  227.000    0.298    0.389   61.021   18.486    0.000
  227.250    0.298    0.394   59.185   18.503    0.000
  227.500    0.302    0.390   59.221   18.881    0.000
  227.750    0.308    0.389   55.517   19.268    0.000
  228.000    0.314    0.393   58.058   19.645    0.000
  228.250    0.316    0.404   58.089   20.044    0.000
  228.500    0.314    0.385   56.249   20.839    0.000
  228.750    0.302    0.378   51.916   21.256    0.000
  229.000    0.299    0.383   50.075   21.686    0.000
  229.250    0.300    0.387   51.371   22.126    0.000
  229.500    0.308    0.390   54.527   23.002    0.000
  229.750    0.316    0.389   57.056   23.016    0.000
  230.000    0.313    0.398   55.223   23.044    0.000
  230.250    0.316    0.398   53.394   23.076    0.000
  230.500    0.323    0.375   57.178   23.995    0.000
  230.750    0.322    0.359   59.706   24.469    0.000
  231.000    0.249    0.276   57.868   26.413    0.000
  231.250    0.184    0.223   51.663   29.051    0.000
  231.500    0.067    0.184   47.325   34.464    0.000
  231.750    0.029    0.168   44.868   41.668    0.000
  232.000    0.003    0.156   43.650   54.333    0.000
  232.250    0.000    0.154   44.313   64.456    0.000
  232.500    0.001    0.164   47.473   69.590    0.000
  232.750    0.038    0.188   50.008   67.075    0.000
  233.000    0.054    0.222   53.184   49.646    0.000
  233.250    0.075    0.257   53.828   37.446    0.000
  233.500    0.217    0.300   54.491   29.895    0.000
  233.750    0.284    0.334   54.523   27.743    0.000
  234.000    0.255    0.328   55.207   27.253    0.000
  234.250    0.188    0.271   54.615   28.884    0.000
  234.500    0.156    0.243   53.394   30.014    0.000
  234.750    0.160    0.229   53.423   33.657    0.000
  235.000    0.265    0.235   54.085   37.021    0.000
  235.250    0.234    0.271   50.996   39.214    0.000
  235.500    0.183    0.266   45.411   40.011    0.000
  235.750    0.172    0.250   46.076   33.794    0.000
  236.000    0.166    0.250   63.609   23.634    0.000
  236.250    0.166    0.276   84.266   17.167    0.000
  236.500    0.198    0.348   94.933   13.197    0.000
  236.750    0.216    0.378  101.843   11.575    0.000
  237.000    0.216    0.383  108.129   10.545    0.000
  237.250    0.221    0.388  110.049   10.164    0.000
  237.500    0.218    0.396  108.206    9.799    0.000
  237.750    0.206    0.396  106.366    9.269    0.000
  238.000    0.205    0.390  110.156    8.934    0.000
  238.250    0.206    0.386  114.566    8.454    0.000
  238.500    0.197    0.387  112.097    8.304    0.000
  238.750    0.193    0.392  109.023    8.156    0.000
  239.000    0.204    0.404  110.934    7.866    0.000
  239.250    0.206    0.418  110.964    7.724    0.000
  239.500    0.192    0.420  109.126    7.590    0.000
  239.750    0.193    0.410  107.289    7.314    0.000
  240.000    0.210    0.405  106.700    7.323    0.000
  240.250    0.215    0.408  113.621    7.329    0.000
  240.500    0.204    0.416  114.276    7.340    0.000
  240.750    0.196    0.419  113.694    7.345    0.000
  241.000    0.194    0.405  112.484    7.355    0.000
  241.250    0.206    0.399  111.256    7.365    0.000
  241.500    0.217    0.415  108.175    7.231    0.000
  241.750    0.208    0.423  106.966    7.105    0.000
  242.000    0.206    0.416  107.619    7.110    0.000
  242.250    0.207    0.427  108.914    7.119    0.000
  242.500    0.197    0.428  107.070    7.260    0.000
  242.750    0.193    0.414  104.617    7.407    0.000
  243.000    0.192    0.411  105.265    7.558    0.000
  243.250    0.190    0.420  106.551    7.423    0.000
  243.500    0.203    0.428  104.090    7.294    0.000
  243.750    0.229    0.425   99.759    7.031    0.000
  244.000    0.240    0.421  100.423    6.907    0.000
  244.250    0.235    0.409  107.326    6.534    0.000
  244.500    0.218    0.400  114.871    6.538    0.000
  244.750    0.208    0.393  114.285    6.306    0.000
  245.000    0.203    0.399  111.186    6.193    0.000
  245.250    0.200    0.428  108.114    5.971    0.000
  245.500    0.201    0.441  108.146    6.092    0.000
  245.750    0.197    0.423  106.930    6.098    0.000
  246.000    0.197    0.407  101.337    6.218    0.000
  246.250    0.203    0.400   92.624    6.465    0.000
  246.500    0.231    0.407   84.543    6.979    0.000
  246.750    0.251    0.393   79.583    7.826    0.000
  247.000    0.262    0.379   80.862    8.290    0.000
  247.250    0.266    0.375   83.405    8.458    0.000
  247.500    0.266    0.399   82.816    8.306    0.000
  247.750    0.257    0.420   82.857    7.713    0.000
  248.000    0.245    0.430   87.261    7.159    0.000
  248.250    0.239    0.435   91.047    6.770    0.000
  248.500    0.237    0.442   92.338    6.287    0.000
  248.750    0.247    0.447   92.380    5.947    0.000
  249.000    0.246    0.441   91.160    5.733    0.000
  249.250    0.247    0.442   88.082    5.630    0.000
