~VERSION INFORMATION
 VERS.                 2.0:   CWLS LOG ASCII STANDARD -VERSION 2.0
 WRAP.                  NO:   ONE LINE PER DEPTH STEP
~WELL INFORMATION BLOCK
#MNEM.UNIT           DATA                    DESCRIPTION OF MNEMONIC
#---------    -------------------            -------------------------------
# Generated from Intellog Unique Number	CS_69_70/WELL/2586
WELL.         08-16-069-07W4                 : Well_name    - WELL
LOC .         00/08-16-069-07W4/0            : Location     - LOCATION
UWI .         00/08-16-069-07W4/0            : Uwi          - UNIQUE WELL ID
ENTR.         TIM                            : Entered      - ENTERED BY
SRVC.         SCHLUMBERGER                   : Scn          - SERVICE COMPANY
STRT.M        285                            : top_depth    - START DEPTH
STOP.M        510                            : bot_depth    - STOP DEPTH
STEP.M        0.25                           : increment    - STEP LENGTH
 NULL. -999.2500:NULL Value
~CURVE INFORMATION BLOCK
#MNEM UNIT       ERCB CURVE CODE    CURVE DESCRIPTION
#-----------   ------------------   ----------------------------------
DEPT.M        00 001 00 00         : DEPTH        - DEPTH
ILD .OHMM     00 120 00 00         : RESD         - DEEP RESISTIVITY (DIL)
DPHI.V/V      00 890 00 00         : PHID         - DENSITY POROSITY (SANDSTONE)
NPHI.V/V      00 330 00 00         : PHIN         - NEUTRON POROSITY (SANDSTONE)
CALI.MM       00 280 01 00         : CAL          - CALIPER
GR  .API      00 310 00 00         : GR           - GAMMA RAY
~PARAMETER INFORMATION
#MNEM.UNIT           DATA             DESCRIPTION OF MNEMONIC
#---------         -----------     ------------------------------
GL  .M        623                  : gl           - GROUND LEVEL ELEVATION
EREF.M        627.1                : kb           - ELEVATION OF DEPTH REFERENCE
DATM.M        627.1                : datum        - DATUM ELEVATION
TDD .M        514                  : tdd          - TOTAL DEPTH DRILLER
RUN .         ONE                  : Run          - RUN NUMBER
ENG .         BILL                 : Engineer     - RECORDING ENGINEER
WIT .         JIM                  : Witness      - WITNESSED BY
MUD .         GEL                  : Mud_type     - MUD TYPE
MATR.         SANDSTONE            : Logunit      - NEUTRON MATRIX
TMAX.C        24                   : BHT          - MAXIMUM RECORDED TEMPERATURE
BHTD.M        514                  : BHTDEP       - MAXIMUM RECORDED TEMPERATURE
RMT .C        8                    : MDTP         - TEMPERATURE OF MUD
MUDD.KG/M     1000                 : MWT          - MUD DENSITY
NEUT.         1                    : NEUTRON      - NEUTRON TYPE
RESI.         0                    : RESIST       - RESISTIVITY TYPE
RM  .OHMM     6.6                  : RM           - RESISTIVITY OF MUD
RMC .OHMM     2.9                  : RMC          - RESISTIVITY OF MUD CAKE
RMF .OHMM     6.7                  : RMF          - RESISTIVITY OF MUD FILTRATE
SUFT.C        4                    : SUFT         - SURFACE TEMPERATURE
~A  DEPTH     RESD     PHID     PHIN      CAL       GR
# ...
  321.500    9.580    0.237    0.454  166.548   79.448
  321.750    9.593    0.206    0.439  166.566   73.411
  322.000    8.297    0.125    0.393  166.618   72.831
  322.250    7.443    0.098    0.290  166.644   77.087
  322.500    6.674    0.127    0.346  166.678   83.166
  322.750    5.986    0.164    0.403  166.704   91.668
  323.000    5.572    0.197    0.439  166.756   96.541
  323.250    5.282    0.232    0.464  166.782   94.744
  323.500    5.286    0.261    0.479  166.817   97.189
  323.750    5.295    0.268    0.479  167.879   99.633
  324.000    5.300    0.269    0.471  167.905   99.653
  324.250    5.119    0.268    0.458  167.939  100.886
  324.500    5.125    0.269    0.450  166.955  100.301
  324.750    5.040    0.273    0.440  165.989   98.509
  325.000    5.140    0.281    0.439  166.015   96.723
  325.250    5.240    0.288    0.434  165.040   94.916
  325.500    5.443    0.294    0.427  164.074   93.720
  325.750    5.761    0.295    0.422  164.100   89.505
  326.000    5.875    0.293    0.413  163.125   90.127
  326.250    6.103    0.286    0.402  162.150   92.571
  326.500    6.224    0.277    0.398  162.193   93.814
  326.750    6.233    0.264    0.395  162.236   93.834
  327.000    6.245    0.258    0.393  162.271   92.643
  327.250    6.249    0.253    0.389  162.297   90.847
  327.500    6.144    0.249    0.387  162.340   89.045
  327.750    5.930    0.248    0.382  162.366   86.648
  328.000    5.832    0.254    0.387  162.409   84.250
  328.250    5.838    0.264    0.408  162.453   83.049
  328.500    5.846    0.283    0.455  162.479   83.075
  328.750    5.854    0.285    0.465  162.505   85.519
  329.000    5.757    0.280    0.457  161.547   88.569
  329.250    5.664    0.276    0.456  161.582   91.013
  329.500    5.664    0.269    0.467  160.598   92.857
  329.750    5.998    0.267    0.481  160.633   92.877
  330.000    5.895    0.266    0.498  160.667   92.898
  330.250    5.797    0.265    0.505  159.692   92.919
  330.500    5.803    0.264    0.499  159.727   92.329
  330.750    5.811    0.264    0.491  159.762   91.744
  331.000    5.819    0.266    0.485  159.796   88.735
  331.250    5.828    0.266    0.472  159.840   85.121
  331.500    5.838    0.263    0.458  159.874   82.724
  331.750    5.738    0.261    0.440  159.918   84.562
  332.000    5.540    0.251    0.444  159.935   87.011
  332.250    5.548    0.251    0.458  159.978   89.450
  332.500    5.456    0.250    0.482  159.020   90.683
  332.750    5.360    0.250    0.487  159.046   90.704
  333.000    5.368    0.256    0.464  159.072   90.730
  333.250    5.377    0.265    0.446  158.115   90.750
  333.500    5.382    0.276    0.454  158.132   88.954
  333.750    5.389    0.286    0.464  157.174   85.940
  334.000    5.396    0.299    0.450  156.199   79.297
  334.250    5.405    0.316    0.430  156.225   71.442
  334.500    5.411    0.323    0.393  155.250   59.346
  334.750    5.422    0.325    0.402  155.276   56.954
  335.000    5.429    0.329    0.398  154.319   57.570
  335.250    5.339    0.337    0.393  154.345   60.626
  335.500    5.343    0.341    0.402  154.388   63.675
  335.750    5.350    0.338    0.416  154.414   66.725
  336.000    5.458    0.342    0.420  154.457   61.294
  336.250    5.566    0.347    0.409  154.483   55.256
  336.500    5.677    0.349    0.412  154.518   51.036
  336.750    5.788    0.349    0.424  154.561   50.451
  337.000    5.903    0.347    0.447  154.604   52.895
  337.250    6.022    0.332    0.448  154.630   57.157
  337.500    6.030    0.307    0.437  154.656   62.024
  337.750    6.042    0.294    0.427  154.691   66.286
  338.000    6.050    0.280    0.427  154.743   70.547
  338.250    6.056    0.286    0.430  154.769   72.386
  338.500    6.066    0.291    0.434  154.830   74.234
  338.750    6.074    0.302    0.439  154.856   76.678
  339.000    6.191    0.297    0.440  154.882   80.334
  339.250    6.199    0.287    0.437  154.908   83.379
  339.500    6.325    0.274    0.421  154.942   87.035
  339.750    6.452    0.272    0.411  154.994   89.484
  340.000    6.463    0.275    0.425  155.012   90.111
  340.250    6.468    0.276    0.412  156.056   90.126
  340.500    6.476    0.278    0.399  157.109   89.546
  340.750    6.487    0.283    0.394  159.163   89.567
  341.000    6.496    0.288    0.405  161.217   92.011
  341.250    6.386    0.282    0.415  164.290   97.490
  341.500    6.276    0.274    0.430  166.335  100.540
  341.750    6.170    0.264    0.447  168.389  102.979
  342.000    5.960    0.264    0.460  170.443  102.404
  342.250    5.858    0.269    0.464  170.478   99.390
  342.500    5.761    0.280    0.462  166.482   93.348
  342.750    5.770    0.294    0.457  163.497   84.281
  343.000    5.776    0.311    0.451  162.504   75.215
  343.250    5.784    0.314    0.435  160.537   66.754
  343.500    5.792    0.306    0.428  160.571   62.534
  343.750    5.909    0.295    0.417  159.596   61.954
  344.000    5.913    0.284    0.408  159.631   61.975
  344.250    6.034    0.272    0.403  159.666   64.419
  344.500    6.038    0.261    0.397  159.700   65.651
  344.750    6.160    0.272    0.409  159.726   64.471
  345.000    6.168    0.285    0.409  159.787   63.875
  345.250    6.179    0.300    0.405  159.813   61.478
  345.500    6.187    0.290    0.401  159.830   60.287
  345.750    6.312    0.278    0.397  160.883   62.726
  346.000    6.316    0.272    0.395  161.919   66.382
  346.250    6.442    0.265    0.402  162.972   70.644
  346.500    6.572    0.260    0.395  163.024   70.669
  346.750    6.581    0.257    0.385  163.041   68.873
  347.000    6.709    0.261    0.377  164.086   69.510
  347.250    6.723    0.266    0.369  164.120   68.314
  347.500    6.729    0.270    0.370  164.155   70.758
  347.750    6.738    0.275    0.387  165.199   68.961
  348.000    6.749    0.274    0.384  165.234   67.770
  348.250    6.758    0.267    0.376  165.277   68.392
  348.500    6.768    0.266    0.370  165.303   70.230
  348.750    6.774    0.265    0.376  165.338   70.862
  349.000    6.667    0.264    0.376  165.381   70.277
  349.250    6.673    0.261    0.371  165.425   69.086
  349.500    6.559    0.256    0.380  165.468   70.313
  349.750    6.446    0.245    0.408  165.485   75.186
  350.000    6.226    0.241    0.430  165.520   81.265
  350.250    6.232    0.234    0.439  165.555   88.555
  350.500    6.129    0.230    0.435  166.608   97.664
  350.750    6.140    0.233    0.424  166.634  104.954
  351.000    6.032    0.236    0.417  168.688  107.398
  351.250    6.040    0.240    0.407  169.732  105.006
  351.500    5.940    0.245    0.408  170.777  102.599
  351.750    6.058    0.253    0.417  170.829   95.961
  352.000    6.066    0.260    0.429  168.844   91.130
  352.250    6.074    0.267    0.429  163.830   84.486
  352.500    5.970    0.276    0.426  161.836   78.454
  352.750    5.869    0.283    0.426  159.852   76.652
  353.000    5.770    0.291    0.428  157.893   74.250
  353.250    5.575    0.297    0.427  156.901   71.241
  353.500    5.581    0.300    0.423  156.935   69.450
  353.750    5.588    0.303    0.415  155.960   70.076
  354.000    5.594    0.298    0.420  155.995   71.920
  354.250    5.502    0.285    0.425  156.038   73.753
  354.500    5.513    0.272    0.419  156.055   76.197
  354.750    5.414    0.265    0.415  156.099   78.636
  355.000    5.325    0.261    0.420  156.142   83.509
  355.250    5.233    0.260    0.424  157.178   86.558
  355.500    5.055    0.258    0.419  157.221   85.974
  355.750    5.058    0.260    0.414  157.264   84.788
  356.000    5.068    0.260    0.421  158.300   84.803
  356.250    5.075    0.262    0.429  158.344   85.440
  356.500    5.174    0.266    0.441  158.369   86.662
  356.750    5.279    0.269    0.452  158.404   89.112
  357.000    5.384    0.274    0.461  158.430   90.945
  357.250    5.494    0.277    0.461  158.465   85.513
  357.500    5.498    0.280    0.449  158.508   78.870
  357.750    5.505    0.283    0.435  158.543   72.832
