~VERSION INFORMATION
 VERS.                 2.0:   CWLS LOG ASCII STANDARD -VERSION 2.0
 WRAP.                  NO:   ONE LINE PER DEPTH STEP
~WELL INFORMATION BLOCK
#MNEM.UNIT           DATA                    DESCRIPTION OF MNEMONIC
#---------    -------------------            -------------------------------
# Generated from Intellog Unique Number	CX_WELLS/WELL/3997
WELL.         BRALORNE                       : Well_name    - WELL
LOC .         00/06-23-077-15W4/0            : Location     - LOCATION
UWI .         00/06-23-077-15W4/0            : Uwi          - UNIQUE WELL ID
ENTR.         T                              : Entered      - ENTERED BY
SRVC.         SCHLUMBERGER                   : Scn          - SERVICE COMPANY
DATE.         03/04/92                       : Date         - LOG DATE
STRT.M        275                            : top_depth    - START DEPTH
STOP.M        515                            : bot_depth    - STOP DEPTH
STEP.M        0.25                           : increment    - STEP LENGTH
 NULL. -999.2500:NULL Value
~CURVE INFORMATION BLOCK
#MNEM UNIT       ERCB CURVE CODE    CURVE DESCRIPTION
#-----------   ------------------   ----------------------------------
DEPT.M        00 001 00 00         : DEPTH        - DEPTH
GR  .API      00 310 00 00         : GR           - GAMMA RAY
NPHI.V/V      00 330 00 00         : PHIN         - NEUTRON POROSITY (SANDSTONE)
DPHI.V/V      00 890 00 00         : PHID         - DENSITY POROSITY (SANDSTONE)
ILD .OHMM     00 120 00 00         : RESD         - DEEP RESISTIVITY (DIL)
~PARAMETER INFORMATION
#MNEM.UNIT           DATA             DESCRIPTION OF MNEMONIC
#---------         -----------     ------------------------------
GL  .M        673                  : gl           - GROUND LEVEL ELEVATION
EREF.M        676.9                : kb           - ELEVATION OF DEPTH REFERENCE
DATM.M        676.9                : datum        - DATUM ELEVATION
TDD .M        520                  : tdd          - TOTAL DEPTH DRILLER
RUN .         ONE                  : Run          - RUN NUMBER
ENG .         JO                   : Engineer     - RECORDING ENGINEER
WIT .         TIM                  : Witness      - WITNESSED BY
MUD .         GEL                  : Mud_type     - MUD TYPE
MATR.         SANDSTONE            : Logunit      - NEUTRON MATRIX
TMAX.C        21                   : BHT          - MAXIMUM RECORDED TEMPERATURE
BHTD.M        520                  : BHTDEP       - MAXIMUM RECORDED TEMPERATURE
RMT .C        18                   : MDTP         - TEMPERATURE OF MUD
MUDD.KG/M     1                    : MWT          - MUD DENSITY
NEUT.         1                    : NEUTRON      - NEUTRON TYPE
RESI.         0                    : RESIST       - RESISTIVITY TYPE
RM  .OHMM     4                    : RM           - RESISTIVITY OF MUD
RMC .OHMM     3.8                  : RMC          - RESISTIVITY OF MUD CAKE
RMF .OHMM     4.1                  : RMF          - RESISTIVITY OF MUD FILTRATE
SUFT.C        4                    : SUFT         - SURFACE TEMPERATURE
~A  DEPTH       GR     PHIN     PHID     RESD
# ...
  318.500   93.426    0.348    0.228    9.438
  318.750  100.342    0.345    0.224    9.466
  319.000  106.000    0.343    0.220    9.305
  319.250  111.657    0.342    0.218    9.328
  319.500  109.202    0.346    0.217    9.351
  319.750  104.250    0.353    0.220    9.542
  320.000   98.049    0.363    0.230    9.915
  320.250   87.480    0.375    0.240   10.880
  320.500   71.908    0.369    0.254   11.513
  320.750   62.588    0.337    0.254   11.742
  321.000   60.766    0.328    0.249   12.207
  321.250   60.797    0.320    0.244   12.226
  321.500   60.234    0.325    0.238   12.256
  321.750   59.026    0.333    0.228   12.280
  322.000   57.809    0.337    0.225   12.077
  322.250   55.988    0.336    0.233   11.888
  322.500   54.156    0.335    0.245   11.703
  322.750   53.562    0.336    0.257   11.313
  323.000   53.603    0.337    0.263   11.120
  323.250   58.023    0.336    0.261   10.555
  323.500   61.808    0.336    0.258    9.839
  323.750   66.218    0.337    0.253    9.497
  324.000   73.124    0.343    0.249    8.382
  324.250   79.406    0.350    0.236    7.668
  324.500   87.560    0.362    0.215    7.268
  324.750   96.348    0.381    0.184    6.772
  325.000  102.630    0.403    0.181    6.663
  325.250  104.553    0.415    0.201    6.447
  325.500  102.711    0.407    0.216    6.453
  325.750  100.256    0.407    0.204    7.082
  326.000   96.562    0.407    0.204    7.631
  326.250   94.096    0.400    0.210    8.075
  326.500   92.265    0.396    0.214    8.545
  326.750   91.681    0.390    0.219    8.567
  327.000   91.119    0.385    0.222    8.583
  327.250   92.418    0.384    0.224    8.293
  327.500   94.311    0.381    0.220    7.723
  327.750   96.858    0.378    0.215    7.327
  328.000   97.513    0.376    0.201    7.213
  328.250   96.305    0.376    0.199    7.231
  328.500   93.225    0.377    0.237    7.382
  328.750   89.532    0.376    0.251    7.663
  329.000   86.442    0.371    0.253    7.827
  329.250   81.490    0.348    0.236    7.693
  329.500   81.541    0.347    0.244    7.433
  329.750   84.078    0.359    0.252    7.313
  330.000   87.239    0.368    0.255    7.328
  330.250   91.025    0.360    0.261    8.042
  330.500   77.959    0.342    0.268    9.670
  330.750   64.884    0.342    0.278   12.499
  331.000   59.932    0.340    0.279   16.461
  331.250   52.483    0.353    0.273   18.396
  331.500   41.914    0.398    0.287   19.116
  331.750   37.586    0.437    0.336   18.808
  332.000   37.013    0.421    0.328   18.506
  332.250   37.054    0.374    0.301   17.880
  332.500   38.343    0.336    0.280   17.284
  332.750   42.128    0.323    0.276   16.997
  333.000   45.924    0.319    0.283   16.732
  333.250   45.955    0.319    0.287   16.765
  333.500   45.995    0.320    0.287   16.496
  333.750   46.056    0.323    0.290   16.223
  334.000   46.077    0.334    0.294   15.690
  334.250   46.128    0.336    0.306   15.437
  334.500   46.179    0.332    0.306   15.189
  334.750   46.199    0.329    0.306   14.945
  335.000   45.002    0.329    0.307   14.704
  335.250   45.043    0.333    0.309   14.207
  335.500   44.459    0.340    0.313   13.727
  335.750   43.262    0.349    0.313   13.262
  336.000   43.313    0.336    0.310   13.539
  336.250   43.334    0.326    0.308   13.553
  336.500   43.374    0.329    0.304   13.836
  336.750   44.673    0.332    0.304   13.863
  337.000   46.587    0.331    0.306   14.139
  337.250   47.876    0.333    0.309   14.181
  337.500   48.541    0.337    0.293   14.202
  337.750   48.581    0.334    0.296   14.223
  338.000   48.622    0.329    0.292   14.527
  338.250   49.287    0.326    0.285   14.549
  338.500   50.576    0.343    0.282   14.845
  338.750   48.120    0.367    0.308   14.874
  339.000   45.041    0.389    0.325   14.119
  339.250   41.347    0.352    0.265   14.407
  339.500   41.388    0.341    0.259   14.693
  339.750   40.815    0.340    0.251   14.730
  340.000   40.211    0.337    0.256   14.759
  340.250   39.014    0.332    0.277   14.529
  340.500   39.054    0.327    0.290   14.024
  340.750   39.719    0.333    0.299   13.556
  341.000   38.522    0.337    0.301   13.338
  341.250   36.077    0.342    0.311   13.130
  341.500   35.473    0.339    0.315   13.404
  341.750   34.890    0.346    0.318   13.182
  342.000   34.930    0.357    0.322   12.970
  342.250   35.616    0.356    0.320   12.755
  342.500   35.636    0.347    0.317   12.550
  342.750   35.677    0.337    0.308   12.575
  343.000   35.728    0.342    0.308   12.606
  343.250   35.145    0.368    0.308   12.857
  343.500   33.947    0.379    0.306   12.882
  343.750   33.364    0.384    0.306   13.151
  344.000   33.405    0.371    0.306   13.171
  344.250   34.070    0.349    0.306   13.197
  344.500   34.734    0.329    0.305   13.472
  344.750   34.765    0.333    0.299   13.499
  345.000   34.806    0.335    0.297   13.774
  345.250   36.095    0.338    0.296   13.801
  345.500   37.394    0.343    0.300   14.083
  345.750   37.445    0.338    0.302   14.117
  346.000   37.486    0.328    0.303   14.145
  346.250   37.516    0.330    0.308   14.174
  346.500   37.567    0.339    0.305   13.694
  346.750   38.867    0.358    0.302   13.474
  347.000   39.521    0.357    0.303   13.251
  347.250   40.820    0.351    0.306   13.277
  347.500   40.841    0.344    0.309   13.310
  347.750   40.257    0.346    0.307   13.330
  348.000   38.426    0.342    0.302   13.615
  348.250   36.594    0.347    0.296   13.642
  348.500   34.159    0.355    0.284   13.662
  348.750   32.338    0.359    0.287   13.689
  349.000   31.734    0.344    0.292   13.482
  349.250   31.785    0.341    0.298   13.259
  349.500   31.826    0.354    0.303   13.052
  349.750   31.867    0.357    0.307   13.072
  350.000   32.532    0.337    0.310   13.091
  350.250   31.948    0.330    0.313   13.117
  350.500   31.365    0.329    0.306   13.149
  350.750   31.416    0.326    0.306   13.169
  351.000   30.812    0.323    0.306   13.208
  351.250   31.497    0.322    0.300   13.228
  351.500   33.421    0.325    0.293   13.504
  351.750   34.065    0.328    0.294   13.537
  352.000   34.116    0.343    0.296   13.551
  352.250   32.285    0.359    0.296   13.333
  352.500   31.691    0.370    0.298   13.366
  352.750   30.484    0.368    0.297   13.638
  353.000   30.524    0.341    0.295   13.659
  353.250   31.200    0.334    0.288   13.692
  353.500   31.854    0.361    0.282   13.726
  353.750   32.529    0.366    0.288   13.747
  354.000   32.570    0.363    0.293   13.767
  354.250   32.621    0.353    0.298   13.801
  354.500   32.672    0.351    0.298   13.586
  354.750   32.692    0.354    0.299   13.620
  355.000   32.754    0.363    0.300   13.633
  355.250   34.667    0.372    0.301   13.674
  355.500   35.311    0.376    0.305   13.687
  355.750   36.600    0.382    0.308   13.721
  356.000   34.799    0.387    0.306   13.748
  356.250   34.820    0.388    0.300   13.534
  356.500   36.119    0.386    0.288   13.547
  356.750   37.398    0.382    0.282   13.336
  357.000   39.321    0.375    0.283   13.369
  357.250   39.362    0.369    0.284   13.141
  357.500   38.778    0.361    0.287   13.174
  357.750   38.205    0.353    0.289   13.193
  358.000   38.225    0.348    0.289   13.226
  358.250   38.901    0.346    0.290   13.252
  358.500   40.210    0.344    0.290   13.285
  358.750   40.230    0.344    0.290   13.065
  359.000   40.906    0.345    0.290   12.861
  359.250   41.560    0.345    0.284   13.364
  359.500   42.235    0.343    0.274   14.149
  359.750   42.276    0.340    0.248   14.957
  360.000   42.307    0.296    0.207   17.022
  360.250   41.723    0.234    0.159   22.014
  360.500   37.395    0.170   -0.005   27.942
  360.750   35.564    0.152    0.000   31.241
  361.000   34.980    0.148    0.011   24.698
  361.250   36.290    0.175    0.026   21.396
  361.500   36.944    0.234    0.084   18.875
  361.750   38.233    0.310    0.256   16.659
