~VERSION INFORMATION
 VERS.                 2.0:   CWLS LOG ASCII STANDARD -VERSION 2.0
 WRAP.                  NO:   ONE LINE PER DEPTH STEP
~WELL INFORMATION BLOCK
#MNEM.UNIT           DATA                    DESCRIPTION OF MNEMONIC
#---------    -------------------            -------------------------------
# Generated from Intellog Unique Number	CW_73_75/WELL/2729
WELL.         MANNVILLE ET AL MITSUE 07-20   : Well_name    - WELL
LOC .         00/07-20-073-02W5/0            : Location     - LOCATION
UWI .         00/07-20-073-02W5/0            : Uwi          - UNIQUE WELL ID
ENTR.         JAYE                           : Entered      - ENTERED BY
SRVC.         SCHLUMBERGER                   : Scn          - SERVICE COMPANY
DATE.         21 MAR 78                      : Date         - LOG DATE
STRT.M        393.192                        : top_depth    - START DEPTH
STOP.M        603.442                        : bot_depth    - STOP DEPTH
STEP.M        0.25                           : increment    - STEP LENGTH
 NULL. -999.2500:NULL Value
~CURVE INFORMATION BLOCK
#MNEM UNIT       ERCB CURVE CODE    CURVE DESCRIPTION
#-----------   ------------------   ----------------------------------
DEPT.M        00 001 00 00         : DEPTH        - DEPTH
DPHI.V/V      00 890 00 00         : PHID         - DENSITY POROSITY (SANDSTONE)
NPHI.V/V      00 330 00 00         : PHIN         - NEUTRON POROSITY (SANDSTONE)
GR  .API      00 310 00 00         : GR           - GAMMA RAY
CALI.MM       00 280 01 00         : CAL          - CALIPER
ILD .OHMM     00 120 00 00         : RESD         - DEEP RESISTIVITY (DIL)
~PARAMETER INFORMATION
#MNEM.UNIT           DATA             DESCRIPTION OF MNEMONIC
#---------         -----------     ------------------------------
GL  .M        627.583              : gl           - GROUND LEVEL ELEVATION
EREF.M        630.631              : kb           - ELEVATION OF DEPTH REFERENCE
DATM.M        627.583              : datum        - DATUM ELEVATION
TDD .M        606.552              : tdd          - TOTAL DEPTH DRILLER
RUN .         ONE                  : Run          - RUN NUMBER
ENG .         DEROCHIE             : Engineer     - RECORDING ENGINEER
WIT .         RILEY                : Witness      - WITNESSED BY
MUD .         GEL GELEX            : Mud_type     - MUD TYPE
MATR.         SANDSTONE            : Logunit      - NEUTRON MATRIX
TMAX.C        17.2222              : BHT          - MAXIMUM RECORDED TEMPERATURE
BHTD.M        607.466              : BHTDEP       - MAXIMUM RECORDED TEMPERATURE
RMT .C        16.1111              : MDTP         - TEMPERATURE OF MUD
MUDD.KG/M     1188                 : MWT          - MUD DENSITY
NEUT.         1                    : NEUTRON      - NEUTRON TYPE
RESI.         0                    : RESIST       - RESISTIVITY TYPE
RM  .OHMM     4.53                 : RM           - RESISTIVITY OF MUD
RMC .OHMM     0                    : RMC          - RESISTIVITY OF MUD CAKE
RMF .OHMM     0                    : RMF          - RESISTIVITY OF MUD FILTRATE
SUFT.C        -17.7778             : SUFT         - SURFACE TEMPERATURE
~A  DEPTH     PHID     PHIN       GR      CAL     RESD
# ...
  502.692    0.277    0.411   64.120  158.902    4.375
  502.942    0.274    0.404   65.081  159.037    4.618
  503.192    0.271    0.393   66.540  159.391    4.864
  503.442    0.261    0.404   68.502  159.526    5.222
  503.692    0.249    0.428   69.649  159.559    5.532
  503.942    0.266    0.436   69.478  159.798    5.620
  504.192    0.259    0.420   70.815  159.829    5.527
  504.442    0.251    0.411   72.776  159.649    5.313
  504.692    0.261    0.429   75.305  159.784    5.088
  504.942    0.269    0.416   75.823  159.708    4.994
  505.192    0.249    0.386   75.275  159.843    4.893
  505.442    0.198    0.338   73.537  159.878    4.721
  505.692    0.165    0.307   70.356  160.014    4.796
  505.942    0.143    0.293   71.817  160.040    5.110
  506.192    0.151    0.328   73.528  160.071    5.497
  506.442    0.178    0.367   76.495  160.315    6.016
  506.692    0.214    0.386   78.643  159.918    6.621
  506.942    0.219    0.375   75.903  158.998    7.190
  507.192    0.260    0.375   77.991  158.814    7.545
  507.442    0.286    0.396   75.500  160.859    6.797
  507.692    0.287    0.414   73.197  163.864    5.997
  507.942    0.296    0.428   76.225  163.898    5.392
  508.192    0.295    0.431   77.999  163.822    4.848
  508.442    0.282    0.418   78.958  164.061    4.537
  508.692    0.267    0.407   76.656  163.669    4.395
  508.942    0.262    0.399   77.802  163.592    4.364
  509.192    0.269    0.394   81.833  163.412    4.408
  509.442    0.292    0.388   78.152  163.338    4.634
  509.692    0.279    0.389   75.224  162.838    4.863
  509.942    0.270    0.407   76.180  162.226    5.084
  510.192    0.283    0.438   77.515  162.042    5.304
  510.442    0.288    0.432   78.224  161.868    5.440
  510.692    0.281    0.451   78.807  160.512    5.121
  510.942    0.269    0.456   80.706  155.975    4.639
  511.192    0.288    0.458   81.163  154.413    4.140
  511.442    0.298    0.462   78.359  154.868    3.716
  511.692    0.291    0.460   78.188  155.641    3.504
  511.942    0.276    0.455   78.707  157.159    3.362
  512.192    0.271    0.446   78.977  158.787    3.332
  512.442    0.281    0.438   78.617  160.090    3.283
  512.692    0.287    0.445   79.952  161.075    3.260
  512.942    0.289    0.456   83.044  161.633    3.249
  513.192    0.287    0.443   81.493  162.200    3.238
  513.442    0.276    0.426   78.752  162.119    3.240
  513.692    0.294    0.441   76.890  161.939    3.229
  513.942    0.281    0.436   74.399  161.655    3.188
  514.192    0.219    0.423   71.468  161.468    3.159
  514.442    0.158    0.322   66.532  161.285    3.161
  514.692    0.063    0.273   63.163  161.424    3.311
  514.942    0.051    0.230   61.113  161.452    3.643
  515.192    0.041    0.207   60.378  161.698    4.198
  515.442    0.036    0.194   60.959  161.517    5.062
  515.692    0.026    0.191   62.483  161.546    6.490
  515.942    0.031    0.216   64.695  161.261   10.261
  516.192    0.060    0.249   67.850  161.076   14.776
  516.442    0.082    0.272   70.376  160.999   17.821
  516.692    0.123    0.298   73.215  160.817   19.025
  516.942    0.181    0.353   78.316  160.845   17.570
  517.192    0.271    0.422   81.846  160.455   14.037
  517.442    0.286    0.418   84.622  160.377    9.869
  517.692    0.288    0.421   83.762  160.410    6.692
  517.942    0.289    0.418   83.906  160.441    5.347
  518.192    0.288    0.424   83.985  160.361    4.654
  518.442    0.289    0.419   82.310  160.391    4.083
  518.692    0.270    0.413   79.633  160.633    3.657
  518.942    0.272    0.428   78.457  160.668    3.390
  519.192    0.272    0.444   78.163  160.588    3.247
  519.442    0.244    0.438   78.745  160.512    3.181
  519.692    0.232    0.433   79.327  160.228    3.122
  519.942    0.263    0.425   78.531  160.152    3.130
  520.192    0.280    0.418   77.294  159.969    3.102
  520.442    0.253    0.435   75.682  159.680    3.115
  520.692    0.229    0.441   75.259  159.603    3.238
  520.942    0.210    0.407   74.776  159.739    3.385
  521.192    0.189    0.384   74.983  159.558    3.572
  521.442    0.217    0.376   75.689  159.483    3.857
  521.692    0.243    0.424   79.532  159.515    4.270
  521.942    0.275    0.459   84.819  159.755    4.646
  522.192    0.289    0.447   85.026  159.578    4.968
  522.442    0.277    0.430   84.417  159.712    4.740
  522.692    0.259    0.440   85.564  160.062    4.360
  522.942    0.240    0.434   86.899  160.407    4.081
  523.192    0.220    0.429   88.797  160.865    3.819
  523.442    0.199    0.434   89.881  161.213    3.630
  523.692    0.185    0.437   90.590  161.672    3.716
  523.942    0.176    0.430   91.173  162.022    3.997
  524.192    0.236    0.416   89.873  162.258    4.250
  524.442    0.270    0.429   88.259  162.821    4.418
  524.692    0.253    0.430   87.840  163.279    4.505
  524.942    0.235    0.419   89.299  163.735    4.448
  525.192    0.217    0.417   93.456  164.511    4.324
  525.442    0.219    0.430   94.479  165.070    4.189
  525.692    0.239    0.464   95.501  165.630    4.112
  525.942    0.231    0.458   96.897  166.081    4.036
  526.192    0.216    0.442   98.733  166.114    4.000
  526.442    0.207    0.453  100.948  165.508    3.964
  526.692    0.203    0.462  103.536  164.794    3.958
  526.942    0.188    0.459  105.435  164.082    3.991
  527.192    0.201    0.442  104.888  163.262    4.062
  527.442    0.184    0.429  105.157  162.444    4.126
  527.692    0.188    0.437  101.915  161.836    4.264
  527.942    0.199    0.450  102.936  161.334    4.475
  528.192    0.181    0.451  105.967  161.047    4.589
  528.442    0.190    0.448  108.553  160.548    4.698
  528.692    0.188    0.437  107.567  160.472    4.773
  528.942    0.191    0.451  103.949  160.401    4.802
  529.192    0.195    0.466  105.410  160.424    4.805
  529.442    0.183    0.444  106.995  160.349    4.807
  529.692    0.164    0.442  107.326  160.279    4.791
  529.942    0.172    0.455  104.146  160.303    4.785
  530.192    0.172    0.453   99.209  160.335    4.842
  530.442    0.159    0.445   92.704  160.364    5.004
  530.692    0.124    0.415   87.203  160.393    5.191
  530.942    0.152    0.373   91.110  160.424    5.375
  531.192    0.191    0.396   99.970  160.352    5.471
  531.442    0.187    0.421  104.943  160.275    5.537
  531.692    0.175    0.421  107.784  160.311    5.572
  531.942    0.152    0.431  103.348  160.439    5.596
  532.192    0.167    0.429   98.037  160.578    5.556
  532.442    0.185    0.425   94.980  160.713    5.423
  532.692    0.210    0.426   99.764  160.750    5.262
  532.942    0.205    0.428  104.675  160.669    5.156
  533.192    0.198    0.423  106.699  160.699    5.100
  533.442    0.198    0.422  106.779  160.731    5.054
  533.692    0.183    0.414  105.168  160.548    4.980
  533.942    0.177    0.426  106.316  160.578    4.925
  534.192    0.170    0.434  105.831  160.713    4.817
  534.442    0.164    0.421  100.457  161.067    4.710
  534.692    0.182    0.412   97.588  161.201    4.597
  534.942    0.177    0.417   97.607  161.336    4.530
  535.192    0.189    0.426  103.644  161.472    4.541
  535.442    0.192    0.425  102.345  161.715    4.613
  535.692    0.197    0.420  102.112  161.957    4.722
  535.942    0.185    0.418  107.398  162.626    4.871
  536.192    0.204    0.425  114.127  163.823    5.053
  536.442    0.222    0.434  120.230  166.193    5.192
  536.692    0.199    0.446  120.560  168.133    5.285
  536.942    0.183    0.457  109.289  169.650    5.188
  537.192    0.175    0.459  104.041  167.346    4.911
  537.442    0.182    0.464  100.358  166.103    4.623
  537.692    0.192    0.462   96.549  165.500    4.343
  537.942    0.207    0.449   92.239  165.208    4.223
  538.192    0.221    0.437   89.249  165.128    4.209
  538.442    0.233    0.440   90.897  164.949    4.325
  538.692    0.238    0.433   95.180  165.084    4.478
  538.942    0.233    0.421   94.883  165.221    4.681
