~VERSION INFORMATION
 VERS.                 2.0:   CWLS LOG ASCII STANDARD -VERSION 2.0
 WRAP.                  NO:   ONE LINE PER DEPTH STEP
~WELL INFORMATION BLOCK
#MNEM.UNIT           DATA                    DESCRIPTION OF MNEMONIC
#---------    -------------------            -------------------------------
# Generated from Intellog Unique Number	CS_73_76/WELL/2164
WELL.         PEX KIRBY                      : Well_name    - WELL
LOC .         00/06-15-074-08W4/0            : Location     - LOCATION
UWI .         00/06-15-074-08W4/0            : Uwi          - UNIQUE WELL ID
ENTR.         SP                             : Entered      - ENTERED BY
SRVC.         SCHLUMBERGER                   : Scn          - SERVICE COMPANY
STRT.M        305                            : top_depth    - START DEPTH
STOP.M        525                            : bot_depth    - STOP DEPTH
STEP.M        0.25                           : increment    - STEP LENGTH
 NULL. -999.2500:NULL Value
~CURVE INFORMATION BLOCK
#MNEM UNIT       ERCB CURVE CODE    CURVE DESCRIPTION
#-----------   ------------------   ----------------------------------
DEPT.M        00 001 00 00         : DEPTH        - DEPTH
ILD .OHMM     00 120 00 00         : RESD         - DEEP RESISTIVITY (DIL)
DPHI.V/V      00 890 00 00         : PHID         - DENSITY POROSITY (LIMESTONE)
NPHI.V/V      00 330 00 00         : PHIN         - NEUTRON POROSITY (LIMESTONE)
GR  .API      00 310 00 00         : GR           - GAMMA RAY
~PARAMETER INFORMATION
#MNEM.UNIT           DATA             DESCRIPTION OF MNEMONIC
#---------         -----------     ------------------------------
GL  .M        683.67               : gl           - GROUND LEVEL ELEVATION
EREF.M        686.87               : kb           - ELEVATION OF DEPTH REFERENCE
DATM.M        683.67               : datum        - DATUM ELEVATION
TDD .M        534                  : tdd          - TOTAL DEPTH DRILLER
RUN .         ONE                  : Run          - RUN NUMBER
ENG .         BILL                 : Engineer     - RECORDING ENGINEER
WIT .         JIM                  : Witness      - WITNESSED BY
MUD .         GEL                  : Mud_type     - MUD TYPE
MATR.         LIMESTONE            : Logunit      - NEUTRON MATRIX
TMAX.C        34                   : BHT          - MAXIMUM RECORDED TEMPERATURE
BHTD.M        534                  : BHTDEP       - MAXIMUM RECORDED TEMPERATURE
MATR.         1                    : LOGUNIT      - NEUTRON MATRIX
RMT .C        25                   : MDTP         - TEMPERATURE OF MUD
NEUT.         1                    : NEUTRON      - NEUTRON TYPE
RESI.         0                    : RESIST       - RESISTIVITY TYPE
RMC .OHMM     0.25                 : RMC          - RESISTIVITY OF MUD CAKE
RMF .OHMM     0.25                 : RMF          - RESISTIVITY OF MUD FILTRATE
SUFT.C        15                   : SUFT         - SURFACE TEMPERATURE
~A  DEPTH     RESD     PHID     PHIN       GR
  305.000    3.763    0.220    0.410   91.975
  305.250    3.763    0.217    0.407   96.918
  305.500    3.911    0.205    0.389   95.072
  305.750    3.912    0.200    0.387   92.607
  306.000    3.913    0.197    0.394   90.144
  306.250    3.841    0.193    0.414   91.383
  306.500    3.843    0.189    0.427   96.943
  306.750    3.772    0.184    0.432  102.503
  307.000    3.774    0.197    0.442  104.977
  307.250    3.704    0.196    0.443  100.661
  307.500    3.637    0.185    0.434  101.902
  307.750    3.638    0.194    0.445  103.140
  308.000    3.708    0.210    0.451  100.058
  308.250    3.709    0.202    0.429  100.063
  308.500    3.927    0.201    0.421  102.538
  308.750    4.236    0.178    0.408   98.221
  309.000    4.747    0.155    0.399   95.139
  309.250    5.218    0.147    0.394   93.910
  309.500    6.424    0.212    0.379   91.446
  309.750    7.196    0.248    0.372   88.365
  310.000    8.860    0.290    0.362   87.752
  310.250   14.208    0.279    0.358   89.609
  310.500   14.761    0.248    0.341   97.022
  310.750   15.048    0.192    0.324  103.200
  311.000   17.505    0.191    0.320  106.290
  311.250   19.610    0.207    0.325  103.826
  311.500   22.388    0.232    0.320   85.930
  311.750   23.702    0.257    0.307   67.417
  312.000   24.162    0.286    0.293   59.397
  312.250   24.170    0.324    0.287   55.082
  312.500   22.849    0.355    0.279   51.382
  312.750   20.800    0.375    0.313   52.621
  313.000   20.037    0.347    0.332   57.564
  313.250   20.046    0.280    0.340   63.127
  313.500   20.052    0.296    0.347   66.217
  313.750   20.056    0.265    0.331   68.073
  314.000   19.689    0.201    0.329   63.758
  314.250   18.613    0.006    0.355   63.146
  314.500   17.267    0.205    0.366   63.767
  314.750   16.634    0.295    0.373   66.858
  315.000   16.637    0.284    0.373   69.950
  315.250   16.334    0.274    0.367   73.659
  315.500   15.439    0.267    0.373   77.368
  315.750   14.597    0.244    0.363   78.607
  316.000   14.878    0.246    0.356   79.846
  316.250   15.168    0.191    0.352   83.554
  316.500   15.758    0.207    0.351   87.262
  316.750   16.370    0.222    0.368   86.650
  317.000   17.331    0.227    0.385   85.420
  317.250   18.002    0.235    0.385   84.807
  317.500   18.702    0.250    0.359   81.726
  317.750   18.709    0.267    0.367   71.237
  318.000   18.715    0.287    0.373   66.305
  318.250   18.722    0.296    0.367   66.927
  318.500   19.822    0.275    0.356   66.314
  318.750   20.588    0.246    0.358   61.382
  319.000   23.508    0.309    0.347   57.065
  319.250   24.423    0.332    0.343   48.428
  319.500   24.895    0.324    0.342   42.878
  319.750   24.903    0.318    0.346   42.265
  320.000   25.389    0.315    0.336   44.741
  320.250   25.396    0.323    0.342   46.596
  320.500   24.929    0.340    0.352   48.452
  320.750   24.015    0.334    0.341   52.781
  321.000   22.707    0.324    0.348   53.403
  321.250   21.874    0.329    0.351   53.406
  321.500   21.471    0.333    0.342   54.027
  321.750   21.077    0.325    0.338   59.590
  322.000   20.688    0.281    0.332   61.444
  322.250   20.308    0.255    0.339   63.918
  322.500   20.703    0.270    0.349   63.306
  322.750   20.714    0.292    0.353   60.227
  323.000   20.330    0.275    0.362   58.379
  323.250   17.486    0.233    0.360   59.000
  323.500   13.433    0.277    0.359   62.708
  323.750   12.226    0.276    0.364   67.652
  324.000   10.517    0.160    0.383   75.064
  324.250    8.549    0.107    0.396   96.057
  324.500    7.636    0.134    0.390  103.468
  324.750    6.325    0.120    0.397  108.413
  325.000    5.758    0.142    0.403  109.034
  325.250    5.341    0.167    0.413  112.125
  325.500    4.682    0.157    0.419  115.834
  325.750    4.343    0.155    0.427  116.456
  326.000    3.954    0.136    0.426  121.399
  326.250    3.808    0.151    0.433  121.405
  326.500    3.738    0.155    0.438  116.473
  326.750    3.740    0.157    0.429  113.390
  327.000    4.604    0.183    0.419  108.456
  327.250    5.669    0.208    0.410  104.139
  327.500    6.849    0.224    0.384   94.887
  327.750    8.432    0.224    0.361   88.101
  328.000   11.627    0.237    0.357   77.612
  328.250   13.272    0.247    0.355   70.827
  328.500   15.441    0.260    0.350   70.214
  328.750   16.347    0.237    0.347   65.899
  329.000   16.665    0.218    0.348   62.817
  329.250   16.360    0.250    0.359   64.673
  329.500   16.676    0.252    0.365   68.382
  329.750   17.003    0.266    0.368   69.004
  330.000   17.007    0.260    0.371   68.392
  330.250   17.016    0.283    0.379   66.545
  330.500   17.021    0.315    0.381   65.315
  330.750   17.025    0.321    0.374   64.706
  331.000   17.031    0.311    0.377   65.325
  331.250   17.037    0.294    0.381   66.565
  331.500   16.728    0.274    0.390   67.805
  331.750   17.053    0.261    0.395   68.426
  332.000   17.059    0.253    0.382   68.431
  332.250   17.388    0.271    0.375   69.055
  332.500   17.725    0.283    0.363   69.676
  332.750   18.415    0.290    0.351   67.829
  333.000   18.772    0.301    0.355   64.130
  333.250   19.134    0.287    0.360   61.666
  333.500   19.881    0.278    0.359   62.904
  333.750   20.266    0.284    0.354   62.294
  334.000   21.055    0.252    0.350   61.682
  334.250   21.060    0.233    0.348   61.068
  334.500   21.471    0.257    0.349   61.691
  334.750   21.075    0.307    0.358   62.313
  335.000   20.302    0.325    0.367   62.937
  335.250   19.191    0.307    0.364   63.558
  335.500   18.143    0.291    0.369   64.796
  335.750   18.496    0.290    0.375   66.035
  336.000   19.218    0.294    0.370   63.572
  336.250   19.589    0.306    0.370   64.193
  336.500   19.967    0.301    0.381   62.965
  336.750   20.353    0.295    0.378   59.882
  337.000   20.362    0.277    0.364   58.653
  337.250   19.990    0.280    0.356   61.743
  337.500   18.898    0.275    0.361   67.306
  337.750   18.202    0.265    0.365   70.396
  338.000   16.886    0.288    0.371   74.104
  338.250   16.265    0.290    0.375   79.666
  338.500   15.669    0.283    0.373   83.374
  338.750   15.674    0.275    0.367   83.996
  339.000   15.979    0.279    0.357   80.914
  339.250   16.288    0.283    0.359   77.215
  339.500   16.924    0.281    0.360   74.134
  339.750   17.251    0.285    0.347   71.671
  340.000   17.587    0.273    0.341   69.206
  340.250   17.592    0.263    0.336   72.296
  340.500   17.598    0.254    0.335   76.007
  340.750   17.279    0.229    0.339   76.628
  341.000   17.614    0.202    0.339   76.633
  341.250   17.619    0.225    0.340   73.551
  341.500   17.295    0.252    0.341   69.235
  341.750   17.300    0.257    0.347   65.535
  342.000   16.667    0.237    0.355   65.541
  342.250   16.054    0.253    0.365   72.337
  342.500   14.892    0.258    0.362   75.427
  342.750   13.556    0.244    0.357   80.987
  343.000   12.578    0.226    0.360   90.253
  343.250   12.115    0.211    0.365   93.343
  343.500   11.892    0.202    0.377   95.202
  343.750   11.673    0.194    0.384   96.439
  344.000   12.593    0.197    0.373   97.062
  344.250   13.333    0.226    0.363   93.364
  344.500   13.852    0.234    0.366   88.430
  344.750   13.854    0.237    0.372   85.965
  345.000   13.098    0.222    0.361   87.204
  345.250   11.266    0.224    0.356   90.915
  345.500   10.254    0.229    0.367   92.769
  345.750    8.990    0.216    0.374  100.182
  346.000    8.339    0.176    0.393  105.742
  346.250    8.032    0.165    0.408  110.686
  346.500    7.593    0.166    0.408  113.159
  346.750    7.596    0.181    0.411  113.165
  347.000    7.743    0.191    0.430  110.085
  347.250    8.513    0.191    0.429  108.235
  347.500    9.011    0.198    0.419  102.685
  347.750   10.098    0.218    0.409   99.605
  348.000   10.688    0.229    0.403   98.992
  348.250   11.532    0.197    0.392  100.849
