~VERSION INFORMATION
 VERS.                 2.0:   CWLS LOG ASCII STANDARD -VERSION 2.0
 WRAP.                  NO:   ONE LINE PER DEPTH STEP
~WELL INFORMATION BLOCK
#MNEM.UNIT           DATA                    DESCRIPTION OF MNEMONIC
#---------    -------------------            -------------------------------
# Generated from Intellog Unique Number	CS_77_79/WELL/905
WELL.         MESA HB THORNBURY              : Well_name    - WELL
LOC .         00/07-22-078-12W4/0            : Location     - LOCATION
UWI .         00/07-22-078-12W4/0            : Uwi          - UNIQUE WELL ID
ENTR.         JHS                            : Entered      - ENTERED BY
SRVC.         SCHLUMBERGER                   : Scn          - SERVICE COMPANY
STRT.M        256.032                        : top_depth    - START DEPTH
STOP.M        475.282                        : bot_depth    - STOP DEPTH
STEP.M        0.25                           : increment    - STEP LENGTH
 NULL. -999.2500:NULL Value
~CURVE INFORMATION BLOCK
#MNEM UNIT       ERCB CURVE CODE    CURVE DESCRIPTION
#-----------   ------------------   ----------------------------------
DEPT.M        00 001 00 00         : DEPTH        - DEPTH
RHOB.KG/M3    00 350 00 00         : DENS         - BULK DENSITY
GR  .API      00 310 00 00         : GR           - GAMMA RAY
DPHI.V/V      00 890 00 00         : PHID         - DENSITY POROSITY (SANDSTONE)
NPHI.V/V      00 330 00 00         : PHIN         - NEUTRON POROSITY (SANDSTONE)
ILD .OHMM     00 120 00 00         : RESD         - DEEP RESISTIVITY (DIL)
~PARAMETER INFORMATION
#MNEM.UNIT           DATA             DESCRIPTION OF MNEMONIC
#---------         -----------     ------------------------------
GL  .M        675.315              : gl           - GROUND LEVEL ELEVATION
EREF.M        679.094              : kb           - ELEVATION OF DEPTH REFERENCE
DATM.M        679.094              : datum        - DATUM ELEVATION
TDD .M        490.728              : tdd          - TOTAL DEPTH DRILLER
RUN .         ONE                  : Run          - RUN NUMBER
ENG .         BILL                 : Engineer     - RECORDING ENGINEER
WIT .         JIM                  : Witness      - WITNESSED BY
MUD .         GEL                  : Mud_type     - MUD TYPE
MATR.         SANDSTONE            : Logunit      - NEUTRON MATRIX
TMAX.C        19.4444              : BHT          - MAXIMUM RECORDED TEMPERATURE
BHTD.M        490.728              : BHTDEP       - MAXIMUM RECORDED TEMPERATURE
MATR.         1                    : LOGUNIT      - NEUTRON MATRIX
RMT .C        25                   : MDTP         - TEMPERATURE OF MUD
NEUT.         1                    : NEUTRON      - NEUTRON TYPE
RESI.         0                    : RESIST       - RESISTIVITY TYPE
RMC .OHMM     0.25                 : RMC          - RESISTIVITY OF MUD CAKE
RMF .OHMM     0.25                 : RMF          - RESISTIVITY OF MUD FILTRATE
SUFT.C        15                   : SUFT         - SURFACE TEMPERATURE
~A  DEPTH     DENS       GR     PHID     PHIN     RESD
# ...
  292.532    0.000   98.896    0.270    0.409   13.642
  292.782    0.000  101.502    0.259    0.396   13.087
  293.032    0.000  108.175    0.221    0.410   12.895
  293.282    0.000  115.344    0.241    0.433   13.086
  293.532    0.000  119.473    0.270    0.410   13.678
  293.782    0.000  115.879    0.256    0.382   14.831
  294.032    0.000  110.590    0.248    0.391   15.009
  294.282    0.000  104.286    0.266    0.387   15.059
  294.532    0.000  100.643    0.238    0.390   14.196
  294.782    0.000   99.841    0.259    0.403   13.032
  295.032    0.000  103.945    0.249    0.423   12.126
  295.282    0.000  106.276    0.217    0.415   11.061
  295.532    0.000  107.934    0.225    0.416   10.323
  295.782    0.000  101.392    0.225    0.423    9.694
  296.032    0.000  100.754    0.210    0.435    9.791
  296.282    0.000  104.084    0.219    0.457    9.911
  296.532    0.000  108.851    0.244    0.483   11.073
  296.782    0.000  108.378    0.275    0.490   12.702
  297.032    0.000  100.120    0.266    0.472   14.418
  297.282    0.000   95.255    0.268    0.451   15.291
  297.532    0.000   90.752    0.279    0.452   15.556
  297.782    0.000   89.332    0.267    0.463   15.315
  298.032    0.000   89.685    0.248    0.475   14.890
  298.282    0.000   90.964    0.266    0.459   14.100
  298.532    0.000   95.164    0.271    0.438   13.282
  298.782    0.000   97.598    0.248    0.443   12.469
  299.032    0.000   95.107    0.237    0.460   12.274
  299.282    0.000   91.395    0.226    0.450   12.066
  299.532    0.000   91.645    0.245    0.449   12.076
  299.782    0.000   95.159    0.254    0.456   12.352
  300.032    0.000   97.478    0.267    0.452   12.866
  300.282    0.000   96.862    0.268    0.456   13.941
  300.532    0.000   93.290    0.240    0.457   14.637
  300.782    0.000   91.556    0.225    0.446   14.520
  301.032    0.000   90.134    0.243    0.438   13.265
  301.282    0.000   92.005    0.247    0.441   11.005
  301.532    0.000   94.283    0.262    0.451    9.700
  301.782    0.000   99.840    0.246    0.456    9.184
  302.032    0.000  107.190    0.243    0.465    9.040
  302.282    0.000  109.228    0.255    0.463    9.443
  302.532    0.000  107.220    0.236    0.443    9.864
  302.782    0.000  101.019    0.262    0.436   11.223
  303.032    0.000   96.242    0.289    0.425   12.114
  303.282    0.000   91.067    0.278    0.418   12.525
  303.532    0.000   87.739    0.270    0.412   12.558
  303.782    0.000   82.754    0.282    0.404   12.637
  304.032    0.000   80.205    0.305    0.401   12.791
  304.282    0.000   79.213    0.295    0.405   13.930
  304.532    0.000   78.142    0.272    0.407   16.825
  304.782    0.000   73.881    0.281    0.419   19.061
  305.032    0.000   64.730    0.308    0.432   24.164
  305.282    0.000   50.757    0.288    0.409   29.359
  305.532    0.000   39.140    0.299    0.391   36.175
  305.782    0.000   36.729    0.314    0.374   48.608
  306.032    0.000   37.609    0.318    0.372   70.393
  306.282    0.000   38.588    0.327    0.392   85.005
  306.532    0.000   40.572    0.330    0.412   93.533
  306.782    0.000   41.927    0.320    0.420   83.941
  307.032    0.000   43.937    0.313    0.405   64.264
  307.282    0.000   46.970    0.306    0.392   48.722
  307.532    0.000   49.886    0.294    0.379   42.304
  307.782    0.000   51.947    0.282    0.380   41.368
  308.032    0.000   53.113    0.289    0.402   42.586
  308.282    0.000   53.251    0.319    0.416   44.604
  308.532    0.000   50.899    0.300    0.423   47.355
  308.782    0.000   49.223    0.291    0.426   50.339
  309.032    0.000   46.567    0.320    0.433   52.072
  309.282    0.000   46.029    0.303    0.427   50.921
  309.532    0.000   47.178    0.290    0.416   53.284
  309.782    0.000   48.543    0.320    0.431   52.252
  310.032    0.000   47.748    0.333    0.433   52.641
  310.282    0.000   47.845    0.312    0.411   53.472
  310.532    0.000   46.493    0.322    0.421   52.323
  310.782    0.000   45.258    0.315    0.428   53.684
  311.032    0.000   45.390    0.334    0.429   53.506
  311.282    0.000   46.875    0.335    0.437   56.510
  311.532    0.000   50.645    0.320    0.430   66.176
  311.782    0.000   51.595    0.325    0.417   81.204
  312.032    0.000   51.807    0.341    0.422   89.545
  312.282    0.000   50.472    0.325    0.425   98.320
  312.532    0.000   50.519    0.307    0.429   99.927
  312.782    0.000   51.426    0.297    0.439   98.871
  313.032    0.000   52.439    0.302    0.443   92.905
  313.282    0.000   55.782    0.320    0.413   74.797
  313.532    0.000   57.533    0.307    0.396   67.909
  313.782    0.000   58.063    0.301    0.410   58.781
  314.032    0.000   57.116    0.317    0.403   53.515
  314.282    0.000   56.228    0.312    0.417   48.799
  314.532    0.000   56.207    0.337    0.426   43.781
  314.782    0.000   57.914    0.335    0.418   38.988
  315.032    0.000   58.859    0.319    0.426   34.684
  315.282    0.000   60.402    0.334    0.424   31.699
  315.532    0.000   61.496    0.349    0.434   28.996
  315.782    0.000   62.536    0.337    0.423   26.889
  316.032    0.000   61.250    0.338    0.427   24.686
  316.282    0.000   61.184    0.338    0.436   22.872
  316.532    0.000   60.246    0.314    0.439   22.043
  316.782    0.000   57.190    0.321    0.436   20.499
  317.032    0.000   51.321    0.332    0.424   20.396
  317.282    0.000   50.816    0.320    0.420   20.145
  317.532    0.000   55.889    0.322    0.416   19.762
  317.782    0.000   59.256    0.332    0.410   19.353
  318.032    0.000   60.318    0.344    0.413   19.112
  318.282    0.000   59.442    0.343    0.431   18.726
  318.532    0.000   58.445    0.330    0.424   18.773
  318.782    0.000   55.802    0.324    0.421   19.075
  319.032    0.000   54.935    0.325    0.422   19.145
  319.282    0.000   54.996    0.334    0.414   19.565
  319.532    0.000   56.459    0.342    0.431   20.248
  319.782    0.000   57.681    0.351    0.431   20.447
  320.032    0.000   58.164    0.356    0.419   20.762
  320.282    0.000   57.198    0.356    0.403   20.777
  320.532    0.000   56.234    0.349    0.394   20.749
  320.782    0.000   55.211    0.342    0.404   20.120
  321.032    0.000   55.189    0.329    0.393   19.517
  321.282    0.000   56.065    0.321    0.389   18.890
  321.532    0.000   58.146    0.309    0.400   17.737
  321.782    0.000   61.057    0.317    0.419   16.826
  322.032    0.000   62.663    0.331    0.431   17.080
  322.282    0.000   62.103    0.352    0.450   17.589
  322.532    0.000   56.694    0.394    0.479   18.569
  322.782    0.000   51.184    0.415    0.534   19.142
  323.032    0.000   46.570    0.410    0.539   19.354
  323.282    0.000   44.912    0.349    0.480   19.944
  323.532   -0.000   45.620    0.350    0.442   19.944
  323.782    0.000   46.965    0.360    0.441   19.961
  324.032    0.000   48.209    0.339    0.445   19.990
  324.282   -0.000   48.650    0.348    0.431   20.006
  324.532   -0.000   50.426    0.350    0.442   20.042
  324.782   -0.000   51.415    0.336    0.431   20.087
  325.032    0.000   51.579    0.340    0.433   20.436
  325.282    0.000   50.598    0.354    0.432   20.871
  325.532    0.000   48.953    0.330    0.411   21.284
  325.782   -0.000   47.953    0.322    0.410   21.537
  326.032   -0.000   47.983    0.319    0.418   22.178
  326.282    0.000   48.979    0.311    0.411   22.166
  326.532    0.000   53.533    0.329    0.416   22.179
  326.782    0.000   55.361    0.329    0.407   22.138
  327.032   -0.000   55.403    0.315    0.407   21.808
  327.282   -0.000   53.200    0.327    0.407   21.645
  327.532   -0.000   50.262    0.323    0.407   21.481
  327.782    0.000   49.770    0.311    0.416   21.493
  328.032    0.000   50.517    0.326    0.412   21.520
  328.282    0.000   50.456    0.315    0.406   21.545
  328.532   -0.000   48.864    0.310    0.412   21.570
  328.782   -0.000   46.856    0.317    0.406   21.597
