~VERSION INFORMATION
 VERS.                 2.0:   CWLS LOG ASCII STANDARD -VERSION 2.0
 WRAP.                  NO:   ONE LINE PER DEPTH STEP
~WELL INFORMATION BLOCK
#MNEM.UNIT           DATA                    DESCRIPTION OF MNEMONIC
#---------    -------------------            -------------------------------
# Generated from Intellog Unique Number	CW_76_78/WELL/2796
WELL.         TENN AMOCO A-2 MCMULLEN 07-11  : Well_name    - WELL
LOC .         00/07-11-077-01W5/0            : Location     - LOCATION
UWI .         00/07-11-077-01W5/0            : Uwi          - UNIQUE WELL ID
ENTR.         JJ                             : Entered      - ENTERED BY
SRVC.         WESTERN ATLAS                  : Scn          - SERVICE COMPANY
DATE.         1FEB 71                        : Date         - LOG DATE
STRT.M        557.784                        : top_depth    - START DEPTH
STOP.M        685.784                        : bot_depth    - STOP DEPTH
STEP.M        0.25                           : increment    - STEP LENGTH
 NULL. -999.2500:NULL Value
~CURVE INFORMATION BLOCK
#MNEM UNIT       ERCB CURVE CODE    CURVE DESCRIPTION
#-----------   ------------------   ----------------------------------
DEPT.M        00 001 00 00         : DEPTH        - DEPTH
DELT.US/F     00 520 00 00         : DELT         - SONIC TRAVEL TIME
CALI.MM       00 280 01 00         : CAL          - CALIPER
GR  .API      00 310 00 00         : GR           - GAMMA RAY
ILD .OHMM     00 120 00 00         : RESD         - DEEP RESISTIVITY (DIL)
~PARAMETER INFORMATION
#MNEM.UNIT           DATA             DESCRIPTION OF MNEMONIC
#---------         -----------     ------------------------------
GL  .M        746.455              : gl           - GROUND LEVEL ELEVATION
EREF.M        750.113              : kb           - ELEVATION OF DEPTH REFERENCE
DATM.M        746.455              : datum        - DATUM ELEVATION
TDD .M        690.982              : tdd          - TOTAL DEPTH DRILLER
RUN .         ONE                  : Run          - RUN NUMBER
ENG .         GAU                  : Engineer     - RECORDING ENGINEER
WIT .         FOREMAN-SORENSEN     : Witness      - WITNESSED BY
BASE.         R.D.                 : Branch       - HOME BASE OF LOGGING UNIT
MUD .         MUD                  : Mud_type     - MUD TYPE
MATR.         SANDSTONE            : Logunit      - NEUTRON MATRIX
TMAX.C        23.3333              : BHT          - MAXIMUM RECORDED TEMPERATURE
BHTD.M        688.238              : BHTDEP       - MAXIMUM RECORDED TEMPERATURE
RMT .C        8.33333              : MDTP         - TEMPERATURE OF MUD
MUDD.KG/M     1152                 : MWT          - MUD DENSITY
NEUT.         1                    : NEUTRON      - NEUTRON TYPE
RESI.         0                    : RESIST       - RESISTIVITY TYPE
RM  .OHMM     6                    : RM           - RESISTIVITY OF MUD
RMC .OHMM     6.2                  : RMC          - RESISTIVITY OF MUD CAKE
RMF .OHMM     5                    : RMF          - RESISTIVITY OF MUD FILTRATE
SUFT.C        5                    : SUFT         - SURFACE TEMPERATURE
~A  DEPTH     DELT      CAL       GR     RESD
# ...
  644.784  344.712  221.726   32.578    6.471
  645.034  345.929  221.959   34.246    6.120
  645.284  348.979  222.102   34.647    5.868
  645.534  356.926  222.039   33.747    5.675
  645.784  354.416  221.367   33.039    5.501
  646.034  351.133  220.087   32.433    5.348
  646.284  347.392  218.910   31.627    5.234
  646.534  350.177  218.044   31.742    5.199
  646.784  351.069  217.774   32.197    5.206
  647.034  352.486  218.418   32.895    5.211
  647.284  349.393  219.559   34.799    5.215
  647.534  342.380  221.017   34.625    5.200
  647.784  339.160  221.552   33.771    5.206
  648.034  347.958  221.791   33.983    5.211
  648.284  353.292  221.928   34.537    5.296
  648.534  348.567  222.163   34.560    5.440
  648.784  344.884  222.606   34.819    5.504
  649.034  341.076  222.740   36.094    5.668
  649.284  342.686  222.377   38.774    5.871
  649.534  344.823  222.106   42.858    6.173
  649.784  345.715  221.939   44.720    6.435
  650.034  344.518  221.368   45.174    6.618
  650.284  344.297  219.287   47.032    6.802
  650.534  346.626  217.911   48.308    6.966
  650.784  346.083  218.453   47.990    7.169
  651.034  341.165  219.596   49.362    7.333
  651.284  330.171  220.443   52.674    7.337
  651.534  326.491  220.785   54.629    7.382
  651.784  351.159  220.715   56.874    7.626
  652.034  352.249  220.748   49.391    7.590
  652.284  296.186  220.784   38.613    7.259
  652.534  327.253  221.233   39.651    6.929
  652.784  355.644  221.473   41.073    6.834
  653.034  406.960  221.312   42.545    6.681
  653.284  367.618  220.936   43.775    6.607
  653.534  385.559  220.162   44.517    6.590
  653.784  357.778  218.585   45.166    6.538
  654.034  356.056  218.717   46.154    6.601
  654.284  340.688  220.268   47.575    6.626
  654.534  346.934  221.110   48.901    6.770
  654.784  360.432  221.457   50.230    7.072
  655.034  353.751  221.897   51.747    7.552
  655.284  308.662  222.834   53.899    8.627
  655.534  329.583  225.194   55.462   10.614
  655.784  322.220  222.402   52.772   11.829
  656.034  332.124  219.005   55.742   12.210
  656.284  272.697  218.135   59.392   11.383
  656.534  296.807  218.672   65.026   10.299
  656.784  341.246  222.753   67.900    9.668
  657.034  341.442  226.632   69.565    9.774
  657.284  338.119  228.581   72.778    9.996
  657.534  336.620  228.312   73.912   10.516
  657.784  332.515  227.542   76.935   11.236
  658.034  332.841  227.068   79.662   11.577
  658.284  328.279  226.701   83.116   11.503
  658.534  320.395  226.939   84.202   10.992
  658.784  321.813  226.989   83.203   10.245
  659.034  341.383  227.119   80.947    9.557
  659.284  342.798  227.056   79.225    9.066
  659.534  343.433  227.285   79.097    8.734
  659.784  344.455  227.022   79.745    8.641
  660.034  349.137  223.927   80.736    9.141
  660.284  368.445  222.155   80.367   10.255
  660.534  328.780  222.079   78.496   13.173
  660.784  289.439  222.416   71.058   15.101
  661.034  260.549  223.465   56.895   15.463
  661.284  283.517  224.412   49.799   13.625
  661.534  319.942  224.955   57.709   12.104
  661.784  354.862  225.298   60.728   11.059
  662.034  348.441  225.231   55.378   12.649
  662.284  381.662  224.966   48.810   20.660
  662.534  377.721  224.791   32.951   25.203
  662.784  246.549  224.626   24.500   52.594
  663.034  242.281  224.263   24.085   99.772
  663.284  226.260  223.788   24.101  139.963
  663.534  239.170  223.523   25.041    7.283
  663.784  287.808  223.358   29.031   -5.084
  664.034  243.696  223.697   34.226   45.436
  664.284  288.808  226.364   45.330   31.904
  664.534  312.692  228.816   54.207   20.495
  664.784  323.643  229.663   60.471   13.053
  665.034  350.336  225.356   65.621   10.335
  665.284  366.577  223.474   71.448    8.866
  665.534  369.560  221.189   76.017    7.813
  665.784  427.537  221.022   78.845    7.515
  666.034  408.442  221.671   74.554    7.197
  666.284  394.900  222.713   74.768    6.740
  666.534  438.182  221.941   79.821    5.668
  666.784  431.820  222.577   84.149    4.655
  667.034  425.985  224.736   88.620    3.980
  667.284  421.854  223.863   89.320    3.483
  667.534  416.277  222.080   86.770    3.264
  667.784  413.648  222.122   84.028    2.966
  668.034  421.072  222.657   85.066    2.866
  668.284  405.306  222.393   90.554    2.826
  668.534  389.482  221.920   93.864    2.904
  668.784  403.046  221.962   88.413    3.181
  669.034  411.710  222.298   80.784    3.597
  669.284  332.789  223.550   72.912    4.192
  669.534  371.237  225.703   79.224    4.647
  669.784  389.829  229.680   86.698    4.944
  670.034  403.591  228.704   90.251    5.103
  670.284  384.235  226.424   90.272    4.665
  670.534  381.011  225.041   91.885    4.347
  670.784  375.047  223.961   95.437    4.386
  671.034  364.510  223.299   93.962    4.882
  671.284  370.430  223.331   92.185    4.881
  671.534  361.069  223.368   86.057    4.801
  671.784  355.432  223.202   80.415    4.800
  672.034  373.436  223.443   76.992    5.018
  672.284  383.800  224.078   78.947    5.612
  672.534  368.233  225.328   82.791    6.306
  672.784  356.517  226.379   84.456    6.861
  673.034  349.183  226.915   78.859    7.515
  673.284  326.695  226.952   74.233    8.209
  673.534  310.017  226.481   73.718    8.605
  673.784  320.313  225.406   80.081    8.842
  674.034  317.876  224.842   86.099    8.822
  674.284  343.654  226.388   84.768    8.206
  674.534  353.559  229.351   82.992    7.650
  674.784  371.499  224.439   82.964    7.232
  675.034  354.692  222.151   83.707    7.033
  675.284  352.641  221.787   85.856    7.152
  675.534  350.925  222.324   82.679    7.548
  675.784  342.216  223.473   67.500    8.242
  676.034  362.900  224.621   70.082    8.082
  676.284  364.770  222.337   72.379    7.347
  676.534  352.537  221.766   73.073    6.454
  676.784  349.965  222.708   61.620    6.037
  677.034  353.602  224.258   50.748    5.639
  677.284  381.145  224.706   48.009    5.499
  677.534  342.130  225.041   62.549    5.737
  677.784  324.409  228.007   73.219    6.073
  678.034  317.525  230.668   75.510    6.668
  678.284  306.139  234.237   68.609    7.342
  678.534  291.750  232.756   60.643    7.857
  678.784  296.433  223.202   61.582    8.412
  679.034  298.891  222.035   61.794    8.629
  679.284  298.414  222.265   60.167    8.510
  679.534  303.095  222.803   57.762    8.053
  679.784  311.630  223.548   54.345    7.219
  680.034  311.997  225.103   53.492    6.405
  680.284  321.645  225.436   54.966    5.829
  680.534  371.262  225.883   59.390    5.352
  680.784  288.877  226.920   65.653    4.914
  681.034  272.462  229.489   71.914    4.537
  681.284  342.263  231.950   81.034    4.218
  681.534  351.837  232.786  106.319    4.039
  681.784  348.293  229.901  105.806    3.939
  682.034  355.716  228.817  102.582    3.859
  682.284  362.620  228.248  102.457    3.859
  682.534  335.620  228.283  102.912    4.037
  682.784  289.162  228.424  103.322    4.492
  683.034  289.201  228.665  103.625    4.948
  683.284  307.405  229.101  104.563    5.265
  683.534  336.451  229.445  106.034    5.204
  683.784  339.952  229.281  107.315    4.985
  684.034  367.104  229.217  107.673    4.767
  684.284  438.798  229.348  107.836    4.647
  684.534  387.243  229.582  106.645    4.825
  684.784  318.575  228.912  104.338    5.082
  685.034  355.261  225.314   99.856    5.518
  685.284  377.511  221.411   98.810    5.696
  685.534  371.742  223.769   98.153    5.973
  685.784  297.132  230.167   97.542    6.012
