~VERSION INFORMATION
 VERS.                 2.0:   CWLS LOG ASCII STANDARD -VERSION 2.0
 WRAP.                  NO:   ONE LINE PER DEPTH STEP
~WELL INFORMATION BLOCK
#MNEM.UNIT           DATA                    DESCRIPTION OF MNEMONIC
#---------    -------------------            -------------------------------
# Generated from Intellog Unique Number	CS_77_79/WELL/854
WELL.         HB THORNBURY                   : Well_name    - WELL
LOC .         00/05-10-078-12W4/0            : Location     - LOCATION
UWI .         00/05-10-078-12W4/0            : Uwi          - UNIQUE WELL ID
ENTR.         JHS                            : Entered      - ENTERED BY
SRVC.         SCHLUMBERGER                   : Scn          - SERVICE COMPANY
STRT.M        256.032                        : top_depth    - START DEPTH
STOP.M        478.282                        : bot_depth    - STOP DEPTH
STEP.M        0.25                           : increment    - STEP LENGTH
 NULL. -999.2500:NULL Value
~CURVE INFORMATION BLOCK
#MNEM UNIT       ERCB CURVE CODE    CURVE DESCRIPTION
#-----------   ------------------   ----------------------------------
DEPT.M        00 001 00 00         : DEPTH        - DEPTH
RHOB.KG/M3    00 350 00 00         : DENS         - BULK DENSITY
GR  .API      00 310 00 00         : GR           - GAMMA RAY
DPHI.V/V      00 890 00 00         : PHID         - DENSITY POROSITY (SANDSTONE)
NPHI.V/V      00 330 00 00         : PHIN         - NEUTRON POROSITY (SANDSTONE)
ILD .OHMM     00 120 00 00         : RESD         - DEEP RESISTIVITY (DIL)
~PARAMETER INFORMATION
#MNEM.UNIT           DATA             DESCRIPTION OF MNEMONIC
#---------         -----------     ------------------------------
GL  .M        674.797              : gl           - GROUND LEVEL ELEVATION
EREF.M        674.797              : kb           - ELEVATION OF DEPTH REFERENCE
DATM.M        674.797              : datum        - DATUM ELEVATION
TDD .M        484.632              : tdd          - TOTAL DEPTH DRILLER
RUN .         ONE                  : Run          - RUN NUMBER
ENG .         BILL                 : Engineer     - RECORDING ENGINEER
WIT .         JIM                  : Witness      - WITNESSED BY
MUD .         GEL                  : Mud_type     - MUD TYPE
MATR.         SANDSTONE            : Logunit      - NEUTRON MATRIX
TMAX.C        21.6667              : BHT          - MAXIMUM RECORDED TEMPERATURE
BHTD.M        484.632              : BHTDEP       - MAXIMUM RECORDED TEMPERATURE
MATR.         1                    : LOGUNIT      - NEUTRON MATRIX
RMT .C        25                   : MDTP         - TEMPERATURE OF MUD
NEUT.         1                    : NEUTRON      - NEUTRON TYPE
RESI.         0                    : RESIST       - RESISTIVITY TYPE
RMC .OHMM     0.25                 : RMC          - RESISTIVITY OF MUD CAKE
RMF .OHMM     0.25                 : RMF          - RESISTIVITY OF MUD FILTRATE
SUFT.C        15                   : SUFT         - SURFACE TEMPERATURE
~A  DEPTH     DENS       GR     PHID     PHIN     RESD
# ...
  365.532   -0.000  122.744    0.238    0.559    3.491
  365.782   -0.000  124.702    0.253    0.531    3.959
  366.032    0.000  123.733    0.252    0.513    4.538
  366.282    0.000  121.381    0.262    0.512    5.229
  366.532    0.000  112.864    0.284    0.506    5.795
  366.782   -0.000  104.030    0.304    0.493    6.300
  367.032   -0.000   97.633    0.315    0.478    6.755
  367.282    0.000   92.662    0.284    0.467    7.211
  367.532    0.000   89.466    0.196    0.450    7.988
  367.782    0.000   83.826    0.129    0.433    9.676
  368.032   -0.000   76.532    0.095    0.402   11.195
  368.282   -0.000   78.166    0.066    0.322   12.091
  368.532   -0.000   87.140    0.038    0.262   11.855
  368.782    0.000  100.818    0.030    0.268   10.884
  369.032    0.000  107.787    0.163    0.432    8.956
  369.282    0.000  108.599    0.202    0.472    7.914
  369.532   -0.000  107.076    0.247    0.494    7.319
  369.782   -0.000  106.502    0.243    0.494    7.083
  370.032   -0.000  105.690    0.254    0.481    7.008
  370.282    0.000  107.375    0.259    0.463    7.136
  370.532    0.000  107.120    0.248    0.460    7.292
  370.782   -0.000  105.178    0.254    0.466    7.288
  371.032   -0.000  105.557    0.257    0.469    7.143
  371.282   -0.000  105.862    0.245    0.478    7.164
  371.532    0.000  104.827    0.233    0.480    7.046
  371.782    0.000  103.601    0.224    0.471    6.990
  372.032    0.000  100.870    0.227    0.486    6.780
  372.282   -0.000   98.837    0.232    0.492    6.791
  372.532   -0.000   99.931    0.229    0.475    6.798
  372.782   -0.000  103.690    0.215    0.461    6.802
  373.032    0.000  106.701    0.216    0.463    6.947
  373.282    0.000  108.595    0.228    0.472    6.761
  373.532   -0.000  108.521    0.233    0.479    6.569
  373.782   -0.000  109.829    0.238    0.467    6.191
  374.032   -0.000  111.605    0.242    0.471    5.864
  374.282    0.000  110.479    0.242    0.482    5.980
  374.532    0.000  109.261    0.248    0.478    6.363
  374.782    0.000  107.301    0.251    0.462    6.608
  375.032   -0.000  106.818    0.235    0.449    6.631
  375.282   -0.000  107.704    0.220    0.450    6.035
  375.532   -0.000  110.149    0.212    0.475    4.648
  375.782    0.000  111.265    0.222    0.510    3.826
  376.032    0.000  111.288    0.249    0.542    3.173
  376.282    0.000  110.650    0.250    0.595    2.830
  376.532   -0.000  110.104    0.256    0.603    2.832
  376.782   -0.000  109.267    0.269    0.590    2.899
  377.032    0.000  109.490    0.257    0.552    3.101
  377.282    0.000  111.833    0.249    0.555    3.252
  377.532    0.000  113.965    0.269    0.560    3.612
  377.782   -0.000  112.854    0.270    0.551    3.922
  378.032   -0.000  110.936    0.238    0.528    4.590
  378.282   -0.000  108.261    0.228    0.505    4.788
  378.532    0.000  106.704    0.242    0.508    4.948
  378.782    0.000  107.400    0.223    0.542    5.087
  379.032    0.000  107.358    0.213    0.537    5.243
  379.282   -0.000  106.917    0.232    0.509    5.567
  379.532   -0.000  106.679    0.251    0.488    6.055
  379.782    0.000  105.037    0.260    0.473    6.301
  380.032    0.000  104.799    0.252    0.468    6.496
  380.282    0.000  107.082    0.249    0.487    6.678
  380.532   -0.000  104.228    0.265    0.467    6.679
  380.782   -0.000   99.720    0.269    0.471    6.486
  381.032   -0.000   98.440    0.258    0.502    6.288
  381.282    0.000   98.920    0.283    0.496    5.914
  381.532    0.000  102.021    0.291    0.472    5.565
  381.782    0.000  102.133    0.288    0.468    5.361
  382.032   -0.000   97.881    0.269    0.473    5.444
  382.282   -0.000   93.971    0.284    0.479    5.677
  382.532   -0.000   90.716    0.271    0.484    6.238
  382.782    0.000   89.909    0.239    0.463    6.770
  383.032    0.000   87.201    0.271    0.452    7.010
  383.282   -0.000   84.253    0.291    0.453    7.100
  383.532   -0.000   80.375    0.289    0.451    7.105
  383.782   -0.000   74.435    0.278    0.460    7.107
  384.032    0.000   71.621    0.295    0.459    7.115
  384.282    0.000   70.958    0.325    0.453    7.183
  384.532    0.000   70.338    0.320    0.450    7.251
  384.782   -0.000   69.404    0.312    0.447    7.258
  385.032   -0.000   69.509    0.310    0.455    7.258
  385.282   -0.000   69.875    0.299    0.461    7.259
  385.532    0.000   71.556    0.314    0.464    7.131
  385.782    0.000   72.532    0.319    0.454    7.151
  386.032   -0.000   73.554    0.312    0.443    7.016
  386.282   -0.000   73.184    0.298    0.443    7.019
  386.532   -0.000   71.839    0.311    0.455    6.993
  386.782    0.000   68.872    0.330    0.463    6.897
  387.032    0.000   68.842    0.330    0.448    6.906
  387.282    0.000   70.320    0.315    0.450    6.913
  387.532   -0.000   73.025    0.321    0.455    6.802
  387.782   -0.000   72.983    0.333    0.450    6.794
  388.032   -0.000   71.343    0.330    0.457    6.793
  388.282    0.000   72.492    0.325    0.461    6.806
  388.532    0.000   73.528    0.334    0.457    6.620
  388.782    0.000   73.883    0.326    0.451    6.561
  389.032   -0.000   73.662    0.330    0.459    6.475
  389.282   -0.000   71.198    0.336    0.466    6.415
  389.532    0.000   70.362    0.341    0.468    6.336
  389.782    0.000   69.979    0.345    0.475    6.212
  390.032    0.000   71.874    0.342    0.466    6.225
  390.282   -0.000   74.415    0.344    0.460    6.228
  390.532   -0.000   77.013    0.338    0.466    6.218
  390.782   -0.000   76.382    0.322    0.472    6.343
  391.032    0.000   74.342    0.324    0.466    6.333
  391.282    0.000   73.216    0.322    0.466    6.407
  391.532    0.000   73.630    0.347    0.471    6.481
  391.782   -0.000   73.607    0.344    0.462    6.484
  392.032   -0.000   73.491    0.339    0.469    6.448
  392.282    0.000   72.476    0.333    0.482    6.375
  392.532    0.000   72.874    0.343    0.490    6.177
  392.782    0.000   73.992    0.341    0.485    6.154
  393.032   -0.000   76.692    0.337    0.478    6.155
  393.282   -0.000   79.048    0.349    0.466    6.160
  393.532   -0.000   81.201    0.342    0.460    6.161
  393.782    0.000   80.706    0.330    0.456    6.175
  394.032    0.000   77.600    0.317    0.470    6.046
  394.282    0.000   73.630    0.315    0.480    6.061
  394.532   -0.000   74.575    0.340    0.473    6.071
  394.782   -0.000   77.163    0.354    0.482    6.160
  395.032   -0.000   78.249    0.354    0.492    6.302
  395.282    0.000   76.388    0.343    0.470    6.503
  395.532    0.000   74.987    0.331    0.453    6.693
  395.782   -0.000   72.349    0.330    0.456    7.165
  396.032   -0.000   69.269    0.325    0.431    7.752
  396.282   -0.000   69.978    0.340    0.386    8.400
  396.532    0.000   69.903    0.343    0.357    8.495
  396.782    0.000   70.807    0.326    0.329    8.203
  397.032    0.000   73.367    0.314    0.370    7.548
  397.282   -0.000   75.978    0.307    0.467    6.663
  397.532   -0.000   76.378    0.319    0.476    6.357
  397.782   -0.000   76.798    0.340    0.482    6.231
  398.032    0.000   77.420    0.338    0.493    6.142
  398.282    0.000   77.227    0.331    0.501    6.122
  398.532    0.000   76.856    0.334    0.480    6.123
  398.782   -0.000   76.469    0.340    0.473    6.128
  399.032   -0.000   76.331    0.342    0.467    6.138
  399.282    0.000   76.283    0.345    0.463    6.026
  399.532    0.000   77.963    0.327    0.477    5.964
  399.782    0.000   79.852    0.324    0.477    5.923
  400.032   -0.000   81.293    0.328    0.459    5.923
  400.282   -0.000   80.546    0.339    0.454    5.925
  400.532   -0.000   77.395    0.334    0.481    5.928
  400.782    0.000   74.182    0.351    0.496    5.943
  401.032    0.000   78.407    0.346    0.484    5.814
  401.282    0.000   83.865    0.340    0.471    5.827
  401.532   -0.000   83.646    0.334    0.474    5.720
  401.782   -0.000   80.136    0.339    0.475    5.724
