~VERSION INFORMATION
 VERS.                 2.0:   CWLS LOG ASCII STANDARD -VERSION 2.0
 WRAP.                  NO:   ONE LINE PER DEPTH STEP
~WELL INFORMATION BLOCK
#MNEM.UNIT           DATA                    DESCRIPTION OF MNEMONIC
#---------    -------------------            -------------------------------
# Generated from Intellog Unique Number	CN_94_101/WELL/2749
WELL.         COLUMBIA GAS DEVELOPMENT LTD.  : Well_name    - WELL
LOC .         00/07-06-094-20W4/0            : Location     - LOCATION
UWI .         00/07-06-094-20W4/0            : Uwi          - UNIQUE WELL ID
ENTR.         JOETTE                         : Entered      - ENTERED BY
SRVC.         COMPUTALOG                     : Scn          - SERVICE COMPANY
DATE.         07\03\92                       : Date         - LOG DATE
STRT.M        180                            : top_depth    - START DEPTH
STOP.M        353                            : bot_depth    - STOP DEPTH
STEP.M        0.25                           : increment    - STEP LENGTH
 NULL. -999.2500:NULL Value
~CURVE INFORMATION BLOCK
#MNEM UNIT       ERCB CURVE CODE    CURVE DESCRIPTION
#-----------   ------------------   ----------------------------------
DEPT.M        00 001 00 00         : DEPTH        - DEPTH
CALI.MM       00 280 01 00         : CAL          - CALIPER
NPHI.V/V      00 330 00 00         : PHIN         - NEUTRON POROSITY (SANDSTONE)
GR  .API      00 310 00 00         : GR           - GAMMA RAY
DPHI.V/V      00 890 00 00         : PHID         - DENSITY POROSITY (SANDSTONE)
ILD .OHMM     00 120 00 00         : RESD         - DEEP RESISTIVITY (DIL)
~PARAMETER INFORMATION
#MNEM.UNIT           DATA             DESCRIPTION OF MNEMONIC
#---------         -----------     ------------------------------
GL  .M        661.36               : gl           - GROUND LEVEL ELEVATION
EREF.M        664.86               : kb           - ELEVATION OF DEPTH REFERENCE
DATM.M        664.86               : datum        - DATUM ELEVATION
TDD .M        354.7                : tdd          - TOTAL DEPTH DRILLER
RUN .         ONE                  : Run          - RUN NUMBER
ENG .         JO                   : Engineer     - RECORDING ENGINEER
WIT .         TIM                  : Witness      - WITNESSED BY
MUD .         GEL                  : Mud_type     - MUD TYPE
MATR.         SANDSTONE            : Logunit      - NEUTRON MATRIX
TMAX.C        22                   : BHT          - MAXIMUM RECORDED TEMPERATURE
BHTD.M        354.7                : BHTDEP       - MAXIMUM RECORDED TEMPERATURE
RMT .C        12.2                 : MDTP         - TEMPERATURE OF MUD
MUDD.KG/M     1150                 : MWT          - MUD DENSITY
NEUT.         1                    : NEUTRON      - NEUTRON TYPE
RESI.         0                    : RESIST       - RESISTIVITY TYPE
RM  .OHMM     3.3                  : RM           - RESISTIVITY OF MUD
RMC .OHMM     3.3                  : RMC          - RESISTIVITY OF MUD CAKE
RMF .OHMM     2.2                  : RMF          - RESISTIVITY OF MUD FILTRATE
SUFT.C        4                    : SUFT         - SURFACE TEMPERATURE
~A  DEPTH      CAL     PHIN       GR     PHID     RESD
# ...
  289.500  163.572    0.381   88.930    0.281    9.449
  289.750  162.617    0.374   86.563    0.272   11.363
  290.000  161.626    0.369   81.216    0.245   12.008
  290.250  161.681    0.377   77.072    0.220   12.688
  290.500  160.690    0.383   80.098    0.242   13.162
  290.750  160.726    0.380   81.921    0.240   13.406
  291.000  159.763    0.370   82.534    0.200   14.430
  291.250  158.790    0.352   78.382    0.162   14.970
  291.500  157.826    0.350   77.823    0.135   16.113
  291.750  156.853    0.357   80.841    0.275   16.716
  292.000  155.871    0.367   82.664    0.286   17.025
  292.250  154.898    0.358   87.474    0.250   17.338
  292.500  153.943    0.347   87.505    0.218   17.335
  292.750  153.971    0.344  104.862    0.176   17.013
  293.000  153.999    0.368  118.634    0.196   16.093
  293.250  154.035    0.400  116.275    0.210   10.918
  293.500  155.100    0.410  110.331    0.219    9.416
  293.750  155.128    0.391  102.594    0.225    8.583
  294.000  156.174    0.370   96.061    0.227    7.825
  294.250  157.230    0.378   96.083    0.222    7.401
  294.500  158.267    0.398  100.304    0.215    7.131
  294.750  159.313    0.423  111.702    0.211    6.745
  295.000  160.369    0.434  112.912    0.206    6.381
  295.250  160.396    0.438  114.137    0.201    6.035
  295.500  160.433    0.437  109.986    0.195    6.034
  295.750  160.479    0.425  103.444    0.184    6.032
  296.000  160.525    0.423   95.110    0.203    6.144
  296.250  160.552    0.424   89.764    0.248    6.492
  296.500  160.589    0.416   85.015    0.272    9.051
  296.750  161.654    0.395   81.460    0.294   11.503
  297.000  161.682    0.375   79.706    0.291   13.087
  297.250  161.709    0.361   80.932    0.281   13.578
  297.500  161.737    0.345   82.157    0.273   14.348
  297.750  161.801    0.376   80.388    0.255   14.884
  298.000  161.819    0.431   72.054    0.183   14.079
  298.250  161.847    0.441   79.254    0.208    4.160
  298.500  161.884    0.459   88.247    0.227    3.935
  298.750  161.939    0.467   98.434    0.222    3.862
  299.000  161.975    0.468  106.845    0.230    4.081
  299.250  162.012    0.460  101.491    0.229    4.157
  299.500  162.049    0.445   96.741    0.221    4.393
  299.750  162.095    0.434   98.564    0.213    4.906
  300.000  162.122    0.423  100.985    0.208    5.480
  300.250  162.159    0.407  103.413    0.205    6.120
  300.500  162.187    0.401  104.041    0.201    6.468
  300.750  162.242    0.386  101.674    0.199    7.092
  301.000  162.260    0.376   96.343    0.197    7.776
  301.250  162.297    0.377   94.573    0.207    8.370
  301.500  162.334    0.381   91.624    0.207    8.684
  301.750  162.370    0.378   90.445    0.197    9.176
  302.000  162.407    0.373   86.891    0.168    9.697
  302.250  161.443    0.365   83.934    0.118   10.059
  302.500  161.480    0.369   87.557    0.162   10.630
  302.750  161.526    0.390   90.575    0.204   11.443
  303.000  161.554    0.407   93.585    0.232   12.317
  303.250  161.590    0.414   93.623    0.239   12.315
  303.500  161.627    0.411   93.049    0.230   11.648
  303.750  161.673    0.405   93.087    0.219   10.816
  304.000  161.710    0.397   93.125    0.221   10.813
  304.250  161.756    0.394   93.148    0.225   10.812
  304.500  161.774    0.393   93.776    0.226   11.854
  304.750  161.820    0.380   85.442    0.217   12.299
  305.000  161.857    0.350   73.516    0.120   13.737
  305.250  161.884    0.305   68.169    0.101   15.628
  305.500  161.930    0.361   68.798    0.150   14.513
  305.750  161.958    0.388   75.408    0.173   10.999
  306.000  162.004    0.386   83.803    0.192    9.141
  306.250  162.031    0.384   89.219    0.212    8.973
  306.500  162.086    0.383   88.652    0.253    8.971
  306.750  162.114    0.389   88.675    0.270    8.968
  307.000  162.151    0.402   86.920    0.282    8.803
  307.250  161.178    0.416   85.151    0.275    8.326
  307.500  161.224    0.430   88.169    0.267    6.921
  307.750  160.242    0.440   91.792    0.257    5.647
  308.000  160.288    0.440   94.810    0.241    4.782
  308.250  160.333    0.442   97.835    0.246    3.902
  308.500  159.342    0.454   99.651    0.257    3.623
  308.750  159.388    0.469  100.876    0.255    3.900
  309.000  159.425    0.493  102.102    0.246    4.690
  309.250  158.443    0.489   97.950    0.236    5.435
  309.500  158.489    0.457   90.811    0.218    6.071
  309.750  158.516    0.444   83.075    0.253    6.781
  310.000  158.571    0.419   80.723    0.281    7.574
  310.250  158.599    0.397   80.754    0.288    8.304
  310.500  158.636    0.387   81.382    0.287    9.804
  310.750  158.700    0.354   80.815    0.278   10.750
  311.000  158.728    0.297   73.071    0.261   12.231
  311.250  158.755    0.268   60.555    0.048   13.915
  311.500  158.783    0.317   55.208    0.052   14.434
  311.750  158.819    0.368   68.383    0.096   14.169
  312.000  157.874    0.389   80.363    0.197   12.448
  312.250  157.902    0.397   82.186    0.234   10.347
  312.500  157.920    0.403   82.232    0.230    8.759
  312.750  157.975    0.413   84.660    0.228    8.441
  313.000  158.003    0.416   85.273    0.234    8.438
  313.250  158.049    0.418   87.096    0.238    8.594
  313.500  158.076    0.421   87.724    0.233    8.753
  313.750  158.104    0.417   87.165    0.224    9.249
  314.000  158.150    0.405   85.403    0.213    9.774
  314.250  157.177    0.399   82.438    0.188   10.520
  314.500  157.213    0.403   80.079    0.167   10.914
  314.750  157.250    0.401   81.910    0.173   11.323
  315.000  157.287    0.350   84.928    0.186   11.531
  315.250  157.351    0.323   87.938    0.201   11.961
  315.500  157.370    0.309   84.981    0.214   12.181
  315.750  157.397    0.303   82.025    0.196   12.179
  316.000  156.424    0.332   85.648    0.129   12.177
  316.250  155.451    0.367   90.458    0.132   11.517
  316.500  152.468    0.384   95.268    0.179   10.499
  316.750  150.486    0.396   99.481    0.218   10.117
  317.000  147.484    0.396   98.914    0.218    9.394
  317.250  145.502    0.395   96.563    0.218    9.221
  317.500  142.509    0.380   96.593    0.217    8.561
  317.750  142.555    0.379   97.826    0.215    8.560
  318.000  144.602    0.393   99.037    0.210    8.402
  318.250  147.686    0.396  100.860    0.203    8.246
  318.500  149.733    0.387   96.716    0.192    8.244
  318.750  151.798    0.375   93.751    0.186    8.242
  319.000  152.836    0.381   92.595    0.205    8.551
  319.250  152.882    0.383   93.820    0.207    9.036
  319.500  152.928    0.380   96.248    0.206    9.548
  319.750  152.964    0.378   98.064    0.202    9.905
  320.000  152.964    0.374  102.276    0.199   10.275
  320.250  152.019    0.371  104.705    0.200   10.464
  320.500  156.094    0.368  103.540    0.214   10.657
  320.750  156.131    0.367  104.168    0.213   11.056
  321.000  155.167    0.363  107.186    0.212   11.684
  321.250  155.195    0.359  110.794    0.211   12.811
  321.500  155.222    0.355  107.240    0.211   13.290
  321.750  155.222    0.352  103.088    0.211   13.534
  322.000  154.305    0.345  100.139    0.212   13.532
  322.250  151.312    0.341  103.755    0.213   13.528
  322.500  151.349    0.346  103.793    0.213   13.525
  322.750  151.377    0.353  100.836    0.213   13.523
  323.000  151.432    0.354   99.067    0.210   14.029
  323.250  151.450    0.323   94.915    0.209   15.382
  323.500  152.506    0.300   87.178    0.203   16.255
  323.750  152.533    0.281   80.629    0.188   16.862
  324.000  153.598    0.259   78.875    0.063   16.860
  324.250  153.616    0.300   87.270    0.089   15.086
  324.500  154.672    0.357   93.276    0.158   13.754
  324.750  155.709    0.389   99.878    0.185   11.432
  325.000  158.784    0.403  102.299    0.187   10.421
  325.250  160.840    0.417  102.934    0.182    9.676
  325.500  162.896    0.424  102.965    0.188    9.675
  325.750  163.952    0.418  104.191    0.193    9.496
