~VERSION INFORMATION
 VERS.                 2.0:   CWLS LOG ASCII STANDARD -VERSION 2.0
 WRAP.                  NO:   ONE LINE PER DEPTH STEP
~WELL INFORMATION BLOCK
#MNEM.UNIT           DATA                    DESCRIPTION OF MNEMONIC
#---------    -------------------            -------------------------------
# Generated from Intellog Unique Number	CS_77_79/WELL/888
WELL.         CDN-SUP THORNBURY              : Well_name    - WELL
LOC .         00/06-34-078-13W4/0            : Location     - LOCATION
UWI .         00/06-34-078-13W4/0            : Uwi          - UNIQUE WELL ID
ENTR.         JHS                            : Entered      - ENTERED BY
SRVC.         SCHLUMBERGER                   : Scn          - SERVICE COMPANY
STRT.M        250                            : top_depth    - START DEPTH
STOP.M        475                            : bot_depth    - STOP DEPTH
STEP.M        0.25                           : increment    - STEP LENGTH
 NULL. -999.2500:NULL Value
~CURVE INFORMATION BLOCK
#MNEM UNIT       ERCB CURVE CODE    CURVE DESCRIPTION
#-----------   ------------------   ----------------------------------
DEPT.M        00 001 00 00         : DEPTH        - DEPTH
DPHI.V/V      00 890 00 00         : PHID         - DENSITY POROSITY (LIMESTONE)
NPHI.V/V      00 330 00 00         : PHIN         - NEUTRON POROSITY (LIMESTONE)
GR  .API      00 310 00 00         : GR           - GAMMA RAY
ILD .OHMM     00 120 00 00         : RESD         - DEEP RESISTIVITY (DIL)
~PARAMETER INFORMATION
#MNEM.UNIT           DATA             DESCRIPTION OF MNEMONIC
#---------         -----------     ------------------------------
GL  .M        662.5                : gl           - GROUND LEVEL ELEVATION
EREF.M        668                  : kb           - ELEVATION OF DEPTH REFERENCE
DATM.M        668                  : datum        - DATUM ELEVATION
TDD .M        473                  : tdd          - TOTAL DEPTH DRILLER
RUN .         ONE                  : Run          - RUN NUMBER
ENG .         BILL                 : Engineer     - RECORDING ENGINEER
WIT .         JIM                  : Witness      - WITNESSED BY
MUD .         GEL                  : Mud_type     - MUD TYPE
MATR.         LIMESTONE            : Logunit      - NEUTRON MATRIX
TMAX.C        23                   : BHT          - MAXIMUM RECORDED TEMPERATURE
BHTD.M        473                  : BHTDEP       - MAXIMUM RECORDED TEMPERATURE
MATR.         1                    : LOGUNIT      - NEUTRON MATRIX
RMT .C        25                   : MDTP         - TEMPERATURE OF MUD
NEUT.         1                    : NEUTRON      - NEUTRON TYPE
RESI.         0                    : RESIST       - RESISTIVITY TYPE
RMC .OHMM     0.25                 : RMC          - RESISTIVITY OF MUD CAKE
RMF .OHMM     0.25                 : RMF          - RESISTIVITY OF MUD FILTRATE
SUFT.C        15                   : SUFT         - SURFACE TEMPERATURE
~A  DEPTH     PHID     PHIN       GR     RESD
# ...
  337.000    0.330    0.431   45.883   17.563
  337.250    0.335    0.436   46.473   17.248
  337.500    0.323    0.441   47.058   17.253
  337.750    0.335    0.445   46.431   17.265
  338.000    0.345    0.437   45.797   17.272
  338.250    0.328    0.440   47.605   17.281
  338.500    0.330    0.438   46.364   17.288
  338.750    0.328    0.444   43.904   16.975
  339.000    0.329    0.455   43.265   16.983
  339.250    0.324    0.444   43.854   17.311
  339.500    0.335    0.451   43.830   17.316
  339.750    0.329    0.444   42.586   17.004
  340.000    0.316    0.426   41.954   17.014
  340.250    0.299    0.425   41.939   17.340
  340.500    0.274    0.441   42.528   18.349
  340.750    0.242    0.437   43.725   19.413
  341.000    0.000    0.387   44.921   22.134
  341.250    0.000    0.277   44.288   25.712
  341.500    0.025    0.236   40.609   32.184
  341.750    0.056    0.198   38.149   38.805
  342.000    0.081    0.224   38.125   45.927
  342.250    0.071    0.221   42.371   49.517
  342.500    0.106    0.206   44.784   48.624
  342.750    0.211    0.287   44.763   42.680
  343.000    0.266    0.331   47.178   31.677
  343.250    0.304    0.363   50.202   26.292
  343.500    0.332    0.409   53.234   21.420
  343.750    0.324    0.449   55.647   18.805
  344.000    0.319    0.447   54.406   17.137
  344.250    0.320    0.451   53.166   16.211
  344.500    0.325    0.455   54.358   15.629
  344.750    0.332    0.454   53.733   15.636
  345.000    0.341    0.460   53.098   15.351
  345.250    0.336    0.468   54.905   15.360
  345.500    0.329    0.464   57.928   15.363
  345.750    0.323    0.453   58.516   15.662
  346.000    0.317    0.455   55.448   15.668
  346.250    0.322    0.462   54.202   15.674
  346.500    0.334    0.455   54.794   15.978
  346.750    0.340    0.444   55.379   15.984
  347.000    0.344    0.438   55.353   16.297
  347.250    0.314    0.448   53.502   16.304
  347.500    0.310    0.458   51.656   16.310
  347.750    0.321    0.453   51.636   16.316
  348.000    0.324    0.452   55.880   16.321
  348.250    0.326    0.471   57.075   16.332
  348.500    0.316    0.470   55.830   16.340
  348.750    0.316    0.451   57.028   16.044
  349.000    0.318    0.451   56.401   16.049
  349.250    0.326    0.458   57.598   16.056
  349.500    0.328    0.450   60.623   15.772
  349.750    0.328    0.458   59.985   15.780
  350.000    0.315    0.479   59.360   15.786
  350.250    0.313    0.472   58.726   15.791
  350.500    0.303    0.458   58.090   15.797
  350.750    0.297    0.447   57.465   15.803
  351.000    0.303    0.455   58.658   15.810
  351.250    0.310    0.447   61.687   15.819
  351.500    0.310    0.444   64.711   15.824
  351.750    0.312    0.447   67.129   15.540
  352.000    0.313    0.468   65.886   15.260
  352.250    0.303    0.479   66.474   14.168
  352.500    0.297    0.468   69.499   13.401
  352.750    0.292    0.460   70.695   11.765
  353.000    0.292    0.466   71.284   10.136
  353.250    0.279    0.471   71.865    8.572
  353.500    0.279    0.470   73.066    7.251
  353.750    0.283    0.475   74.874    6.988
  354.000    0.275    0.459   79.728    6.488
  354.250    0.265    0.456   85.194    4.998
  354.500    0.236    0.508   95.533    3.922
  354.750    0.239    0.539  100.997    3.196
  355.000    0.252    0.558  100.973    2.912
  355.250    0.253    0.582   99.120    2.654
  355.500    0.247    0.586   98.492    2.558
  355.750    0.246    0.579  100.302    2.465
  356.000    0.251    0.589  102.105    2.421
  356.250    0.245    0.610  102.688    2.377
  356.500    0.254    0.628  102.056    2.334
  356.750    0.267    0.614  101.426    2.470
  357.000    0.230    0.586   99.577    2.816
  357.250    0.234    0.568   96.509    3.271
  357.500    0.223    0.555   92.829    4.018
  357.750    0.231    0.516   87.931    4.845
  358.000    0.221    0.490   89.124    5.953
  358.250    0.221    0.516   90.325    6.915
  358.500    0.227    0.525   91.518    7.455
  358.750    0.223    0.504   90.886    7.459
  359.000    0.223    0.489   92.696    7.324
  359.250    0.230    0.482   94.500    7.059
  359.500    0.230    0.488   93.262    6.677
  359.750    0.222    0.488   93.239    5.973
  360.000    0.222    0.482   93.214    5.544
  360.250    0.232    0.467   92.579    5.246
  360.500    0.242    0.482   91.949    5.151
  360.750    0.241    0.508   92.538    5.058
  361.000    0.246    0.515   89.470    5.060
  361.250    0.240    0.524   88.228    5.062
  361.500    0.241    0.531   88.814    5.560
  361.750    0.256    0.532   86.965    5.994
  362.000    0.269    0.493   83.893    6.708
  362.250    0.278    0.487   80.212    7.096
  362.500    0.283    0.482   76.531    7.651
  362.750    0.276    0.475   75.903    7.513
  363.000    0.268    0.471   78.924    6.975
  363.250    0.255    0.485   84.391    5.790
  363.500    0.235    0.502   92.293    4.806
  363.750    0.240    0.528   96.536    4.141
  364.000    0.257    0.552   98.957    3.704
  364.250    0.259    0.582  100.757    3.192
  364.500    0.264    0.567   97.687    2.855
  364.750    0.281    0.575   96.446    2.701
  365.000    0.273    0.598   95.820    2.652
  365.250    0.270    0.619   95.796    2.604
  365.500    0.266    0.605   95.769    2.417
  365.750    0.252    0.596   96.356    1.970
  366.000    0.234    0.582   96.941    1.462
  366.250    0.232    0.570   97.536    1.213
  366.500    0.263    0.581   95.072    1.214
  366.750    0.295    0.563   96.269    1.384
  367.000    0.284    0.548   96.249    1.700
  367.250    0.267    0.557   95.003    2.089
  367.500    0.259    0.569   93.763    2.566
  367.750    0.269    0.578   93.133    2.926
  368.000    0.267    0.568   88.235    3.038
  368.250    0.264    0.562   86.992    2.984
  368.500    0.257    0.576   91.235    2.985
  368.750    0.259    0.595   91.217    3.043
  369.000    0.266    0.575   88.145    3.101
  369.250    0.251    0.563   86.902    3.471
  369.500    0.241    0.547   88.707    3.812
  369.750    0.246    0.539   88.690    4.346
  370.000    0.260    0.549   86.835    4.773
  370.250    0.267    0.531   83.157    5.146
  370.500    0.251    0.500   78.866    5.445
  370.750    0.260    0.495   75.797    5.550
  371.000    0.283    0.519   73.332    5.872
  371.250    0.310    0.483   70.877    6.331
  371.500    0.297    0.457   66.586    6.824
  371.750    0.266    0.435   64.737    7.637
  372.000    0.187    0.427   67.759    8.708
  372.250    0.118    0.412   67.736    9.386
  372.500    0.119    0.357   67.716    9.750
  372.750    0.168    0.330   68.303    9.572
  373.000    0.198    0.387   74.378    9.056
  373.250    0.235    0.433   80.453    8.408
  373.500    0.252    0.459   83.473    8.102
  373.750    0.262    0.461   83.455    7.523
  374.000    0.269    0.455   83.434    7.251
  374.250    0.244    0.455   83.408    7.120
  374.500    0.241    0.472   82.167    6.992
  374.750    0.249    0.480   82.148    6.995
  375.000    0.264    0.470   80.905    7.129
  375.250    0.259    0.480   80.880    7.133
  375.500    0.253    0.490   83.907    7.271
  375.750    0.255    0.483   85.103    7.139
  376.000    0.268    0.472   83.860    7.011
  376.250    0.269    0.473   80.791    7.013
  376.500    0.273    0.480   80.766    6.887
  376.750    0.277    0.492   80.751    6.890
  377.000    0.263    0.497   80.722    7.023
  377.250    0.245    0.480   81.922    7.160
  377.500    0.254    0.474   81.902    7.298
  377.750    0.261    0.468   80.655    7.300
  378.000    0.260    0.468   81.853    7.304
  378.250    0.250    0.490   82.443    7.445
  378.500    0.245    0.496   81.204    7.311
  378.750    0.249    0.495   78.134    7.314
  379.000    0.249    0.493   79.939    7.049
  379.250    0.245    0.489   84.794    6.794
  379.500    0.245    0.485   87.209    6.672
  379.750    0.245    0.485   87.184    6.800
  380.000    0.243    0.490   85.943    6.804
  380.250    0.237    0.490   83.482    6.934
