~VERSION INFORMATION
 VERS.                 2.0:   CWLS LOG ASCII STANDARD -VERSION 2.0
 WRAP.                  NO:   ONE LINE PER DEPTH STEP
~WELL INFORMATION BLOCK
#MNEM.UNIT           DATA                    DESCRIPTION OF MNEMONIC
#---------    -------------------            -------------------------------
# Generated from Intellog Unique Number	CS_73_76/WELL/1085
WELL.         BOW VALLEY EXPLORATION         : Well_name    - WELL
LOC .         00/06-30-075-14W4/0            : Location     - LOCATION
UWI .         00/06-30-075-14W4/0            : Uwi          - UNIQUE WELL ID
ENTR.         SP                             : Entered      - ENTERED BY
SRVC.         SCHLUMBERGER                   : Scn          - SERVICE COMPANY
STRT.M        377.952                        : top_depth    - START DEPTH
STOP.M        584.952                        : bot_depth    - STOP DEPTH
STEP.M        0.25                           : increment    - STEP LENGTH
 NULL. -999.2500:NULL Value
~CURVE INFORMATION BLOCK
#MNEM UNIT       ERCB CURVE CODE    CURVE DESCRIPTION
#-----------   ------------------   ----------------------------------
DEPT.M        00 001 00 00         : DEPTH        - DEPTH
GR  .API      00 310 00 00         : GR           - GAMMA RAY
DPHI.V/V      00 890 00 00         : PHID         - DENSITY POROSITY (SANDSTONE)
NPHI.V/V      00 330 00 00         : PHIN         - NEUTRON POROSITY (SANDSTONE)
ILD .OHMM     00 120 00 00         : RESD         - DEEP RESISTIVITY (DIL)
~PARAMETER INFORMATION
#MNEM.UNIT           DATA             DESCRIPTION OF MNEMONIC
#---------         -----------     ------------------------------
GL  .M        751.759              : gl           - GROUND LEVEL ELEVATION
EREF.M        754.38               : kb           - ELEVATION OF DEPTH REFERENCE
DATM.M        751.759              : datum        - DATUM ELEVATION
TDD .M        584.606              : tdd          - TOTAL DEPTH DRILLER
RUN .         ONE                  : Run          - RUN NUMBER
ENG .         BILL                 : Engineer     - RECORDING ENGINEER
WIT .         JIM                  : Witness      - WITNESSED BY
MUD .         GEL                  : Mud_type     - MUD TYPE
MATR.         SANDSTONE            : Logunit      - NEUTRON MATRIX
TMAX.C        22.2222              : BHT          - MAXIMUM RECORDED TEMPERATURE
BHTD.M        584.606              : BHTDEP       - MAXIMUM RECORDED TEMPERATURE
MATR.         1                    : LOGUNIT      - NEUTRON MATRIX
RMT .C        25                   : MDTP         - TEMPERATURE OF MUD
NEUT.         1                    : NEUTRON      - NEUTRON TYPE
RESI.         0                    : RESIST       - RESISTIVITY TYPE
RMC .OHMM     0.25                 : RMC          - RESISTIVITY OF MUD CAKE
RMF .OHMM     0.25                 : RMF          - RESISTIVITY OF MUD FILTRATE
SUFT.C        15                   : SUFT         - SURFACE TEMPERATURE
~A  DEPTH       GR     PHID     PHIN     RESD
# ...
  421.452  113.868    0.268    0.494    5.656
  421.702  108.556    0.276    0.473    5.949
  421.952  105.620    0.284    0.439    6.144
  422.202  106.978    0.290    0.429    6.166
  422.452  109.274    0.280    0.450    6.170
  422.702  108.241    0.268    0.468    6.181
  422.952  105.108    0.262    0.483    6.029
  423.202  101.044    0.252    0.480    5.859
  423.452  100.847    0.259    0.474    5.503
  423.702  102.988    0.253    0.472    5.414
  423.952  105.456    0.237    0.473    5.152
  424.202  106.777    0.236    0.477    5.132
  424.452  104.916    0.243    0.479    5.355
  424.702  100.937    0.252    0.470    5.679
  424.952   94.452    0.264    0.481    5.915
  425.202   84.517    0.270    0.484    6.428
  425.452   73.936    0.291    0.473    6.898
  425.702   64.579    0.313    0.463    7.537
  425.952   56.697    0.331    0.443    7.842
  426.202   51.061    0.349    0.434    8.246
  426.452   48.493    0.357    0.433    8.466
  426.702   48.657    0.352    0.438    8.455
  426.952   48.958    0.359    0.440    8.458
  427.202   49.275    0.361    0.440    8.461
  427.452   50.308    0.357    0.443    8.462
  427.702   51.275    0.353    0.446    8.465
  427.952   52.241    0.348    0.439    8.467
  428.202   52.177    0.345    0.430    8.468
  428.452   53.233    0.341    0.434    8.457
  428.702   54.611    0.348    0.437    8.631
  428.952   54.227    0.343    0.443    8.461
  429.202   54.176    0.349    0.446    8.477
  429.452   54.589    0.356    0.450    8.481
  429.702   55.482    0.360    0.451    8.484
  429.952   57.146    0.358    0.444    8.492
  430.202   58.604    0.356    0.442    8.353
  430.452   59.418    0.357    0.440    8.337
  430.702   59.370    0.359    0.435    8.324
  430.952   60.229    0.348    0.427    8.182
  431.202   62.003    0.338    0.433    8.203
  431.452   63.604    0.340    0.436    8.042
  431.702   63.642    0.349    0.434    8.046
  431.952   61.792    0.346    0.438    8.007
  432.202   59.408    0.348    0.435    7.905
  432.452   58.768    0.344    0.428    7.907
  432.702   58.996    0.342    0.428    7.910
  432.952   60.470    0.344    0.431    7.912
  433.202   62.058    0.350    0.431    7.914
  433.452   63.632    0.354    0.433    7.915
  433.702   63.645    0.351    0.449    7.930
  433.952   62.239    0.364    0.468    7.762
  434.202   62.384    0.376    0.490    7.778
  434.452   62.926    0.378    0.494    7.782
  434.702   63.650    0.366    0.456    7.794
  434.952   62.936    0.353    0.443    7.644
  435.202   61.868    0.343    0.438    7.649
  435.452   62.672    0.339    0.433    7.649
  435.702   64.114    0.350    0.430    7.651
  435.952   64.135    0.361    0.433    7.671
  436.202   64.211    0.373    0.438    7.527
  436.452   65.201    0.377    0.439    7.662
  436.702   67.100    0.371    0.433    7.664
  436.952   69.002    0.372    0.442    7.674
  437.202   70.522    0.378    0.457    7.810
  437.452   71.094    0.378    0.446    7.807
  437.702   72.510    0.361    0.440    7.808
  437.952   72.925    0.367    0.448    7.810
  438.202   72.987    0.371    0.457    7.810
  438.452   71.325    0.365    0.460    7.817
  438.702   71.662    0.363    0.457    7.663
  438.952   71.626    0.364    0.449    7.676
  439.202   70.647    0.366    0.443    7.679
  439.452   71.922    0.368    0.436    7.682
  439.702   73.130    0.374    0.443    7.688
  439.952   72.260    0.367    0.455    7.568
  440.202   69.087    0.370    0.464    7.552
  440.452   68.347    0.364    0.446    7.550
  440.702   71.105    0.369    0.438    7.552
  440.952   71.240    0.370    0.445    7.554
  441.202   71.887    0.367    0.448    7.555
  441.452   74.099    0.367    0.447    7.558
  441.702   75.878    0.359    0.446    7.559
  441.952   77.203    0.358    0.437    7.562
  442.202   78.860    0.354    0.431    7.563
  442.452   79.797    0.336    0.431    7.566
  442.702   80.330    0.341    0.432    7.567
  442.952   78.422    0.357    0.441    7.555
  443.202   76.452    0.367    0.451    7.718
  443.452   75.397    0.372    0.465    7.813
  443.702   75.424    0.370    0.456    8.004
  443.952   75.423    0.355    0.459    8.165
  444.202   73.997    0.359    0.474    8.296
  444.452   73.160    0.358    0.478    8.480
  444.702   74.210    0.349    0.479    8.460
  444.952   73.767    0.341    0.469    8.633
  445.202   72.322    0.351    0.453    8.624
  445.452   71.220    0.355    0.445    8.626
  445.702   71.888    0.345    0.435    8.627
  445.952   71.834    0.344    0.436    8.630
  446.202   71.333    0.353    0.450    8.632
  446.452   70.335    0.356    0.465    8.634
  446.702   69.347    0.352    0.469    8.637
  446.952   68.334    0.356    0.459    8.640
  447.202   67.088    0.353    0.470    8.642
  447.452   66.384    0.330    0.479    8.643
  447.702   65.108    0.351    0.483    8.642
  447.952   65.264    0.371    0.474    8.605
  448.202   66.947    0.356    0.486    8.492
  448.452   67.084    0.354    0.496    8.491
  448.702   65.645    0.343    0.501    8.469
  448.952   66.303    0.352    0.486    8.343
  449.202   67.585    0.363    0.475    8.363
  449.452   68.857    0.359    0.477    8.189
  449.702   69.440    0.355    0.488    8.205
  449.952   68.553    0.348    0.473    8.218
  450.202   66.901    0.347    0.460    8.052
  450.452   65.966    0.357    0.460    8.062
  450.702   65.163    0.376    0.472    8.062
  450.952   64.556    0.387    0.484    8.064
  451.202   65.538    0.389    0.491    8.066
  451.452   66.399    0.388    0.486    8.068
  451.702   66.345    0.382    0.482    8.070
  451.952   66.360    0.367    0.486    8.072
  452.202   66.439    0.371    0.498    8.075
  452.452   66.911    0.383    0.500    8.077
  452.702   67.590    0.380    0.490    8.093
  452.952   67.496    0.381    0.481    7.926
  453.202   66.468    0.380    0.474    7.953
  453.452   65.447    0.388    0.483    7.780
  453.702   65.122    0.380    0.489    7.797
  453.952   65.487    0.363    0.497    7.799
  454.202   66.501    0.376    0.500    7.802
  454.452   67.486    0.376    0.496    7.804
  454.702   68.473    0.377    0.489    7.805
  454.952   69.495    0.383    0.484    7.807
  455.202   69.420    0.386    0.482    7.809
  455.452   68.924    0.369    0.484    7.808
  455.702   69.989    0.365    0.494    7.796
  455.952   70.979    0.375    0.506    7.665
  456.202   72.002    0.382    0.521    7.616
  456.452   72.294    0.378    0.511    7.541
  456.702   71.836    0.375    0.495    7.541
  456.952   71.653    0.370    0.492    7.543
  457.202   72.283    0.361    0.491    7.545
  457.452   72.677    0.359    0.483    7.548
  457.702   72.957    0.359    0.478    7.551
  457.952   71.211    0.366    0.482    7.545
  458.202   70.404    0.341    0.494    7.708
  458.452   71.156    0.360    0.486    7.713
  458.702   70.099    0.372    0.485    7.968
  458.952   68.346    0.349    0.479    7.967
  459.202   67.436    0.330    0.470    8.140
  459.452   67.360    0.334    0.470    8.258
  459.702   68.981    0.363    0.474    8.347
  459.952   69.883    0.361    0.482    8.447
  460.202   70.024    0.353    0.488    8.614
  460.452   70.868    0.347    0.497    8.606
  460.702   72.198    0.330    0.498    8.607
  460.952   74.877    0.321    0.506    8.622
  461.202   75.969    0.337    0.517    8.415
  461.452   76.992    0.336    0.520    8.171
  461.702   77.017    0.354    0.510    7.917
  461.952   77.022    0.355    0.502    7.849
  462.202   77.074    0.359    0.508    7.720
  462.452   76.315    0.360    0.509    7.739
  462.702   77.077    0.330    0.497    7.583
  462.952   77.988    0.306    0.484    7.595
  463.202   79.688    0.307    0.477    7.604
  463.452   80.612    0.313    0.476    7.457
  463.702   80.592    0.321    0.477    7.463
  463.952   80.563    0.326    0.465    7.462
  464.202   81.176    0.317    0.460    7.464
  464.452   81.479    0.313    0.462    7.466
  464.702   82.510    0.315    0.474    7.468
