~VERSION INFORMATION
 VERS.                 2.0:   CWLS LOG ASCII STANDARD -VERSION 2.0
 WRAP.                  NO:   ONE LINE PER DEPTH STEP
~WELL INFORMATION BLOCK
#MNEM.UNIT           DATA                    DESCRIPTION OF MNEMONIC
#---------    -------------------            -------------------------------
# Generated from Intellog Unique Number	CS_71_72/WELL/701
WELL.         SULPETRO ET AL IPIATIK         : Well_name    - WELL
LOC .         00/06-01-072-11W4/0            : Location     - LOCATION
UWI .         00/06-01-072-11W4/0            : Uwi          - UNIQUE WELL ID
ENTR.         SP                             : Entered      - ENTERED BY
SRVC.         SCHLUMBERGER                   : Scn          - SERVICE COMPANY
STRT.M        295                            : top_depth    - START DEPTH
STOP.M        525                            : bot_depth    - STOP DEPTH
STEP.M        0.25                           : increment    - STEP LENGTH
 NULL. -999.2500:NULL Value
~CURVE INFORMATION BLOCK
#MNEM UNIT       ERCB CURVE CODE    CURVE DESCRIPTION
#-----------   ------------------   ----------------------------------
DEPT.M        00 001 00 00         : DEPTH        - DEPTH
ILD .OHMM     00 120 00 00         : RESD         - DEEP RESISTIVITY (DIL)
DPHI.V/V      00 890 00 00         : PHID         - DENSITY POROSITY (LIMESTONE)
NPHI.V/V      00 330 00 00         : PHIN         - NEUTRON POROSITY (LIMESTONE)
GR  .API      00 310 00 00         : GR           - GAMMA RAY
~PARAMETER INFORMATION
#MNEM.UNIT           DATA             DESCRIPTION OF MNEMONIC
#---------         -----------     ------------------------------
GL  .M        644.9                : gl           - GROUND LEVEL ELEVATION
EREF.M        648.4                : kb           - ELEVATION OF DEPTH REFERENCE
DATM.M        644.9                : datum        - DATUM ELEVATION
TDD .M        529                  : tdd          - TOTAL DEPTH DRILLER
RUN .         ONE                  : Run          - RUN NUMBER
ENG .         BILL                 : Engineer     - RECORDING ENGINEER
WIT .         JIM                  : Witness      - WITNESSED BY
MUD .         GEL                  : Mud_type     - MUD TYPE
MATR.         LIMESTONE            : Logunit      - NEUTRON MATRIX
TMAX.C        20                   : BHT          - MAXIMUM RECORDED TEMPERATURE
BHTD.M        529                  : BHTDEP       - MAXIMUM RECORDED TEMPERATURE
MATR.         1                    : LOGUNIT      - NEUTRON MATRIX
RMT .C        25                   : MDTP         - TEMPERATURE OF MUD
NEUT.         1                    : NEUTRON      - NEUTRON TYPE
RESI.         0                    : RESIST       - RESISTIVITY TYPE
RMC .OHMM     0.25                 : RMC          - RESISTIVITY OF MUD CAKE
RMF .OHMM     0.25                 : RMF          - RESISTIVITY OF MUD FILTRATE
SUFT.C        15                   : SUFT         - SURFACE TEMPERATURE
~A  DEPTH     RESD     PHID     PHIN       GR
  295.000    2.748    0.219    0.575  104.453
  295.250    2.907    0.090    0.605   88.659
  295.500    3.076    0.064    0.494   82.580
  295.750    3.194    0.074    0.480   79.541
  296.000    3.255    0.088    0.478   94.110
  296.250    3.256    0.113    0.472   98.358
  296.500    3.196    0.212    0.501  103.211
  296.750    3.137    0.219    0.535   98.348
  297.000    3.197    0.214    0.564   94.701
  297.250    3.198    0.211    0.592   94.089
  297.500    3.259    0.211    0.497   96.513
  297.750    3.259    0.209    0.478   98.937
  298.000    3.321    0.205    0.454  100.147
  298.250    3.260    0.202    0.489  101.965
  298.500    3.200    0.202    0.519  103.783
  298.750    3.201    0.213    0.530  103.778
  299.000    3.142    0.225    0.535  104.381
  299.250    3.084    0.234    0.483  106.198
  299.500    3.085    0.220    0.463  103.158
  299.750    3.028    0.214    0.482   98.903
  300.000    3.086    0.207    0.482   92.218
  300.250    3.205    0.202    0.491   87.355
  300.500    3.327    0.206    0.467   89.172
  300.750    3.455    0.215    0.442   95.849
  301.000    3.455    0.226    0.439  103.738
  301.250    3.456    0.229    0.454  104.340
  301.500    3.330    0.217    0.460  101.908
  301.750    3.393    0.205    0.470   75.182
  302.000    4.666    0.200    0.444   63.639
  302.250    7.736    0.266    0.413   56.348
  302.500   11.251    0.303    0.157   51.486
  302.750   20.484    0.345    0.110   53.303
  303.000   33.333    0.395    0.104   57.550
  303.250   40.963    0.438    0.109   61.189
  303.500   42.534    0.458    0.116   66.648
  303.750   41.753    0.448    0.121   68.467
  304.000   35.284    0.443    0.128   69.069
  304.250   21.289    0.447    0.138   67.242
  304.500   16.694    0.432    0.147   66.632
  304.750   14.646    0.416    0.168   66.020
  305.000   13.340    0.387    0.205   66.622
  305.250   11.925    0.377    0.225   67.834
  305.500   11.275    0.311    0.246   74.508
  305.750   10.464    0.282    0.285   81.791
  306.000    9.354    0.258    0.317   85.430
  306.250    8.680    0.233    0.334   89.070
  306.500    8.056    0.217    0.355   94.532
  306.750    7.761    0.211    0.371   98.170
  307.000    7.619    0.210    0.384  102.416
  307.250    7.911    0.221    0.391  105.448
  307.500    8.528    0.224    0.384  107.875
  307.750    8.854    0.235    0.383  110.906
  308.000    9.023    0.246    0.387  105.434
  308.250    9.025    0.262    0.398  101.180
  308.500    8.859    0.252    0.402   95.709
  308.750    8.535    0.246    0.391   98.134
  309.000    8.223    0.216    0.388  101.774
  309.250    7.923    0.212    0.383  105.414
  309.500    7.633    0.212    0.375  104.193
  309.750    7.492    0.225    0.366  101.762
  310.000    7.493    0.219    0.357   96.290
  310.250    8.230    0.209    0.352   95.680
  310.500    8.708    0.201    0.350   96.890
  310.750    9.212    0.196    0.356   94.456
  311.000   10.703    0.196    0.344   87.772
  311.250   11.322    0.194    0.322   80.479
  311.500   13.155    0.193    0.300   78.045
  311.750   13.660    0.219    0.261   74.398
  312.000   14.451    0.280    0.226   65.892
  312.250   16.788    0.313    0.206   58.600
  312.500   18.787    0.342    0.190   59.809
  312.750   20.636    0.359    0.177   61.627
  313.000   20.638    0.367    0.170   61.622
  313.250   20.259    0.376    0.169   64.654
  313.500   18.110    0.382    0.189   67.079
  313.750   15.595    0.383    0.230   68.290
  314.000   13.681    0.349    0.262   53.710
  314.250   12.003    0.331    0.287   50.063
  314.500    9.957    0.325    0.311   48.236
  314.750    9.592    0.320    0.320   48.838
  315.000    9.415    0.319    0.314   51.264
  315.250   10.341    0.318    0.315   54.296
  315.500   10.940    0.296    0.318   56.721
  315.750   11.575    0.267    0.325   51.858
  316.000   12.019    0.258    0.326   44.566
  316.250   12.021    0.280    0.324   43.347
  316.500   11.800    0.299    0.320   45.770
  316.750   11.369    0.316    0.320   48.197
  317.000   11.159    0.326    0.325   51.229
  317.250   10.955    0.330    0.328   48.795
  317.500   10.754    0.327    0.335   53.648
  317.750   10.755    0.327    0.339   59.108
  318.000   10.757    0.331    0.341   61.535
  318.250   10.560    0.333    0.342   62.744
  318.500   10.173    0.331    0.345   59.095
  318.750    9.802    0.325    0.355   55.448
  319.000    9.804    0.319    0.359   49.978
  319.250    9.805    0.324    0.356   48.759
  319.500    9.625    0.326    0.358   49.361
  319.750    9.627    0.323    0.361   50.571
  320.000    9.629    0.306    0.368   51.781
  320.250    9.452    0.293    0.368   52.992
  320.500    9.453    0.293    0.367   54.201
  320.750    9.455    0.296    0.372   54.197
  321.000    9.457    0.300    0.372   53.586
  321.250    9.458    0.302    0.367   52.368
  321.500    9.461    0.304    0.361   51.756
  321.750    9.462    0.310    0.360   52.359
  322.000    9.463    0.315    0.356   54.175
  322.250    9.466    0.317    0.359   55.386
  322.500    9.467    0.295    0.360   55.987
  322.750    9.468    0.286    0.363   54.770
  323.000    9.471    0.286    0.366   43.835
  323.250    9.472    0.296    0.369   34.113
  323.500    9.474    0.307    0.365   32.287
  323.750    9.477    0.317    0.360   31.675
  324.000    9.479    0.324    0.357   31.671
  324.250    9.480    0.320    0.370   32.881
  324.500    9.482    0.318    0.369   34.698
  324.750    9.483    0.313    0.365   35.908
  325.000    9.485    0.320    0.364   34.082
  325.250    9.486    0.325    0.371   33.470
  325.500    9.312    0.315    0.369   34.071
  325.750    9.314    0.312    0.361   34.068
  326.000    9.315    0.301    0.354   34.671
  326.250    9.318    0.286    0.352   34.666
  326.500    9.146    0.282    0.351   34.663
  326.750    9.148    0.285    0.349   35.265
  327.000    9.150    0.294    0.352   37.082
  327.250    9.151    0.301    0.352   38.899
  327.500    9.152    0.305    0.349   38.896
  327.750    9.327    0.307    0.346   38.892
  328.000    9.328    0.307    0.343   38.888
  328.250    9.331    0.307    0.343   38.275
  328.500    9.332    0.305    0.346   36.449
  328.750    9.510    0.302    0.346   36.444
  329.000    9.513    0.295    0.346   35.833
  329.250    9.514    0.293    0.347   31.578
  329.500    9.695    0.291    0.347   27.322
  329.750    9.698    0.300    0.343   25.496
  330.000    9.699    0.303    0.339   25.492
  330.250    9.701    0.306    0.335   24.272
  330.500    9.703    0.303    0.345   22.446
  330.750    9.705    0.300    0.351   21.227
  331.000    9.706    0.289    0.353   24.259
  331.250    9.527    0.284    0.356   29.720
  331.500    9.529    0.288    0.364   33.966
  331.750    9.531    0.301    0.375   35.176
  332.000    9.356    0.307    0.381   36.386
  332.250    9.358    0.312    0.375   36.383
  332.500    9.186    0.313    0.380   35.164
  332.750    9.187    0.313    0.385   33.945
  333.000    9.190    0.316    0.380   33.332
  333.250    9.191    0.320    0.376   33.936
  333.500    9.193    0.310    0.375   34.537
  333.750    9.194    0.304    0.369   34.533
  334.000    9.197    0.304    0.365   33.923
  334.250    9.198    0.304    0.362   31.488
  334.500    9.373    0.304    0.359   26.625
  334.750    9.376    0.305    0.357   25.408
  335.000    9.377    0.307    0.353   28.439
  335.250    9.378    0.313    0.353   30.255
  335.500    9.206    0.305    0.353   31.465
  335.750    9.207    0.296    0.354   32.070
  336.000    9.039    0.290    0.351   33.887
  336.250    9.041    0.287    0.347   33.882
  336.500    9.042    0.301    0.342   32.664
  336.750    9.043    0.304    0.340   32.052
  337.000    9.046    0.304    0.350   32.652
  337.250    9.047    0.302    0.354   32.650
  337.500    8.881    0.301    0.351   32.644
  337.750    8.882    0.301    0.347   32.034
  338.000    8.884    0.302    0.347   30.207
  338.250    8.886    0.306    0.350   28.382
