~VERSION INFORMATION
 VERS.                 2.0:   CWLS LOG ASCII STANDARD -VERSION 2.0
 WRAP.                  NO:   ONE LINE PER DEPTH STEP
~WELL INFORMATION BLOCK
#MNEM.UNIT           DATA                    DESCRIPTION OF MNEMONIC
#---------    -------------------            -------------------------------
# Generated from Intellog Unique Number	CW_82_90/WELL/3054
WELL.         TEXEX WOODEN                   : Well_name    - WELL
LOC .         00/06-11-087-22W4/0            : Location     - LOCATION
UWI .         00/06-11-087-22W4/0            : Uwi          - UNIQUE WELL ID
ENTR.         MAX                            : Entered      - ENTERED BY
SRVC.         SCHLUMBERGER                   : Scn          - SERVICE COMPANY
STRT.M        106.68                         : top_depth    - START DEPTH
STOP.M        335.18                         : bot_depth    - STOP DEPTH
STEP.M        0.25                           : increment    - STEP LENGTH
 NULL. -999.2500:NULL Value
~CURVE INFORMATION BLOCK
#MNEM UNIT       ERCB CURVE CODE    CURVE DESCRIPTION
#-----------   ------------------   ----------------------------------
DEPT.M        00 001 00 00         : DEPTH        - DEPTH
GR  .API      00 310 00 00         : GR           - GAMMA RAY
CALI.MM       00 280 01 00         : CAL          - CALIPER
DPHI.V/V      00 890 00 00         : PHID         - DENSITY POROSITY (SANDSTONE)
NPHI.V/V      00 330 00 00         : PHIN         - NEUTRON POROSITY (SANDSTONE)
ILD .OHMM     00 120 00 00         : RESD         - DEEP RESISTIVITY (DIL)
~PARAMETER INFORMATION
#MNEM.UNIT           DATA             DESCRIPTION OF MNEMONIC
#---------         -----------     ------------------------------
GL  .M        559.613              : gl           - GROUND LEVEL ELEVATION
EREF.M        563.27               : kb           - ELEVATION OF DEPTH REFERENCE
DATM.M        559.613              : datum        - DATUM ELEVATION
TDD .M        338.633              : tdd          - TOTAL DEPTH DRILLER
RUN .         ONE                  : Run          - RUN NUMBER
ENG .         BILL                 : Engineer     - RECORDING ENGINEER
WIT .         JIM                  : Witness      - WITNESSED BY
MUD .         GEL                  : Mud_type     - MUD TYPE
MATR.         SANDSTONE            : Logunit      - NEUTRON MATRIX
TMAX.C        22.2222              : BHT          - MAXIMUM RECORDED TEMPERATURE
BHTD.M        338.633              : BHTDEP       - MAXIMUM RECORDED TEMPERATURE
MATR.         1                    : LOGUNIT      - NEUTRON MATRIX
RMT .C        14.4444              : MDTP         - TEMPERATURE OF MUD
NEUT.         1                    : NEUTRON      - NEUTRON TYPE
RESI.         0                    : RESIST       - RESISTIVITY TYPE
RMC .OHMM     5.92                 : RMC          - RESISTIVITY OF MUD CAKE
RMF .OHMM     5.92                 : RMF          - RESISTIVITY OF MUD FILTRATE
SUFT.C        -20.5556             : SUFT         - SURFACE TEMPERATURE
~A  DEPTH       GR      CAL     PHID     PHIN     RESD
# ...
  143.180  102.829  215.877    0.253    0.584    3.034
  143.430  106.319  214.442    0.246    0.583    3.091
  143.680  109.232  213.986    0.241    0.575    3.177
  143.930  110.409  214.020    0.241    0.571    3.265
  144.180  110.717  213.557    0.248    0.578    3.356
  144.430  109.577  213.587    0.268    0.587    3.418
  144.680  111.623  213.621    0.259    0.585    3.482
  144.930  113.089  213.652    0.251    0.575    3.515
  145.180  113.683  214.662    0.238    0.553    3.516
  145.430  116.016  214.696    0.218    0.553    3.485
  145.680  114.298  214.723    0.212    0.562    3.486
  145.930  109.398  214.271    0.226    0.565    3.487
  146.180  102.472  213.811    0.226    0.560    3.616
  146.430   94.682  212.858    0.215    0.536    4.182
  146.680   85.153  212.406    0.206    0.512    4.707
  146.930   78.227  212.436    0.218    0.487    5.594
  147.180   73.038  211.981    0.234    0.483    6.708
  147.430   72.477  211.027    0.216    0.475    9.645
  147.680   74.233  210.568    0.196    0.458   11.256
  147.930   77.436  211.092    0.155    0.472   10.858
  148.180   80.344  211.616    0.229    0.498   10.569
  148.430   83.260  211.646    0.249    0.528   10.476
  148.680   82.988  211.677    0.246    0.526   10.966
  148.930   80.400  211.707    0.234    0.510   11.477
  149.180   75.502  210.758    0.217    0.491   12.570
  149.430   77.256  210.298    0.187    0.491   14.148
  149.680   79.880  209.842    0.266    0.497   15.636
  149.930   80.766  208.901    0.312    0.493   16.665
  150.180   79.342  208.927    0.320    0.485   16.519
  150.430   78.490  208.468    0.293    0.477   12.250
  150.680   79.669  208.988    0.261    0.482    9.591
  150.930   83.443  210.978    0.217    0.506    6.208
  151.180   89.539  212.478    0.219    0.548    4.730
  151.430   93.318  213.495    0.241    0.566    4.481
  151.680   92.472  214.502    0.228    0.563    4.648
  151.930   92.779  215.026    0.228    0.546    4.954
  152.180   93.089  215.060    0.225    0.534    5.328
  152.430   93.972  215.086    0.219    0.525    5.679
  152.680   94.571  214.141    0.216    0.517    5.732
  152.930   93.143  213.191    0.215    0.511    5.682
  153.180   91.714  212.736    0.215    0.540    5.840
  153.430   89.415  212.272    0.217    0.550    6.396
  153.680   85.101  211.817    0.220    0.536    7.069
  153.930   82.221  210.871    0.230    0.512    8.325
  154.180   78.478  210.901    0.229    0.490    9.285
  154.430   73.578  210.449    0.243    0.488   11.757
  154.680   64.917  209.982    0.280    0.458   13.475
  154.930   54.809  208.547    0.286    0.437   15.583
  155.180   47.888  209.071    0.327    0.432   18.186
  155.430   49.351  210.081    0.329    0.437   20.284
  155.680   50.241  210.111    0.322    0.443   21.229
  155.930   49.967  209.162    0.315    0.450   22.020
  156.180   49.696  208.702    0.327    0.464   22.227
  156.430   49.135  206.777    0.330    0.468   22.435
  156.680   45.105  203.868    0.337    0.469   22.853
  156.930   44.549  204.392    0.333    0.465   23.067
  157.180   44.854  205.402    0.331    0.451   23.073
  157.430   44.583  206.416    0.336    0.435   23.080
  157.680   46.339  209.382    0.331    0.451   23.086
  157.930   49.828  212.842    0.322    0.480   23.093
  158.180   51.873  212.876    0.319    0.484   23.098
  158.430   50.736  212.424    0.328    0.458   22.895
  158.680   49.884  213.430    0.324    0.445   22.903
  158.930   50.483  214.934    0.324    0.450   22.909
  159.180   51.947  214.960    0.326    0.456   22.708
  159.430   52.544  214.501    0.325    0.450   22.713
  159.680   52.564  214.045    0.321    0.455   22.720
  159.930   52.584  213.593    0.320    0.464   22.522
  160.180   52.024  213.616    0.319    0.473   22.527
  160.430   51.171  212.667    0.309    0.473   22.129
  160.680   50.611  211.239    0.310    0.463   22.133
  160.930   50.050  210.285    0.310    0.469   21.940
  161.180   48.626  211.296    0.312    0.480   21.946
  161.430   48.642  212.306    0.304    0.470   21.951
  161.680   50.106  212.340    0.306    0.475   21.958
  161.930   50.124  211.880    0.310    0.488   21.765
  162.180   50.144  207.995    0.300    0.489   21.771
  162.430   49.007  206.066    0.294    0.486   21.778
  162.680   47.287  205.614    0.318    0.482   21.783
  162.930   45.576  205.641    0.326    0.473   21.791
  163.180   45.883  207.141    0.315    0.461   21.598
  163.430   46.764  211.086    0.316    0.454   21.604
  163.680   50.258  216.023    0.330    0.461   21.610
  163.930   52.299  217.523    0.346    0.460   21.814
  164.180   53.185  219.513    0.344    0.454   21.818
  164.430   54.362  216.608    0.327    0.458   21.433
  164.680   54.961  215.169    0.329    0.473   21.052
  164.930   55.268  214.709    0.337    0.483   20.868
  165.180   55.578  215.719    0.334    0.491   20.499
  165.430   55.883  216.729    0.329    0.491   20.505
  165.680   57.347  215.784    0.325    0.484   20.325
  165.930   55.921  216.304    0.309    0.484   20.331
  166.180   55.362  216.342    0.310    0.485   20.152
  166.430   53.642  216.365    0.312    0.485   20.158
  166.680   50.193  216.399    0.324    0.487   19.981
  166.930   50.209  216.429    0.326    0.488   19.986
  167.180   49.938  215.970    0.337    0.482   19.992
  167.430   49.960  216.011    0.323    0.465   19.639
  167.680   50.846  216.034    0.315    0.462   19.116
  167.930   57.226  215.085    0.310    0.461   17.149
  168.180   65.057  215.127    0.295    0.458   11.614
  168.430   70.572  215.157    0.278    0.518    7.183
  168.680   83.032  215.183    0.250    0.536    6.386
  168.930   85.654  214.230    0.220    0.546    6.446
  169.180   82.202  213.292    0.198    0.546    6.933
  169.430   74.409  213.315    0.213    0.487    7.803
  169.680   70.668  212.373    0.269    0.491    8.094
  169.930   72.130  212.404    0.270    0.507    7.808
  170.180   75.624  211.944    0.271    0.531    8.025
  170.430   75.064  211.484    0.267    0.548    8.710
  170.680   73.057  211.519    0.259    0.500    9.453
  170.930   64.972  211.545    0.273    0.464   11.862
  171.180   54.575  211.579    0.299    0.444   14.617
  171.430   54.306  211.614    0.302    0.447   17.530
  171.680   57.221  211.150    0.299    0.449   19.729
  171.930   59.264  211.181    0.288    0.447   20.463
  172.180   63.620  211.712    0.280    0.447   15.593
  172.430   68.845  211.739    0.263    0.493   12.433
  172.680   74.072  211.765    0.264    0.478   11.154
  172.930   72.644  211.310    0.253    0.443    9.739
  173.180   73.821  211.340    0.246    0.427    9.740
  173.430   79.914  211.378    0.247    0.457    9.311
  173.680   81.670  211.408    0.252    0.512    8.982
  173.930   82.848  211.439    0.259    0.495    8.743
  174.180   86.048  211.469    0.260    0.481    8.666
  174.430   87.225  211.993    0.242    0.481    8.910
  174.680   85.505  212.020    0.240    0.497    8.750
  174.930   80.318  211.568    0.253    0.499    8.832
  175.180   81.204  211.594    0.253    0.481    9.161
  175.430   82.670  211.135    0.264    0.479    9.331
  175.680   82.688  211.659    0.264    0.488    9.505
  175.930   81.551  212.186    0.268    0.507    9.507
  176.180   80.701  212.213    0.257    0.535    9.509
  176.430   79.851  212.240    0.265    0.518    9.512
  176.680   77.844  212.274    0.272    0.497    9.515
  176.930   79.309  212.304    0.259    0.480    9.518
  177.180   82.220  212.334    0.245    0.474    9.520
  177.430   86.292  212.855    0.248    0.498    9.523
  177.680   87.178  213.869    0.242    0.521    9.440
  177.930   85.169  214.389    0.230    0.530    9.442
  178.180   83.161  214.913    0.229    0.525    9.444
  178.430   83.762  214.951    0.227    0.513    9.448
  178.680   86.095  215.463    0.204    0.492    9.536
  178.930   88.714  215.494    0.170    0.500    9.539
  179.180   93.363  215.042    0.152    0.523    9.540
  179.430   93.092  214.582    0.181    0.500    9.288
