~VERSION INFORMATION
 VERS.                 2.0:   CWLS LOG ASCII STANDARD -VERSION 2.0
 WRAP.                  NO:   ONE LINE PER DEPTH STEP
~WELL INFORMATION BLOCK
#MNEM.UNIT           DATA                    DESCRIPTION OF MNEMONIC
#---------    -------------------            -------------------------------
# Generated from Intellog Unique Number	CS_73_76/WELL/2104
WELL.         CAVALIER ENERTY LIMITED        : Well_name    - WELL
LOC .         00/07-08-076-15W4/0            : Location     - LOCATION
UWI .         00/07-08-076-15W4/0            : Uwi          - UNIQUE WELL ID
ENTR.         SP                             : Entered      - ENTERED BY
SRVC.         SCHLUMBERGER                   : Scn          - SERVICE COMPANY
STRT.M        360                            : top_depth    - START DEPTH
STOP.M        585                            : bot_depth    - STOP DEPTH
STEP.M        0.25                           : increment    - STEP LENGTH
 NULL. -999.2500:NULL Value
~CURVE INFORMATION BLOCK
#MNEM UNIT       ERCB CURVE CODE    CURVE DESCRIPTION
#-----------   ------------------   ----------------------------------
DEPT.M        00 001 00 00         : DEPTH        - DEPTH
DPHI.V/V      00 890 00 00         : PHID         - DENSITY POROSITY (LIMESTONE)
NPHI.V/V      00 330 00 00         : PHIN         - NEUTRON POROSITY (LIMESTONE)
GR  .API      00 310 00 00         : GR           - GAMMA RAY
ILD .OHMM     00 120 00 00         : RESD         - DEEP RESISTIVITY (DIL)
~PARAMETER INFORMATION
#MNEM.UNIT           DATA             DESCRIPTION OF MNEMONIC
#---------         -----------     ------------------------------
GL  .M        735.6                : gl           - GROUND LEVEL ELEVATION
EREF.M        739.7                : kb           - ELEVATION OF DEPTH REFERENCE
DATM.M        735.6                : datum        - DATUM ELEVATION
TDD .M        595                  : tdd          - TOTAL DEPTH DRILLER
RUN .         ONE                  : Run          - RUN NUMBER
ENG .         BILL                 : Engineer     - RECORDING ENGINEER
WIT .         JIM                  : Witness      - WITNESSED BY
MUD .         GEL                  : Mud_type     - MUD TYPE
MATR.         LIMESTONE            : Logunit      - NEUTRON MATRIX
TMAX.C        20                   : BHT          - MAXIMUM RECORDED TEMPERATURE
BHTD.M        595                  : BHTDEP       - MAXIMUM RECORDED TEMPERATURE
MATR.         1                    : LOGUNIT      - NEUTRON MATRIX
RMT .C        25                   : MDTP         - TEMPERATURE OF MUD
NEUT.         1                    : NEUTRON      - NEUTRON TYPE
RESI.         0                    : RESIST       - RESISTIVITY TYPE
RMC .OHMM     0.25                 : RMC          - RESISTIVITY OF MUD CAKE
RMF .OHMM     0.25                 : RMF          - RESISTIVITY OF MUD FILTRATE
SUFT.C        15                   : SUFT         - SURFACE TEMPERATURE
~A  DEPTH     PHID     PHIN       GR     RESD
# ...
  490.500    0.271    0.484   94.058    4.830
  490.750    0.280    0.492   91.617    4.831
  491.000    0.265    0.486   93.442    4.833
  491.250    0.251    0.460   95.878    4.836
  491.500    0.241    0.467   98.924    4.838
  491.750    0.234    0.495  101.968    4.931
  492.000    0.242    0.501  101.966    5.025
  492.250    0.257    0.485   98.305    5.121
  492.500    0.247    0.469   95.862    5.123
  492.750    0.251    0.454   95.249    5.126
  493.000    0.256    0.437   94.636    4.942
  493.250    0.255    0.442   95.853    4.764
  493.500    0.235    0.464   93.411    4.767
  493.750    0.209    0.480   89.139    4.858
  494.000    0.209    0.463   92.184    4.951
  494.250    0.243    0.429   88.523    5.046
  494.500    0.244    0.435   70.837    5.239
  494.750    0.214    0.448   62.298    5.857
  495.000    0.167    0.424   61.074    7.052
  495.250    0.254    0.400   62.901    8.335
  495.500    0.311    0.394   66.556    8.816
  495.750    0.348    0.426   66.553    8.657
  496.000    0.339    0.421   66.550    7.750
  496.250    0.336    0.411   65.937    6.686
  496.500    0.348    0.408   66.542    6.212
  496.750    0.347    0.416   65.930    5.880
  497.000    0.342    0.420   65.318    5.564
  497.250    0.341    0.414   65.924    5.464
  497.500    0.350    0.409   64.701    5.268
  497.750    0.347    0.407   65.918    5.271
  498.000    0.341    0.423   67.744    5.273
  498.250    0.341    0.432   65.912    5.275
  498.500    0.345    0.434   64.688    5.377
  498.750    0.337    0.444   65.904    5.480
  499.000    0.333    0.448   65.902    5.483
  499.250    0.337    0.443   62.850    5.588
  499.500    0.340    0.435   64.065    5.694
  499.750    0.339    0.431   65.283    5.697
  500.000    0.338    0.429   68.328    5.807
  500.250    0.338    0.424   71.982    5.808
  500.500    0.338    0.413   73.200    5.600
  500.750    0.338    0.405   68.927    5.603
  501.000    0.338    0.396   70.753    5.605
  501.250    0.338    0.414   71.970    5.506
  501.500    0.338    0.431   72.577    5.508
  501.750    0.337    0.423   70.744    5.408
  502.000    0.332    0.417   72.570    5.312
  502.250    0.326    0.431   73.177    5.314
  502.500    0.327    0.434   75.612    5.219
  502.750    0.336    0.447   72.560    5.223
  503.000    0.342    0.451   71.948    5.225
  503.250    0.342    0.427   70.725    5.324
  503.500    0.341    0.426   71.941    5.327
  503.750    0.340    0.428   73.158    5.329
  504.000    0.341    0.437   70.715    5.332
  504.250    0.340    0.437   69.493    5.335
  504.500    0.342    0.422   70.709    5.337
  504.750    0.351    0.428   71.925    5.241
  505.000    0.348    0.434   72.531    5.147
  505.250    0.341    0.445   72.529    5.055
  505.500    0.341    0.455   71.916    4.965
  505.750    0.345    0.451   70.083    4.967
  506.000    0.351    0.426   69.470    4.878
  506.250    0.351    0.409   69.467    4.881
  506.500    0.352    0.432   71.903    4.793
  506.750    0.347    0.458   73.120    4.795
  507.000    0.344    0.468   71.287    4.798
  507.250    0.338    0.468   71.893    4.800
  507.500    0.327    0.429   73.110    4.802
  507.750    0.320    0.436   71.888    4.805
  508.000    0.308    0.447   73.104    4.719
  508.250    0.302    0.467   74.929    4.720
  508.500    0.308    0.484   76.755    4.636
  508.750    0.319    0.466   77.971    4.553
  509.000    0.327    0.448   78.579    4.554
  509.250    0.336    0.436   77.356    4.473
  509.500    0.332    0.442   76.743    4.393
  509.750    0.331    0.454   74.910    4.395
  510.000    0.327    0.465   72.468    4.398
  510.250    0.321    0.464   72.465    4.400
  510.500    0.328    0.461   71.242    4.401
  510.750    0.332    0.452   73.678    4.404
  511.000    0.337    0.467   77.333    4.405
  511.250    0.343    0.484   72.453    4.408
  511.500    0.360    0.496   68.791    4.409
  511.750    0.358    0.485   67.568    4.412
  512.000    0.354    0.463   68.174    4.413
  512.250    0.360    0.452   69.391    4.582
  512.500    0.363    0.467   72.436    4.670
  512.750    0.359    0.460   73.043    4.760
  513.000    0.348    0.442   73.649    4.762
  513.250    0.341    0.437   71.817    4.676
  513.500    0.332    0.476   68.765    4.767
  513.750    0.329    0.494   68.152    4.949
  514.000    0.330    0.503   68.149    4.950
  514.250    0.315    0.476   68.145    5.139
  514.500    0.300    0.458   67.533    5.538
  514.750    0.218    0.368   69.969    5.967
  515.000    0.240    0.315   71.185    6.080
  515.250    0.297    0.362   71.182    6.197
  515.500    0.320    0.429   69.959    5.651
  515.750    0.322    0.457   68.736    5.250
  516.000    0.322    0.453   70.563    4.878
  516.250    0.328    0.464   74.827    4.790
  516.500    0.332    0.461   75.433    4.706
  516.750    0.326    0.436   76.040    4.708
  517.000    0.320    0.429   75.427    4.623
  517.250    0.319    0.452   72.986    4.625
  517.500    0.324    0.453   70.542    4.628
  517.750    0.327    0.423   69.930    4.629
  518.000    0.326    0.418   72.366    4.719
  518.250    0.321    0.439   76.021    4.720
  518.500    0.319    0.471   79.676    4.811
  518.750    0.308    0.490   86.380    4.812
  519.000    0.291    0.493   83.329    4.816
  519.250    0.284    0.485   77.838    4.729
  519.500    0.291    0.461   76.615    4.730
  519.750    0.291    0.449   79.660    4.734
  520.000    0.290    0.444   79.657    4.735
  520.250    0.288    0.439   81.483    4.738
  520.500    0.282    0.440   83.919    4.740
  520.750    0.275    0.459   85.745    4.741
  521.000    0.274    0.476   86.961    4.657
  521.250    0.276    0.473   88.787    4.574
  521.500    0.269    0.447   93.662    4.250
  521.750    0.264    0.441   97.317    4.173
  522.000    0.256    0.435   99.753    3.949
  522.250    0.246    0.455   96.700    3.878
  522.500    0.234    0.473   93.649    4.257
  522.750    0.238    0.493   89.987    4.586
  523.000    0.244    0.466   85.716    5.224
  523.250    0.229    0.426   82.664    5.627
  523.500    0.192    0.426   79.002    6.410
  523.750    0.088    0.389   76.560    7.576
  524.000    0.099    0.245   75.338    8.012
  524.250    0.212    0.281   74.725    8.474
  524.500    0.275    0.339   75.941    7.176
  524.750    0.267    0.379   77.767    6.307
  525.000    0.249    0.429   82.642    5.859
  525.250    0.213    0.442   95.443    5.649
  525.500    0.217    0.442  102.757    5.346
  525.750    0.239    0.448   97.876    5.154
  526.000    0.250    0.445   94.214    5.061
  526.250    0.220    0.440   92.382    5.158
  526.500    0.205    0.456   89.939    5.356
  526.750    0.209    0.447   87.498    5.458
  527.000    0.214    0.433   89.323    5.563
  527.250    0.215    0.420   91.148    5.669
  527.500    0.219    0.438   92.366    5.778
  527.750    0.224    0.442   94.800    5.888
  528.000    0.230    0.442   94.798    5.892
  528.250    0.225    0.437   96.624    5.894
  528.500    0.220    0.425   99.670    5.789
  528.750    0.216    0.442   99.057    5.791
  529.000    0.211    0.447  100.883    5.794
  529.250    0.207    0.451  100.879    5.796
  529.500    0.204    0.451   95.998    6.019
  529.750    0.195    0.443   90.507    6.249
  530.000    0.205    0.436   87.456    6.487
  530.250    0.202    0.426   89.282    6.860
  530.500    0.196    0.385   80.742    7.256
  530.750    0.173    0.388   76.471    7.534
  531.000    0.153    0.379   78.907    7.822
  531.250    0.163    0.350   88.049    7.972
  531.500    0.205    0.354   95.973    7.829
  531.750    0.215    0.390   91.092    7.833
  532.000    0.220    0.422   88.650    7.693
  532.250    0.228    0.423   90.476    7.417
  532.500    0.215    0.389   94.741    7.419
  532.750    0.196    0.379  100.835    7.152
  533.000    0.180    0.408  109.368    6.769
  533.250    0.167    0.413  115.462    6.406
  533.500    0.181    0.410  114.849    6.176
  533.750    0.205    0.413  113.017    6.065
