~VERSION INFORMATION
 VERS.                 2.0:   CWLS LOG ASCII STANDARD -VERSION 2.0
 WRAP.                  NO:   ONE LINE PER DEPTH STEP
~WELL INFORMATION BLOCK
#MNEM.UNIT           DATA                    DESCRIPTION OF MNEMONIC
#---------    -------------------            -------------------------------
# Generated from Intellog Unique Number	CS_71_72/WELL/818
WELL.         BOW VALLEY INDUSTRIES          : Well_name    - WELL
LOC .         00/07-25-071-18W4/0            : Location     - LOCATION
UWI .         00/07-25-071-18W4/0            : Uwi          - UNIQUE WELL ID
ENTR.         SP                             : Entered      - ENTERED BY
SRVC.         SCHLUMBERGER                   : Scn          - SERVICE COMPANY
STRT.M        289.56                         : top_depth    - START DEPTH
STOP.M        460.06                         : bot_depth    - STOP DEPTH
STEP.M        0.25                           : increment    - STEP LENGTH
 NULL. -999.2500:NULL Value
~CURVE INFORMATION BLOCK
#MNEM UNIT       ERCB CURVE CODE    CURVE DESCRIPTION
#-----------   ------------------   ----------------------------------
DEPT.M        00 001 00 00         : DEPTH        - DEPTH
GR  .API      00 310 00 00         : GR           - GAMMA RAY
DPHI.V/V      00 890 00 00         : PHID         - DENSITY POROSITY (SANDSTONE)
NPHI.V/V      00 330 00 00         : PHIN         - NEUTRON POROSITY (SANDSTONE)
ILD .OHMM     00 120 00 00         : RESD         - DEEP RESISTIVITY (DIL)
~PARAMETER INFORMATION
#MNEM.UNIT           DATA             DESCRIPTION OF MNEMONIC
#---------         -----------     ------------------------------
GL  .M        590.245              : gl           - GROUND LEVEL ELEVATION
EREF.M        592.836              : kb           - ELEVATION OF DEPTH REFERENCE
DATM.M        590.245              : datum        - DATUM ELEVATION
TDD .M        487.68               : tdd          - TOTAL DEPTH DRILLER
RUN .         ONE                  : Run          - RUN NUMBER
ENG .         BILL                 : Engineer     - RECORDING ENGINEER
WIT .         JIM                  : Witness      - WITNESSED BY
MUD .         GEL                  : Mud_type     - MUD TYPE
MATR.         SANDSTONE            : Logunit      - NEUTRON MATRIX
TMAX.C        11.6667              : BHT          - MAXIMUM RECORDED TEMPERATURE
BHTD.M        487.68               : BHTDEP       - MAXIMUM RECORDED TEMPERATURE
MATR.         1                    : LOGUNIT      - NEUTRON MATRIX
RMT .C        25                   : MDTP         - TEMPERATURE OF MUD
NEUT.         1                    : NEUTRON      - NEUTRON TYPE
RESI.         0                    : RESIST       - RESISTIVITY TYPE
RMC .OHMM     0.25                 : RMC          - RESISTIVITY OF MUD CAKE
RMF .OHMM     0.25                 : RMF          - RESISTIVITY OF MUD FILTRATE
SUFT.C        15                   : SUFT         - SURFACE TEMPERATURE
~A  DEPTH       GR     PHID     PHIN     RESD
# ...
  333.060   93.506    0.223    0.456    5.503
  333.310   94.210    0.219    0.461    5.236
  333.560   91.582    0.232    0.465    5.136
  333.810   87.890    0.246    0.464    5.156
  334.060   82.981    0.264    0.455    5.416
  334.310   77.490    0.272    0.452    5.680
  334.560   73.106    0.260    0.454    5.882
  334.810   80.763    0.252    0.450    6.025
  335.060   87.482    0.244    0.438    6.099
  335.310   89.670    0.236    0.430    6.106
  335.560   89.396    0.237    0.419    6.047
  335.810   87.801    0.240    0.410    5.971
  336.060   89.066    0.234    0.403    5.617
  336.310   92.156    0.228    0.410    5.232
  336.560   95.087    0.219    0.438    4.939
  336.810   95.721    0.216    0.475    4.600
  337.060   95.596    0.216    0.509    4.461
  337.310   94.733    0.220    0.527    4.503
  337.560   94.069    0.229    0.507    4.630
  337.810   93.208    0.235    0.466    4.877
  338.060   91.698    0.246    0.444    5.317
  338.310   89.933    0.260    0.423    5.576
  338.560   89.170    0.269    0.442    5.808
  338.810   88.583    0.278    0.455    6.018
  339.060   88.576    0.286    0.453    6.082
  339.310   88.405    0.298    0.439    6.054
  339.560   84.290    0.305    0.434    5.834
  339.810   73.597    0.310    0.438    5.622
  340.060   65.977    0.312    0.433    5.473
  340.310   59.790    0.311    0.433    5.319
  340.560   57.506    0.310    0.430    5.236
  340.810   55.963    0.310    0.416    5.214
  341.060   54.643    0.308    0.421    5.257
  341.310   54.415    0.305    0.426    5.301
  341.560   54.012    0.303    0.431    5.360
  341.810   53.502    0.303    0.416    5.430
  342.060   59.425    0.303    0.409    5.587
  342.310   62.944    0.305    0.412    5.760
  342.560   62.962    0.309    0.416    5.857
  342.810   59.465    0.313    0.415    5.853
  343.060   59.446    0.311    0.400    5.770
  343.310   57.935    0.314    0.394    5.579
  343.560   55.604    0.319    0.407    5.381
  343.810   54.102    0.314    0.415    5.274
  344.060   53.828    0.307    0.406    5.181
  344.310   55.835    0.306    0.400    5.074
  344.560   55.732    0.306    0.399    5.022
  344.810   54.269    0.307    0.395    4.969
  345.060   57.038    0.313    0.393    4.934
  345.310   59.720    0.315    0.400    4.951
  345.560   59.793    0.313    0.410    5.105
  345.810   57.355    0.312    0.420    5.256
  346.060   53.973    0.317    0.426    5.298
  346.310   52.536    0.320    0.425    5.310
  346.560   52.487    0.323    0.414    5.331
  346.810   53.812    0.321    0.413    5.349
  347.060   56.826    0.313    0.419    5.377
  347.310   59.796    0.312    0.416    5.417
  347.560   61.556    0.319    0.411    5.457
  347.810   61.922    0.314    0.407    5.476
  348.060   61.375    0.306    0.415    5.488
  348.310   60.743    0.308    0.419    5.505
  348.560   60.490    0.309    0.420    5.522
  348.810   60.685    0.314    0.422    5.532
  349.060   60.062    0.317    0.421    5.562
  349.310   58.976    0.315    0.430    5.561
  349.560   60.247    0.315    0.431    5.600
  349.810   62.455    0.314    0.416    5.742
  350.060   62.905    0.314    0.409    5.760
  350.310   64.507    0.313    0.409    5.794
  350.560   72.673    0.315    0.411    5.828
  350.810   77.782    0.317    0.418    5.833
  351.060   77.368    0.312    0.428    5.826
  351.310   71.723    0.307    0.430    5.777
  351.560   65.931    0.304    0.432    5.739
  351.810   62.896    0.307    0.423    5.712
  352.060   59.526    0.312    0.423    5.700
  352.310   59.119    0.314    0.433    5.705
  352.560   60.903    0.316    0.424    5.671
  352.810   61.725    0.317    0.411    5.659
  353.060   60.235    0.317    0.410    5.641
  353.310   58.357    0.316    0.416    5.642
  353.560   59.352    0.311    0.419    5.641
  353.810   61.133    0.307    0.415    5.638
  354.060   60.029    0.305    0.413    5.665
  354.310   59.867    0.307    0.423    5.657
  354.560   60.287    0.309    0.434    5.640
  354.810   58.888    0.305    0.437    5.613
  355.060   57.493    0.306    0.434    5.586
  355.310   57.248    0.311    0.434    5.575
  355.560   58.245    0.312    0.434    5.573
  355.810   58.829    0.309    0.422    5.611
  356.060   59.460    0.306    0.410    5.731
  356.310   59.893    0.303    0.408    5.813
  356.560   61.272    0.302    0.399    5.902
  356.810   62.369    0.298    0.393    6.015
  357.060   63.061    0.290    0.403    6.098
  357.310   64.208    0.280    0.421    6.113
  357.560   65.496    0.277    0.441    6.099
  357.810   65.778    0.283    0.434    5.948
  358.060   63.182    0.288    0.427    5.929
  358.310   61.508    0.292    0.427    5.923
  358.560   62.844    0.296    0.427    5.920
  358.810   65.754    0.296    0.421    5.968
  359.060   66.844    0.292    0.414    6.069
  359.310   68.448    0.288    0.410    6.210
  359.560   71.683    0.290    0.434    6.363
  359.810   75.858    0.276    0.443    6.604
  360.060   78.104    0.253    0.420    6.995
  360.310   74.066    0.222    0.357    7.461
  360.560   68.669    0.184    0.309    8.236
  360.810   64.264    0.133    0.280   10.041
  361.060   60.554    0.101    0.250   11.066
  361.310   62.514    0.079    0.291   11.563
  361.560   71.489    0.125    0.399   11.886
  361.810   81.533    0.161    0.416    8.088
  362.060   87.550    0.186    0.428    7.032
  362.310   92.152    0.214    0.432    6.384
  362.560   96.494    0.211    0.432    5.951
  362.810   98.633    0.200    0.429    5.515
  363.060   98.822    0.207    0.423    5.293
  363.310   99.411    0.206    0.419    5.275
  363.560   98.736    0.211    0.423    5.317
  363.810   95.172    0.219    0.427    5.367
  364.060   92.882    0.224    0.431    5.415
  364.310   91.006    0.228    0.434    5.442
  364.560   89.184    0.235    0.440    5.468
  364.810   88.294    0.230    0.447    5.456
  365.060   86.592    0.224    0.459    5.377
  365.310   85.119    0.222    0.474    5.154
  365.560   84.551    0.237    0.469    4.866
  365.810   82.941    0.260    0.454    4.590
  366.060   80.888    0.282    0.445    4.377
  366.310   74.074    0.305    0.446    4.316
  366.560   68.651    0.313    0.442    4.291
  366.810   65.279    0.313    0.432    4.284
  367.060   67.808    0.313    0.423    4.272
  367.310   71.978    0.315    0.428    4.247
  367.560   74.008    0.308    0.429    4.174
  367.810   74.868    0.309    0.431    4.070
  368.060   75.587    0.305    0.435    3.874
  368.310   76.735    0.293    0.436    3.559
  368.560   78.838    0.281    0.438    3.302
  368.810   83.149    0.264    0.459    2.956
  369.060   87.047    0.251    0.470    2.777
  369.310   90.243    0.244    0.476    2.848
  369.560   91.693    0.246    0.487    2.951
  369.810   89.954    0.256    0.481    3.041
  370.060   80.780    0.278    0.470    3.199
  370.310   69.946    0.301    0.453    3.452
  370.560   65.472    0.318    0.447    3.601
  370.810   64.756    0.325    0.441    3.777
  371.060   65.163    0.328    0.436    3.837
  371.310   67.075    0.327    0.431    3.842
  371.560   70.040    0.321    0.431    3.790
  371.810   71.620    0.319    0.439    3.776
  372.060   71.355    0.323    0.439    3.736
  372.310   68.749    0.323    0.442    3.749
  372.560   67.434    0.320    0.440    3.734
  372.810   67.452    0.317    0.427    3.732
  373.060   64.954    0.312    0.416    3.737
  373.310   64.406    0.319    0.430    3.761
  373.560   67.275    0.318    0.436    3.765
  373.810   70.178    0.312    0.427    3.797
  374.060   70.990    0.305    0.419    3.865
  374.310   71.218    0.299    0.415    3.937
  374.560   70.415    0.290    0.416    4.124
  374.810   67.264    0.282    0.414    4.510
  375.060   63.974    0.269    0.406    4.827
  375.310   60.941    0.247    0.369    5.002
  375.560   59.852    0.228    0.331    5.027
  375.810   60.664    0.228    0.368    4.972
  376.060   64.717    0.288    0.401    4.881
  376.310   66.583    0.300    0.406    4.681
