~VERSION INFORMATION
 VERS.                 2.0:   CWLS LOG ASCII STANDARD -VERSION 2.0
 WRAP.                  NO:   ONE LINE PER DEPTH STEP
~WELL INFORMATION BLOCK
#MNEM.UNIT           DATA                    DESCRIPTION OF MNEMONIC
#---------    -------------------            -------------------------------
# Generated from Intellog Unique Number	CS_73_76/WELL/620
WELL.         CAVALIER ET AL NIXON           : Well_name    - WELL
LOC .         00/06-09-073-14W4/0            : Location     - LOCATION
UWI .         00/06-09-073-14W4/0            : Uwi          - UNIQUE WELL ID
ENTR.         SP                             : Entered      - ENTERED BY
SRVC.         SCHLUMBERGER                   : Scn          - SERVICE COMPANY
STRT.M        310                            : top_depth    - START DEPTH
STOP.M        490                            : bot_depth    - STOP DEPTH
STEP.M        0.25                           : increment    - STEP LENGTH
 NULL. -999.2500:NULL Value
~CURVE INFORMATION BLOCK
#MNEM UNIT       ERCB CURVE CODE    CURVE DESCRIPTION
#-----------   ------------------   ----------------------------------
DEPT.M        00 001 00 00         : DEPTH        - DEPTH
ILD .OHMM     00 120 00 00         : RESD         - DEEP RESISTIVITY (DIL)
DPHI.V/V      00 890 00 00         : PHID         - DENSITY POROSITY (LIMESTONE)
NPHI.V/V      00 330 00 00         : PHIN         - NEUTRON POROSITY (LIMESTONE)
GR  .API      00 310 00 00         : GR           - GAMMA RAY
~PARAMETER INFORMATION
#MNEM.UNIT           DATA             DESCRIPTION OF MNEMONIC
#---------         -----------     ------------------------------
GL  .M        652.5                : gl           - GROUND LEVEL ELEVATION
EREF.M        656.64               : kb           - ELEVATION OF DEPTH REFERENCE
DATM.M        652.5                : datum        - DATUM ELEVATION
TDD .M        499.6                : tdd          - TOTAL DEPTH DRILLER
RUN .         ONE                  : Run          - RUN NUMBER
ENG .         BILL                 : Engineer     - RECORDING ENGINEER
WIT .         JIM                  : Witness      - WITNESSED BY
MUD .         GEL                  : Mud_type     - MUD TYPE
MATR.         LIMESTONE            : Logunit      - NEUTRON MATRIX
TMAX.C        21                   : BHT          - MAXIMUM RECORDED TEMPERATURE
BHTD.M        499.6                : BHTDEP       - MAXIMUM RECORDED TEMPERATURE
MATR.         1                    : LOGUNIT      - NEUTRON MATRIX
RMT .C        25                   : MDTP         - TEMPERATURE OF MUD
NEUT.         1                    : NEUTRON      - NEUTRON TYPE
RESI.         0                    : RESIST       - RESISTIVITY TYPE
RMC .OHMM     0.25                 : RMC          - RESISTIVITY OF MUD CAKE
RMF .OHMM     0.25                 : RMF          - RESISTIVITY OF MUD FILTRATE
SUFT.C        15                   : SUFT         - SURFACE TEMPERATURE
~A  DEPTH     RESD     PHID     PHIN       GR
# ...
  353.500    4.474    0.246    0.523  100.870
  353.750    4.644    0.244    0.525  101.465
  354.000    4.821    0.242    0.498  101.461
  354.250    5.004    0.240    0.478   99.066
  354.500    5.293    0.238    0.462   97.268
  354.750    5.598    0.237    0.457   97.265
  355.000    5.703    0.234    0.451   98.455
  355.250    5.810    0.234    0.458   99.049
  355.500    6.031    0.231    0.459   97.850
  355.750    6.144    0.228    0.455   94.856
  356.000    6.144    0.237    0.459   93.061
  356.250    6.143    0.242    0.461   90.068
  356.500    6.142    0.242    0.457   88.273
  356.750    6.142    0.228    0.456   85.878
  357.000    6.257    0.181    0.453   84.081
  357.250    6.141    0.166    0.458   84.075
  357.500    6.026    0.159    0.466   85.864
  357.750    5.914    0.167    0.477   88.849
  358.000    5.804    0.180    0.485   94.821
  358.250    5.589    0.204    0.497   98.998
  358.500    5.485    0.228    0.505  100.788
  358.750    5.485    0.233    0.511  100.784
  359.000    5.382    0.237    0.513  100.183
  359.250    5.382    0.242    0.488   97.789
  359.500    5.381    0.245    0.468   93.004
  359.750    5.482    0.247    0.456   85.230
  360.000    5.482    0.244    0.449   80.446
  360.250    5.690    0.244    0.452   76.258
  360.500    5.797    0.244    0.465   73.863
  360.750    5.797    0.245    0.474   74.457
  361.000    5.796    0.254    0.478   78.038
  361.250    5.796    0.259    0.473   82.217
  361.500    5.688    0.261    0.467   84.603
  361.750    5.582    0.253    0.463   86.393
  362.000    5.477    0.253    0.465   88.778
  362.250    5.375    0.247    0.469   88.177
  362.500    5.375    0.242    0.471   86.977
  362.750    5.374    0.248    0.467   86.974
  363.000    5.374    0.258    0.456   84.578
  363.250    5.474    0.252    0.454   85.172
  363.500    5.474    0.246    0.451   86.961
  363.750    5.682    0.244    0.450   87.555
  364.000    5.789    0.237    0.445   86.952
  364.250    5.788    0.231    0.442   87.545
  364.500    5.897    0.235    0.425   87.542
  364.750    5.896    0.236    0.412   86.343
  365.000    5.896    0.241    0.398   82.753
  365.250    6.007    0.252    0.389   76.173
  365.500    6.006    0.263    0.387   74.378
  365.750    6.005    0.282    0.384   70.788
  366.000    6.005    0.298    0.393   67.796
  366.250    6.004    0.319    0.400   65.999
  366.500    6.003    0.332    0.414   65.397
  366.750    6.003    0.331    0.419   64.796
  367.000    6.116    0.325    0.423   62.999
  367.250    6.115    0.322    0.426   60.005
  367.500    6.115    0.318    0.433   58.808
  367.750    6.114    0.327    0.444   55.217
  368.000    6.113    0.357    0.459   53.421
  368.250    6.113    0.361    0.484   51.025
  368.500    6.112    0.359    0.486   52.216
  368.750    6.111    0.350    0.441   55.797
  369.000    5.997    0.330    0.426   56.392
  369.250    5.997    0.302    0.419   57.583
  369.500    5.885    0.291    0.415   58.175
  369.750    5.775    0.304    0.419   58.768
  370.000    5.667    0.312    0.421   59.364
  370.250    5.562    0.320    0.417   61.151
  370.500    5.561    0.325    0.413   61.746
  370.750    5.561    0.326    0.413   63.532
  371.000    5.457    0.321    0.417   63.530
  371.250    5.456    0.330    0.426   63.526
  371.500    5.355    0.325    0.433   64.119
  371.750    5.354    0.316    0.436   65.908
  372.000    5.455    0.315    0.435   67.696
  372.250    5.454    0.315    0.427   68.290
  372.500    5.454    0.315    0.425   69.481
  372.750    5.556    0.324    0.429   67.684
  373.000    5.555    0.328    0.439   65.288
  373.250    5.555    0.334    0.446   64.688
  373.500    5.554    0.328    0.455   65.280
  373.750    5.554    0.325    0.458   65.873
  374.000    5.553    0.330    0.457   65.870
  374.250    5.450    0.332    0.447   66.464
  374.500    5.449    0.328    0.438   65.863
  374.750    5.449    0.334    0.438   65.858
  375.000    5.448    0.331    0.443   65.855
  375.250    5.447    0.332    0.446   66.445
  375.500    5.346    0.334    0.449   67.040
  375.750    5.345    0.331    0.437   68.827
  376.000    5.345    0.329    0.432   70.019
  376.250    5.344    0.330    0.426   71.808
  376.500    5.445    0.333    0.421   72.403
  376.750    5.444    0.329    0.430   73.593
  377.000    5.443    0.326    0.435   74.188
  377.250    5.443    0.320    0.437   74.183
  377.500    5.650    0.309    0.440   74.180
  377.750    5.756    0.307    0.434   74.772
  378.000    5.756    0.309    0.430   75.962
  378.250    5.864    0.306    0.430   76.557
  378.500    5.863    0.301    0.432   77.749
  378.750    5.973    0.286    0.440   80.732
  379.000    5.973    0.269    0.445   84.312
  379.250    5.861    0.243    0.451   86.102
  379.500    5.752    0.228    0.457   87.889
  379.750    5.645    0.219    0.459   88.485
  380.000    5.644    0.221    0.463   89.078
  380.250    5.644    0.226    0.460   88.476
  380.500    5.643    0.228    0.462   87.277
  380.750    5.642    0.224    0.447   83.088
  381.000    5.642    0.220    0.439   81.293
  381.250    5.748    0.212    0.430   76.507
  381.500    5.747    0.205    0.424   72.319
  381.750    5.747    0.205    0.415   68.729
  382.000    5.746    0.210    0.411   63.944
  382.250    5.534    0.238    0.409   60.952
  382.500    5.431    0.265    0.407   58.559
  382.750    5.330    0.284    0.417   56.164
  383.000    5.329    0.293    0.420   54.965
  383.250    5.133    0.297    0.420   54.959
  383.500    5.132    0.301    0.416   54.358
  383.750    5.036    0.304    0.413   53.756
  384.000    4.942    0.308    0.409   54.350
  384.250    4.942    0.311    0.406   55.540
  384.500    4.850    0.305    0.403   56.731
  384.750    4.760    0.300    0.405   57.325
  385.000    4.671    0.293    0.407   58.515
  385.250    4.584    0.288    0.408   59.108
  385.500    4.498    0.287    0.408   60.299
  385.750    4.497    0.285    0.408   60.893
  386.000    4.414    0.284    0.410   61.487
  386.250    4.331    0.283    0.412   62.081
  386.500    4.331    0.281    0.422   62.675
  386.750    4.331    0.278    0.430   63.865
  387.000    4.250    0.275    0.439   64.459
  387.250    4.093    0.272    0.447   65.053
  387.500    4.017    0.273    0.458   67.439
  387.750    3.869    0.276    0.462   70.423
  388.000    3.726    0.270    0.468   74.004
  388.250    3.589    0.267    0.474   75.794
  388.500    3.522    0.258    0.480   78.778
  388.750    3.392    0.251    0.483   81.164
  389.000    3.329    0.243    0.475   81.758
  389.250    3.267    0.236    0.471   79.959
  389.500    3.206    0.233    0.473   79.956
  389.750    3.206    0.233    0.483   80.550
  390.000    3.206    0.232    0.492   82.935
  390.250    3.327    0.226    0.501   85.919
  390.500    3.654    0.219    0.508   87.709
  390.750    4.087    0.217    0.512   90.692
  391.000    4.488    0.214    0.496   86.505
  391.250    5.021    0.232    0.472   79.330
  391.500    5.513    0.254    0.463   70.959
  391.750    5.941    0.267    0.451   64.381
  392.000    6.523    0.281    0.439   62.584
  392.250    6.772    0.288    0.432   61.982
  392.500    6.899    0.286    0.428   62.575
  392.750    6.898    0.287    0.439   63.170
  393.000    6.521    0.291    0.439   61.970
  393.250    6.164    0.294    0.440   61.966
  393.500    5.718    0.295    0.443   62.560
  393.750    5.612    0.286    0.440   63.751
  394.000    5.305    0.277    0.439   65.537
  394.250    5.206    0.270    0.439   66.728
  394.500    5.205    0.266    0.443   66.726
  394.750    5.109    0.270    0.450   67.917
  395.000    5.013    0.274    0.461   70.303
  395.250    5.013    0.276    0.478   73.287
  395.500    4.828    0.271    0.495   75.076
  395.750    4.650    0.268    0.501   75.668
  396.000    4.479    0.261    0.492   78.054
  396.250    4.155    0.260    0.489   79.843
  396.500    4.078    0.264    0.487   81.035
  396.750    3.927    0.255    0.494   84.017
