~VERSION INFORMATION
 VERS.                 2.0:   CWLS LOG ASCII STANDARD -VERSION 2.0
 WRAP.                  NO:   ONE LINE PER DEPTH STEP
~WELL INFORMATION BLOCK
#MNEM.UNIT           DATA                    DESCRIPTION OF MNEMONIC
#---------    -------------------            -------------------------------
# Generated from Intellog Unique Number	CS_67_68/WELL/2160
WELL.         02-29-067-06W4                 : Well_name    - WELL
LOC .         00/02-29-067-06W4/0            : Location     - LOCATION
UWI .         00/02-29-067-06W4/0            : Uwi          - UNIQUE WELL ID
ENTR.         SP                             : Entered      - ENTERED BY
SRVC.         SCHLUMBERGER                   : Scn          - SERVICE COMPANY
STRT.M        335                            : top_depth    - START DEPTH
STOP.M        545                            : bot_depth    - STOP DEPTH
STEP.M        0.25                           : increment    - STEP LENGTH
 NULL. -999.2500:NULL Value
~CURVE INFORMATION BLOCK
#MNEM UNIT       ERCB CURVE CODE    CURVE DESCRIPTION
#-----------   ------------------   ----------------------------------
DEPT.M        00 001 00 00         : DEPTH        - DEPTH
ILD .OHMM     00 120 00 00         : RESD         - DEEP RESISTIVITY (DIL)
DPHI.V/V      00 890 00 00         : PHID         - DENSITY POROSITY (LIMESTONE)
NPHI.V/V      00 330 00 00         : PHIN         - NEUTRON POROSITY (LIMESTONE)
GR  .API      00 310 00 00         : GR           - GAMMA RAY
CALI.MM       00 280 01 00         : CAL          - CALIPER
~PARAMETER INFORMATION
#MNEM.UNIT           DATA             DESCRIPTION OF MNEMONIC
#---------         -----------     ------------------------------
GL  .M        659.3                : gl           - GROUND LEVEL ELEVATION
EREF.M        662.17               : kb           - ELEVATION OF DEPTH REFERENCE
DATM.M        662.17               : datum        - DATUM ELEVATION
TDD .M        558                  : tdd          - TOTAL DEPTH DRILLER
RUN .         ONE                  : Run          - RUN NUMBER
ENG .         BILL                 : Engineer     - RECORDING ENGINEER
WIT .         JIM                  : Witness      - WITNESSED BY
MUD .         GEL                  : Mud_type     - MUD TYPE
MATR.         LIMESTONE            : Logunit      - NEUTRON MATRIX
TMAX.C        23                   : BHT          - MAXIMUM RECORDED TEMPERATURE
BHTD.M        558.7                : BHTDEP       - MAXIMUM RECORDED TEMPERATURE
MATR.         1                    : LOGUNIT      - NEUTRON MATRIX
RMT .C        25                   : MDTP         - TEMPERATURE OF MUD
NEUT.         1                    : NEUTRON      - NEUTRON TYPE
RESI.         0                    : RESIST       - RESISTIVITY TYPE
RMC .OHMM     0.25                 : RMC          - RESISTIVITY OF MUD CAKE
RMF .OHMM     0.25                 : RMF          - RESISTIVITY OF MUD FILTRATE
SUFT.C        15                   : SUFT         - SURFACE TEMPERATURE
~A  DEPTH     RESD     PHID     PHIN       GR      CAL
# ...
  481.000    2.711    0.320    0.505   78.001  153.478
  481.250    2.810    0.323    0.500   79.282  152.970
  481.500    2.880    0.319    0.490   74.891  152.461
  481.750    2.843    0.295    0.474   75.988  152.359
  482.000    2.702    0.258    0.451   79.098  151.952
  482.250    2.530    0.246    0.442   80.683  151.646
  482.500    2.295    0.274    0.501   82.573  151.341
  482.750    2.077    0.300    0.516   84.463  151.544
  483.000    1.783    0.325    0.524   86.353  152.255
  483.250    1.639    0.319    0.515   87.999  154.084
  483.500    1.478    0.309    0.508   88.364  155.607
  483.750    1.360    0.308    0.528   87.815  156.826
  484.000    1.250    0.306    0.544   87.327  157.842
  484.250    1.170    0.299    0.557   87.205  157.639
  484.500    1.376    0.292    0.561   87.205  156.825
  484.750    1.625    0.286    0.545   87.265  156.113
  485.000    1.768    0.289    0.526   87.082  155.401
  485.250    1.951    0.298    0.527   88.057  154.588
  485.500    2.068    0.307    0.536   88.728  154.486
  485.750    2.144    0.304    0.533   86.532  153.977
  486.000    2.176    0.288    0.546   84.520  153.773
  486.250    2.210    0.281    0.554   84.093  153.875
  486.500    2.248    0.292    0.554   85.068  154.281
  486.750    2.299    0.296    0.546   84.397  154.991
  487.000    2.330    0.274    0.532   83.543  155.804
  487.250    2.370    0.247    0.515   84.641  156.108
  487.500    2.393    0.230    0.499   86.896  155.295
  487.750    2.407    0.238    0.491   88.115  151.331
  488.000    2.407    0.263    0.519   88.908  151.534
  488.250    2.394    0.282    0.546   89.334  151.533
  488.500    2.385    0.290    0.546   88.541  151.533
  488.750    2.381    0.291    0.533   87.688  151.227
  489.000    2.381    0.292    0.522   86.590  150.312
  489.250    2.413    0.292    0.515   86.589  149.499
  489.500    2.473    0.287    0.518   86.589  147.567
  489.750    2.573    0.283    0.537   85.003  145.433
  490.000    2.687    0.266    0.555   86.954  143.908
  490.250    2.822    0.244    0.536   90.917  143.399
  490.500    2.998    0.235    0.493   93.051  144.720
  490.750    3.245    0.234    0.421   94.454  147.362
  491.000    3.717    0.237    0.468   90.978  149.800
  491.250    4.321    0.250    0.494   83.843  151.324
  491.500    5.159    0.251    0.462   77.745  151.629
  491.750    6.323    0.170    0.350   67.196  149.494
  492.000    7.590    0.071    0.310   57.440  147.664
  492.250    8.047    0.022    0.281   58.110  146.444
  492.500    8.310    0.202    0.276   64.451  146.037
  492.750    6.731    0.222    0.350   68.963  146.342
  493.000    6.058    0.234    0.396   73.353  146.240
  493.250    5.913    0.238    0.421   74.817  144.410
  493.500    5.880    0.253    0.427   68.109  142.682
  493.750    5.914    0.267    0.422   63.901  143.189
  494.000    5.903    0.291    0.418   68.535  144.408
  494.250    5.860    0.307    0.413   77.864  145.018
  494.500    5.655    0.317    0.420   82.376  144.814
  494.750    5.245    0.310    0.432   77.681  144.000
  495.000    4.967    0.309    0.431   72.924  142.882
  495.250    4.695    0.320    0.422   71.887  142.983
  495.500    4.479    0.319    0.413   78.716  143.389
  495.750    4.347    0.311    0.402   83.655  143.795
  496.000    4.364    0.301    0.396   88.777  144.100
  496.250    4.356    0.292    0.410   91.581  144.201
  496.500    4.284    0.287    0.419   93.532  144.099
  496.750    4.126    0.287    0.423   94.081  144.098
  497.000    4.049    0.277    0.426   94.202  144.809
  497.250    4.065    0.275    0.415   95.665  148.264
  497.500    4.112    0.277    0.404   97.007  151.007
  497.750    4.151    0.268    0.400   95.482  152.023
  498.000    4.238    0.261    0.410   94.994  150.803
  498.250    4.360    0.252    0.414   95.725  151.107
  498.500    4.537    0.249    0.429   94.932  151.513
  498.750    4.747    0.242    0.443   85.054  152.428
  499.000    4.865    0.237    0.411   78.103  150.293
  499.250    4.875    0.247    0.379   69.200  147.650
  499.500    4.830    0.257    0.355   72.065  146.633
  499.750    4.749    0.256    0.338   79.931  146.938
  500.000    4.670    0.247    0.337   83.833  147.445
  500.250    4.541    0.238    0.339   77.369  147.750
  500.500    4.440    0.255    0.342   73.345  148.054
  500.750    4.325    0.266    0.348   71.576  147.139
  501.000    4.350    0.270    0.344   72.795  148.155
  501.250    4.534    0.272    0.360   77.612  149.577
  501.500    4.709    0.269    0.368   82.002  151.406
  501.750    4.817    0.125    0.366   86.148  152.320
  502.000    4.955    0.085    0.362   89.623  151.608
  502.250    5.022    0.059    0.343   92.489  150.185
  502.500    5.051    0.183    0.318   91.391  151.302
  502.750    4.985    0.229    0.345   80.720  151.709
  503.000    4.893    0.264    0.372   71.817  149.676
  503.250    4.793    0.288    0.391   63.951  149.472
  503.500    4.660    0.304    0.377   64.805  149.166
  503.750    4.480    0.285    0.363   71.512  148.353
  504.000    4.132    0.268    0.351   66.755  147.743
  504.250    3.855    0.298    0.355   62.792  146.929
  504.500    3.515    0.326    0.381   63.401  146.522
  504.750    3.146    0.349    0.405   67.791  146.318
  505.000    2.891    0.360    0.410   71.571  146.521
  505.250    2.748    0.358    0.410   73.522  146.622
  505.500    2.722    0.354    0.421   76.875  147.028
  505.750    2.775    0.350    0.419   80.656  147.434
  506.000    2.849    0.345    0.407   87.302  147.536
  506.250    3.043    0.330    0.401   93.216  147.637
  506.500    3.466    0.313    0.390   97.484  147.839
  506.750    3.830    0.295    0.376  100.167  148.449
  507.000    4.241    0.276    0.373  101.447  148.753
  507.250    4.573    0.258    0.386  100.776  149.058
  507.500    4.794    0.243    0.394   98.093  149.159
  507.750    4.960    0.238    0.380   92.727  149.158
  508.000    5.035    0.234    0.367   91.202  148.853
  508.250    5.084    0.226    0.358   93.945  148.547
  508.500    4.989    0.220    0.359   97.177  147.835
  508.750    4.806    0.216    0.364   99.920  147.632
  509.000    4.500    0.232    0.369  102.054  147.327
  509.250    4.127    0.236    0.371   81.322  146.920
  509.500    3.707    0.276    0.369   67.237  146.817
  509.750    3.299    0.303    0.387   45.712  147.020
  510.000    2.914    0.386    0.433   37.419  147.121
  510.250    2.678    0.390    0.487   34.736  147.121
  510.500    2.550    0.358    0.408   41.382  146.917
  510.750    2.755    0.331    0.368   54.004  147.323
  511.000    2.915    0.314    0.362   64.552  147.729
  511.250    3.126    0.285    0.362   68.637  148.338
  511.500    3.302    0.257    0.361   66.198  148.643
  511.750    3.475    0.241    0.347   65.466  148.744
  512.000    3.554    0.266    0.350   79.185  149.150
  512.250    3.588    0.276    0.363   91.502  149.251
  512.500    3.713    0.274    0.365   96.197  149.251
  512.750    3.877    0.259    0.362   97.294  149.453
  513.000    4.049    0.247    0.370   96.379  149.555
  513.250    4.190    0.239    0.381   94.610  149.859
  513.500    4.294    0.237    0.383   95.342  150.468
  513.750    4.376    0.244    0.380   97.659  150.874
  514.000    4.468    0.248    0.381   99.000  151.382
  514.250    4.588    0.242    0.387   99.426  151.889
  514.500    4.685    0.234    0.381  100.158  152.092
  514.750    4.641    0.229    0.373   99.853  151.889
  515.000    4.313    0.230    0.367   97.108  150.872
  515.250    3.948    0.243    0.365   89.486  149.449
  515.500    3.601    0.258    0.366   81.803  147.720
  515.750    3.359    0.272    0.373   77.778  146.196
  516.000    3.193    0.285    0.383   73.936  144.569
  516.250    3.052    0.299    0.390   72.595  143.451
  516.500    2.951    0.306    0.395   72.594  142.129
  516.750    2.985    0.299    0.388   75.094  141.112
  517.000    3.070    0.289    0.384   80.582  140.807
  517.250    3.225    0.284    0.382   84.606  140.806
