~VERSION INFORMATION
 VERS.                 2.0:   CWLS LOG ASCII STANDARD -VERSION 2.0
 WRAP.                  NO:   ONE LINE PER DEPTH STEP
~WELL INFORMATION BLOCK
#MNEM.UNIT           DATA                    DESCRIPTION OF MNEMONIC
#---------    -------------------            -------------------------------
# Generated from Intellog Unique Number	CS_73_76/WELL/644
WELL.         BOW VALLEY INDUSTRIES LTD      : Well_name    - WELL
LOC .         00/06-25-073-17W4/0            : Location     - LOCATION
UWI .         00/06-25-073-17W4/0            : Uwi          - UNIQUE WELL ID
ENTR.         SP                             : Entered      - ENTERED BY
SRVC.         SCHLUMBERGER                   : Scn          - SERVICE COMPANY
STRT.M        237.744                        : top_depth    - START DEPTH
STOP.M        444.744                        : bot_depth    - STOP DEPTH
STEP.M        0.25                           : increment    - STEP LENGTH
 NULL. -999.2500:NULL Value
~CURVE INFORMATION BLOCK
#MNEM UNIT       ERCB CURVE CODE    CURVE DESCRIPTION
#-----------   ------------------   ----------------------------------
DEPT.M        00 001 00 00         : DEPTH        - DEPTH
GR  .API      00 310 00 00         : GR           - GAMMA RAY
DPHI.V/V      00 890 00 00         : PHID         - DENSITY POROSITY (LIMESTONE)
NPHI.V/V      00 330 00 00         : PHIN         - NEUTRON POROSITY (LIMESTONE)
ILD .OHMM     00 120 00 00         : RESD         - DEEP RESISTIVITY (DIL)
~PARAMETER INFORMATION
#MNEM.UNIT           DATA             DESCRIPTION OF MNEMONIC
#---------         -----------     ------------------------------
GL  .M        574.853              : gl           - GROUND LEVEL ELEVATION
EREF.M        577.901              : kb           - ELEVATION OF DEPTH REFERENCE
DATM.M        574.853              : datum        - DATUM ELEVATION
TDD .M        448.361              : tdd          - TOTAL DEPTH DRILLER
RUN .         ONE                  : Run          - RUN NUMBER
ENG .         BILL                 : Engineer     - RECORDING ENGINEER
WIT .         JIM                  : Witness      - WITNESSED BY
MUD .         GEL                  : Mud_type     - MUD TYPE
MATR.         LIMESTONE            : Logunit      - NEUTRON MATRIX
TMAX.C        12.2222              : BHT          - MAXIMUM RECORDED TEMPERATURE
BHTD.M        448.361              : BHTDEP       - MAXIMUM RECORDED TEMPERATURE
MATR.         1                    : LOGUNIT      - NEUTRON MATRIX
RMT .C        25                   : MDTP         - TEMPERATURE OF MUD
NEUT.         1                    : NEUTRON      - NEUTRON TYPE
RESI.         0                    : RESIST       - RESISTIVITY TYPE
RMC .OHMM     0.25                 : RMC          - RESISTIVITY OF MUD CAKE
RMF .OHMM     0.25                 : RMF          - RESISTIVITY OF MUD FILTRATE
SUFT.C        15                   : SUFT         - SURFACE TEMPERATURE
~A  DEPTH       GR     PHID     PHIN     RESD
# ...
  281.244   86.924    0.272    0.421    6.850
  281.494   86.523    0.266    0.418    6.909
  281.744   88.446    0.259    0.426    7.007
  281.994   91.078    0.261    0.438    7.046
  282.244   92.440    0.265    0.440    6.912
  282.494   86.483    0.246    0.444    6.837
  282.744   77.670    0.226    0.418    6.820
  282.994   69.836    0.228    0.397    6.908
  283.244   67.904    0.235    0.415    7.112
  283.494   68.965    0.256    0.429    7.324
  283.744   70.440    0.276    0.433    7.562
  283.994   72.313    0.292    0.440    7.692
  284.244   74.877    0.309    0.457    8.024
  284.494   71.045    0.327    0.473    8.412
  284.744   64.958    0.342    0.479    8.566
  284.994   60.067    0.365    0.460    8.286
  285.244   59.215    0.378    0.500    8.068
  285.494   57.493    0.390    0.527    8.328
  285.744   58.239    0.406    0.576    8.750
  285.994   63.684    0.402    0.533    9.015
  286.244   67.950    0.335    0.493    9.282
  286.494   70.253    0.301    0.468    8.961
  286.744   69.385    0.313    0.470    8.604
  286.994   67.702    0.322    0.476    8.274
  287.244   66.268    0.333    0.462    8.030
  287.494   65.604    0.323    0.464    7.852
  287.744   64.311    0.320    0.467    7.704
  287.994   62.355    0.320    0.449    7.607
  288.244   61.254    0.328    0.432    7.573
  288.494   60.910    0.336    0.417    7.568
  288.744   60.886    0.324    0.408    7.567
  288.994   61.840    0.313    0.411    7.560
  289.244   63.297    0.302    0.430    7.699
  289.494   63.339    0.306    0.425    7.704
  289.744   63.438    0.309    0.419    7.707
  289.994   63.988    0.300    0.416    7.707
  290.244   64.435    0.291    0.419    7.707
  290.494   66.463    0.290    0.424    7.707
  290.744   66.190    0.308    0.438    7.705
  290.994   63.785    0.314    0.454    7.688
  291.244   69.574    0.309    0.462    7.844
  291.494   78.796    0.314    0.473    7.528
  291.744   87.737    0.306    0.475    7.708
  291.994   91.206    0.296    0.493    7.844
  292.244   88.053    0.288    0.485    7.844
  292.494   82.216    0.293    0.464    7.849
  292.744   77.985    0.301    0.449    7.839
  292.994   74.697    0.288    0.445    8.006
  293.244   73.052    0.279    0.444    7.992
  293.494   74.803    0.273    0.452    7.991
  293.744   72.545    0.280    0.453    7.991
  293.994   70.720    0.291    0.445    7.991
  294.244   71.323    0.295    0.445    7.992
  294.494   69.848    0.298    0.449    8.001
  294.744   64.807    0.309    0.436    7.845
  294.994   60.941    0.315    0.431    7.946
  295.244   58.133    0.312    0.430    7.987
  295.494   57.184    0.318    0.429    7.990
  295.744   59.127    0.324    0.425    7.990
  295.994   60.201    0.321    0.429    7.990
  296.244   60.235    0.315    0.431    7.990
  296.494   59.559    0.317    0.426    7.989
  296.744   59.642    0.321    0.425    7.989
  296.994   59.183    0.302    0.423    7.989
  297.244   59.279    0.310    0.417    7.989
  297.494   60.294    0.319    0.406    7.989
  297.744   61.240    0.325    0.401    7.988
  297.994   63.097    0.327    0.420    7.988
  298.244   64.423    0.327    0.440    7.988
  298.494   64.841    0.323    0.447    7.988
  298.744   63.181    0.320    0.442    7.988
  298.994   63.796    0.321    0.433    7.988
  299.244   65.485    0.324    0.447    7.987
  299.494   66.497    0.321    0.451    7.987
  299.744   67.480    0.325    0.447    7.987
  299.994   68.179    0.323    0.462    7.986
  300.244   67.386    0.318    0.460    7.984
  300.494   64.864    0.323    0.456    8.095
  300.744   63.114    0.317    0.462    8.078
  300.994   62.843    0.316    0.477    7.987
  301.244   67.422    0.323    0.487    7.978
  301.494   71.078    0.328    0.475    7.917
  301.744   72.378    0.322    0.463    7.568
  301.994   70.190    0.327    0.453    7.426
  302.244   67.347    0.327    0.464    7.275
  302.494   65.421    0.325    0.448    7.291
  302.744   65.867    0.323    0.446    7.344
  302.994   68.017    0.328    0.446    7.578
  303.244   72.042    0.341    0.448    7.804
  303.494   75.818    0.347    0.448    7.984
  303.744   79.694    0.337    0.448    8.137
  303.994   84.591    0.331    0.452    8.129
  304.244   88.333    0.327    0.452    8.131
  304.494   89.622    0.323    0.460    8.131
  304.744   87.317    0.319    0.468    8.113
  304.994   85.225    0.317    0.457    8.287
  305.244   83.263    0.316    0.449    8.421
  305.494   82.304    0.319    0.443    8.429
  305.744   81.412    0.321    0.438    8.432
  305.994   80.929    0.324    0.431    8.433
  306.244   80.654    0.327    0.432    8.432
  306.494   79.632    0.329    0.444    8.432
  306.744   79.196    0.332    0.463    8.428
  306.994   77.603    0.328    0.473    8.377
  307.244   77.374    0.321    0.490    8.279
  307.494   77.105    0.326    0.507    8.278
  307.744   77.991    0.330    0.490    8.278
  307.994   75.732    0.328    0.487    8.278
  308.244   74.413    0.328    0.478    8.278
  308.494   73.256    0.329    0.470    8.278
  308.744   70.846    0.330    0.476    8.279
  308.994   66.156    0.327    0.479    8.293
  309.244   67.585    0.323    0.477    8.117
  309.494   68.922    0.329    0.478    8.129
  309.744   71.795    0.323    0.472    8.128
  309.994   73.979    0.312    0.470    8.127
  310.244   70.423    0.325    0.475    8.127
  310.494   69.096    0.331    0.485    8.124
  310.744   68.739    0.332    0.494    8.128
  310.994   68.106    0.330    0.500    7.967
  311.244   68.146    0.326    0.495    7.976
  311.494   68.717    0.331    0.487    7.986
  311.744   69.707    0.330    0.481    7.820
  311.994   70.693    0.327    0.485    7.833
  312.244   71.679    0.318    0.494    7.834
  312.494   72.727    0.319    0.494    7.834
  312.744   73.032    0.326    0.486    7.834
  312.994   73.638    0.330    0.487    7.832
  313.244   73.779    0.320    0.492    7.821
  313.494   74.812    0.316    0.488    7.980
  313.744   75.072    0.321    0.483    7.974
  313.994   72.336    0.334    0.482    7.973
  314.244   74.189    0.338    0.486    7.982
  314.494   76.736    0.330    0.492    7.908
  314.744   79.373    0.324    0.483    7.972
  314.994   80.743    0.324    0.474    7.977
  315.244   80.196    0.325    0.467    7.976
  315.494   79.686    0.318    0.465    7.976
  315.744   81.754    0.317    0.462    7.976
  315.994   80.489    0.321    0.458    7.972
  316.244   77.245    0.327    0.458    7.967
  316.494   79.063    0.320    0.458    7.819
  316.744   81.530    0.316    0.470    7.793
  316.994   83.282    0.313    0.479    7.549
  317.244   84.914    0.306    0.476    7.553
  317.494   85.905    0.297    0.471    7.558
  317.744   85.726    0.286    0.462    7.420
  317.994   85.513    0.267    0.454    7.360
  318.244   88.522    0.255    0.446    6.959
  318.494   91.285    0.246    0.455    6.670
  318.744   94.696    0.219    0.469    6.378
  318.994   96.555    0.187    0.466    6.392
  319.244   97.923    0.164    0.446    6.279
  319.494  101.559    0.155    0.433    6.246
  319.744  105.399    0.186    0.471    6.052
  319.994  110.278    0.198    0.489    5.594
  320.244  115.153    0.211    0.497    5.329
  320.494  118.916    0.208    0.492    5.147
  320.744  117.429    0.204    0.490    5.156
  320.994  115.056    0.212    0.487    5.040
  321.244  113.152    0.217    0.480    5.049
  321.494  113.291    0.219    0.466    5.048
  321.744  114.940    0.229    0.466    5.048
  321.994  114.870    0.228    0.474    5.050
  322.244  114.988    0.219    0.463    5.091
  322.494  113.640    0.212    0.462    5.146
  322.744  112.812    0.217    0.476    5.231
  322.994  111.369    0.212    0.486    5.339
  323.244  110.221    0.207    0.495    5.331
  323.494  108.925    0.206    0.495    5.089
  323.744  106.834    0.214    0.483    4.719
  323.994  103.933    0.208    0.475    4.381
  324.244  100.894    0.217    0.468    4.081
  324.494  100.760    0.214    0.473    3.873
