~VERSION INFORMATION
 VERS.                 2.0:   CWLS LOG ASCII STANDARD -VERSION 2.0
 WRAP.                  NO:   ONE LINE PER DEPTH STEP
~WELL INFORMATION BLOCK
#MNEM.UNIT           DATA                    DESCRIPTION OF MNEMONIC
#---------    -------------------            -------------------------------
# Generated from Intellog Unique Number	CS_67_68/WELL/799
WELL.         DOME PETROLEUM LIMITED         : Well_name    - WELL
LOC .         00/09-11-068-02W4/0            : Location     - LOCATION
UWI .         00/09-11-068-02W4/0            : Uwi          - UNIQUE WELL ID
ENTR.         SP                             : Entered      - ENTERED BY
SRVC.         SCHLUMBERGER                   : Scn          - SERVICE COMPANY
STRT.M        350                            : top_depth    - START DEPTH
STOP.M        605                            : bot_depth    - STOP DEPTH
STEP.M        0.25                           : increment    - STEP LENGTH
 NULL. -999.2500:NULL Value
~CURVE INFORMATION BLOCK
#MNEM UNIT       ERCB CURVE CODE    CURVE DESCRIPTION
#-----------   ------------------   ----------------------------------
DEPT.M        00 001 00 00         : DEPTH        - DEPTH
ILD .OHMM     00 120 00 00         : RESD         - DEEP RESISTIVITY (DIL)
DPHI.V/V      00 890 00 00         : PHID         - DENSITY POROSITY (LIMESTONE)
NPHI.V/V      00 330 00 00         : PHIN         - NEUTRON POROSITY (LIMESTONE)
GR  .API      00 310 00 00         : GR           - GAMMA RAY
~PARAMETER INFORMATION
#MNEM.UNIT           DATA             DESCRIPTION OF MNEMONIC
#---------         -----------     ------------------------------
GL  .M        681.9                : gl           - GROUND LEVEL ELEVATION
EREF.M        686                  : kb           - ELEVATION OF DEPTH REFERENCE
DATM.M        681.9                : datum        - DATUM ELEVATION
TDD .M        609                  : tdd          - TOTAL DEPTH DRILLER
RUN .         ONE                  : Run          - RUN NUMBER
ENG .         BILL                 : Engineer     - RECORDING ENGINEER
WIT .         JIM                  : Witness      - WITNESSED BY
MUD .         GEL                  : Mud_type     - MUD TYPE
MATR.         LIMESTONE            : Logunit      - NEUTRON MATRIX
TMAX.C        21.1                 : BHT          - MAXIMUM RECORDED TEMPERATURE
BHTD.M        609                  : BHTDEP       - MAXIMUM RECORDED TEMPERATURE
MATR.         1                    : LOGUNIT      - NEUTRON MATRIX
RMT .C        25                   : MDTP         - TEMPERATURE OF MUD
NEUT.         1                    : NEUTRON      - NEUTRON TYPE
RESI.         0                    : RESIST       - RESISTIVITY TYPE
RMC .OHMM     0.25                 : RMC          - RESISTIVITY OF MUD CAKE
RMF .OHMM     0.25                 : RMF          - RESISTIVITY OF MUD FILTRATE
SUFT.C        15                   : SUFT         - SURFACE TEMPERATURE
~A  DEPTH     RESD     PHID     PHIN       GR
# ...
  393.500    9.975    0.316    0.410   80.103
  393.750    9.103    0.304    0.416   85.813
  394.000    8.938    0.295    0.428   90.247
  394.250    8.474    0.290    0.435   94.192
  394.500    8.021    0.288    0.436   97.530
  394.750    7.879    0.287    0.440   94.538
  395.000    7.847    0.257    0.447   92.885
  395.250    7.892    0.224    0.459   91.964
  395.500    8.106    0.231    0.473   84.712
  395.750    8.420    0.253    0.464   79.225
  396.000    8.993    0.271    0.428   76.965
  396.250    9.375    0.279    0.404   81.763
  396.500    9.629    0.276    0.428   87.168
  396.750    9.691    0.279    0.446   90.628
  397.000    9.646    0.285    0.451   90.070
  397.250    9.546    0.289    0.448   89.693
  397.500    9.412    0.288    0.461   90.411
  397.750    9.127    0.268    0.478   91.132
  398.000    8.784    0.240    0.485   91.671
  398.250    8.470    0.218    0.483   92.393
  398.500    8.430    0.213    0.472   93.601
  398.750    8.375    0.255    0.463   94.869
  399.000    8.602    0.286    0.462   94.739
  399.250    8.851    0.297    0.448   90.531
  399.500    9.211    0.308    0.432   86.505
  399.750    9.496    0.314    0.421   83.818
  400.000    9.684    0.317    0.429   88.736
  400.250    9.672    0.317    0.435   93.046
  400.500    9.626    0.310    0.436   96.994
  400.750    9.439    0.301    0.444  100.938
  401.000    9.205    0.295    0.444  102.633
  401.250    8.907    0.288    0.436  101.773
  401.500    8.183    0.279    0.433   98.842
  401.750    7.617    0.278    0.446   96.337
  402.000    7.839    0.282    0.451   96.570
  402.250    8.172    0.286    0.440   99.542
  402.500    8.603    0.289    0.444  101.784
  402.750    8.884    0.292    0.436   99.524
  403.000    9.278    0.293    0.422   97.628
  403.250    9.711    0.284    0.414   95.121
  403.500    9.881    0.301    0.410   92.862
  403.750   10.130    0.317    0.413   89.018
  404.000   10.252    0.317    0.423   84.871
  404.250   10.259    0.296    0.436   87.782
  404.500   10.005    0.287    0.419   92.702
  404.750    9.737    0.285    0.407   93.239
  405.000    9.306    0.306    0.408   90.431
  405.250    9.292    0.307    0.419   88.717
  405.500    9.457    0.292    0.425   88.950
  405.750    9.569    0.274    0.421   90.462
  406.000    9.595    0.256    0.422   92.886
  406.250    8.866    0.245    0.426   95.553
  406.500    7.422    0.242    0.443   97.614
  406.750    6.284    0.252    0.469   95.536
  407.000    6.015    0.263    0.484   91.753
  407.250    6.510    0.269    0.492   91.561
  407.500    6.799    0.274    0.470   91.550
  407.750    7.140    0.265    0.463   88.925
  408.000    7.555    0.257    0.469   81.126
  408.250    7.951    0.250    0.463   68.094
  408.500    8.289    0.255    0.451   67.049
  408.750    8.546    0.275    0.442   85.235
  409.000    8.778    0.289    0.444  100.073
  409.250    8.866    0.303    0.466   70.794
  409.500    9.040    0.315    0.396   53.198
  409.750    9.390    0.336    0.401   45.094
  410.000   10.049    0.348    0.418   43.381
  410.250   10.612    0.355    0.412   41.972
  410.500   11.146    0.350    0.397   40.624
  410.750   11.578    0.347    0.386   43.109
  411.000   12.092    0.345    0.396   44.864
  411.250   12.261    0.352    0.402   46.194
  411.500   12.500    0.351    0.404   46.731
  411.750   12.698    0.350    0.398   47.877
  412.000   12.802    0.352    0.400   51.458
  412.250   12.859    0.356    0.405   54.126
  412.500   12.871    0.355    0.416   56.671
  412.750   12.835    0.362    0.425   59.462
  413.000   12.795    0.363    0.417   63.710
  413.250   12.664    0.352    0.405   66.684
  413.500   12.348    0.349    0.414   69.289
  413.750   12.107    0.350    0.417   70.011
  414.000   11.849    0.348    0.415   70.427
  414.250   11.706    0.346    0.417   69.688
  414.500   11.628    0.349    0.424   66.574
  414.750   11.552    0.342    0.448   60.053
  415.000   11.495    0.327    0.424   57.428
  415.250   11.591    0.316    0.388   57.052
  415.500   11.578    0.310    0.375   57.225
  415.750   11.608    0.317    0.381   56.973
  416.000   11.576    0.318    0.389   57.511
  416.250   11.540    0.298    0.382   65.716
  416.500   11.190    0.284    0.378   73.374
  416.750   10.612    0.283    0.390   79.571
  417.000   10.175    0.283    0.409   79.683
  417.250    9.849    0.282    0.430   75.231
  417.500    9.747    0.294    0.429   68.953
  417.750    9.956    0.295    0.430   71.621
  418.000   10.399    0.287    0.426   72.524
  418.250   10.721    0.297    0.438   70.690
  418.500   11.136    0.305    0.438   68.185
  418.750   11.938    0.297    0.426   66.897
  419.000   12.966    0.176    0.431   60.194
  419.250   13.643    0.128    0.265   56.290
  419.500   13.884    0.190    0.232   52.994
  419.750   13.166    0.237    0.249   62.295
  420.000   10.780    0.262    0.345   72.995
  420.250    8.059    0.279    0.436   84.973
  420.500    7.201    0.265    0.452   91.414
  420.750    6.640    0.240    0.439   96.942
  421.000    6.634    0.224    0.422  101.192
  421.250    6.814    0.211    0.424  102.460
  421.500    6.986    0.233    0.437   87.601
  421.750    7.283    0.268    0.420   77.187
  422.000    7.678    0.300    0.401   67.441
  422.250    8.386    0.304    0.387   56.904
  422.500    8.956    0.304    0.404   52.208
  422.750    9.337    0.312    0.415   49.277
  423.000    9.592    0.322    0.415   47.930
  423.250    9.742    0.329    0.409   46.520
  423.500    9.879    0.331    0.411   45.477
  423.750    9.866    0.326    0.395   45.525
  424.000    9.784    0.325    0.380   45.029
  424.250    9.720    0.330    0.373   44.776
  424.500    9.638    0.333    0.370   44.462
  424.750    9.591    0.331    0.375   44.270
  425.000    9.530    0.334    0.384   44.566
  425.250    9.485    0.325    0.389   51.128
  425.500    9.419    0.301    0.378   59.392
  425.750    9.132    0.284    0.370   63.280
  426.000    9.088    0.281    0.423   66.252
  426.250    9.096    0.313    0.447   62.531
  426.500    9.103    0.330    0.461   56.618
  426.750    9.111    0.336    0.433   52.105
  427.000    9.101    0.338    0.409   52.096
  427.250    9.091    0.338    0.396   56.163
  427.500    8.996    0.337    0.402   58.162
  427.750    8.871    0.340    0.400   59.428
  428.000    8.813    0.346    0.398   59.907
  428.250    8.770    0.350    0.411   61.114
  428.500    8.713    0.350    0.417   62.321
  428.750    8.639    0.349    0.427   64.564
  429.000    8.613    0.348    0.443   66.745
  429.250    8.620    0.344    0.451   68.500
  429.500    8.628    0.334    0.457   64.778
  429.750    8.601    0.332    0.438   67.993
  430.000    8.594    0.332    0.442   70.357
  430.250    8.649    0.333    0.452   68.035
  430.500    8.669    0.333    0.440   61.270
  430.750    8.662    0.333    0.421   57.366
  431.000    8.619    0.334    0.412   55.166
  431.250    8.562    0.336    0.414   60.085
  431.500    8.395    0.334    0.408   63.849
  431.750    8.125    0.301    0.391   67.185
  432.000    7.762    0.286    0.389   68.698
  432.250    7.334    0.276    0.392   66.619
  432.500    6.814    0.272    0.393   69.409
  432.750    6.521    0.266    0.394   71.711
  433.000    6.442    0.262    0.395   72.736
  433.250    6.606    0.265    0.406   72.665
  433.500    6.709    0.275    0.420   70.524
  433.750    6.854    0.292    0.421   67.230
  434.000    7.013    0.310    0.411   59.674
  434.250    7.326    0.326    0.421   55.710
  434.500    7.623    0.338    0.436   51.989
  434.750    7.786    0.347    0.446   48.997
  435.000    7.807    0.352    0.458   45.824
  435.250    7.756    0.343    0.434   55.546
  435.500    7.549    0.329    0.408   59.677
  435.750    7.498    0.318    0.417   64.050
  436.000    7.688    0.311    0.427   61.118
  436.250    7.882    0.322    0.427   57.701
  436.500    8.371    0.330    0.413   54.465
  436.750    9.024    0.301    0.384   52.145
