~VERSION INFORMATION
 VERS.                 2.0:   CWLS LOG ASCII STANDARD -VERSION 2.0
 WRAP.                  NO:   ONE LINE PER DEPTH STEP
~WELL INFORMATION BLOCK
#MNEM.UNIT           DATA                    DESCRIPTION OF MNEMONIC
#---------    -------------------            -------------------------------
# Generated from Intellog Unique Number	CW_73_75/WELL/875
WELL.         HOME UNIT MARTEN HILLS 07-33   : Well_name    - WELL
LOC .         00/07-33-074-24W4/0            : Location     - LOCATION
UWI .         00/07-33-074-24W4/0            : Uwi          - UNIQUE WELL ID
ENTR.         JAYE                           : Entered      - ENTERED BY
SRVC.         WESTERN ATLAS                  : Scn          - SERVICE COMPANY
DATE.         22 JAN 85                      : Date         - LOG DATE
STRT.M        410                            : top_depth    - START DEPTH
STOP.M        605                            : bot_depth    - STOP DEPTH
STEP.M        0.25                           : increment    - STEP LENGTH
 NULL. -999.2500:NULL Value
~CURVE INFORMATION BLOCK
#MNEM UNIT       ERCB CURVE CODE    CURVE DESCRIPTION
#-----------   ------------------   ----------------------------------
DEPT.M        00 001 00 00         : DEPTH        - DEPTH
ILD .OHMM     00 120 00 00         : RESD         - DEEP RESISTIVITY (DIL)
NPHI.V/V      00 330 00 00         : PHIN         - NEUTRON POROSITY (SANDSTONE)
DPHI.V/V      00 890 00 00         : PHID         - DENSITY POROSITY (SANDSTONE)
GR  .API      00 310 00 00         : GR           - GAMMA RAY
CALI.MM       00 280 01 00         : CAL          - CALIPER
~PARAMETER INFORMATION
#MNEM.UNIT           DATA             DESCRIPTION OF MNEMONIC
#---------         -----------     ------------------------------
GL  .M        687.1                : gl           - GROUND LEVEL ELEVATION
EREF.M        691.7                : kb           - ELEVATION OF DEPTH REFERENCE
DATM.M        687.1                : datum        - DATUM ELEVATION
TDD .M        611                  : tdd          - TOTAL DEPTH DRILLER
RUN .         ONE                  : Run          - RUN NUMBER
ENG .         MONAGLE              : Engineer     - RECORDING ENGINEER
WIT .         SAEA                 : Witness      - WITNESSED BY
BASE.         2150                 : Branch       - HOME BASE OF LOGGING UNIT
MUD .         GEL CHEM             : Mud_type     - MUD TYPE
MATR.         SANDSTONE            : Logunit      - NEUTRON MATRIX
TMAX.C        25                   : BHT          - MAXIMUM RECORDED TEMPERATURE
BHTD.M        611.2                : BHTDEP       - MAXIMUM RECORDED TEMPERATURE
RMT .C        15                   : MDTP         - TEMPERATURE OF MUD
MUDD.KG/M     1220                 : MWT          - MUD DENSITY
NEUT.         1                    : NEUTRON      - NEUTRON TYPE
RESI.         0                    : RESIST       - RESISTIVITY TYPE
RM  .OHMM     5.7                  : RM           - RESISTIVITY OF MUD
RMC .OHMM     5.2                  : RMC          - RESISTIVITY OF MUD CAKE
RMF .OHMM     6                    : RMF          - RESISTIVITY OF MUD FILTRATE
SUFT.C        0                    : SUFT         - SURFACE TEMPERATURE
~A  DEPTH     RESD     PHIN     PHID       GR      CAL
# ...
  446.500    4.882    0.408    0.296   89.354  218.529
  446.750    4.700    0.430    0.304   79.147  217.844
  447.000    4.517    0.445    0.309   67.203  213.440
  447.250    4.381    0.462    0.306   58.048  207.179
  447.500    4.242    0.487    0.308   53.919  203.811
  447.750    4.099    0.490    0.317   59.336  202.920
  448.000    3.844    0.403    0.319   67.981  203.265
  448.250    3.497    0.396    0.246   69.865  206.304
  448.500    3.273    0.426    0.257   72.928  209.340
  448.750    3.253    0.448    0.311   75.492  211.860
  449.000    3.352    0.492    0.387   73.718  213.654
  449.250    3.566    0.434    0.384   64.873  212.869
  449.500    3.823    0.403    0.341   58.821  207.947
  449.750    3.954    0.388    0.312   60.212  204.063
  450.000    3.982    0.394    0.309   63.705  201.417
  450.250    3.981    0.415    0.317   65.961  199.591
  450.500    3.928    0.421    0.319   62.265  198.699
  450.750    3.846    0.393    0.300   63.220  198.740
  451.000    3.759    0.359    0.275   68.513  198.883
  451.250    3.688    0.366    0.266   75.172  198.925
  451.500    3.652    0.408    0.270   77.429  199.271
  451.750    3.665    0.400    0.265   78.011  200.450
  452.000    3.685    0.421    0.259   79.089  201.832
  452.250    3.705    0.407    0.268   85.748  203.320
  452.500    3.711    0.396    0.267   78.703  203.672
  452.750    3.668    0.398    0.260   71.656  201.437
  453.000    3.585    0.408    0.250   60.208  198.578
  453.250    3.464    0.396    0.288   56.947  194.691
  453.500    3.230    0.399    0.299   58.830  192.977
  453.750    2.917    0.410    0.293   66.667  193.942
  454.000    2.503    0.441    0.264   71.093  189.643
  454.250    2.316    0.421    0.246   87.735  187.723
  454.500    2.391    0.481    0.240   91.666  188.999
  454.750    2.573    0.507    0.238   86.914  196.378
  455.000    2.885    0.520    0.256   82.597  203.136
  455.250    3.212    0.425    0.249   71.893  208.861
  455.500    3.548    0.411    0.259   61.127  212.312
  455.750    3.898    0.393    0.278   56.500  211.840
  456.000    4.330    0.406    0.299   56.712  209.081
  456.250    4.748    0.433    0.295   55.745  203.646
  456.500    5.245    0.412    0.297   54.649  202.237
  456.750    5.591    0.385    0.207   56.472  201.551
  457.000    5.579    0.356    0.170   63.130  202.213
  457.250    5.221    0.333    0.171   63.154  203.078
  457.500    4.896    0.348    0.222   61.566  203.326
  457.750    4.858    0.361    0.270   60.289  202.959
  458.000    4.911    0.374    0.294   60.993  202.268
  458.250    4.994    0.407    0.316   63.623  201.167
  458.500    4.890    0.410    0.302   63.956  200.074
  458.750    4.761    0.394    0.280   60.011  198.869
  459.000    4.550    0.408    0.260   61.090  197.048
  459.250    4.306    0.433    0.241   67.375  193.577
  459.500    4.030    0.454    0.235   77.320  191.343
  459.750    3.837    0.421    0.236   77.592  197.065
  460.000    3.611    0.426    0.225   77.616  211.159
  460.250    3.380    0.458    0.216   81.484  214.817
  460.500    3.303    0.434    0.236   83.743  216.100
  460.750    3.315    0.475    0.251   81.534  216.863
  461.000    3.402    0.489    0.265   80.071  217.109
  461.250    3.626    0.429    0.264   79.905  216.118
  461.500    3.999    0.414    0.250   77.944  214.808
  461.750    4.270    0.399    0.232   80.139  210.923
  462.000    4.399    0.395    0.233   74.954  207.964
  462.250    4.507    0.410    0.254   74.669  206.969
  462.500    4.670    0.442    0.237   77.482  208.042
  462.750    4.876    0.443    0.214   74.407  210.357
  463.000    5.024    0.434    0.243   64.755  211.223
  463.250    5.032    0.388    0.275   49.773  206.921
  463.500    4.974    0.389    0.326   52.030  204.170
  463.750    4.898    0.388    0.317   54.657  202.969
  464.000    4.805    0.381    0.299   52.698  202.803
  464.250    4.661    0.388    0.282   49.619  202.741
  464.500    4.776    0.400    0.287   51.629  202.157
  464.750    5.197    0.413    0.300   52.148  202.198
  465.000    5.498    0.402    0.265   48.699  202.861
  465.250    5.548    0.350    0.220   47.483  203.626
  465.500    5.352    0.338    0.173   48.188  204.487
  465.750    4.980    0.353    0.237   51.560  205.148
  466.000    4.506    0.371    0.278   58.405  205.499
  466.250    4.122    0.388    0.296   63.081  206.156
  466.500    4.037    0.404    0.294   65.646  207.334
  466.750    4.175    0.425    0.293   69.019  208.302
  467.000    4.425    0.488    0.277   70.592  208.858
  467.250    4.690    0.444    0.260   61.625  207.868
  467.500    5.017    0.423    0.277   59.044  206.249
  467.750    5.141    0.423    0.265   59.315  204.330
  468.000    5.091    0.413    0.256   60.891  203.644
  468.250    5.099    0.420    0.246   62.340  203.274
  468.500    5.069    0.376    0.254   62.366  202.999
  468.750    5.010    0.372    0.227   61.395  202.728
  469.000    4.897    0.377    0.206   59.933  202.563
  469.250    4.786    0.409    0.235   59.396  202.707
  469.500    4.722    0.383    0.219   61.468  202.751
  469.750    4.512    0.379    0.211   64.033  202.787
  470.000    4.336    0.387    0.217   67.653  202.719
  470.250    4.302    0.409    0.224   73.753  202.861
  470.500    4.333    0.422    0.225   79.235  202.910
  470.750    4.381    0.408    0.217   79.630  203.154
  471.000    4.506    0.422    0.214   74.445  203.188
  471.250    4.669    0.400    0.212   72.732  203.124
  471.500    4.883    0.396    0.209   75.671  202.960
  471.750    5.294    0.393    0.221   82.826  203.002
  472.000    6.177    0.378    0.217   87.129  203.037
  472.250    8.318    0.385    0.210   78.719  203.077
  472.500    8.782    0.370    0.192   68.139  203.016
  472.750    8.648    0.343    0.158   57.125  202.951
  473.000    8.018    0.321    0.123   57.275  203.201
  473.250    7.199    0.316    0.125   64.800  203.234
  473.500    6.563    0.336    0.156   72.637  203.586
  473.750    6.084    0.371    0.183   75.266  204.348
  474.000    5.535    0.380    0.180   76.902  205.626
  474.250    5.200    0.380    0.182   77.545  206.906
  474.500    4.959    0.383    0.179   78.809  208.083
  474.750    4.838    0.391    0.175   80.198  208.746
  475.000    4.746    0.407    0.183   80.344  209.092
  475.250    4.674    0.423    0.201   80.121  209.441
  475.500    4.638    0.430    0.199   79.091  209.900
  475.750    4.628    0.453    0.194   80.106  210.353
  476.000    4.635    0.433    0.186   84.470  210.494
  476.250    4.590    0.430    0.164   85.671  210.325
  476.500    4.572    0.424    0.172   86.936  210.673
  476.750    4.511    0.396    0.188   88.944  211.753
  477.000    4.450    0.378    0.194   86.118  212.409
  477.250    4.432    0.376    0.197   84.714  212.761
  477.500    4.448    0.382    0.202   83.930  212.900
  477.750    4.531    0.400    0.242   82.652  212.943
  478.000    4.660    0.427    0.222   81.187  212.775
  478.250    4.756    0.404    0.177   77.987  212.507
  478.500    4.827    0.369    0.154   70.011  212.232
  478.750    4.955    0.363    0.181   71.154  211.857
  479.000    5.086    0.381    0.200   77.377  211.589
  479.250    5.230    0.402    0.210   81.369  211.627
  479.500    5.358    0.395    0.199   82.509  211.670
  479.750    5.387    0.360    0.178   78.006  211.603
  480.000    5.275    0.345    0.151   71.518  211.747
  480.250    5.156    0.363    0.153   68.938  211.890
  480.500    4.992    0.374    0.209   70.450  211.723
  480.750    4.806    0.387    0.221   72.147  210.830
  481.000    4.662    0.395    0.208   78.435  209.631
  481.250    4.573    0.405    0.203   76.911  209.670
  481.500    4.546    0.386    0.220   69.864  209.811
  481.750    4.485    0.372    0.210   73.297  210.058
  482.000    4.359    0.361    0.201   76.606  210.102
  482.250    4.309    0.389    0.199   73.903  209.831
  482.500    4.415    0.402    0.197   74.051  209.868
  482.750    4.679    0.407    0.210   77.608  210.222
