~VERSION INFORMATION
 VERS.                 2.0:   CWLS LOG ASCII STANDARD -VERSION 2.0
 WRAP.                  NO:   ONE LINE PER DEPTH STEP
~WELL INFORMATION BLOCK
#MNEM.UNIT           DATA                    DESCRIPTION OF MNEMONIC
#---------    -------------------            -------------------------------
# Generated from Intellog Unique Number	CW_82_90/WELL/3430
WELL.         CDN SUP                        : Well_name    - WELL
LOC .         00/07-26-090-21W4/0            : Location     - LOCATION
UWI .         00/07-26-090-21W4/0            : Uwi          - UNIQUE WELL ID
ENTR.         MAX                            : Entered      - ENTERED BY
SRVC.         SCHLUMBERGER                   : Scn          - SERVICE COMPANY
STRT.M        152                            : top_depth    - START DEPTH
STOP.M        235                            : bot_depth    - STOP DEPTH
STEP.M        0.25                           : increment    - STEP LENGTH
 NULL. -999.2500:NULL Value
~CURVE INFORMATION BLOCK
#MNEM UNIT       ERCB CURVE CODE    CURVE DESCRIPTION
#-----------   ------------------   ----------------------------------
DEPT.M        00 001 00 00         : DEPTH        - DEPTH
CALI.MM       00 280 01 00         : CAL          - CALIPER
GR  .API      00 310 00 00         : GR           - GAMMA RAY
NPHI.V/V      00 330 00 00         : PHIN         - NEUTRON POROSITY (SANDSTONE)
DPHI.V/V      00 890 00 00         : PHID         - DENSITY POROSITY (SANDSTONE)
ILD .OHMM     00 120 00 00         : RESD         - DEEP RESISTIVITY (DIL)
~PARAMETER INFORMATION
#MNEM.UNIT           DATA             DESCRIPTION OF MNEMONIC
#---------         -----------     ------------------------------
GL  .M        515                  : gl           - GROUND LEVEL ELEVATION
EREF.M        519.4                : kb           - ELEVATION OF DEPTH REFERENCE
DATM.M        515.4                : datum        - DATUM ELEVATION
TDD .M        239                  : tdd          - TOTAL DEPTH DRILLER
RUN .         ONE                  : Run          - RUN NUMBER
ENG .         BILL                 : Engineer     - RECORDING ENGINEER
WIT .         JIM                  : Witness      - WITNESSED BY
MUD .         GEL                  : Mud_type     - MUD TYPE
MATR.         SANDSTONE            : Logunit      - NEUTRON MATRIX
TMAX.C        21                   : BHT          - MAXIMUM RECORDED TEMPERATURE
BHTD.M        239                  : BHTDEP       - MAXIMUM RECORDED TEMPERATURE
MATR.         1                    : LOGUNIT      - NEUTRON MATRIX
RMT .C        15                   : MDTP         - TEMPERATURE OF MUD
NEUT.         1                    : NEUTRON      - NEUTRON TYPE
RESI.         0                    : RESIST       - RESISTIVITY TYPE
RMC .OHMM     3.07                 : RMC          - RESISTIVITY OF MUD CAKE
RMF .OHMM     3.05                 : RMF          - RESISTIVITY OF MUD FILTRATE
SUFT.C        -10                  : SUFT         - SURFACE TEMPERATURE
~A  DEPTH      CAL       GR     PHIN     PHID     RESD
  152.000  249.221   76.023    0.520    0.255    2.617
  152.250  247.139   79.541    0.518    0.251    5.502
  152.500  244.581   81.881    0.409    0.156   10.096
  152.750  243.979   85.704    0.386    0.158   11.451
  153.000  243.894   88.329    0.397    0.179   10.445
  153.250  244.317   91.569    0.419    0.208    7.733
  153.500  245.204   94.194    0.449    0.232    5.882
  153.750  245.141   90.269    0.457    0.235    6.794
  154.000  245.542   85.152    0.470    0.229    7.918
  154.250  245.447   81.221    0.486    0.228    6.776
  154.500  244.866   82.368    0.466    0.215    6.410
  154.750  244.802   85.596    0.434    0.199    6.010
  155.000  243.713   90.915    0.444    0.224    5.632
  155.250  243.639   96.514    0.454    0.238    5.525
  155.500  243.555   92.297    0.450    0.233    5.775
  155.750  243.967   86.882    0.444    0.215    6.431
  156.000  243.882   81.170    0.443    0.203    7.295
  156.250  243.797   74.556    0.431    0.215    8.978
  156.500  243.205   69.440    0.435    0.249   10.463
  156.750  243.110   65.502    0.442    0.275   12.084
  157.000  243.036   63.669    0.448    0.258   13.707
  157.250  243.448   63.010    0.433    0.264   15.546
  157.500  243.871   64.462    0.415    0.250   17.789
  157.750  244.283   71.563    0.353    0.157   19.456
  158.000  244.695   75.088    0.315    0.125   17.118
  158.250  245.603   79.514    0.316    0.134   10.473
  158.500  246.987   85.430    0.336    0.160    7.080
  158.750  247.907   94.915    0.395    0.217    4.830
  159.000  249.312   96.950    0.444    0.219    3.987
  159.250  250.231   96.303    0.472    0.235    3.507
  159.500  251.140   94.160    0.510    0.248    3.317
  159.750  251.552   94.103    0.510    0.260    3.436
  160.000  251.467   94.356    0.521    0.274    3.758
  160.250  251.869   94.299    0.499    0.281    4.073
  160.500  252.281   94.559    0.484    0.231    4.578
  160.750  252.693   95.098    0.471    0.208    5.383
  161.000  252.608   95.352    0.450    0.226    5.941
  161.250  253.009   94.400    0.443    0.223    6.440
  161.500  252.935   90.774    0.455    0.226    6.793
  161.750  253.347   85.657    0.464    0.215    7.295
  162.000  253.262   78.156    0.470    0.194    7.907
  162.250  253.178   67.669    0.478    0.199    8.417
  162.500  253.590   65.823    0.466    0.188    7.470
  162.750  253.981   73.825    0.449    0.172    6.631
  163.000  254.393   80.039    0.439    0.190    6.869
  163.250  254.805   83.260    0.450    0.214    7.719
  163.500  254.805   82.917    0.443    0.226    8.599
  163.750  254.614   82.562    0.428    0.216    9.068
  164.000  255.068   82.815    0.415    0.233    9.479
  164.250  254.962   83.652    0.407    0.224    9.995
  164.500  254.899   85.681    0.415    0.223   10.354
  164.750  254.318   87.127    0.426    0.209   10.921
  165.000  253.726   86.182    0.440    0.210   11.520
  165.250  253.155   83.151    0.451    0.217   12.371
  165.500  249.086   78.630    0.448    0.214   13.169
  165.750  245.525   74.103    0.426    0.144   13.890
  166.000  242.946   79.124    0.407    0.100   13.377
  166.250  241.361   82.948    0.399    0.130   12.885
  166.500  241.297   82.891    0.423    0.194   12.188
  166.750  241.297   79.866    0.444    0.273   11.636
  167.000  241.582   75.935    0.436    0.261   10.905
  167.250  242.026   78.275    0.424    0.199   10.221
  167.500  242.935   81.800    0.415    0.195    9.668
  167.750  243.357   84.729    0.424    0.234    9.062
  168.000  243.769   85.566    0.415    0.258    8.418
  168.250  245.175   84.031    0.420    0.241    7.747
  168.500  245.090   83.974    0.428    0.232    7.132
  168.750  244.498   84.824    0.446    0.231    6.389
  169.000  244.899   85.667    0.460    0.229    5.519
  169.250  244.825   93.371    0.442    0.218    4.854
  169.500  244.244   96.002    0.428    0.202    4.388
  169.750  242.680   91.177    0.461    0.225    4.977
  170.000  240.598   84.570    0.494    0.240    6.069
  170.250  239.531   74.976    0.472    0.199    7.961
  170.500  238.939   71.052    0.445    0.166   10.252
  170.750  237.364   67.412    0.320    0.147   11.109
  171.000  238.262   71.248    0.338    0.194   11.095
  171.250  240.661   75.667    0.396    0.239   10.495
  171.500  243.080   78.298    0.421    0.261    9.404
  171.750  245.944   77.645    0.425    0.275    7.622
  172.000  247.381   76.998    0.436    0.222    6.644
  172.250  251.259   83.510    0.450    0.188    6.114
  172.500  252.178   85.837    0.457    0.159    6.163
  172.750  252.094   86.388    0.463    0.206    6.269
  173.000  251.512   86.338    0.466    0.226    6.039
  173.250  250.921   86.280    0.468    0.236    5.661
  173.500  250.350   87.422    0.472    0.251    5.403
  173.750  249.747   90.066    0.477    0.235    5.300
  174.000  249.673   95.081    0.490    0.249    5.389
  174.250  249.567   95.322    0.482    0.253    5.843
  174.500  248.996   92.582    0.461    0.231    7.524
  174.750  248.415   89.856    0.409    0.205    8.850
  175.000  247.337   85.931    0.405    0.196   10.892
  175.250  246.766   81.112    0.413    0.184   13.647
  175.500  245.688   74.797    0.413    0.164   15.202
  175.750  243.110   68.190    0.398    0.108   17.244
  176.000  241.535   67.543    0.355    0.038   17.539
  176.250  240.943   76.135    0.286    0.069   14.477
  176.500  240.880   88.010    0.305    0.170   11.525
  176.750  241.270   93.615    0.343    0.203    9.953
  177.000  241.186   94.744    0.390    0.183    9.502
  177.250  241.619   92.911    0.426    0.187    9.320
  177.500  241.534   90.191    0.448    0.211    9.309
  177.750  240.456   86.266    0.434    0.232    9.555
  178.000  237.867   82.329    0.452    0.250    9.286
  178.250  236.292   78.708    0.465    0.267    8.946
  178.500  237.698   77.465    0.455    0.277    8.775
  178.750  238.585   76.514    0.440    0.249    9.170
  179.000  238.035   75.874    0.447    0.232    9.586
  179.250  237.443   79.697    0.449    0.258   10.108
  179.500  238.352   87.096    0.443    0.274    9.916
  179.750  238.775   91.217    0.428    0.181    9.725
  180.000  239.176   94.147    0.429    0.205    9.451
  180.250  239.102   96.188    0.435    0.243    9.188
  180.500  239.017   97.329    0.444    0.234    8.931
  180.750  238.933   96.378    0.448    0.220    8.841
  181.000  238.351   94.248    0.443    0.210    8.749
  181.250  239.260   91.509    0.431    0.200    8.818
  181.500  241.648   88.776    0.413    0.220    8.972
  181.750  240.581   86.037    0.421    0.245    9.293
  182.000  237.495   84.204    0.419    0.252    9.711
  182.250  236.438   83.557    0.409    0.264    9.879
  182.500  235.846   83.804    0.406    0.257   10.325
  182.750  235.751   85.237    0.411    0.229   10.891
  183.000  235.655   83.703    0.416    0.204   11.695
  183.250  236.089   81.262    0.413    0.170   12.559
  183.500  236.997   78.231    0.374    0.075   13.493
  183.750  237.377   75.498    0.263    0.002   15.724
  184.000  237.314   79.321    0.238    0.021   13.460
  184.250  238.223   86.727    0.257    0.041   11.418
  184.500  239.638   96.795    0.322    0.112    9.951
  184.750  244.521   97.055    0.423    0.166    9.498
  185.000  245.419   98.488    0.436    0.208    9.490
  185.250  243.865   99.934    0.438    0.211    9.919
  185.500  239.775   99.883    0.415    0.173    9.907
  185.750  237.207   99.236    0.427    0.181    9.805
  186.000  236.150   97.987    0.430    0.194    9.705
  186.250  235.569   97.340    0.424    0.196    9.519
  186.500  235.474   96.700    0.411    0.185    9.420
  186.750  236.868   96.046    0.414    0.203    9.242
  187.000  238.792   96.598    0.420    0.208    9.064
  187.250  241.180   97.733    0.425    0.181    8.810
  187.500  241.084   96.794    0.440    0.179    8.722
  187.750  240.514   95.247    0.458    0.210    8.789
  188.000  237.956   92.514    0.458    0.240    9.023
  188.250  233.888   90.079    0.442    0.207    9.690
