~VERSION INFORMATION
 VERS.                 2.0:   CWLS LOG ASCII STANDARD -VERSION 2.0
 WRAP.                  NO:   ONE LINE PER DEPTH STEP
~WELL INFORMATION BLOCK
#MNEM.UNIT           DATA                    DESCRIPTION OF MNEMONIC
#---------    -------------------            -------------------------------
# Generated from Intellog Unique Number	CW_73_75/WELL/2725
WELL.         CANTERRA MARTEN H 04-25        : Well_name    - WELL
LOC .         00/04-25-073-25W4/0            : Location     - LOCATION
UWI .         00/04-25-073-25W4/0            : Uwi          - UNIQUE WELL ID
ENTR.         JAYE                           : Entered      - ENTERED BY
SRVC.         WESTERN ATLAS                  : Scn          - SERVICE COMPANY
DATE.         21 JAN 86                      : Date         - LOG DATE
STRT.M        385                            : top_depth    - START DEPTH
STOP.M        615                            : bot_depth    - STOP DEPTH
STEP.M        0.25                           : increment    - STEP LENGTH
 NULL. -999.2500:NULL Value
~CURVE INFORMATION BLOCK
#MNEM UNIT       ERCB CURVE CODE    CURVE DESCRIPTION
#-----------   ------------------   ----------------------------------
DEPT.M        00 001 00 00         : DEPTH        - DEPTH
RHOB.KG/M3    00 350 00 00         : DENS         - BULK DENSITY
DPHI.V/V      00 890 00 00         : PHID         - DENSITY POROSITY (SANDSTONE)
ILD .OHMM     00 120 00 00         : RESD         - DEEP RESISTIVITY (DLL)
CALI.MM       00 280 01 00         : CAL          - CALIPER
GR  .API      00 310 00 00         : GR           - GAMMA RAY
NPHI.V/V      00 330 00 00         : PHIN         - NEUTRON POROSITY (SANDSTONE)
~PARAMETER INFORMATION
#MNEM.UNIT           DATA             DESCRIPTION OF MNEMONIC
#---------         -----------     ------------------------------
GL  .M        637.6                : gl           - GROUND LEVEL ELEVATION
EREF.M        641                  : kb           - ELEVATION OF DEPTH REFERENCE
DATM.M        637.6                : datum        - DATUM ELEVATION
TDD .M        617                  : tdd          - TOTAL DEPTH DRILLER
RUN .         ONE                  : Run          - RUN NUMBER
ENG .         MASHON               : Engineer     - RECORDING ENGINEER
WIT .         HUDSON/REID          : Witness      - WITNESSED BY
BASE.         EDM                  : Branch       - HOME BASE OF LOGGING UNIT
MUD .         GEL CHEM             : Mud_type     - MUD TYPE
MATR.         SANDSTONE            : Logunit      - NEUTRON MATRIX
TMAX.C        42                   : BHT          - MAXIMUM RECORDED TEMPERATURE
BHTD.M        617                  : BHTDEP       - MAXIMUM RECORDED TEMPERATURE
RMT .C        22                   : MDTP         - TEMPERATURE OF MUD
MUDD.KG/M     1130                 : MWT          - MUD DENSITY
NEUT.         0                    : NEUTRON      - NEUTRON TYPE
RESI.         1                    : RESIST       - RESISTIVITY TYPE
RM  .OHMM     2.3                  : RM           - RESISTIVITY OF MUD
RMC .OHMM     3.5                  : RMC          - RESISTIVITY OF MUD CAKE
RMF .OHMM     3.2                  : RMF          - RESISTIVITY OF MUD FILTRATE
SUFT.C        0                    : SUFT         - SURFACE TEMPERATURE
~A  DEPTH     DENS     PHID     RESD      CAL       GR     PHIN
# ...
  572.500 2224.380    0.258    3.673  157.781   52.066    0.330
  572.750 2231.460    0.254    3.847  158.030   50.281    0.326
  573.000 2237.900    0.250    3.977  158.387   50.804    0.325
  573.250 2244.560    0.246    4.028  159.046   54.753    0.323
  573.500 2255.540    0.239    4.103  160.120   58.638    0.321
  573.750 2299.420    0.212    4.203  160.783   64.332    0.318
  574.000 2295.790    0.215    4.297  161.034   60.618    0.317
  574.250 2263.370    0.234    4.376  161.176   61.451    0.329
  574.500 2289.160    0.219    4.441  161.421   56.989    0.321
  574.750 2323.370    0.198    4.457  161.569   59.257    0.325
  575.000 2446.430    0.123    4.472  161.400   66.195    0.321
  575.250 2441.370    0.126    4.505  161.334   69.895    0.304
  575.500 2338.820    0.189    4.580  161.271   75.215    0.299
  575.750 2320.380    0.200    4.700  161.829   76.172    0.315
  576.000 2318.810    0.201    4.787  162.076   76.383    0.316
  576.250 2313.340    0.204    4.940  160.038   73.229    0.310
  576.500 2314.030    0.204    5.126  158.214   76.431    0.314
  576.750 2318.220    0.201    5.280  157.938   79.197    0.312
  577.000 2322.820    0.198    5.459  157.875   77.537    0.307
  577.250 2342.850    0.186    5.591  158.536   75.816    0.313
  577.500 2339.630    0.188    5.621  160.240   79.641    0.310
  577.750 2327.990    0.195    5.651  161.629   80.849    0.312
  578.000 2326.820    0.196    5.671  162.398   84.611    0.304
  578.250 2335.540    0.191    5.702  162.541   89.805    0.299
  578.500 2347.950    0.183    5.840  162.579   92.883    0.302
  578.750 2370.450    0.169    6.117  162.514   86.799    0.308
  579.000 2391.090    0.157    6.503  162.555   93.614    0.309
  579.250 2415.430    0.142    6.799  162.700  109.523    0.295
  579.500 2444.300    0.125    7.055  162.944  253.831    0.298
  579.750 2482.840    0.101    7.133  162.983  280.456    0.313
  580.000 2509.850    0.085    7.000  162.717  290.759    0.333
  580.250 2526.790    0.075    6.718  162.130  274.460    0.366
  580.500 2541.470    0.066    6.328  161.652  212.622    0.381
  580.750 2583.500    0.040    6.061  161.379  190.655    0.389
  581.000 2671.390   -0.013    5.959  161.208  165.012    0.380
  581.250 2634.860    0.009    5.947  161.044  178.368    0.369
  581.500 2650.560   -0.000    6.080  160.875  179.388    0.366
  581.750 2693.630   -0.026    6.227  160.708  168.510    0.358
  582.000 2723.930   -0.045    6.462  161.058  159.937    0.351
  582.250 2662.510   -0.008    6.819  161.407  156.409    0.353
  582.500 2641.410    0.005    7.103  162.175  160.421    0.345
  582.750 2787.300   -0.083    6.629  163.148  142.875    0.326
  583.000 2864.080   -0.130    3.423  163.083  129.881    0.312
  583.250 2840.510   -0.115    2.569  162.088  132.332    0.312
  583.500 2742.480   -0.056    2.259  161.611  120.457    0.312
  583.750 2674.490   -0.015    2.172  161.236   73.883    0.278
  584.000 2590.240    0.036    2.357  161.270   48.550    0.220
  584.250 2350.100    0.182    2.714  161.210   45.834    0.144
  584.500 2409.000    0.146    3.418  160.941   44.611    0.146
  584.750 2429.020    0.134    5.382  161.078   36.661    0.168
  585.000 2441.230    0.127    6.130  161.225   29.645    0.192
  585.250 2449.740    0.121    6.676  161.261   33.845    0.209
  585.500 2491.970    0.096    7.505  160.887   30.814    0.225
  585.750 2420.270    0.139    8.453  160.411   24.796    0.263
  586.000 2343.840    0.186   10.029  160.037   27.374    0.198
  586.250 2284.690    0.221   12.146  159.663   30.885    0.187
  586.500 2303.070    0.210   16.235  159.184   26.985    0.192
  586.750 2281.960    0.223   18.628  159.007   21.526    0.186
  587.000 2288.620    0.219   18.146  158.425   20.242    0.168
  587.250 2379.800    0.164   16.777  157.639   20.266    0.219
  587.500 2396.950    0.153   15.745  157.470   21.662    0.257
  587.750 2404.430    0.149   14.942  158.026   25.422    0.302
  588.000 2401.210    0.151   14.313  158.687   28.809    0.333
  588.250 2398.410    0.152   13.432  159.558   27.526    0.333
  588.500 2412.880    0.144   12.145  160.326   28.547    0.336
  588.750 2415.630    0.142   10.463  159.222   28.696    0.350
  589.000 2383.420    0.162    8.864  157.600   31.770    0.367
  589.250 2336.190    0.190    8.134  158.992   30.922    0.397
  589.500 2335.030    0.191    8.347  161.833   26.897    0.411
  589.750 2364.310    0.173    8.222  162.809   23.868    0.416
  590.000 2301.660    0.211    7.673  162.225   20.590    0.434
  590.250 2294.960    0.215    7.029  161.858   20.678    0.442
  590.500 2290.090    0.218    6.379  161.992   21.509    0.416
  590.750 2240.800    0.248    5.779  162.344   23.465    0.409
  591.000 2283.450    0.222    5.225  162.487   27.351    0.405
  591.250 2353.040    0.180    4.611  162.737   26.380    0.397
  591.500 2355.990    0.178    4.177  162.983   27.399    0.353
  591.750 2355.460    0.179    3.884  164.163   26.052    0.324
  592.000 2396.660    0.154    3.611  165.554   19.224    0.393
  592.250 2323.110    0.198    3.498  165.800   15.820    0.408
  592.500 2320.920    0.199    3.603  164.907   16.344    0.429
  592.750 2357.200    0.177    3.809  164.324   18.299    0.444
  593.000 2377.640    0.165    4.195  163.531   18.636    0.354
  593.250 2399.920    0.152    4.895  162.326   18.782    0.357
  593.500 2395.480    0.154    5.585  159.976   18.619    0.349
  593.750 2414.060    0.143    6.083  157.526   17.834    0.342
  594.000 2463.080    0.113    6.208  156.734   18.045    0.361
  594.250 2444.850    0.124    5.772  158.745   20.561    0.343
  594.500 2412.640    0.144    4.693  160.968   22.267    0.330
  594.750 2375.690    0.166    3.939  162.875   22.538    0.335
  595.000 2258.540    0.237    3.387  163.747   20.444    0.366
  595.250 2324.220    0.197    2.912  164.098   19.720    0.404
  595.500 2380.860    0.163    2.880  164.863   25.725    0.392
  595.750 2460.110    0.115    3.084  166.359   31.854    0.356
  596.000 2522.090    0.078    3.347  166.711   24.775    0.315
  596.250 2550.550    0.060    3.672  166.437   18.445    0.300
  596.500 2459.110    0.116    3.926  165.859   17.349    0.284
  596.750 2377.330    0.165    4.120  165.269   18.120    0.314
  597.000 2439.310    0.128    4.275  162.717   17.208    0.324
  597.250 2521.650    0.078    4.469  161.507   15.924    0.348
  597.500 2445.840    0.124    4.647  161.964   16.010    0.321
  597.750 2368.580    0.171    4.724  163.455   15.788    0.312
  598.000 2289.890    0.218    4.653  164.952   15.313    0.363
  598.250 2255.210    0.239    4.383  165.717   14.649    0.400
  598.500 2226.290    0.257    4.121  163.887   19.346    0.400
  598.750 2205.380    0.269    3.754  163.614   24.104    0.404
  599.000 2209.770    0.267    3.478  165.630   24.252    0.418
  599.250 2247.490    0.244    3.257  165.979   16.425    0.430
  599.500 2255.190    0.239    3.080  165.395   19.814    0.415
  599.750 2251.960    0.241    2.967  163.461   23.265    0.416
  600.000 2245.660    0.245    2.890  162.881   21.481    0.417
  600.250 2242.650    0.247    2.965  164.582   15.276    0.409
  600.500 2296.200    0.214    3.123  165.970   13.555    0.399
  600.750 2342.960    0.186    3.389  165.705   15.323    0.392
  601.000 2381.700    0.163    3.590  163.143   17.839    0.391
  601.250 2396.380    0.154    3.781  159.962   17.800    0.376
  601.500 2415.990    0.142    3.931  158.861   13.900    0.353
  601.750 2442.180    0.126    4.210  157.865   14.733    0.333
  602.000 2411.410    0.145    4.476  157.798   18.683    0.333
  602.250 2392.980    0.156    4.875  158.360   22.195    0.334
  602.500 2449.610    0.121    5.241  159.021   26.890    0.325
  602.750 2492.050    0.096    5.708  160.309   26.979    0.279
  603.000 2476.500    0.105    6.091  161.383   23.137    0.272
  603.250 2432.970    0.132    6.415  162.876   22.793    0.288
  603.500 2457.730    0.117    6.633  164.371   22.937    0.297
