~VERSION INFORMATION
 VERS.                 2.0:   CWLS LOG ASCII STANDARD -VERSION 2.0
 WRAP.                  NO:   ONE LINE PER DEPTH STEP
~WELL INFORMATION BLOCK
#MNEM.UNIT           DATA                    DESCRIPTION OF MNEMONIC
#---------    -------------------            -------------------------------
# Generated from Intellog Unique Number	CW_82_90/WELL/3418
WELL.         SIEBENS CHIPEWYAN              : Well_name    - WELL
LOC .         00/06-07-089-21W4/0            : Location     - LOCATION
UWI .         00/06-07-089-21W4/0            : Uwi          - UNIQUE WELL ID
ENTR.         MAX                            : Entered      - ENTERED BY
SRVC.         SCHLUMBERGER                   : Scn          - SERVICE COMPANY
STRT.M        121.92                         : top_depth    - START DEPTH
STOP.M        239.67                         : bot_depth    - STOP DEPTH
STEP.M        0.25                           : increment    - STEP LENGTH
 NULL. -999.2500:NULL Value
~CURVE INFORMATION BLOCK
#MNEM UNIT       ERCB CURVE CODE    CURVE DESCRIPTION
#-----------   ------------------   ----------------------------------
DEPT.M        00 001 00 00         : DEPTH        - DEPTH
GR  .API      00 310 00 00         : GR           - GAMMA RAY
CALI.MM       00 280 01 00         : CAL          - CALIPER
DPHI.V/V      00 890 00 00         : PHID         - DENSITY POROSITY (SANDSTONE)
NPHI.V/V      00 330 00 00         : PHIN         - NEUTRON POROSITY (SANDSTONE)
ILD .OHMM     00 120 00 00         : RESD         - DEEP RESISTIVITY (DIL)
~PARAMETER INFORMATION
#MNEM.UNIT           DATA             DESCRIPTION OF MNEMONIC
#---------         -----------     ------------------------------
GL  .M        511.15               : gl           - GROUND LEVEL ELEVATION
EREF.M        513.283              : kb           - ELEVATION OF DEPTH REFERENCE
DATM.M        511.15               : datum        - DATUM ELEVATION
TDD .M        242.621              : tdd          - TOTAL DEPTH DRILLER
RUN .         ONE                  : Run          - RUN NUMBER
ENG .         BILL                 : Engineer     - RECORDING ENGINEER
WIT .         JIM                  : Witness      - WITNESSED BY
MUD .         GEL                  : Mud_type     - MUD TYPE
MATR.         SANDSTONE            : Logunit      - NEUTRON MATRIX
TMAX.C        15.5556              : BHT          - MAXIMUM RECORDED TEMPERATURE
BHTD.M        242.621              : BHTDEP       - MAXIMUM RECORDED TEMPERATURE
MATR.         1                    : LOGUNIT      - NEUTRON MATRIX
RMT .C        17                   : MDTP         - TEMPERATURE OF MUD
NEUT.         1                    : NEUTRON      - NEUTRON TYPE
RESI.         0                    : RESIST       - RESISTIVITY TYPE
RMC .OHMM     2                    : RMC          - RESISTIVITY OF MUD CAKE
RMF .OHMM     1.94                 : RMF          - RESISTIVITY OF MUD FILTRATE
SUFT.C        -20.5556             : SUFT         - SURFACE TEMPERATURE
~A  DEPTH       GR      CAL     PHID     PHIN     RESD
# ...
  194.920   90.585  228.287    0.262    0.487   11.020
  195.170   92.317  228.257    0.253    0.471    9.869
  195.420   96.400  228.212    0.234    0.499    7.168
  195.670  104.298  229.663    0.175    0.538    5.703
  195.920  107.787  231.115    0.251    0.568    4.537
  196.170  103.942  231.070    0.261    0.577    4.138
  196.420   98.329  230.528    0.261    0.562    4.612
  196.670   95.075  229.991    0.256    0.539    5.840
  196.920   93.578  230.453    0.259    0.527    7.392
  197.170   91.780  230.911    0.253    0.510    8.091
  197.420   90.279  230.861    0.255    0.498    9.351
  197.670   89.369  230.826    0.242    0.491   10.422
  197.920   89.046  230.786    0.197    0.496   11.098
  198.170   90.195  230.741    0.183    0.505   11.708
  198.420   92.807  230.701    0.173    0.512   11.700
  198.670   95.125  230.661    0.219    0.519   11.167
  198.920   97.440  230.622    0.225    0.512   10.565
  199.170  100.338  231.069    0.228    0.499   10.177
  199.420  102.957  231.029    0.217    0.481   10.545
  199.670  106.446  231.486    0.204    0.477   10.727
  199.920  103.486  231.441    0.227    0.496   10.917
  200.170   99.046  230.407    0.234    0.492   11.415
  200.420   96.379  229.373    0.227    0.473   12.156
  200.670   92.530  228.841    0.258    0.447   13.181
  200.920   88.388  228.792    0.248    0.453   14.689
  201.170   82.489  229.746    0.230    0.458   16.075
  201.420   77.177  230.208    0.209    0.430   17.435
  201.670   74.796  230.158    0.157    0.396   19.253
  201.920   75.940  229.129    0.098    0.416   20.687
  202.170   75.613  227.091    0.213    0.453   21.834
  202.420   75.287  226.062    0.255    0.472   23.038
  202.670   74.674  225.028    0.232    0.467   23.871
  202.920   70.535  224.491    0.178    0.440   24.511
  203.170   69.035  224.441    0.075    0.257   24.713
  203.420   71.647  225.400    0.118    0.302   24.685
  203.670   71.911  225.853    0.189    0.449   23.998
  203.920   69.820  226.802    0.225    0.439   22.910
  204.170   72.432  226.772    0.215    0.424   23.518
  204.420   76.221  226.732    0.187    0.389   23.717
  204.670   82.645  226.682    0.083    0.352   23.266
  204.920   85.261  228.134    0.106    0.408   22.416
  205.170   85.228  230.083    0.174    0.452   21.010
  205.420   83.731  230.038    0.263    0.477   19.695
  205.670   81.647  229.506    0.280    0.503   18.969
  205.920   78.976  228.964    0.275    0.478   20.574
  206.170   73.069  228.924    0.253    0.462   22.721
  206.420   72.155  228.884    0.227    0.358   24.193
  206.670   73.010  229.341    0.177    0.349   22.886
  206.920   75.916  229.799    0.190    0.382   21.256
  207.170   81.463  229.754    0.215    0.497   19.566
  207.420   81.433  229.709    0.225    0.501   17.683
  207.670   82.574  229.669    0.217    0.467   17.037
  207.920   88.418  229.634    0.123    0.400   17.491
  208.170  101.005  229.589    0.090    0.421   17.636
  208.420  100.095  229.544    0.204    0.464   17.302
  208.670  104.468  229.510    0.231    0.458   16.666
  208.920  112.070  229.465    0.219    0.436   15.766
  209.170  112.040  229.917    0.182    0.445   16.039
  209.420  105.554  230.871    0.163    0.461   17.078
  209.670   97.890  231.826    0.219    0.445   17.858
  209.920   91.987  232.775    0.219    0.432   18.338
  210.170   93.131  234.232    0.178    0.412   18.661
  210.420  100.146  234.689    0.094    0.367   18.302
  210.670  108.334  234.644    0.079    0.426   17.313
  210.920  117.696  233.610    0.131    0.479   16.085
  211.170  111.793  232.571    0.193    0.491   14.017
  211.420  104.720  231.542    0.211    0.485   12.328
  211.670   95.299  229.504    0.212    0.503   11.554
  211.920   88.809  228.972    0.202    0.508   11.543
  212.170   88.486  228.430    0.194    0.491   11.746
  212.420   90.800  228.390    0.173    0.480   11.949
  212.670   90.470  229.334    0.155    0.487   12.049
  212.920   91.622  232.277    0.197    0.490   12.038
  213.170   94.524  234.236    0.170    0.477   12.026
  213.420   95.375  235.682    0.123    0.468   12.125
  213.670   95.048  236.632    0.182    0.478   12.337
  213.920   93.258  237.089    0.203    0.482   12.668
  214.170   91.764  238.043    0.217    0.477   13.125
  214.420   89.677  237.998    0.221    0.471   13.352
  214.670   87.296  236.467    0.216    0.464   13.587
  214.920   87.564  234.444    0.196    0.465   14.079
  215.170   87.237  233.897    0.171    0.465   14.454
  215.420   87.497  232.858    0.177    0.463   14.572
  215.670   91.874  231.834    0.171    0.468   14.557
  215.920  100.356  231.292    0.203    0.477   14.544
  216.170  104.138  232.738    0.212    0.471   14.533
  216.420  104.993  236.675    0.207    0.474   14.519
  216.670  100.851  237.635    0.188    0.473   14.373
  216.920   96.709  233.106    0.172    0.465   14.360
  217.170   98.433  232.082    0.212    0.455   14.218
  217.420   99.291  233.031    0.223    0.486   14.075
  217.670   99.551  233.493    0.218    0.518   13.807
  217.920  100.696  232.454    0.180    0.495   13.673
  218.170  101.253  231.917    0.148    0.473   13.291
  218.420   99.757  230.381    0.117    0.490   13.035
  218.670   95.024  229.342    0.190    0.506   12.908
  218.920   93.820  229.307    0.178    0.496   12.777
  219.170   92.914  229.262    0.165    0.462   12.653
  219.420   91.120  228.725    0.140    0.435   12.525
  219.670   94.906  227.686    0.131    0.448   12.514
  219.920   99.279  227.646    0.178    0.459   12.733
  220.170   95.728  227.114    0.203    0.450   13.074
  220.420   96.567  227.557    0.218    0.436   13.547
  220.670   98.303  227.527    0.215    0.440   14.426
  220.920   93.573  227.979    0.188    0.444   15.639
  221.170   91.493  228.431    0.177    0.415   16.808
  221.420   87.648  228.392    0.131    0.361   17.901
  221.670   85.854  228.352    0.095    0.299   19.770
  221.920   90.231  227.815    0.043    0.293   20.483
  222.170   98.126  226.776    0.043    0.352   20.093
  222.420  109.543  225.737    0.090    0.390   19.183
  222.670  109.212  225.210    0.119    0.427   17.339
  222.920  107.132  225.165    0.177    0.452   14.973
  223.170  107.099  225.125    0.199    0.457   13.533
  223.420  109.421  225.085    0.194    0.452   13.034
  223.670  109.094  226.029    0.198    0.456   13.024
  223.920  106.130  225.990    0.202    0.451   13.495
  224.170  106.101  226.949    0.192    0.441   12.883
  224.420  112.822  228.898    0.182    0.462   11.225
  224.670  116.017  232.835    0.200    0.498   10.334
  224.920  117.154  234.778    0.217    0.524    9.423
  225.170  115.657  235.226    0.217    0.526    8.835
  225.420  110.642  235.186    0.218    0.527    8.282
  225.670  103.858  235.156    0.216    0.517    8.737
  225.920  100.597  234.609    0.200    0.496    9.305
  226.170  102.625  233.580    0.153    0.476   10.091
  226.420  106.701  232.546    0.110    0.411   11.453
  226.670  106.969  231.999    0.169    0.438   12.649
  226.920  106.932  231.954    0.213    0.462   13.106
  227.170  106.609  232.411    0.215    0.466   12.060
  227.420  104.521  232.868    0.213    0.466   11.727
  227.670  102.144  232.834    0.208    0.460   11.296
  227.920   98.303  232.297    0.198    0.485   11.082
  228.170   96.509  232.247    0.169    0.505   11.173
  228.420   95.888  232.207    0.133    0.471   11.156
  228.670   99.674  232.669    0.084    0.423   11.358
  228.920  103.171  232.122    0.057    0.438   12.095
  229.170  108.424  232.584    0.083    0.460   12.647
  229.420  110.449  233.037    0.148    0.483   12.984
  229.670  111.590  233.002    0.169    0.502   12.622
  229.920  114.198  232.465    0.177    0.509   11.619
  230.170  117.401  231.426    0.130    0.461   10.694
  230.420  123.527  231.381    0.085    0.465    9.844
  230.670  123.212  231.346    0.155    0.476    9.568
  230.920  116.428  232.291    0.198    0.485    9.558
  231.170  116.105  232.748    0.205    0.493    9.552
