~VERSION INFORMATION
 VERS.                 2.0:   CWLS LOG ASCII STANDARD -VERSION 2.0
 WRAP.                  NO:   ONE LINE PER DEPTH STEP
~WELL INFORMATION BLOCK
#MNEM.UNIT           DATA                    DESCRIPTION OF MNEMONIC
#---------    -------------------            -------------------------------
# Generated from Intellog Unique Number	CS_73_76/WELL/2173
WELL.         DOME PETROLEUM LTD.            : Well_name    - WELL
LOC .         00/07-19-074-04W4/0            : Location     - LOCATION
UWI .         00/07-19-074-04W4/0            : Uwi          - UNIQUE WELL ID
ENTR.         SP                             : Entered      - ENTERED BY
SRVC.         SCHLUMBERGER                   : Scn          - SERVICE COMPANY
STRT.M        250                            : top_depth    - START DEPTH
STOP.M        456                            : bot_depth    - STOP DEPTH
STEP.M        0.25                           : increment    - STEP LENGTH
 NULL. -999.2500:NULL Value
~CURVE INFORMATION BLOCK
#MNEM UNIT       ERCB CURVE CODE    CURVE DESCRIPTION
#-----------   ------------------   ----------------------------------
DEPT.M        00 001 00 00         : DEPTH        - DEPTH
ILD .OHMM     00 120 00 00         : RESD         - DEEP RESISTIVITY (DIL)
DPHI.V/V      00 890 00 00         : PHID         - DENSITY POROSITY (LIMESTONE)
NPHI.V/V      00 330 00 00         : PHIN         - NEUTRON POROSITY (LIMESTONE)
GR  .API      00 310 00 00         : GR           - GAMMA RAY
~PARAMETER INFORMATION
#MNEM.UNIT           DATA             DESCRIPTION OF MNEMONIC
#---------         -----------     ------------------------------
GL  .M        650.2                : gl           - GROUND LEVEL ELEVATION
EREF.M        654.7                : kb           - ELEVATION OF DEPTH REFERENCE
DATM.M        650.2                : datum        - DATUM ELEVATION
TDD .M        456.5                : tdd          - TOTAL DEPTH DRILLER
RUN .         ONE                  : Run          - RUN NUMBER
ENG .         BILL                 : Engineer     - RECORDING ENGINEER
WIT .         JIM                  : Witness      - WITNESSED BY
MUD .         GEL                  : Mud_type     - MUD TYPE
MATR.         LIMESTONE            : Logunit      - NEUTRON MATRIX
TMAX.C        21                   : BHT          - MAXIMUM RECORDED TEMPERATURE
BHTD.M        456.5                : BHTDEP       - MAXIMUM RECORDED TEMPERATURE
MATR.         1                    : LOGUNIT      - NEUTRON MATRIX
RMT .C        25                   : MDTP         - TEMPERATURE OF MUD
NEUT.         1                    : NEUTRON      - NEUTRON TYPE
RESI.         0                    : RESIST       - RESISTIVITY TYPE
RMC .OHMM     0.25                 : RMC          - RESISTIVITY OF MUD CAKE
RMF .OHMM     0.25                 : RMF          - RESISTIVITY OF MUD FILTRATE
SUFT.C        15                   : SUFT         - SURFACE TEMPERATURE
~A  DEPTH     RESD     PHID     PHIN       GR
# ...
  293.500    7.264    0.263    0.469  108.329
  293.750    6.999    0.273    0.472  101.662
  294.000    6.620    0.288    0.466   96.813
  294.250    6.498    0.301    0.477   91.967
  294.500    6.498    0.318    0.497   95.014
  294.750    6.620    0.328    0.500  102.316
  295.000    6.743    0.323    0.471   99.295
  295.250    7.130    0.314    0.442   96.267
  295.500    7.399    0.309    0.432   91.421
  295.750    7.679    0.302    0.419   87.787
  296.000    7.823    0.289    0.396   92.048
  296.250    7.822    0.283    0.391   98.741
  296.500    7.678    0.275    0.398  100.576
  296.750    7.678    0.257    0.414  104.233
  297.000    7.678    0.228    0.430  110.923
  297.250    7.822    0.192    0.448  104.863
  297.500    7.968    0.169    0.432   95.156
  297.750    8.269    0.228    0.418   90.917
  298.000    8.424    0.235    0.426   95.786
  298.250    8.424    0.243    0.439   96.408
  298.500    8.424    0.249    0.421   89.738
  298.750    8.424    0.258    0.385   84.287
  299.000    8.269    0.278    0.367   82.474
  299.250    8.268    0.286    0.363   78.841
  299.500    7.967    0.286    0.381   80.676
  299.750    7.535    0.273    0.415   88.586
  300.000    7.127    0.274    0.460   91.023
  300.250    6.867    0.285    0.489   94.072
  300.500    6.866    0.308    0.437   90.439
  300.750    6.995    0.326    0.416   83.164
  301.000    7.259    0.351    0.371   78.925
  301.250    7.259    0.343    0.339   81.365
  301.500    7.395    0.332    0.353   83.805
  301.750    7.259    0.315    0.369   85.034
  302.000    6.994    0.302    0.379   85.044
  302.250    6.493    0.286    0.398   87.484
  302.500    6.374    0.269    0.404   91.141
  302.750    6.141    0.257    0.421   92.974
  303.000    6.028    0.285    0.432   92.985
  303.250    5.917    0.294    0.428   88.748
  303.500    5.917    0.308    0.418   83.900
  303.750    6.028    0.314    0.407   76.018
  304.000    6.028    0.323    0.410   70.562
  304.250    5.701    0.319    0.418   66.930
  304.500    5.392    0.302    0.412   68.765
  304.750    5.195    0.297    0.405   63.311
  305.000    5.195    0.265    0.410   60.892
  305.250    5.292    0.154    0.404   65.763
  305.500    5.492    0.193    0.366   64.560
  305.750    5.700    0.228    0.307   58.498
  306.000    5.916    0.269    0.313   60.941
  306.250    6.026    0.288    0.356   67.026
  306.500    6.026    0.280    0.388   68.253
  306.750    5.806    0.280    0.390   71.301
  307.000    5.492    0.283    0.405   76.780
  307.250    5.291    0.296    0.423   79.217
  307.500    4.822    0.311    0.422   68.297
  307.750    4.646    0.325    0.408   54.949
  308.000    4.477    0.339    0.401   50.102
  308.250    4.156    0.352    0.405   47.685
  308.500    4.005    0.362    0.406   47.089
  308.750    3.718    0.362    0.407   45.279
  309.000    3.452    0.340    0.403   52.583
  309.250    3.326    0.283    0.382   56.233
  309.500    3.204    0.268    0.371   61.104
  309.750    3.145    0.268    0.381   61.725
  310.000    3.325    0.274    0.389   60.520
  310.250    3.582    0.290    0.410   64.176
  310.500    3.717    0.303    0.436   70.261
  310.750    3.717    0.319    0.455   75.741
  311.000    3.649    0.325    0.460   76.358
  311.250    3.451    0.318    0.472   73.332
  311.500    3.204    0.316    0.464   69.702
  311.750    3.145    0.302    0.466   70.929
  312.000    3.087    0.309    0.478   63.045
  312.250    3.087    0.335    0.485   53.340
  312.500    3.087    0.326    0.418   47.277
  312.750    3.087    0.320    0.393   43.645
  313.000    3.087    0.332    0.388   41.836
  313.250    3.087    0.351    0.396   41.850
  313.500    3.030    0.360    0.397   41.254
  313.750    2.919    0.368    0.403   40.051
  314.000    2.761    0.348    0.409   39.453
  314.250    2.660    0.349    0.394   39.466
  314.500    2.563    0.348    0.387   40.083
  314.750    2.516    0.342    0.388   42.527
  315.000    2.516    0.334    0.398   43.751
  315.250    2.563    0.335    0.412   41.943
  315.500    2.516    0.337    0.418   41.954
  315.750    2.516    0.339    0.416   41.967
  316.000    2.516    0.342    0.401   41.369
  316.250    2.516    0.349    0.403   40.168
  316.500    2.424    0.354    0.404   41.392
  316.750    2.379    0.362    0.404   44.441
  317.000    2.335    0.365    0.403   45.667
  317.250    2.250    0.363    0.399   44.465
  317.500    2.209    0.357    0.392   43.870
  317.750    2.168    0.349    0.396   45.095
  318.000    2.168    0.352    0.406   45.109
  318.250    2.128    0.353    0.390   44.512
  318.500    2.128    0.357    0.378   44.523
  318.750    2.128    0.359    0.378   44.536
  319.000    2.128    0.360    0.398   42.727
  319.250    2.128    0.360    0.405   42.131
  319.500    2.128    0.362    0.407   43.356
  319.750    2.168    0.362    0.413   47.618
  320.000    2.168    0.362    0.428   50.667
  320.250    2.168    0.354    0.420   50.681
  320.500    2.168    0.351    0.418   51.299
  320.750    2.167    0.348    0.417   50.095
  321.000    2.167    0.346    0.413   47.071
  321.250    2.167    0.354    0.419   45.261
  321.500    2.127    0.350    0.423   45.274
  321.750    2.127    0.351    0.403   45.287
  322.000    2.088    0.357    0.395   45.908
  322.250    2.050    0.358    0.401   46.522
  322.500    2.050    0.351    0.406   46.534
  322.750    2.012    0.340    0.406   47.154
  323.000    2.012    0.339    0.415   48.989
  323.250    2.012    0.330    0.426   50.821
  323.500    2.012    0.335    0.413   52.658
  323.750    2.012    0.340    0.397   53.272
  324.000    2.012    0.343    0.387   54.501
  324.250    2.012    0.347    0.393   54.511
  324.500    2.049    0.337    0.403   52.093
  324.750    2.012    0.329    0.398   48.464
  325.000    2.049    0.331    0.390   46.653
  325.250    2.049    0.335    0.402   46.055
  325.500    2.088    0.339    0.414   47.283
  325.750    2.088    0.343    0.420   49.115
  326.000    2.087    0.348    0.421   49.129
  326.250    2.011    0.353    0.425   51.570
  326.500    1.938    0.359    0.433   54.616
  326.750    1.938    0.357    0.437   55.843
  327.000    1.902    0.357    0.427   53.426
  327.250    1.938    0.356    0.428   52.223
  327.500    1.974    0.350    0.442   55.275
  327.750    1.974    0.345    0.444   57.105
  328.000    2.011    0.354    0.435   57.117
  328.250    2.087    0.368    0.447   54.700
  328.500    2.207    0.383    0.455   53.499
  328.750    2.290    0.393    0.479   54.723
  329.000    2.421    0.390    0.507   56.557
  329.250    2.466    0.348    0.487   57.783
  329.500    2.513    0.335    0.452   54.152
  329.750    2.421    0.345    0.438   51.126
  330.000    2.248    0.354    0.441   48.105
  330.250    2.126    0.354    0.435   47.506
  330.500    2.011    0.353    0.429   48.128
  330.750    1.902    0.356    0.438   48.746
  331.000    1.832    0.360    0.446   48.755
  331.250    1.765    0.362    0.425   48.161
  331.500    1.733    0.359    0.413   47.566
  331.750    1.701    0.358    0.423   47.582
  332.000    1.670    0.358    0.428   46.980
  332.250    1.670    0.360    0.423   46.386
  332.500    1.639    0.360    0.417   43.971
  332.750    1.609    0.357    0.396   42.766
  333.000    1.579    0.354    0.387   42.171
  333.250    1.550    0.354    0.394   40.362
  333.500    1.521    0.360    0.401   38.550
  333.750    1.439    0.358    0.412   36.739
  334.000    1.386    0.354    0.417   38.574
  334.250    1.361    0.359    0.413   41.015
  334.500    1.336    0.367    0.411   40.417
  334.750    1.311    0.369    0.405   41.645
  335.000    1.311    0.370    0.398   44.087
  335.250    1.287    0.368    0.419   45.312
  335.500    1.263    0.365    0.429   43.502
  335.750    1.263    0.365    0.435   38.655
  336.000    1.263    0.370    0.426   36.237
  336.250    1.240    0.376    0.423   37.464
  336.500    1.240    0.368    0.438   38.692
  336.750    1.240    0.364    0.443   39.309
