~VERSION INFORMATION
 VERS.                 2.0:   CWLS LOG ASCII STANDARD -VERSION 2.0
 WRAP.                  NO:   ONE LINE PER DEPTH STEP
~WELL INFORMATION BLOCK
#MNEM.UNIT           DATA                    DESCRIPTION OF MNEMONIC
#---------    -------------------            -------------------------------
# Generated from Intellog Unique Number	CW_70_72/WELL/2901
NULL.         -999.25                        : NULL_VALUE
COMP .        HOME OIL CO LTD                :  COMPANY
WELL.         SCURRY ET AL DOUCETTE          : Well_name    - WELL              
LOC .         06-29-077-02W5                 : Location     - LOCATION          
UWI .         00/06-29-077-02W5/0            : Uwi          - UNIQUE WELL ID    
ENTR.         MAX                            : Entered      - ENTERED BY        
SRVC.         COMPUTALOG                     : Scn          - SERVICE COMPANY   
DATE.         24 NOV 77                      : Date         - LOG DATE
STRT.M        375                            : top_depth    - START DEPTH       
STOP.M        625                            : bot_depth    - STOP DEPTH        
STEP.M        0.25                           : increment    - STEP LENGTH       
~CURVE INFORMATION BLOCK
#MNEM UNIT       ERCB CURVE CODE    CURVE DESCRIPTION
#-----------   ------------------   ----------------------------------
DEPT.M        00 001 00 00         : DEPTH        - DEPTH                       
ILD .OHMM     00 120 00 00         : RESD         - DEEP RESISTIVITY (DIL)      
NPHI.V/V      00 330 00 00         : PHIN         - NEUTRON POROSITY (SANDSTONE)
DPHI.V/V      00 890 00 00         : PHID         - DENSITY POROSITY (SANDSTONE)
CALI.MM       00 280 01 00         : CAL          - CALIPER                     
GR  .API      00 310 00 00         : GR           - GAMMA RAY                   
~PARAMETER INFORMATION       
#MNEM.UNIT           DATA             DESCRIPTION OF MNEMONIC
#---------         -----------     ------------------------------
GL  .M        678.3                : gl           - GROUND LEVEL ELEVATION      
EREF.M        683.7                : kb           - ELEVATION OF DEPTH REFERENCE
DATM.M        678.3                : datum        - DATUM ELEVATION             
TDD .M        639                  : tdd          - TOTAL DEPTH DRILLER         
RUN .         ONE                  : Run          - RUN NUMBER                  
ENG .         BILL                 : Engineer     - RECORDING ENGINEER          
WIT .         JIM                  : Witness      - WITNESSED BY                
MUD .         GEL                  : Mud_type     - MUD TYPE                    
MATR.         SANDSTONE            : Logunit      - NEUTRON MATRIX              
TMAX.C        36                   : BHT          - MAXIMUM RECORDED TEMPERATURE
BHTD.M        639                  : BHTDEP       - MAXIMUM RECORDED TEMPERATURE
RMT .C        12.5                 : MDTP         - TEMPERATURE OF MUD          
MUDD.KG/M     1160                 : MWT          - MUD DENSITY                 
NEUT.         1                    : NEUTRON      - NEUTRON TYPE                
RESI.         0                    : RESIST       - RESISTIVITY TYPE            
RM  .OHMM     5.1                  : RM           - RESISTIVITY OF MUD          
RMC .OHMM     5                    : RMC          - RESISTIVITY OF MUD CAKE     
RMF .OHMM     4                    : RMF          - RESISTIVITY OF MUD FILTRATE 
SUFT.C        -10                  : SUFT         - SURFACE TEMPERATURE         
~A  DEPTH     RESD     PHIN     PHID      CAL       GR
# ...
  521.000   11.576    0.376    0.259  203.218   69.147
  521.250   12.087    0.369    0.254  201.641   73.480
  521.500   12.511    0.371    0.244  201.039   75.160
  521.750   12.829    0.364    0.218  206.768   72.465
  522.000   13.039    0.321    0.166  207.142   67.996
  522.250   13.257    0.301    0.117  206.555   65.284
  522.500   13.838    0.306    0.086  206.399   66.671
  522.750   14.454    0.334    0.157  205.323   69.548
  523.000   15.228    0.372    0.262  202.769   74.165
  523.250   15.342    0.405    0.296  198.723   73.512
  523.500   15.593    0.412    0.299  198.609   71.084
  523.750   16.727    0.417    0.294  201.438   70.438
  524.000   17.941    0.414    0.278  201.827   72.713
  524.250   19.416    0.405    0.255  201.225   75.280
  524.500   20.640    0.400    0.239  201.026   74.911
  524.750   21.166    0.401    0.241  201.443   73.973
  525.000   21.328    0.400    0.260  203.310   71.846
  525.250   21.296    0.396    0.258  204.661   69.134
  525.500   20.883    0.386    0.255  205.021   70.831
  525.750   19.940    0.380    0.253  205.410   73.984
  526.000   17.884    0.384    0.259  203.818   74.201
  526.250   15.474    0.393    0.269  201.250   74.727
  526.500   14.510    0.406    0.271  199.686   78.172
  526.750   14.235    0.415    0.268  199.070   77.217
  527.000   15.680    0.414    0.268  200.923   71.585
  527.250   16.818    0.399    0.251  204.212   69.166
  527.500   16.943    0.389    0.235  203.610   69.666
  527.750   16.771    0.377    0.206  201.028   71.958
  528.000   16.449    0.372    0.190  199.938   71.588
  528.250   16.272    0.367    0.192  198.374   70.340
  528.500   16.544    0.371    0.213  199.711   71.159
  528.750   16.668    0.379    0.236  205.956   72.555
  529.000   16.202    0.384    0.240  206.331   75.717
  529.250   15.058    0.386    0.244  206.691   76.226
  529.500   12.461    0.387    0.250  207.080   79.379
  529.750   11.077    0.390    0.250  208.402   83.703
  530.000    9.933    0.398    0.245  208.790   88.329
  530.250    9.396    0.405    0.233  208.677   88.252
  530.500    9.302    0.412    0.236  208.535   87.598
  530.750    9.124    0.412    0.245  207.947   86.652
  531.000    8.944    0.411    0.243  207.360   85.404
  531.250    8.772    0.412    0.241  205.754   83.871
  531.500    8.762    0.411    0.244  204.176   82.916
  531.750    8.594    0.407    0.242  203.086   82.856
  532.000    8.429    0.396    0.236  202.987   84.244
  532.250    8.341    0.398    0.226  203.849   86.519
  532.500    8.180    0.408    0.223  204.712   88.509
  532.750    8.180    0.405    0.223  204.096   89.319
  533.000    8.081    0.396    0.214  203.968   90.999
  533.250    7.928    0.389    0.206  203.840   91.801
  533.500    7.914    0.394    0.208  203.267   90.562
  533.750    7.972    0.395    0.212  202.135   89.916
  534.000    8.030    0.398    0.209  202.035   91.011
  534.250    8.021    0.398    0.206  202.424   90.659
  534.500    8.080    0.397    0.201  203.775   89.712
  534.750    8.212    0.394    0.194  205.125   89.334
  535.000    8.349    0.391    0.193  204.035   90.721
  535.250    8.639    0.390    0.199  201.467   90.377
  535.500    8.940    0.386    0.208  198.913   88.544
  535.750    9.091    0.380    0.203  195.355   87.003
  536.000    9.072    0.373    0.204  193.777   85.186
  536.250    8.663    0.366    0.205  193.663   85.118
  536.500    8.199    0.363    0.198  198.919   87.970
  536.750    7.758    0.366    0.193  205.652   91.424
  537.000    7.544    0.376    0.195  209.917   97.505
  537.250    7.265    0.387    0.198  210.794   98.609
  537.500    7.190    0.394    0.197  213.608   99.703
  537.750    7.179    0.398    0.197  216.423  100.221
  538.000    7.232    0.406    0.197  216.295  100.747
  538.250    7.419    0.412    0.199  215.708  101.264
  538.500    7.816    0.400    0.199  214.116   99.715
  538.750    8.163    0.385    0.199  211.548   95.849
  539.000    8.523    0.379    0.202  209.496   90.208
  539.250    8.587    0.379    0.196  208.406   89.847
  539.500    8.727    0.382    0.189  208.278   94.749
  539.750    9.195    0.382    0.199  209.601   97.617
  540.000   11.180    0.376    0.207  209.501   92.278
  540.250   13.590    0.364    0.200  208.900   88.093
  540.500   17.119    0.346    0.185  208.312   85.105
  540.750   19.034    0.328    0.187  205.242   73.591
  541.000   20.602    0.330    0.239  202.200   73.514
  541.250   21.897    0.336    0.284  200.636   74.617
  541.500   22.255    0.347    0.284  201.470   73.671
  541.750   21.436    0.361    0.267  205.261   73.602
  542.000   19.934    0.362    0.244  204.171   73.819
  542.250   16.791    0.367    0.223  204.546   75.524
  542.500   14.401    0.368    0.211  204.920   78.970
  542.750   12.569    0.374    0.207  207.247   82.132
  543.000   11.479    0.379    0.205  209.545   82.917
  543.250   10.764    0.389    0.208  208.470   82.857
  543.500   11.240    0.392    0.209  205.414   82.780
  543.750   11.630    0.395    0.221  201.898   82.135
  544.000   11.509    0.403    0.232  201.784   80.301
  544.250   11.377    0.405    0.236  206.523   78.192
  544.500   11.372    0.405    0.233  208.390   76.659
  544.750   11.562    0.405    0.225  205.808   77.461
  545.000   12.291    0.405    0.218  201.789   79.434
  545.250   12.268    0.403    0.217  201.662   79.952
  545.500   11.930    0.406    0.235  204.979   81.055
  545.750   11.288    0.402    0.238  208.798   81.874
  546.000   10.399    0.399    0.227  210.608   82.977
  546.250    9.754    0.398    0.214  208.542   85.544
  546.500    9.479    0.403    0.213  207.453   87.819
  546.750    9.464    0.402    0.224  210.282   87.458
  547.000    9.706    0.400    0.228  209.680   85.047
  547.250    9.867    0.397    0.226  206.624   81.164
  547.500    9.766    0.398    0.216  205.018   83.137
  547.750    9.663    0.399    0.207  206.870   84.524
  548.000    9.393    0.397    0.202  210.187   84.766
  548.250    9.213    0.395    0.201  208.595   84.388
  548.500    8.954    0.394    0.197  206.515   84.621
  548.750    8.706    0.393    0.199  205.426   84.846
  549.000    8.615    0.395    0.206  208.240   86.811
  549.250    8.678    0.391    0.203  208.141   87.345
  549.500    8.821    0.392    0.202  206.033   88.733
  549.750    9.048    0.400    0.203  205.445   89.250
  550.000    9.280    0.399    0.205  204.341   86.839
  550.250    9.349    0.394    0.207  205.232   87.641
  550.500    9.332    0.387    0.204  206.568   89.623
  550.750    8.992    0.387    0.206  209.885   89.262
  551.000    8.741    0.390    0.207  207.317   90.658
  551.250    9.127    0.397    0.205  205.252   92.045
  551.500    9.879    0.392    0.203  208.540   91.994
  551.750   12.559    0.391    0.198  209.905   88.989
  552.000   13.714    0.391    0.200  208.815   82.453
  552.250   14.448    0.390    0.193  208.185   82.109
  552.500   14.168    0.361    0.181  209.536   84.383
  552.750   13.405    0.350    0.200  207.484   89.888
  553.000   13.388    0.358    0.216  203.452   87.176
  553.250   14.107    0.367    0.223  200.884   80.941
  553.500   15.682    0.366    0.212  199.780   77.074
  553.750   17.430    0.359    0.208  199.192   74.061
  554.000   19.372    0.358    0.221  201.031   73.114
  554.250   20.409    0.355    0.248  202.884   71.590
  554.500   20.754    0.345    0.225  204.694   69.171
  554.750   20.356    0.335    0.199  204.078   65.287
  555.000   18.919    0.334    0.154  202.988   64.625
  555.250   16.817    0.351    0.174  202.401   67.201
  555.500   15.077    0.376    0.218  201.325   71.224
  555.750   13.891    0.392    0.261  200.221   72.930
  556.000   12.910    0.401    0.262  200.582   74.317
  556.250   12.217    0.401    0.255  203.396   74.826
  556.500   11.772    0.398    0.240  208.652   76.808
  556.750   11.441    0.392    0.236  210.504   76.740
  557.000   11.224    0.386    0.225  212.803   79.023
  557.250   11.205    0.383    0.217  214.182   80.126
