~VERSION INFORMATION
 VERS.                 2.0:   CWLS LOG ASCII STANDARD -VERSION 2.0
 WRAP.                  NO:   ONE LINE PER DEPTH STEP
~WELL INFORMATION BLOCK
#MNEM.UNIT           DATA                    DESCRIPTION OF MNEMONIC
#---------    -------------------            -------------------------------
# Generated from Intellog Unique Number	CW_82_90/WELL/3065
WELL.         KISSINGER CHIEFCO TEPEE 07-22  : Well_name    - WELL
LOC .         00/07-22-086-25W4/0            : Location     - LOCATION
UWI .         00/07-22-086-25W4/0            : Uwi          - UNIQUE WELL ID
ENTR.         JJ                             : Entered      - ENTERED BY
SRVC.         WESTERN ATLAS                  : Scn          - SERVICE COMPANY
DATE.         18 MAR 78                      : Date         - LOG DATE
STRT.M        281.026                        : top_depth    - START DEPTH
STOP.M        409.026                        : bot_depth    - STOP DEPTH
STEP.M        0.25                           : increment    - STEP LENGTH
 NULL. -999.2500:NULL Value
~CURVE INFORMATION BLOCK
#MNEM UNIT       ERCB CURVE CODE    CURVE DESCRIPTION
#-----------   ------------------   ----------------------------------
DEPT.M        00 001 00 00         : DEPTH        - DEPTH
DELT.US/F     00 520 00 00         : DELT         - SONIC TRAVEL TIME
GR  .API      00 310 00 00         : GR           - GAMMA RAY
ILD .OHMM     00 120 00 00         : RESD         - DEEP RESISTIVITY (DIL)
~PARAMETER INFORMATION
#MNEM.UNIT           DATA             DESCRIPTION OF MNEMONIC
#---------         -----------     ------------------------------
GL  .M        576.682              : gl           - GROUND LEVEL ELEVATION
EREF.M        579.12               : kb           - ELEVATION OF DEPTH REFERENCE
DATM.M        579.12               : datum        - DATUM ELEVATION
TDD .M        411.48               : tdd          - TOTAL DEPTH DRILLER
RUN .         ONE                  : Run          - RUN NUMBER
ENG .         HALL                 : Engineer     - RECORDING ENGINEER
WIT .         DEAN                 : Witness      - WITNESSED BY
BASE.         RED DEER             : Branch       - HOME BASE OF LOGGING UNIT
MUD .         GEL CHEM             : Mud_type     - MUD TYPE
MATR.         SANDSTONE            : Logunit      - NEUTRON MATRIX
TMAX.C        30.5556              : BHT          - MAXIMUM RECORDED TEMPERATURE
BHTD.M        410.566              : BHTDEP       - MAXIMUM RECORDED TEMPERATURE
RMT .C        17.7778              : MDTP         - TEMPERATURE OF MUD
MUDD.KG/M     1176                 : MWT          - MUD DENSITY
NEUT.         1                    : NEUTRON      - NEUTRON TYPE
RESI.         0                    : RESIST       - RESISTIVITY TYPE
RM  .OHMM     4.9                  : RM           - RESISTIVITY OF MUD
RMC .OHMM     0                    : RMC          - RESISTIVITY OF MUD CAKE
RMF .OHMM     6.21                 : RMF          - RESISTIVITY OF MUD FILTRATE
SUFT.C        5                    : SUFT         - SURFACE TEMPERATURE
~A  DEPTH     DELT       GR     RESD
  281.026  407.442   85.959    5.979
  281.276  407.362   87.815    6.361
  281.526  405.382   86.359    6.653
  281.776  418.141   90.487    6.768
  282.026  436.596   96.272    6.373
  282.276  439.659  101.690    5.986
  282.526  435.583   98.880    5.567
  282.776  420.898   97.423    5.593
  283.026  409.879   90.930    6.072
  283.276  402.004   82.903    6.567
  283.526  398.650   76.102    7.127
  283.776  410.163   71.143    7.711
  284.026  403.728   77.851    8.085
  284.276  398.474   80.443    8.474
  284.526  413.065   81.811    8.864
  284.776  414.817   81.580    8.971
  285.026  416.049   85.277    8.940
  285.276  423.043   85.415    8.675
  285.526  444.315   88.439    7.980
  285.776  456.614   93.427    6.785
  286.026  436.426   98.477    5.791
  286.276  443.484  103.036    5.064
  286.526  450.344   98.138    4.508
  286.776  455.966   98.155    4.177
  287.026  460.798   99.887    4.098
  287.276  447.290   99.411    4.245
  287.526  409.811   95.560    4.498
  287.776  430.755   93.364    4.402
  288.026  449.603   95.590    4.161
  288.276  459.480  100.024    3.920
  288.526  429.532  101.760    3.986
  288.776  415.173  100.852    4.675
  289.026  414.175   97.674    5.340
  289.276  412.066   92.839    5.908
  289.526  407.597   93.532    6.387
  289.776  404.373   95.388    6.890
  290.026  415.034   98.780    7.530
  290.276  407.486  102.354    8.155
  290.526  380.421   98.378    8.618
  290.776  327.812   91.948    9.113
  291.026  276.644   88.339    9.422
  291.276  308.003   83.196    9.577
  291.526  403.288   84.501    9.214
  291.776  407.857   84.209    8.228
  292.026  400.835   84.530    7.445
  292.276  407.959   84.423    7.156
  292.526  398.970   82.964    7.044
  292.776  401.051   88.997    7.021
  293.026  402.870   86.065    6.861
  293.276  395.456   86.202    6.385
  293.526  405.528   88.368    5.707
  293.776  418.415   90.041    5.094
  294.026  436.086   91.528    4.699
  294.276  455.131   93.816    4.903
  294.526  396.495   97.575    5.770
  294.776  402.048   89.609    7.041
  295.026  403.211   84.158    7.747
  295.276  404.835   81.596    7.716
  295.526  407.308   80.322    6.981
  295.776  376.509   78.922    6.303
  296.026  372.762   82.008    5.633
  296.276  431.565   86.692    5.247
  296.526  433.317   89.283    5.167
  296.776  434.874   88.316    5.217
  297.026  431.978   88.208    5.542
  297.276  421.876   90.679    5.997
  297.526  426.645   92.171    6.233
  297.776  425.778   95.498    6.000
  298.026  422.554   96.433    5.799
  298.276  436.292   93.870    6.157
  298.526  420.035   88.789    6.555
  298.776  251.495   80.024    7.001
  299.026  263.139   72.120    7.739
  299.276  379.448   72.011    8.703
  299.526  401.245   89.708    9.133
  299.776  397.102   92.857    8.148
  300.026  394.663   90.905    7.219
  300.276  392.948   89.326    6.978
  300.526  393.392   89.032    7.133
  300.776  393.835   93.284    7.798
  301.026  354.848   96.675    7.993
  301.276  383.130   91.595    7.995
  301.526  403.222   92.593    7.940
  301.776  396.395   94.509    7.909
  302.026  397.561   92.562    7.708
  302.276  402.783   90.979    7.564
  302.526  405.716   91.423    7.606
  302.776  407.472   93.649    7.761
  303.026  407.979   94.954    7.771
  303.276  408.161   95.705    7.708
  303.526  407.100   95.659    7.661
  303.776  403.547   95.243    7.590
  304.026  408.708   95.995    7.583
  304.276  405.024   98.589    7.617
  304.526  406.647  100.508    7.611
  304.776  405.586  100.890    7.636
  305.026  399.676   99.801    7.686
  305.276  404.704   95.764    7.736
  305.526  409.733   97.006    8.102
  305.776  403.169   96.224    8.702
  306.026  388.548   90.773    9.731
  306.276  375.762   85.080   10.938
  306.526  304.944   79.260   11.643
  306.776  286.458   74.794   12.057
  307.026  322.468   83.404   11.347
  307.276  344.853   88.210    9.916
  307.526  384.923   88.162    9.222
  307.776  393.292   88.177    8.924
  308.026  389.348   91.202    9.015
  308.276  380.294   91.339    9.413
  308.526  372.289   85.213    9.722
  308.776  360.877   84.431   10.549
  309.026  371.670   80.948   10.914
  309.276  325.479   77.584   10.624
  309.526  218.178   72.442   10.117
  309.776  194.714   66.684    9.827
  310.026  194.174   58.717    9.707
  310.276  196.059   51.488   10.711
  310.526  200.564   47.207   10.252
  310.776  208.803   49.185    9.558
  311.026  222.412   51.352    9.583
  311.276  236.022   51.610   10.191
  311.526  242.360   51.378   10.994
  311.776  401.244   58.456   11.780
  312.026  410.072   67.435   11.499
  312.276  404.423   75.922   10.683
  312.526  390.393   82.508    9.876
  312.776  374.985   87.187   10.452
  313.026  351.064   84.748   11.100
  313.276  323.409   80.159   11.555
  313.526  293.461   75.261   11.354
  313.776  281.591   75.399   11.040
  314.026  256.164   73.018   10.613
  314.276  386.425   74.446   10.210
  314.526  398.919   75.873    9.710
  314.776  402.245   76.626    9.096
  315.026  402.493   78.053    8.823
  315.276  392.065   81.873    8.711
  315.526  329.499   88.151    8.729
  315.776  304.464   90.499    8.763
  316.026  362.152   81.734    8.950
  316.276  383.098   82.181    9.170
  316.526  393.299   88.089    9.026
  316.776  393.614   93.814    8.817
  317.026  391.372   97.020    8.673
  317.276  394.305   97.711    8.545
  317.526  398.744   94.780    8.353
  317.776  396.567   91.972    8.168
  318.026  396.353   91.617    8.089
  318.276  396.931   98.448    8.067
  318.526  399.535  101.592    8.092
  318.776  403.844  104.557    8.101
  319.026  411.166  106.230    8.151
  319.276  417.766  106.428    8.274
  319.526  407.399  104.293    8.462
  319.776  395.859  101.361    8.722
  320.026  384.251   98.675    9.072
  320.276  377.229   97.891    9.453
  320.526  373.677   97.660    9.843
  320.776  380.409  101.114   10.112
  321.026  365.657  102.418   10.275
  321.276  351.299   99.487   10.406
  321.526  348.075   93.116   10.383
  321.776  376.157   89.938   10.118
  322.026  372.539   91.612    9.901
  322.276  368.727   96.599    9.814
  322.526  365.044   98.703    9.815
  322.776  365.226   95.095    9.809
  323.026  367.176  101.250    9.737
  323.276  370.437  104.030    9.472
  323.526  377.300  102.323    9.336
  323.776  372.634  104.733    9.483
  324.026  370.982  104.747    9.654
  324.276  367.366   99.790    9.623
  324.526  353.465   97.964    9.261
  324.776  375.393   96.014    8.809
  325.026  401.381   95.413    8.390
  325.276  410.339   98.194    8.124
  325.526  400.696  100.724    7.770
  325.776  394.656  105.345    7.497
  326.026  395.229  103.517    7.037
  326.276  390.696  101.136    6.593
  326.526  413.410  100.417    6.207
  326.776  424.857   99.817    6.346
  327.026  385.806  103.885    6.671
  327.276  360.509  102.364    6.956
  327.526  370.056   97.099    7.281
  327.776  387.004   89.315    7.760
  328.026  394.654   84.787    7.527
  328.276  376.300   90.573    7.067
  328.526  373.665   88.134    6.914
  328.776  394.871   90.052    6.981
  329.026  391.647   92.951    7.063
  329.276  390.714   95.484    7.146
  329.526  389.588   91.692    7.163
  329.776  386.232   93.672    7.149
  330.026  377.180   92.766    7.118
  330.276  387.448   91.246    7.039
  330.526  392.082   90.586    7.016
  330.776  390.956   92.627    7.066
  331.026  391.791   99.334    7.237
  331.276  382.346  100.516    7.352
  331.526  393.597   97.155    7.556
  331.776  383.953   93.854    7.768
  332.026  369.071   92.395    7.697
  332.276  393.160   94.988    7.455
  332.526  397.729  100.406    7.238
  332.776  400.661  105.027    7.167
  333.026  399.467  104.244    7.055
  333.276  381.900  100.637    7.348
  333.526  366.951   97.091    8.070
  333.776  368.968   91.764    8.783
  334.026  368.625   89.568   10.233
  334.276  319.815   87.311   11.521
  334.526  361.915   83.949   12.234
  334.776  374.280   87.464   11.920
  335.026  363.916   89.628   11.161
