~VERSION INFORMATION
 VERS.                 2.0:   CWLS LOG ASCII STANDARD -VERSION 2.0
 WRAP.                  NO:   ONE LINE PER DEPTH STEP
~WELL INFORMATION BLOCK
#MNEM.UNIT           DATA                    DESCRIPTION OF MNEMONIC
#---------    -------------------            -------------------------------
# Generated from Intellog Unique Number	CW_76_78/WELL/2571
WELL.         07-07-078-23W4                 : Well_name    - WELL
LOC .         00/07-07-078-23W4/0            : Location     - LOCATION
UWI .         00/07-07-078-23W4/0            : Uwi          - UNIQUE WELL ID
ENTR.         MAX                            : Entered      - ENTERED BY
SRVC.         WESTERN ATLAS                  : Scn          - SERVICE COMPANY
STRT.M        290                            : top_depth    - START DEPTH
STOP.M        562                            : bot_depth    - STOP DEPTH
STEP.M        0.25                           : increment    - STEP LENGTH
 NULL. -999.2500:NULL Value
~CURVE INFORMATION BLOCK
#MNEM UNIT       ERCB CURVE CODE    CURVE DESCRIPTION
#-----------   ------------------   ----------------------------------
DEPT.M        00 001 00 00         : DEPTH        - DEPTH
ILD .OHMM     00 120 00 00         : RESD         - DEEP RESISTIVITY (DIL)
NPHI.V/V      00 330 00 00         : PHIN         - NEUTRON POROSITY (SANDSTONE)
DPHI.V/V      00 890 00 00         : PHID         - DENSITY POROSITY (SANDSTONE)
CALI.MM       00 280 01 00         : CAL          - CALIPER
GR  .API      00 310 00 00         : GR           - GAMMA RAY
~PARAMETER INFORMATION
#MNEM.UNIT           DATA             DESCRIPTION OF MNEMONIC
#---------         -----------     ------------------------------
GL  .M        601.9                : gl           - GROUND LEVEL ELEVATION
EREF.M        606                  : kb           - ELEVATION OF DEPTH REFERENCE
DATM.M        601.9                : datum        - DATUM ELEVATION
TDD .M        566                  : tdd          - TOTAL DEPTH DRILLER
RUN .         ONE                  : Run          - RUN NUMBER
ENG .         BILL                 : Engineer     - RECORDING ENGINEER
WIT .         JIM                  : Witness      - WITNESSED BY
MUD .         GEL                  : Mud_type     - MUD TYPE
MATR.         SANDSTONE            : Logunit      - NEUTRON MATRIX
TMAX.C        27                   : BHT          - MAXIMUM RECORDED TEMPERATURE
BHTD.M        566                  : BHTDEP       - MAXIMUM RECORDED TEMPERATURE
RMT .C        20                   : MDTP         - TEMPERATURE OF MUD
MUDD.KG/M     1110                 : MWT          - MUD DENSITY
NEUT.         1                    : NEUTRON      - NEUTRON TYPE
RESI.         0                    : RESIST       - RESISTIVITY TYPE
RM  .OHMM     5                    : RM           - RESISTIVITY OF MUD
RMC .OHMM     5.5                  : RMC          - RESISTIVITY OF MUD CAKE
RMF .OHMM     4.8                  : RMF          - RESISTIVITY OF MUD FILTRATE
SUFT.C        -20                  : SUFT         - SURFACE TEMPERATURE
~A  DEPTH     RESD     PHIN     PHID      CAL       GR
# ...
  436.000    8.862    0.336    0.174  205.307  100.336
  436.250    8.698    0.330    0.177  205.773  102.978
  436.500    8.535    0.326    0.173  205.738  107.990
  436.750    8.377    0.330    0.172  206.204  101.757
  437.000    8.221    0.336    0.175  206.662  108.248
  437.250    8.143    0.343    0.185  207.124  109.411
  437.500    8.140    0.358    0.193  207.586  106.436
  437.750    8.137    0.351    0.189  208.048  114.108
  438.000    8.210    0.333    0.180  208.514  117.344
  438.250    8.436    0.332    0.179  207.983  117.029
  438.500    8.668    0.334    0.168  206.966  111.388
  438.750    8.826    0.338    0.146  206.442  107.524
  439.000    8.986    0.327    0.145  205.429  108.095
  439.250    9.150    0.328    0.153  204.901  108.370
  439.500    9.232    0.328    0.156  204.870  106.875
  439.750    9.228    0.326    0.158  204.843  106.858
  440.000    8.891    0.326    0.158  204.804  108.316
  440.250    8.107    0.332    0.153  205.266  108.296
  440.500    7.740    0.326    0.157  206.221  104.136
  440.750    7.188    0.328    0.157  207.180  108.261
  441.000    7.188    0.353    0.188  209.121  113.268
  441.250    6.986    0.383    0.191  211.058  109.402
  441.500    6.921    0.364    0.203  211.031  109.386
  441.750    7.047    0.348    0.190  210.503  106.707
  442.000    7.443    0.335    0.147  209.490  106.391
  442.250    7.720    0.326    0.152  206.994  108.149
  442.500    7.933    0.320    0.165  203.497  113.157
  442.750    8.152    0.311    0.158  202.487  114.913
  443.000    8.454    0.309    0.148  202.950  110.751
  443.250    9.014    0.307    0.149  205.876  109.549
  443.500   10.061    0.290    0.152  206.338  106.575
  443.750   12.427    0.271    0.148  205.818   96.795
  444.000   16.521    0.246    0.142  204.801   86.422
  444.250   19.133    0.217    0.009  204.277   76.642
  444.500   21.357    0.206    0.004  203.257   78.398
  444.750   22.979    0.319    0.170  202.729   85.774
  445.000   23.182    0.314    0.144  202.729   89.894
  445.250   21.729    0.322    0.193  202.663   90.468
  445.500   17.580    0.335    0.199  202.139   92.815
  445.750   14.354    0.343    0.182  202.116   99.306
  446.000   12.851    0.338    0.199  202.085  100.471
  446.250   12.611    0.333    0.208  201.561  101.340
  446.500   12.607    0.328    0.208  201.526  105.758
  446.750   12.954    0.309    0.165  201.002   91.241
  447.000   13.190    0.288    0.100  200.474   89.152
  447.250   13.186    0.289    0.139  200.443   91.798
  447.500   12.704    0.311    0.147  200.905   98.582
  447.750   11.908    0.314    0.126  202.353  100.040
  448.000   10.858    0.317    0.166  202.819  102.682
  448.250   10.084    0.326    0.181  202.788  101.778
  448.500    9.896    0.329    0.193  202.757   94.362
  448.750    9.893    0.326    0.196  202.722   94.048
  449.000    9.889    0.326    0.174  202.722  101.424
  449.250    9.977    0.322    0.161  202.160  106.436
  449.500   10.065    0.333    0.157  202.629  100.795
  449.750   10.248    0.339    0.167  203.088  104.920
  450.000   10.245    0.330    0.163  203.550  103.127
  450.250   10.147    0.313    0.163  203.522  103.108
  450.500   10.051    0.308    0.160  203.491  106.343
  450.750   10.047    0.295    0.119  203.950   95.378
  451.000   10.043    0.311    0.145  204.408   93.287
  451.250    9.948    0.302    0.132  204.874   94.749
  451.500    9.673    0.300    0.105  204.346   91.771
  451.750    9.406    0.311    0.133  202.343   91.754
  452.000    9.147    0.317    0.153  199.847   99.722
  452.250    8.977    0.322    0.159  198.341  105.619
  452.500    8.811    0.328    0.169  198.803  102.051
  452.750    8.567    0.335    0.163  200.740  101.737
  453.000    8.486    0.343    0.164  202.188  103.493
  453.250    8.483    0.337    0.165  203.636  101.104
  453.500    8.480    0.325    0.173  205.565  101.085
  453.750    8.555    0.329    0.179  206.039  103.435
  454.000    8.552    0.330    0.178  204.525  104.008
  454.250    8.549    0.330    0.167  203.019  101.621
  454.500    8.390    0.333    0.166  200.030  101.309
  454.750    8.158    0.336    0.163  199.013  105.431
  455.000    8.156    0.342    0.154  199.968  104.523
  455.250    8.228    0.347    0.146  202.895  105.690
  455.500    8.455    0.350    0.138  204.836  107.444
  455.750    8.688    0.331    0.146  204.801  104.465
  456.000    8.846    0.326    0.140  203.287  105.036
  456.250    8.925    0.320    0.146  202.274  104.726
  456.500    9.003    0.313    0.166  202.240  104.409
  456.750    9.001    0.321    0.172  202.212  104.095
  457.000    9.080    0.317    0.171  202.178  103.783
  457.250    9.077    0.323    0.152  202.643  101.100
  457.500    9.073    0.335    0.164  203.102   96.644
  457.750    8.905    0.331    0.152  203.568   95.738
  458.000    8.660    0.324    0.141  204.026  100.748
  458.250    8.267    0.321    0.125  204.480  109.899
  458.500    8.114    0.327    0.124  204.457  109.881
  458.750    8.111    0.336    0.134  204.426  117.257
  459.000    8.107    0.334    0.137  204.395  114.872
  459.250    8.331    0.332    0.139  204.360  103.613
  459.500    8.640    0.330    0.151  203.343  103.299
  459.750    8.879    0.336    0.155  202.823  105.348
  460.000    9.124    0.333    0.154  202.287  110.065
  460.250    9.037    0.338    0.152  202.264  105.015
  460.500    8.869    0.342    0.141  202.264   98.785
  460.750    8.785    0.336    0.119  202.198  101.133
  461.000    8.621    0.325    0.126  202.163  107.918
  461.250    8.618    0.324    0.154  203.126  114.111
  461.500    8.537    0.324    0.164  203.584  114.679
  461.750    8.537    0.315    0.159  204.543  110.228
  462.000    8.530    0.319    0.151  205.498  103.702
  462.250    8.372    0.327    0.160  205.960  100.129
  462.500    8.368    0.330    0.169  206.911  104.846
  462.750    8.443    0.336    0.166  207.862  110.447
  463.000    8.437    0.345    0.162  208.324  113.387
  463.250    8.593    0.329    0.168  207.300  110.410
  463.500    8.994    0.322    0.176  206.294  105.659
  463.750    9.328    0.320    0.179  204.291  102.387
  464.000    9.854    0.317    0.183  203.271  100.591
  464.250   10.602    0.322    0.185  202.250   99.978
  464.500   11.513    0.303    0.191  201.722  100.850
  464.750   13.332    0.296    0.192  201.699  101.718
  465.000   15.299    0.293    0.178  201.660   95.784
  465.250   16.920    0.284    0.153  202.619   84.525
  465.500   17.229    0.274    0.022  203.085   76.222
  465.750   16.753    0.263    0.038  203.543   83.007
  466.000   16.143    0.293    0.074  204.494   85.059
  466.250   14.856    0.314    0.141  204.463   88.885
  466.500   13.056    0.309    0.167  203.450   93.304
  466.750   10.181    0.310    0.156  202.429   98.609
  467.000    9.114    0.319    0.162  202.891  105.394
  467.250    8.386    0.323    0.170  204.832  108.038
  467.500    8.384    0.320    0.172  207.270  107.132
  467.750    8.776    0.299    0.180  210.197  111.550
  468.000    9.706    0.282    0.198  210.166  111.827
  468.250   12.668    0.256    0.194  208.155  108.851
  468.500   15.362    0.230    0.166  207.639   94.632
  468.750   18.799    0.191    0.059  207.608   80.117
  469.000   20.412    0.216   -0.009  207.080   80.986
  469.250   20.034    0.252    0.073  206.056   87.181
  469.500   18.436    0.289    0.155  205.535   99.882
  469.750   15.053    0.301    0.152  204.522  109.328
  470.000   13.601    0.300    0.152  203.998  110.197
  470.250   12.401    0.296    0.158  202.974  110.770
  470.500   11.411    0.297    0.146  202.951  111.045
  470.750   10.794    0.298    0.152  203.906  113.099
  471.000   10.212    0.299    0.157  206.336  114.560
  471.250    9.839    0.302    0.160  209.263  113.356
  471.500    9.835    0.308    0.154  211.697  116.001
  471.750   10.583    0.320    0.154  211.658  117.457
  472.000   12.833    0.300    0.167  210.649  114.183
  472.250   14.726    0.286    0.181  208.646  110.028
