~VERSION INFORMATION
 VERS.                 2.0:   CWLS LOG ASCII STANDARD -VERSION 2.0
 WRAP.                  NO:   ONE LINE PER DEPTH STEP
~WELL INFORMATION BLOCK
#MNEM.UNIT           DATA                    DESCRIPTION OF MNEMONIC
#---------    -------------------            -------------------------------
# Generated from Intellog Unique Number	CS_73_76/WELL/1064
WELL.         BRALORNE RES                   : Well_name    - WELL
LOC .         00/02-27-076-14W4/0            : Location     - LOCATION
UWI .         00/02-27-076-14W4/0            : Uwi          - UNIQUE WELL ID
ENTR.         T                              : Entered      - ENTERED BY
SRVC.         SCHLUMBERGER                   : Scn          - SERVICE COMPANY
STRT.M        290                            : top_depth    - START DEPTH
STOP.M        520                            : bot_depth    - STOP DEPTH
STEP.M        0.25                           : increment    - STEP LENGTH
 NULL. -999.2500:NULL Value
~CURVE INFORMATION BLOCK
#MNEM UNIT       ERCB CURVE CODE    CURVE DESCRIPTION
#-----------   ------------------   ----------------------------------
DEPT.M        00 001 00 00         : DEPTH        - DEPTH
GR  .API      00 310 00 00         : GR           - GAMMA RAY
NPHI.V/V      00 330 00 00         : PHIN         - NEUTRON POROSITY (SANDSTONE)
DPHI.V/V      00 890 00 00         : PHID         - DENSITY POROSITY (SANDSTONE)
ILD .OHMM     00 120 00 00         : RESD         - DEEP RESISTIVITY (DIL)
~PARAMETER INFORMATION
#MNEM.UNIT           DATA             DESCRIPTION OF MNEMONIC
#---------         -----------     ------------------------------
GL  .M        676.6                : gl           - GROUND LEVEL ELEVATION
EREF.M        679.9                : kb           - ELEVATION OF DEPTH REFERENCE
DATM.M        679.9                : datum        - DATUM ELEVATION
TDD .M        525                  : tdd          - TOTAL DEPTH DRILLER
RUN .         ONE                  : Run          - RUN NUMBER
ENG .         BILL                 : Engineer     - RECORDING ENGINEER
WIT .         JIM                  : Witness      - WITNESSED BY
MUD .         GEL                  : Mud_type     - MUD TYPE
MATR.         SANDSTONE            : Logunit      - NEUTRON MATRIX
TMAX.C        21                   : BHT          - MAXIMUM RECORDED TEMPERATURE
BHTD.M        525                  : BHTDEP       - MAXIMUM RECORDED TEMPERATURE
MATR.         1                    : LOGUNIT      - NEUTRON MATRIX
RMT .C        10                   : MDTP         - TEMPERATURE OF MUD
NEUT.         1                    : NEUTRON      - NEUTRON TYPE
RESI.         3.1                  : RESIST       - RESISTIVITY TYPE
RMC .OHMM     3                    : RMC          - RESISTIVITY OF MUD CAKE
RMF .OHMM     3.3                  : RMF          - RESISTIVITY OF MUD FILTRATE
SUFT.C        15                   : SUFT         - SURFACE TEMPERATURE
~A  DEPTH       GR     PHIN     PHID     RESD
# ...
  377.000   71.684    0.442    0.343   14.914
  377.250   72.249    0.449    0.336   14.615
  377.500   77.179    0.458    0.325   14.330
  377.750   80.838    0.421    0.303   14.046
  378.000   83.268    0.394    0.256   12.283
  378.250   85.712    0.378    0.236   11.160
  378.500   84.413    0.372    0.157   10.140
  378.750   77.519    0.361    0.145   10.321
  379.000   69.383    0.341    0.185   10.712
  379.250   71.177    0.341    0.219   11.331
  379.500   76.715    0.375    0.234   11.979
  379.750   82.253    0.389    0.242   11.967
  380.000   86.547    0.404    0.239   11.084
  380.250   90.220    0.414    0.237    9.513
  380.500   91.393    0.403    0.228    7.857
  380.750   91.986    0.377    0.210    8.306
  381.000   93.173    0.363    0.197    8.461
  381.250   93.739    0.330    0.192    8.780
  381.500   91.196    0.334    0.198    8.939
  381.750   89.275    0.370    0.201    8.277
  382.000   94.191    0.396    0.203    6.585
  382.250   98.472    0.409    0.210    5.441
  382.500   98.430    0.416    0.217    4.760
  382.750  102.103    0.418    0.225    4.008
  383.000  106.411    0.421    0.233    3.312
  383.250  108.827    0.426    0.229    2.842
  383.500  108.149    0.429    0.226    2.733
  383.750  108.107    0.432    0.221    2.890
  384.000  110.523    0.428    0.219    3.056
  384.250  112.967    0.424    0.214    3.173
  384.500  114.761    0.419    0.206    3.551
  384.750  115.327    0.416    0.208    3.901
  385.000  112.784    0.414    0.221    4.536
  385.250  109.620    0.415    0.233    5.477
  385.500  104.577    0.415    0.247    6.132
  385.750  101.413    0.416    0.259    7.130
  386.000   98.871    0.410    0.273    8.135
  386.250   96.964    0.403    0.284    8.933
  386.500   93.786    0.409    0.287    9.449
  386.750   90.636    0.414    0.278    9.804
  387.000   85.607    0.392    0.264   10.170
  387.250   79.942    0.392    0.265   10.550
  387.500   77.400    0.400    0.281   10.744
  387.750   74.843    0.402    0.293   10.939
  388.000   71.693    0.395    0.301   10.925
  388.250   69.151    0.388    0.301   10.714
  388.500   67.230    0.390    0.291    9.734
  388.750   88.942    0.400    0.279    6.051
  389.000   95.102    0.424    0.272    4.295
  389.250  105.612    0.465    0.268    3.686
  389.500  113.014    0.475    0.263    3.103
  389.750  119.187    0.472    0.261    2.986
  390.000  123.482    0.455    0.260    2.764
  390.250  120.940    0.454    0.260    2.709
  390.500  120.248    0.464    0.260    2.656
  390.750  120.191    0.491    0.263    2.604
  391.000  120.135    0.499    0.263    2.601
  391.250  118.822    0.507    0.262    2.648
  391.500  118.130    0.515    0.258    2.696
  391.750  118.087    0.516    0.255    2.961
  392.000  118.045    0.481    0.251    3.132
  392.250  116.124    0.466    0.252    3.506
  392.500  114.825    0.444    0.254    3.925
  392.750  113.526    0.419    0.254    4.650
  393.000  111.605    0.403    0.253    5.617
  393.250  107.197    0.402    0.248    7.895
  393.500   96.561    0.403    0.238    8.841
  393.750   90.896    0.399    0.225   10.277
  394.000   88.354    0.389    0.204   11.501
  394.250   85.190    0.366    0.189   12.398
  394.500   82.040    0.297    0.173   12.861
  394.750   77.618    0.287    0.158   13.101
  395.000   73.197    0.293    0.171   13.085
  395.250   72.533    0.309    0.204   12.822
  395.500   72.477    0.370    0.232   12.107
  395.750   80.515    0.391    0.235   10.994
  396.000   87.918    0.392    0.252   10.579
  396.250   92.198    0.396    0.269   10.175
  396.500   89.048    0.404    0.278    9.600
  396.750   84.641    0.412    0.281    9.228
  397.000   79.584    0.415    0.278    9.223
  397.250   83.271    0.408    0.274    8.866
  397.500   88.201    0.402    0.273    8.695
  397.750   90.631    0.404    0.275    8.363
  398.000   90.575    0.408    0.273    8.350
  398.250   91.126    0.409    0.272    8.504
  398.500   93.556    0.404    0.271    8.497
  398.750   97.229    0.395    0.270    8.488
  399.000  100.281    0.385    0.268    8.475
  399.250  100.860    0.383    0.265    8.471
  399.500   95.817    0.380    0.264    8.625
  399.750   92.046    0.377    0.245    8.779
  400.000   91.368    0.373    0.225    9.281
  400.250   95.041    0.360    0.214    9.635
  400.500   94.985    0.277    0.196   10.992
  400.750   92.442    0.264    0.165   12.302
  401.000   86.156    0.274    0.177   12.765
  401.250   78.641    0.285    0.202   12.512
  401.500   75.477    0.306    0.231   11.365
  401.750   81.015    0.366    0.245   10.728
  402.000   84.688    0.388    0.249    9.564
  402.250   87.740    0.394    0.249    9.028
  402.500   90.791    0.395    0.248    8.681
  402.750   92.599    0.400    0.252    8.507
  403.000   93.772    0.402    0.257    8.502
  403.250   89.379    0.397    0.263    8.494
  403.500   79.999    0.385    0.267    8.483
  403.750   74.349    0.390    0.275    8.802
  404.000   83.616    0.395    0.281    8.961
  404.250   89.140    0.395    0.285    8.952
  404.500   86.611    0.390    0.287    9.117
  404.750   82.826    0.392    0.289    9.282
  405.000   87.120    0.396    0.289    9.272
  405.250   92.022    0.399    0.287    9.261
  405.500   90.102    0.394    0.283    9.079
  405.750   88.802    0.388    0.281    8.730
  406.000   88.124    0.381    0.280    8.724
  406.250   88.082    0.377    0.280    8.551
  406.500   89.241    0.377    0.281    8.542
  406.750   89.213    0.377    0.284    8.531
  407.000   88.535    0.376    0.279    8.688
  407.250   87.221    0.376    0.268    9.013
  407.500   86.543    0.368    0.255    9.174
  407.750   84.623    0.362    0.236    9.342
  408.000   80.837    0.361    0.198    9.330
  408.250   75.808    0.366    0.181    9.325
  408.500   73.266    0.368    0.186    8.635
  408.750   73.831    0.373    0.210    7.992
  409.000   88.085    0.377    0.220    7.837
  409.250   92.379    0.383    0.232    7.119
  409.500   96.052    0.396    0.239    6.718
  409.750   98.482    0.408    0.248    6.101
  410.000   99.669    0.418    0.262    5.871
  410.250  101.449    0.432    0.263    5.436
  410.500  102.650    0.454    0.247    5.228
  410.750  103.837    0.437    0.232    5.222
  411.000  103.781    0.424    0.230    5.318
  411.250  101.860    0.409    0.231    5.518
  411.500  103.047    0.409    0.231    5.725
  411.750  104.869    0.407    0.234    6.169
  412.000  106.056    0.388    0.235    6.281
  412.250  102.878    0.371    0.228    6.274
  412.500  100.971    0.359    0.205    6.150
  412.750   95.320    0.365    0.185    6.145
  413.000   87.170    0.373    0.190    6.373
  413.250   90.221    0.379    0.216    6.370
  413.500   94.516    0.385    0.219    6.606
  413.750   97.567    0.390    0.229    6.603
  414.000   96.890    0.395    0.236    6.469
  414.250   94.969    0.404    0.245    6.462
  414.500   93.655    0.404    0.255    6.457
  414.750   92.992    0.402    0.253    6.452
  415.000   91.678    0.403    0.239    6.695
  415.250   89.771    0.403    0.231    6.945
  415.500   88.472    0.381    0.237    7.206
  415.750   92.145    0.365    0.242    7.339
  416.000   98.304    0.368    0.251    7.472
  416.250   99.491    0.375    0.256    7.751
  416.500   97.570    0.382    0.264    8.042
  416.750   95.027    0.392    0.278    8.186
  417.000   90.620    0.398    0.294    8.182
  417.250   84.970    0.389    0.309    8.171
  417.500   78.062    0.372    0.297    8.165
  417.750   71.777    0.382    0.284    8.001
  418.000   67.383    0.390    0.286    7.843
  418.250   62.976    0.401    0.299    7.837
  418.500   60.434    0.406    0.312    7.680
  418.750   59.120    0.407    0.324    7.674
  419.000   58.456    0.403    0.324    7.520
  419.250   57.129    0.388    0.316    7.513
  419.500   56.437    0.379    0.313    7.507
  419.750   55.787    0.375    0.308    7.497
  420.000   55.731    0.370    0.307    7.349
  420.250   56.282    0.365    0.307    7.339
