~VERSION INFORMATION
 VERS.                 2.0:   CWLS LOG ASCII STANDARD -VERSION 2.0
 WRAP.                  NO:   ONE LINE PER DEPTH STEP
~WELL INFORMATION BLOCK
#MNEM.UNIT           DATA                    DESCRIPTION OF MNEMONIC
#---------    -------------------            -------------------------------
# Generated from Intellog Unique Number	CS_67_68/WELL/783
WELL.         INTER-CITY MANUFACTURING       : Well_name    - WELL
LOC .         00/07-34-068-13W4/0            : Location     - LOCATION
UWI .         00/07-34-068-13W4/0            : Uwi          - UNIQUE WELL ID
ENTR.         SP                             : Entered      - ENTERED BY
SRVC.         SCHLUMBERGER                   : Scn          - SERVICE COMPANY
STRT.M        301.752                        : top_depth    - START DEPTH
STOP.M        472.252                        : bot_depth    - STOP DEPTH
STEP.M        0.25                           : increment    - STEP LENGTH
 NULL. -999.2500:NULL Value
~CURVE INFORMATION BLOCK
#MNEM UNIT       ERCB CURVE CODE    CURVE DESCRIPTION
#-----------   ------------------   ----------------------------------
DEPT.M        00 001 00 00         : DEPTH        - DEPTH
GR  .API      00 310 00 00         : GR           - GAMMA RAY
DPHI.V/V      00 890 00 00         : PHID         - DENSITY POROSITY (SANDSTONE)
NPHI.V/V      00 330 00 00         : PHIN         - NEUTRON POROSITY (SANDSTONE)
ILD .OHMM     00 120 00 00         : RESD         - DEEP RESISTIVITY (DIL)
~PARAMETER INFORMATION
#MNEM.UNIT           DATA             DESCRIPTION OF MNEMONIC
#---------         -----------     ------------------------------
GL  .M        587.045              : gl           - GROUND LEVEL ELEVATION
EREF.M        589.788              : kb           - ELEVATION OF DEPTH REFERENCE
DATM.M        587.045              : datum        - DATUM ELEVATION
TDD .M        472.745              : tdd          - TOTAL DEPTH DRILLER
RUN .         ONE                  : Run          - RUN NUMBER
ENG .         BILL                 : Engineer     - RECORDING ENGINEER
WIT .         JIM                  : Witness      - WITNESSED BY
MUD .         GEL                  : Mud_type     - MUD TYPE
MATR.         SANDSTONE            : Logunit      - NEUTRON MATRIX
TMAX.C        22.2222              : BHT          - MAXIMUM RECORDED TEMPERATURE
BHTD.M        472.745              : BHTDEP       - MAXIMUM RECORDED TEMPERATURE
MATR.         1                    : LOGUNIT      - NEUTRON MATRIX
RMT .C        25                   : MDTP         - TEMPERATURE OF MUD
NEUT.         1                    : NEUTRON      - NEUTRON TYPE
RESI.         0                    : RESIST       - RESISTIVITY TYPE
RMC .OHMM     0.25                 : RMC          - RESISTIVITY OF MUD CAKE
RMF .OHMM     0.25                 : RMF          - RESISTIVITY OF MUD FILTRATE
SUFT.C        15                   : SUFT         - SURFACE TEMPERATURE
~A  DEPTH       GR     PHID     PHIN     RESD
# ...
  388.752  125.777    0.215    0.499    3.792
  389.002  128.769    0.221    0.497    3.809
  389.252  130.751    0.225    0.490    3.932
  389.502  133.408    0.218    0.488    4.115
  389.752  136.131    0.206    0.494    4.224
  390.002  138.351    0.195    0.476    4.373
  390.252  137.851    0.199    0.463    4.517
  390.502  136.670    0.195    0.452    4.624
  390.752  137.114    0.183    0.454    4.701
  391.002  136.950    0.187    0.453    4.752
  391.252  135.787    0.206    0.451    4.790
  391.502  135.869    0.194    0.450    4.806
  391.752  137.385    0.178    0.455    4.828
  392.002  137.378    0.171    0.464    4.838
  392.252  136.954    0.167    0.470    4.851
  392.502  140.118    0.161    0.473    4.834
  392.752  143.032    0.179    0.464    4.683
  393.002  144.213    0.197    0.446    4.320
  393.252  144.659    0.190    0.436    3.946
  393.502  144.804    0.187    0.437    3.636
  393.752  149.133    0.196    0.466    3.337
  394.002  152.350    0.197    0.495    3.014
  394.252  153.240    0.200    0.523    2.609
  394.502  145.861    0.222    0.554    2.382
  394.752  140.078    0.235    0.580    2.207
  395.002  139.203    0.256    0.606    2.095
  395.252  137.974    0.237    0.574    2.115
  395.502  136.765    0.237    0.562    2.174
  395.752  140.993    0.258    0.563    2.240
  396.002  142.711    0.239    0.550    2.375
  396.252  140.799    0.231    0.532    2.611
  396.502  139.358    0.221    0.499    2.822
  396.752  136.917    0.211    0.504    3.066
  397.002  135.299    0.234    0.497    3.176
  397.252  131.384    0.247    0.477    3.319
  397.502  128.231    0.239    0.464    3.410
  397.752  126.196    0.222    0.464    3.443
  398.002  125.105    0.215    0.480    3.493
  398.252  124.411    0.230    0.497    3.532
  398.502  123.152    0.225    0.491    3.513
  398.752  122.200    0.222    0.489    3.433
  399.002  117.572    0.225    0.494    3.329
  399.252  111.747    0.239    0.482    3.229
  399.502  107.794    0.248    0.471    3.129
  399.752  104.259    0.204    0.458    2.968
  400.002  102.929    0.187    0.461    2.857
  400.252  105.644    0.191    0.481    2.757
  400.502  103.335    0.218    0.477    2.640
  400.752  101.324    0.235    0.469    2.431
  401.002  101.181    0.257    0.472    2.224
  401.252   97.135    0.279    0.466    2.468
  401.502   90.678    0.305    0.454    2.330
  401.752   85.825    0.325    0.466    2.176
  402.002   84.359    0.327    0.476    2.036
  402.252   85.549    0.319    0.471    1.971
  402.502   85.597    0.314    0.454    1.940
  402.752   84.676    0.316    0.446    1.921
  403.002   84.457    0.311    0.446    1.933
  403.252   84.558    0.311    0.456    1.959
  403.502   84.169    0.304    0.462    2.008
  403.752   84.958    0.288    0.455    2.053
  404.002   87.953    0.284    0.455    2.123
  404.252   90.842    0.277    0.459    2.221
  404.502   93.698    0.278    0.451    2.304
  404.752   96.249    0.283    0.445    2.359
  405.002   98.563    0.287    0.444    2.388
  405.252   97.256    0.297    0.447    2.394
  405.502   96.486    0.300    0.451    2.350
  405.752   97.152    0.298    0.445    2.296
  406.002   97.171    0.292    0.438    2.241
  406.252   96.835    0.285    0.444    2.223
  406.502   98.968    0.275    0.456    2.242
  406.752  101.106    0.260    0.452    2.310
  407.002  102.714    0.234    0.412    2.486
  407.252   98.351    0.181    0.296    2.626
  407.502   86.381    0.072    0.236    2.902
  407.752   78.547    0.054    0.228    3.346
  408.002   83.124    0.098    0.259    3.703
  408.252   89.030    0.178    0.418    3.877
  408.502   92.743    0.212    0.443    3.548
  408.752   95.694    0.276    0.459    2.987
  409.002   98.217    0.302    0.463    2.617
  409.252   99.203    0.293    0.472    2.405
  409.502   97.378    0.287    0.483    2.276
  409.752   94.849    0.292    0.482    2.299
  410.002   92.130    0.293    0.476    2.443
  410.252   90.400    0.288    0.492    2.794
  410.502   93.219    0.277    0.506    3.202
  410.752   95.194    0.261    0.464    3.558
  411.002   95.683    0.192    0.333    3.857
  411.252   93.387    0.147    0.343    3.897
  411.502   91.729    0.161    0.429    3.605
  411.752   90.930    0.245    0.465    3.019
  412.002   92.346    0.289    0.479    2.727
  412.252   94.481    0.296    0.479    2.622
  412.502   96.531    0.298    0.485    2.541
  412.752   98.955    0.301    0.500    2.478
  413.002  102.112    0.296    0.502    2.444
  413.252  105.394    0.292    0.492    2.411
  413.502  105.501    0.289    0.483    2.397
  413.752  101.525    0.276    0.488    2.503
  414.002   98.581    0.278    0.496    2.505
  414.252   96.074    0.271    0.486    2.519
  414.502   96.110    0.267    0.485    2.548
  414.752   99.499    0.270    0.486    2.580
  415.002  103.583    0.277    0.477    2.624
  415.252  108.655    0.278    0.468    2.682
  415.502  113.000    0.258    0.465    2.748
  415.752  118.202    0.238    0.456    2.848
  416.002  123.893    0.214    0.440    2.999
  416.252  127.998    0.193    0.445    3.191
  416.502  132.777    0.183    0.440    3.387
  416.752  137.629    0.192    0.432    3.645
  417.002  141.094    0.216    0.445    3.893
  417.252  141.400    0.208    0.461    4.050
  417.502  137.631    0.207    0.471    4.096
  417.752  133.567    0.205    0.463    4.100
  418.002  130.332    0.201    0.461    4.118
  418.252  129.898    0.225    0.461    4.082
  418.502  134.570    0.230    0.483    3.994
  418.752  139.678    0.202    0.504    3.924
  419.002  145.065    0.205    0.532    3.743
  419.252  149.398    0.231    0.552    3.466
  419.502  147.334    0.250    0.582    3.209
  419.752  147.272    0.232    0.572    3.028
  420.002  149.932    0.211    0.565    2.899
  420.252  151.746    0.220    0.574    2.776
  420.502  152.461    0.209    0.565    2.702
  420.752  147.100    0.225    0.565    2.643
  421.002  143.012    0.241    0.594    2.580
  421.252  144.288    0.255    0.585    2.524
  421.502  146.799    0.249    0.578    2.476
  421.752  148.043    0.234    0.575    2.380
  422.002  145.816    0.229    0.569    2.248
  422.252  143.051    0.218    0.550    2.241
  422.502  138.524    0.213    0.535    2.383
  422.752  136.163    0.200    0.522    2.521
  423.002  140.195    0.191    0.507    2.636
  423.252  144.493    0.202    0.496    2.753
  423.502  143.665    0.191    0.481    2.892
  423.752  140.623    0.211    0.455    3.134
  424.002  132.185    0.209    0.438    3.425
  424.252  128.177    0.188    0.445    3.872
  424.502  122.546    0.160    0.438    4.416
  424.752  117.791    0.114    0.388    4.995
  425.002  111.953    0.103    0.350    5.356
  425.252  105.531    0.122    0.383    5.675
  425.502  115.589    0.130    0.420    5.874
  425.752  124.248    0.138    0.446    5.510
  426.002  131.170    0.162    0.446    4.842
  426.252  135.688    0.183    0.448    4.423
  426.502  136.256    0.192    0.441    4.192
  426.752  130.592    0.196    0.439    4.057
  427.002  125.839    0.194    0.438    3.974
  427.252  123.119    0.152    0.437    3.989
  427.502  121.413    0.146    0.449    4.097
  427.752  120.885    0.175    0.458    4.539
  428.002  120.626    0.190    0.446    5.363
  428.252  117.044    0.157    0.371    6.063
  428.502  110.080    0.103    0.351    6.717
  428.752  104.986    0.113    0.367    6.936
  429.002  100.746    0.149    0.413    5.864
  429.252  121.241    0.167    0.463    5.267
  429.502  125.616    0.179    0.464    4.845
  429.752  125.834    0.165    0.458    4.585
  430.002  126.948    0.152    0.457    4.433
  430.252  129.465    0.170    0.445    4.331
  430.502  130.390    0.186    0.438    4.310
  430.752  129.040    0.189    0.446    4.296
  431.002  130.698    0.197    0.441    4.281
  431.252  132.475    0.195    0.459    4.270
  431.502  134.069    0.186    0.472    4.252
  431.752  134.657    0.181    0.462    4.226
  432.002  133.640    0.172    0.452    4.242
