~VERSION INFORMATION
 VERS.                 2.0:   CWLS LOG ASCII STANDARD -VERSION 2.0
 WRAP.                  NO:   ONE LINE PER DEPTH STEP
~WELL INFORMATION BLOCK
#MNEM.UNIT           DATA                    DESCRIPTION OF MNEMONIC
#---------    -------------------            -------------------------------
# Generated from Intellog Unique Number	CX_WELLS/WELL/2729
WELL.         05-14-080-12W4                 : Well_name    - WELL
LOC .         00/05-14-080-12W4/0            : Location     - LOCATION
UWI .         00/05-14-080-12W4/0            : Uwi          - UNIQUE WELL ID
ENTR.         T                              : Entered      - ENTERED BY
SRVC.         SCHLUMBERGER                   : Scn          - SERVICE COMPANY
STRT.M        260                            : top_depth    - START DEPTH
STOP.M        485                            : bot_depth    - STOP DEPTH
STEP.M        0.25                           : increment    - STEP LENGTH
 NULL. -999.2500:NULL Value
~CURVE INFORMATION BLOCK
#MNEM UNIT       ERCB CURVE CODE    CURVE DESCRIPTION
#-----------   ------------------   ----------------------------------
DEPT.M        00 001 00 00         : DEPTH        - DEPTH
GR  .API      00 310 00 00         : GR           - GAMMA RAY
NPHI.V/V      00 330 00 00         : PHIN         - NEUTRON POROSITY (SANDSTONE)
DPHI.V/V      00 890 00 00         : PHID         - DENSITY POROSITY (SANDSTONE)
ILD .OHMM     00 120 00 00         : RESD         - DEEP RESISTIVITY (DLL)
~PARAMETER INFORMATION
#MNEM.UNIT           DATA             DESCRIPTION OF MNEMONIC
#---------         -----------     ------------------------------
GL  .M        686                  : gl           - GROUND LEVEL ELEVATION
EREF.M        689.7                : kb           - ELEVATION OF DEPTH REFERENCE
DATM.M        689.7                : datum        - DATUM ELEVATION
TDD .M        495                  : tdd          - TOTAL DEPTH DRILLER
RUN .         ONE                  : Run          - RUN NUMBER
ENG .         BILL                 : Engineer     - RECORDING ENGINEER
WIT .         JIM                  : Witness      - WITNESSED BY
MUD .         GEL                  : Mud_type     - MUD TYPE
MATR.         SANDSTONE            : Logunit      - NEUTRON MATRIX
TMAX.C        0                    : BHT          - MAXIMUM RECORDED TEMPERATURE
BHTD.M        22                   : BHTDEP       - MAXIMUM RECORDED TEMPERATURE
MATR.         495                  : LOGUNIT      - NEUTRON MATRIX
RMT .C        1                    : MDTP         - TEMPERATURE OF MUD
NEUT.         17                   : NEUTRON      - NEUTRON TYPE
RESI.         1                    : RESIST       - RESISTIVITY TYPE
RMC .OHMM     4                    : RMC          - RESISTIVITY OF MUD CAKE
RMF .OHMM     3.9                  : RMF          - RESISTIVITY OF MUD FILTRATE
SUFT.C        3.8                  : SUFT         - SURFACE TEMPERATURE
SUFT.C        4                    : SUFT         - SURFACE TEMPERATURE
~A  DEPTH       GR     PHIN     PHID     RESD
# ...
  347.000   63.682    0.423    0.310   13.421
  347.250   63.127    0.416    0.312   13.435
  347.500   60.203    0.415    0.320   13.459
  347.750   58.469    0.428    0.323   13.717
  348.000   57.895    0.433    0.325   14.524
  348.250   57.935    0.429    0.325   14.808
  348.500   57.391    0.425    0.325   15.098
  348.750   56.827    0.425    0.325   15.410
  349.000   56.283    0.426    0.325   15.420
  349.250   56.313    0.428    0.325   15.442
  349.500   58.160    0.429    0.325   15.755
  349.750   59.370    0.431    0.323   15.771
  350.000   59.411    0.430    0.322   16.091
  350.250   58.877    0.432    0.320   16.108
  350.500   58.898    0.431    0.318   16.136
  350.750   58.938    0.437    0.317   16.158
  351.000   59.574    0.442    0.315   16.180
  351.250   59.615    0.452    0.313   15.335
  351.500   60.251    0.466    0.308   14.005
  351.750   62.672    0.475    0.305   12.566
  352.000   67.483    0.477    0.295   11.481
  352.250   71.084    0.477    0.286   10.294
  352.500   75.301    0.472    0.275    8.739
  352.750   78.932    0.464    0.275    8.285
  353.000   79.548    0.453    0.285    8.769
  353.250   79.588    0.452    0.291    9.103
  353.500   77.844    0.451    0.302    9.814
  353.750   74.315    0.451    0.312   10.380
  354.000   70.795    0.452    0.309   10.986
  354.250   69.626    0.453    0.304   11.417
  354.500   72.672    0.454    0.301   11.217
  354.750   75.678    0.456    0.302   10.832
  355.000   80.479    0.459    0.305   10.079
  355.250   85.270    0.461    0.307    9.205
  355.500   89.476    0.469    0.314    7.672
  355.750   95.468    0.493    0.318    6.636
  356.000  101.469    0.500    0.289    5.842
  356.250  105.080    0.511    0.262    5.240
  356.500  105.737    0.518    0.253    4.616
  356.750  106.362    0.531    0.240    4.372
  357.000  106.403    0.541    0.232    4.068
  357.250  106.434    0.540    0.228    3.652
  357.500  107.080    0.525    0.227    3.588
  357.750  107.110    0.527    0.223    3.466
  358.000  107.756    0.532    0.220    3.405
  358.250  108.402    0.538    0.225    3.411
  358.500  108.433    0.538    0.226    3.355
  358.750  108.464    0.544    0.228    3.357
  359.000  107.920    0.548    0.231    3.363
  359.250  107.376    0.554    0.233    3.368
  359.500  106.801    0.566    0.238    3.371
  359.750  105.067    0.567    0.243    3.376
  360.000  104.502    0.565    0.250    3.380
  360.250  102.173    0.564    0.256    3.386
  360.500  101.609    0.550    0.247    3.519
  360.750  100.459    0.525    0.247    3.589
  361.000   98.725    0.504    0.253    3.727
  361.250   96.386    0.480    0.258    4.019
  361.500   94.046    0.470    0.260    4.251
  361.750   92.887    0.468    0.261    4.666
  362.000   91.143    0.468    0.257    5.215
  362.250   87.028    0.466    0.252    5.830
  362.500   84.084    0.463    0.253    6.520
  362.750   80.544    0.460    0.257    6.770
  363.000   75.240    0.453    0.263    7.038
  363.250   74.685    0.444    0.270    6.794
  363.500   76.501    0.434    0.276    6.677
  363.750   82.503    0.457    0.276    5.993
  364.000   87.899    0.462    0.266    5.779
  364.250   93.890    0.489    0.255    5.378
  364.500   97.501    0.496    0.247    4.917
  364.750  100.517    0.506    0.251    4.744
  365.000  102.353    0.522    0.254    4.418
  365.250  102.989    0.518    0.255    4.340
  365.500  102.435    0.501    0.255    4.114
  365.750  101.881    0.498    0.256    3.969
  366.000  101.327    0.497    0.258    3.903
  366.250  100.783    0.512    0.262    3.767
  366.500  100.208    0.533    0.266    3.704
  366.750   99.654    0.543    0.267    3.641
  367.000   99.705    0.549    0.268    3.515
  367.250   99.746    0.522    0.262    3.457
  367.500   99.776    0.515    0.256    3.336
  367.750   99.232    0.515    0.254    3.049
  368.000   99.263    0.544    0.254    2.942
  368.250   98.124    0.544    0.252    2.739
  368.500   97.559    0.517    0.247    2.643
  368.750   96.420    0.514    0.249    2.551
  369.000   95.260    0.512    0.254    2.463
  369.250   93.516    0.508    0.260    2.423
  369.500   91.187    0.505    0.263    2.515
  369.750   90.038    0.497    0.265    2.711
  370.000   88.878    0.487    0.267    2.868
  370.250   87.729    0.479    0.268    3.265
  370.500   86.580    0.469    0.269    3.719
  370.750   86.025    0.467    0.267    4.159
  371.000   84.876    0.470    0.265    4.650
  371.250   84.322    0.473    0.257    6.723
  371.500   84.383    0.474    0.252    6.982
  371.750   84.414    0.472    0.259    6.865
  372.000   84.444    0.466    0.264    6.508
  372.250   85.090    0.464    0.265    6.280
  372.500   86.916    0.466    0.266    5.952
  372.750   90.527    0.477    0.265    5.639
  373.000   92.364    0.503    0.262    5.155
  373.250   92.394    0.509    0.262    4.975
  373.500   91.850    0.521    0.261    4.800
  373.750   91.901    0.521    0.255    4.720
  374.000   92.517    0.505    0.246    4.640
  374.250   93.152    0.501    0.245    4.647
  374.500   95.573    0.501    0.249    4.742
  374.750   97.399    0.501    0.251    4.835
  375.000   96.845    0.502    0.258    4.930
  375.250   93.911    0.506    0.260    5.121
  375.500   90.997    0.513    0.258    5.225
  375.750   91.017    0.519    0.252    5.231
  376.000   92.843    0.522    0.253    5.242
  376.250   94.074    0.526    0.254    5.247
  376.500   92.945    0.516    0.259    5.160
  376.750   91.191    0.491    0.262    5.166
  377.000   89.446    0.475    0.269    5.271
  377.250   87.097    0.462    0.280    5.473
  377.500   82.982    0.457    0.285    5.582
  377.750   72.887    0.453    0.269    5.909
  378.000   71.142    0.422    0.246    6.367
  378.250   65.828    0.380    0.103    6.987
  378.500   61.108    0.320    0.047    8.103
  378.750   55.794    0.340    0.075    8.894
  379.000   55.834    0.366    0.190    8.747
  379.250   73.727    0.415    0.248    8.441
  379.500   89.249    0.446    0.254    8.148
  379.750   93.465    0.480    0.244    7.722
  380.000   93.516    0.474    0.231    7.188
  380.250   92.347    0.461    0.220    6.938
  380.500   89.412    0.448    0.214    6.822
  380.750   88.858    0.446    0.225    6.704
  381.000   91.289    0.443    0.239    6.714
  381.250   93.720    0.437    0.245    6.728
  381.500   93.741    0.431    0.251    6.612
  381.750   93.792    0.432    0.254    6.501
  382.000   93.227    0.438    0.256    6.275
  382.250   93.863    0.463    0.258    5.947
  382.500   93.904    0.482    0.259    5.635
  382.750   93.945    0.491    0.260    5.243
  383.000   93.986    0.509    0.260    4.969
  383.250   94.037    0.515    0.257    4.624
  383.500   94.672    0.519    0.257    4.304
  383.750   96.488    0.525    0.257    4.006
  384.000   97.729    0.536    0.258    3.865
  384.250   97.770    0.536    0.259    3.731
  384.500   96.036    0.525    0.259    3.475
  384.750   94.271    0.518    0.260    3.353
  385.000   91.357    0.478    0.265    3.357
  385.250   89.008    0.466    0.267    3.360
  385.500   89.644    0.450    0.265    3.622
  385.750   92.064    0.458    0.259    3.902
  386.000   93.891    0.468    0.251    4.205
  386.250   96.917    0.469    0.245    4.788
  386.500   98.137    0.465    0.243    5.068
  386.750   98.188    0.460    0.245    5.362
  387.000   97.624    0.459    0.250    5.678
  387.250   97.070    0.459    0.251    5.787
  387.500   95.931    0.456    0.255    6.016
  387.750   95.366    0.453    0.258    6.131
  388.000   95.407    0.449    0.254    6.490
  388.250   95.448    0.442    0.249    6.869
  388.500   95.509    0.438    0.244    7.130
  388.750   95.540    0.433    0.239    7.687
  389.000   95.581    0.426    0.238    7.982
  389.250   95.632    0.421    0.234    8.449
  389.500   95.057    0.421    0.232    8.939
  389.750   94.513    0.423    0.192    9.283
  390.000   93.969    0.425    0.173    9.468
  390.250   93.999    0.430    0.199    9.312
