~VERSION INFORMATION
 VERS.                 2.0:   CWLS LOG ASCII STANDARD -VERSION 2.0
 WRAP.                  NO:   ONE LINE PER DEPTH STEP
~WELL INFORMATION BLOCK
#MNEM.UNIT           DATA                    DESCRIPTION OF MNEMONIC
#---------    -------------------            -------------------------------
# Generated from Intellog Unique Number	CW_79_81/WELL/288
WELL.         04-23-079-23W4                 : Well_name    - WELL
LOC .         00/04-23-079-23W4/0            : Location     - LOCATION
UWI .         00/04-23-079-23W4/0            : Uwi          - UNIQUE WELL ID
ENTR.         MAX                            : Entered      - ENTERED BY
SRVC.         COMPUTALOG                     : Scn          - SERVICE COMPANY
STRT.M        225                            : top_depth    - START DEPTH
STOP.M        477                            : bot_depth    - STOP DEPTH
STEP.M        0.25                           : increment    - STEP LENGTH
 NULL. -999.2500:NULL Value
~CURVE INFORMATION BLOCK
#MNEM UNIT       ERCB CURVE CODE    CURVE DESCRIPTION
#-----------   ------------------   ----------------------------------
DEPT.M        00 001 00 00         : DEPTH        - DEPTH
ILD .OHMM     00 120 00 00         : RESD         - DEEP RESISTIVITY (DIL)
NPHI.V/V      00 330 00 00         : PHIN         - NEUTRON POROSITY (SANDSTONE)
DPHI.V/V      00 890 00 00         : PHID         - DENSITY POROSITY (SANDSTONE)
CALI.MM       00 280 01 00         : CAL          - CALIPER
GR  .API      00 310 00 00         : GR           - GAMMA RAY
~PARAMETER INFORMATION
#MNEM.UNIT           DATA             DESCRIPTION OF MNEMONIC
#---------         -----------     ------------------------------
GL  .M        565.2                : gl           - GROUND LEVEL ELEVATION
EREF.M        570.2                : kb           - ELEVATION OF DEPTH REFERENCE
DATM.M        565.2                : datum        - DATUM ELEVATION
TDD .M        482                  : tdd          - TOTAL DEPTH DRILLER
RUN .         ONE                  : Run          - RUN NUMBER
ENG .         BILL                 : Engineer     - RECORDING ENGINEER
WIT .         JIM                  : Witness      - WITNESSED BY
MUD .         GEL                  : Mud_type     - MUD TYPE
MATR.         SANDSTONE            : Logunit      - NEUTRON MATRIX
TMAX.C        20                   : BHT          - MAXIMUM RECORDED TEMPERATURE
BHTD.M        482                  : BHTDEP       - MAXIMUM RECORDED TEMPERATURE
RMT .C        17.8                 : MDTP         - TEMPERATURE OF MUD
MUDD.KG/M     1080                 : MWT          - MUD DENSITY
NEUT.         1                    : NEUTRON      - NEUTRON TYPE
RESI.         0                    : RESIST       - RESISTIVITY TYPE
RM  .OHMM     7                    : RM           - RESISTIVITY OF MUD
RMC .OHMM     5.5                  : RMC          - RESISTIVITY OF MUD CAKE
RMF .OHMM     6                    : RMF          - RESISTIVITY OF MUD FILTRATE
SUFT.C        -5                   : SUFT         - SURFACE TEMPERATURE
~A  DEPTH     RESD     PHIN     PHID      CAL       GR
# ...
  371.000   18.721    0.396    0.160  235.750   82.402
  371.250   18.052    0.409    0.187  238.721   85.370
  371.500   18.052    0.418    0.197  240.710   86.265
  371.750   17.568    0.439    0.194  241.711   88.342
  372.000   16.940    0.443    0.193  243.211   88.352
  372.250   16.635    0.437    0.204  244.207   85.113
  372.500   16.486    0.435    0.207  247.184   83.646
  372.750   16.487    0.440    0.201  247.184   83.659
  373.000   16.191    0.445    0.199  247.714   80.715
  373.250   15.900    0.434    0.196  248.215   81.317
  373.500   15.614    0.439    0.188  248.236   83.689
  373.750   15.055    0.452    0.175  248.743   86.061
  374.000   14.650    0.456    0.180  249.253   87.845
  374.250   14.256    0.455    0.191  249.267   89.332
  374.500   13.999    0.452    0.192  249.288   87.570
  374.750   13.623    0.442    0.189  249.307   86.400
  375.000   13.500    0.443    0.186  249.324   85.819
  375.250   13.379    0.452    0.186  249.341   85.532
  375.500   13.380    0.471    0.183  249.356   85.838
  375.750   13.505    0.456    0.178  249.375   85.554
  376.000   13.630    0.437    0.173  249.390   84.382
  376.250   13.631    0.428    0.170  249.406   84.692
  376.500   13.633    0.432    0.177  249.425   85.584
  376.750   13.510    0.437    0.186  249.440   87.663
  377.000   13.267    0.435    0.190  249.459   90.035
  377.250   12.910    0.429    0.190  249.478   91.822
  377.500   12.562    0.427    0.187  249.495   91.829
  377.750   12.450    0.427    0.181  249.510   91.544
  378.000   12.338    0.420    0.175  249.036   91.556
  378.250   12.566    0.414    0.169  249.051   91.566
  378.500   12.799    0.414    0.174  248.578   86.849
  378.750   13.036    0.418    0.182  248.593   88.044
  379.000   13.278    0.425    0.184  248.609   90.119
  379.250   13.401    0.433    0.192  246.659   91.311
  379.500   13.403    0.443    0.204  244.214   93.684
  379.750   12.806    0.451    0.210  241.281   95.762
  380.000   12.014    0.437    0.196  240.801   92.227
  380.250   11.170    0.435    0.166  241.803   85.149
  380.500   10.869    0.430    0.169  238.868   86.933
  380.750   11.071    0.432    0.175  240.856   89.897
  381.000   11.589    0.436    0.173  240.381   90.499
  381.250   13.785    0.419    0.167  237.443   90.507
  381.500   14.430    0.385    0.147  234.508   86.677
  381.750   16.102    0.360    0.080  234.031   76.052
  382.000   18.807    0.363    0.079  232.076   72.813
  382.250   22.783    0.380    0.103  229.139   74.598
  382.500   27.349    0.391    0.185  226.204   76.674
  382.750   28.892    0.393    0.195  227.698   76.980
  383.000   28.632    0.403    0.205  230.176   75.219
  383.250   27.358    0.416    0.218  232.655   75.230
  383.500   25.902    0.429    0.229  234.641   76.717
  383.750   23.862    0.428    0.228  235.647   78.203
  384.000   22.592    0.408    0.224  235.172   80.872
  384.250   21.197    0.410    0.217  234.694   84.132
  384.500   20.438    0.418    0.195  233.728   87.099
  384.750   19.888    0.425    0.165  232.266   85.038
  385.000   20.073    0.423    0.165  226.867   81.507
  385.250   21.206    0.370    0.190  228.363   86.241
  385.500   22.401    0.336    0.153  227.397   85.365
  385.750   24.100    0.289    0.084  224.950   70.605
  386.000   27.389    0.272    0.059  223.000   61.754
  386.250   34.413    0.274    0.066  222.034   59.990
  386.500   35.696    0.305    0.152  223.031   60.001
  386.750   33.490    0.347    0.194  228.464   63.260
  387.000   30.852    0.387    0.218  232.914   67.998
  387.250   28.422    0.404    0.226  238.839   72.144
  387.500   26.666    0.404    0.212  238.858   75.111
  387.750   25.712    0.400    0.186  236.411   73.641
  388.000   25.249    0.417    0.184  237.907   68.039
  388.250   25.023    0.424    0.210  240.878   66.868
  388.500   25.025    0.422    0.231  241.880   68.356
  388.750   25.489    0.421    0.222  239.441   68.070
  389.000   27.675    0.418    0.219  238.960   67.197
  389.250   30.322    0.391    0.212  238.486   67.204
  389.500   37.070    0.332    0.185  238.503   64.556
  389.750   42.904    0.284    0.130  238.025   61.318
  390.000   51.033    0.252    0.087  238.047   57.487
  390.250   52.936    0.231    0.019  237.569   53.658
  390.500   52.462    0.219    0.019  237.590   51.602
  390.750   50.586    0.233    0.058  238.095   51.611
  391.000   47.895    0.303    0.105  240.083   53.392
  391.250   43.721    0.329    0.130  241.582   59.901
  391.500   36.763    0.382    0.142  243.075   62.865
  391.750   32.063    0.411    0.184  245.062   66.126
  392.000   28.219    0.415    0.202  246.551   70.272
  392.250   23.299    0.404    0.217  249.527   75.600
  392.500   21.075    0.407    0.193  251.016   81.813
  392.750   19.064    0.421    0.189  253.003   86.847
  393.000   17.088    0.431    0.178  254.997   85.972
  393.250   16.032    0.439    0.155  255.500   83.618
  393.500   15.319    0.444    0.137  256.502   79.197
  393.750   14.771    0.442    0.159  257.013   78.911
  394.000   14.638    0.439    0.176  257.520   80.694
  394.250   14.507    0.439    0.172  257.541   83.070
  394.500   14.508    0.436    0.175  257.066   85.737
  394.750   14.378    0.427    0.176  256.096   87.815
  395.000   14.248    0.422    0.168  255.128   86.053
  395.250   13.865    0.423    0.151  254.162   84.292
  395.500   13.867    0.424    0.141  253.194   84.303
  395.750   13.995    0.421    0.157  252.719   84.903
  396.000   13.997    0.426    0.168  252.246   86.982
  396.250   13.871    0.430    0.172  251.772   88.763
  396.500   13.746    0.432    0.163  251.785   90.843
  396.750   13.499    0.428    0.155  251.802   91.442
  397.000   13.499    0.422    0.168  251.819   92.340
  397.250   13.379    0.420    0.172  251.836   92.942
  397.500   12.901    0.427    0.148  251.857   89.997
  397.750   12.785    0.431    0.130  251.381   86.465
  398.000   12.786    0.429    0.133  251.400   86.769
  398.250   12.787    0.432    0.170  251.413   89.733
  398.500   12.557    0.432    0.148  251.922   90.039
  398.750   12.331    0.428    0.131  252.431   88.278
  399.000   12.110    0.420    0.132  248.511   89.471
  399.250   12.222    0.410    0.163  241.143   91.843
  399.500   12.563    0.400    0.170  242.639   90.968
  399.750   13.765    0.401    0.171  244.623   89.500
  400.000   14.945    0.412    0.177  245.132   87.442
  400.250   16.525    0.419    0.206  244.165   84.498
  400.500   18.272    0.413    0.207  243.689   83.326
  400.750   19.839    0.396    0.192  242.237   80.678
  401.000   20.579    0.401    0.167  241.756   78.916
  401.250   20.209    0.413    0.161  241.772   81.584
  401.500   18.960    0.431    0.168  241.793   88.094
  401.750   17.466    0.438    0.170  241.316   92.537
  402.000   14.957    0.434    0.166  240.350   93.730
  402.250   13.779    0.417    0.168  239.877   94.921
  402.500   13.408    0.388    0.153  238.905   91.976
  402.750   13.657    0.361    0.129  236.954   81.353
  403.000   14.559    0.318    0.100  232.540   71.022
  403.250   17.005    0.318    0.052  233.542   71.033
  403.500   18.975    0.326    0.116  239.465   84.929
  403.750   21.762    0.347    0.145  243.915   90.550
  404.000   20.984    0.385    0.160  244.916   92.628
  404.250   19.867    0.408    0.222  246.412   95.889
  404.500   18.136    0.423    0.241  250.366   97.080
  404.750   17.329    0.417    0.218  255.801   95.319
  405.000   17.490    0.382    0.204  249.415   87.057
  405.250   18.817    0.346    0.149  237.617   78.797
  405.500   21.978    0.322    0.117  231.726   72.603
  405.750   25.436    0.294    0.083  227.804   65.227
  406.000   26.871    0.295    0.064  226.836   61.397
  406.250   30.537    0.313    0.077  235.223   59.045
  406.500   32.260    0.354    0.120  242.133   69.098
  406.750   29.448    0.376    0.144  248.559   79.153
  407.000   25.683    0.397    0.167  251.526   86.253
  407.250   24.316    0.400    0.181  255.483   88.924
