~VERSION INFORMATION
 VERS.                 2.0:   CWLS LOG ASCII STANDARD -VERSION 2.0
 WRAP.                  NO:   ONE LINE PER DEPTH STEP
~WELL INFORMATION BLOCK
#MNEM.UNIT           DATA                    DESCRIPTION OF MNEMONIC
#---------    -------------------            -------------------------------
# Generated from Intellog Unique Number	CS_77_79/WELL/849
WELL.         ICGR LOCHIEL GRAHAM            : Well_name    - WELL
LOC .         00/03-34-078-05W4/0            : Location     - LOCATION
UWI .         00/03-34-078-05W4/0            : Uwi          - UNIQUE WELL ID
ENTR.         JHS                            : Entered      - ENTERED BY
SRVC.         SCHLUMBERGER                   : Scn          - SERVICE COMPANY
STRT.M        100                            : top_depth    - START DEPTH
STOP.M        360                            : bot_depth    - STOP DEPTH
STEP.M        0.25                           : increment    - STEP LENGTH
 NULL. -999.2500:NULL Value
~CURVE INFORMATION BLOCK
#MNEM UNIT       ERCB CURVE CODE    CURVE DESCRIPTION
#-----------   ------------------   ----------------------------------
DEPT.M        00 001 00 00         : DEPTH        - DEPTH
DPHI.V/V      00 890 00 00         : PHID         - DENSITY POROSITY (LIMESTONE)
NPHI.V/V      00 330 00 00         : PHIN         - NEUTRON POROSITY (LIMESTONE)
GR  .API      00 310 00 00         : GR           - GAMMA RAY
ILD .OHMM     00 120 00 00         : RESD         - DEEP RESISTIVITY (DIL)
RHOB.KG/M3    00 350 00 00         : DENS         - BULK DENSITY
~PARAMETER INFORMATION
#MNEM.UNIT           DATA             DESCRIPTION OF MNEMONIC
#---------         -----------     ------------------------------
GL  .M        528.9                : gl           - GROUND LEVEL ELEVATION
EREF.M        532.4                : kb           - ELEVATION OF DEPTH REFERENCE
DATM.M        532.4                : datum        - DATUM ELEVATION
TDD .M        367                  : tdd          - TOTAL DEPTH DRILLER
RUN .         ONE                  : Run          - RUN NUMBER
ENG .         BILL                 : Engineer     - RECORDING ENGINEER
WIT .         JIM                  : Witness      - WITNESSED BY
MUD .         GEL                  : Mud_type     - MUD TYPE
MATR.         LIMESTONE            : Logunit      - NEUTRON MATRIX
TMAX.C        17.2                 : BHT          - MAXIMUM RECORDED TEMPERATURE
BHTD.M        367                  : BHTDEP       - MAXIMUM RECORDED TEMPERATURE
MATR.         1                    : LOGUNIT      - NEUTRON MATRIX
RMT .C        25                   : MDTP         - TEMPERATURE OF MUD
NEUT.         1                    : NEUTRON      - NEUTRON TYPE
RESI.         0                    : RESIST       - RESISTIVITY TYPE
RMC .OHMM     0.25                 : RMC          - RESISTIVITY OF MUD CAKE
RMF .OHMM     0.25                 : RMF          - RESISTIVITY OF MUD FILTRATE
SUFT.C        15                   : SUFT         - SURFACE TEMPERATURE
~A  DEPTH     PHID     PHIN       GR     RESD     DENS
# ...
  209.500    0.232    0.504  103.020    4.470    0.000
  209.750    0.220    0.514  107.927    4.557    0.000
  210.000    0.211    0.532  105.514    4.649    0.000
  210.250    0.254    0.513   86.636    4.746    0.000
  210.500    0.274    0.458   76.304    4.664    0.000
  210.750    0.252    0.440   87.303    4.421    0.000
  211.000    0.241    0.494  100.740    4.344    0.000
  211.250    0.232    0.541  108.083    4.041    0.000
  211.500    0.217    0.547  108.723    3.830    0.000
  211.750    0.210    0.565  105.086    3.764    0.000
  212.000    0.222    0.576  102.069    3.700    0.000
  212.250    0.248    0.545  102.099    3.775    0.000
  212.500    0.259    0.518   99.069    4.223    0.000
  212.750    0.249    0.487   90.563    4.903    0.000
  213.000    0.240    0.458   86.318    5.800    0.000
  213.250    0.235    0.431   82.686    6.024    0.000
  213.500    0.232    0.425   83.323    5.709    0.000
  213.750    0.231    0.433   89.445    4.841    0.000
  214.000    0.226    0.454   95.569    4.421    0.000
  214.250    0.225    0.538   99.863    4.948    0.000
  214.500    0.216    0.525   98.674    5.745    0.000
  214.750    0.230    0.484   90.163    6.544    0.000
  215.000    0.248    0.463   78.604    8.182    0.000
  215.250    0.284    0.450   69.490    9.151    0.000
  215.500    0.301    0.437   70.132   10.627    0.000
  215.750    0.296    0.433   71.371   11.245    0.000
  216.000    0.291    0.447   72.612   11.267    0.000
  216.250    0.294    0.446   75.083   11.278    0.000
  216.500    0.296    0.452   75.713   11.090    0.000
  216.750    0.297    0.453   73.913   11.314    0.000
  217.000    0.294    0.453   69.671   11.761    0.000
  217.250    0.293    0.459   70.311   12.002    0.000
  217.500    0.293    0.464   73.992   12.010    0.000
  217.750    0.289    0.451   78.288   11.814    0.000
  218.000    0.296    0.441   80.748   11.608    0.000
  218.250    0.298    0.429   78.948   11.000    0.000
  218.500    0.282    0.442   74.095   10.233    0.000
  218.750    0.274    0.458   73.523    9.517    0.000
  219.000    0.271    0.450   72.937    8.533    0.000
  219.250    0.260    0.456   75.396    8.233    0.000
  219.500    0.245    0.468   82.130    7.384    0.000
  219.750    0.233    0.479   85.817    7.129    0.000
  220.000    0.228    0.501   90.718    6.876    0.000
  220.250    0.228    0.489   92.572    6.636    0.000
  220.500    0.230    0.489   82.237    6.409    0.000
  220.750    0.223    0.498   80.433    6.301    0.000
  221.000    0.221    0.497   86.561    6.306    0.000
  221.250    0.221    0.474   87.805    6.436    0.000
  221.500    0.225    0.458   90.881    6.449    0.000
  221.750    0.223    0.444   95.175    6.335    0.000
  222.000    0.224    0.434   98.249    6.004    0.000
  222.250    0.201    0.453   94.615    5.905    0.000
  222.500    0.199    0.486   87.933    6.022    0.000
  222.750    0.230    0.475   83.081    6.029    0.000
  223.000    0.215    0.461   87.377    6.152    0.000
  223.250    0.212    0.454   91.068    6.275    0.000
  223.500    0.225    0.466   91.703    6.287    0.000
  223.750    0.223    0.471   92.942    6.295    0.000
  224.000    0.222    0.466   91.753    6.188    0.000
  224.250    0.226    0.459   88.731    5.971    0.000
  224.500    0.223    0.459   89.369    5.355    0.000
  224.750    0.221    0.473   91.838    4.800    0.000
  225.000    0.227    0.539   94.910    4.721    0.000
  225.250    0.249    0.559   97.980    4.813    0.000
  225.500    0.271    0.528  102.275    5.094    0.000
  225.750    0.285    0.505  104.127    5.807    0.000
  226.000    0.303    0.497   85.863    6.741    0.000
  226.250    0.314    0.503   70.036    7.972    0.000
  226.500    0.322    0.484   63.968    8.918    0.000
  226.750    0.331    0.478   63.394    9.615    0.000
  227.000    0.330    0.482   62.805   10.371    0.000
  227.250    0.326    0.469   65.894   10.778    0.000
  227.500    0.318    0.457   66.515   10.996    0.000
  227.750    0.313    0.462   65.928   11.014    0.000
  228.000    0.310    0.474   64.133   11.024    0.000
  228.250    0.310    0.472   63.545   11.045    0.000
  228.500    0.319    0.476   62.960   11.055    0.000
  228.750    0.324    0.471   62.389   11.283    0.000
  229.000    0.317    0.463   61.794   11.516    0.000
  229.250    0.309    0.473   60.603   11.528    0.000
  229.500    0.308    0.472   60.019   11.763    0.000
  229.750    0.312    0.466   60.045   11.772    0.000
  230.000    0.317    0.471   58.853   11.368    0.000
  230.250    0.315    0.482   60.100   11.381    0.000
  230.500    0.312    0.486   63.780   11.188    0.000
  230.750    0.312    0.475   68.073   11.205    0.000
  231.000    0.309    0.467   65.663   10.816    0.000
  231.250    0.301    0.461   65.084   10.442    0.000
  231.500    0.287    0.454   69.981   10.073    0.000
  231.750    0.279    0.445   74.886    9.374    0.000
  232.000    0.272    0.441   78.578    8.883    0.000
  232.250    0.264    0.473   81.036    8.413    0.000
  232.500    0.257    0.464   78.019    7.829    0.000
  232.750    0.248    0.451   82.916    7.552    0.000
  233.000    0.242    0.468   89.044    7.025    0.000
  233.250    0.240    0.460   89.072    6.538    0.000
  233.500    0.237    0.460   89.706    6.197    0.000
  233.750    0.236    0.471   92.778    6.202    0.000
  234.000    0.231    0.479   96.463    5.882    0.000
  234.250    0.228    0.483   96.492    5.779    0.000
  234.500    0.222    0.494   97.739    5.683    0.000
  234.750    0.213    0.496   99.588    5.583    0.000
  235.000    0.211    0.505   96.572    5.194    0.000
  235.250    0.211    0.511   95.374    4.921    0.000
  235.500    0.209    0.486   97.841    4.663    0.000
  235.750    0.203    0.504   98.476    4.258    0.000
  236.000    0.215    0.532   99.117    3.747    0.000
  236.250    0.268    0.545  100.972    3.121    0.000
  236.500    0.260    0.562  104.045    2.849    0.000
  236.750    0.248    0.580  104.068    2.651    0.000
  237.000    0.238    0.584  101.046    2.606    0.000
  237.250    0.237    0.579  101.073    2.707    0.000
  237.500    0.241    0.564  101.105    2.865    0.000
  237.750    0.251    0.539   99.906    3.034    0.000
  238.000    0.239    0.522   97.498    3.272    0.000
  238.250    0.229    0.529   96.914    3.399    0.000
  238.500    0.224    0.551  103.040    3.599    0.000
  238.750    0.228    0.558  107.940    3.881    0.000
  239.000    0.234    0.548  111.013    4.107    0.000
  239.250    0.240    0.514  106.167    4.595    0.000
  239.500    0.245    0.495   99.484    4.954    0.000
  239.750    0.236    0.481   92.195    5.646    0.000
  240.000    0.230    0.476   89.172    6.320    0.000
  240.250    0.228    0.484   88.589    6.687    0.000
  240.500    0.248    0.500   88.005    6.947    0.000
  240.750    0.265    0.512   86.205    7.221    0.000
  241.000    0.268    0.501   83.788    7.506    0.000
  241.250    0.267    0.494   80.765    7.654    0.000
  241.500    0.268    0.507   73.477    8.252    0.000
  241.750    0.271    0.487   74.113    9.066    0.000
  242.000    0.292    0.455   80.237    9.418    0.000
  242.250    0.291    0.440   82.707    9.975    0.000
  242.500    0.269    0.461   79.073   10.171    0.000
  242.750    0.256    0.462   75.437   10.572    0.000
  243.000    0.249    0.451   76.684   11.192    0.000
  243.250    0.268    0.450   76.713   11.846    0.000
  243.500    0.285    0.445   74.309   12.540    0.000
  243.750    0.283    0.427   74.933   13.280    0.000
  244.000    0.278    0.419   75.576   13.793    0.000
  244.250    0.281    0.418   73.158   14.337    0.000
  244.500    0.284    0.424   73.188   14.357    0.000
  244.750    0.287    0.428   78.100   14.108    0.000
  245.000    0.287    0.431   78.733   13.626    0.000
  245.250    0.291    0.440   77.542   13.141    0.000
  245.500    0.297    0.447   76.954   12.224    0.000
  245.750    0.299    0.458   80.634   12.705    0.000
