~VERSION INFORMATION
 VERS.                 2.0:   CWLS LOG ASCII STANDARD -VERSION 2.0
 WRAP.                  NO:   ONE LINE PER DEPTH STEP
~WELL INFORMATION BLOCK
#MNEM.UNIT           DATA                    DESCRIPTION OF MNEMONIC
#---------    -------------------            -------------------------------
# Generated from Intellog Unique Number	CW_82_90/WELL/3057
WELL.         TOTAL ET AL LIVOCK             : Well_name    - WELL
LOC .         00/06-34-086-23W4/0            : Location     - LOCATION
UWI .         00/06-34-086-23W4/0            : Uwi          - UNIQUE WELL ID
ENTR.         MAX                            : Entered      - ENTERED BY
SRVC.         SCHLUMBERGER                   : Scn          - SERVICE COMPANY
STRT.M        155.448                        : top_depth    - START DEPTH
STOP.M        332.198                        : bot_depth    - STOP DEPTH
STEP.M        0.25                           : increment    - STEP LENGTH
 NULL. -999.2500:NULL Value
~CURVE INFORMATION BLOCK
#MNEM UNIT       ERCB CURVE CODE    CURVE DESCRIPTION
#-----------   ------------------   ----------------------------------
DEPT.M        00 001 00 00         : DEPTH        - DEPTH
ILD .OHMM     00 120 00 00         : RESD         - DEEP RESISTIVITY (DIL)
NPHI.V/V      00 330 00 00         : PHIN         - NEUTRON POROSITY (SANDSTONE)
DPHI.V/V      00 890 00 00         : PHID         - DENSITY POROSITY (SANDSTONE)
CALI.MM       00 280 01 00         : CAL          - CALIPER
GR  .API      00 310 00 00         : GR           - GAMMA RAY
~PARAMETER INFORMATION
#MNEM.UNIT           DATA             DESCRIPTION OF MNEMONIC
#---------         -----------     ------------------------------
GL  .M        530.962              : gl           - GROUND LEVEL ELEVATION
EREF.M        534.01               : kb           - ELEVATION OF DEPTH REFERENCE
DATM.M        530.962              : datum        - DATUM ELEVATION
TDD .M        335.89               : tdd          - TOTAL DEPTH DRILLER
RUN .         ONE                  : Run          - RUN NUMBER
ENG .         BILL                 : Engineer     - RECORDING ENGINEER
WIT .         JIM                  : Witness      - WITNESSED BY
MUD .         GEL                  : Mud_type     - MUD TYPE
MATR.         SANDSTONE            : Logunit      - NEUTRON MATRIX
TMAX.C        24.4444              : BHT          - MAXIMUM RECORDED TEMPERATURE
BHTD.M        335.89               : BHTDEP       - MAXIMUM RECORDED TEMPERATURE
MATR.         1                    : LOGUNIT      - NEUTRON MATRIX
RMT .C        15.5556              : MDTP         - TEMPERATURE OF MUD
NEUT.         1                    : NEUTRON      - NEUTRON TYPE
RESI.         0                    : RESIST       - RESISTIVITY TYPE
RMC .OHMM     3.5                  : RMC          - RESISTIVITY OF MUD CAKE
RMF .OHMM     3.5                  : RMF          - RESISTIVITY OF MUD FILTRATE
SUFT.C        -20.5556             : SUFT         - SURFACE TEMPERATURE
~A  DEPTH     RESD     PHIN     PHID      CAL       GR
# ...
  228.448   11.170    0.473    0.251  199.555   60.312
  228.698   11.168    0.476    0.266  198.983   60.275
  228.948   11.167    0.478    0.253  200.436   59.952
  229.198   11.165    0.477    0.248  200.892   59.918
  229.448   11.163    0.476    0.240  200.847   60.191
  229.698   11.264    0.470    0.229  201.290   63.117
  229.948   11.471    0.464    0.226  201.226   63.975
  230.198   11.898    0.448    0.227  201.695   63.352
  230.448   12.920    0.423    0.242  202.145   62.134
  230.698   13.525    0.401    0.227  202.582   60.627
  230.948   13.773    0.379    0.202  203.038   59.413
  231.198   13.771    0.365    0.187  203.488   59.675
  231.448   13.643    0.381    0.149  203.443   61.720
  231.698   13.393    0.407    0.178  204.394   67.314
  231.948   12.790    0.416    0.196  204.330   74.392
  232.198   12.214    0.419    0.171  204.780   79.986
  232.448   11.991    0.458    0.177  207.234   84.984
  232.698   11.557    0.474    0.167  214.207   87.618
  232.948   11.139    0.457    0.187  216.662   90.552
  233.198   10.935    0.443    0.154  210.094   95.553
  233.448   10.636    0.431    0.174  209.034   96.108
  233.698   10.346    0.431    0.178  209.991   94.901
  233.948   10.250    0.448    0.169  211.444   93.982
  234.198   10.154    0.461    0.176  212.388   95.432
  234.448   10.153    0.472    0.179  213.346   96.586
  234.698   10.244    0.482    0.173  215.299   96.259
  234.948   10.433    0.479    0.158  220.755   95.045
  235.198   10.821    0.455    0.181  219.200   95.307
  235.448   11.327    0.439    0.164  209.117   94.092
  235.698   11.966    0.422    0.145  206.559   94.950
  235.948   12.526    0.413    0.151  205.512   95.508
  236.198   12.874    0.416    0.177  204.452   95.481
  236.448   13.111    0.431    0.197  203.404   92.787
  236.698   13.351    0.440    0.206  203.346   92.160
  236.948   13.472    0.433    0.210  203.301   92.430
  237.198   13.470    0.422    0.195  202.749   91.804
  237.448   13.591    0.415    0.178  202.697   91.185
  237.698   13.590    0.408    0.170  202.626   89.371
  237.948   13.464    0.401    0.171  202.588   88.453
  238.198   13.096    0.398    0.208  202.035   91.382
  238.448   12.739    0.396    0.214  201.984   93.724
  238.698   12.277    0.396    0.191  201.418   93.990
  238.948   12.052    0.397    0.197  200.872   93.663
  239.198   12.051    0.408    0.210  201.322   91.261
  239.448   12.272    0.431    0.193  201.270   91.227
  239.698   12.496    0.451    0.179  200.223   91.204
  239.948   12.495    0.444    0.176  202.678   91.174
  240.198   12.608    0.437    0.239  211.141   91.436
  240.448   12.723    0.430    0.237  203.577   91.409
  240.698   12.721    0.426    0.229  204.509   90.779
  240.948   12.602    0.426    0.221  200.955   88.380
  241.198   12.371    0.426    0.207  197.896   87.162
  241.448   12.034    0.431    0.184  191.830   88.024
  241.698   11.492    0.455    0.154  199.805   90.362
  241.948   10.677    0.463    0.159  204.265   92.999
  242.198   10.197    0.466    0.189  213.737   92.669
  242.448    9.649    0.461    0.229  210.177   91.751
  242.698    9.047    0.447    0.249  208.622   91.724
  242.948    8.640    0.430    0.210  204.053   91.397
  243.198    8.482    0.450    0.181  203.506   92.843
  243.448    8.638    0.473    0.203  203.442   93.993
  243.698    9.209    0.460    0.232  203.391   92.779
  243.948    9.909    0.458    0.225  203.346   91.568
  244.198   11.266    0.454    0.203  202.787   88.278
  244.448   12.575    0.438    0.187  201.231   84.107
  244.698   13.781    0.413    0.165  200.679   78.156
  244.948   12.804    0.381    0.091  200.120   76.050
  245.198   11.362    0.482    0.112  200.075   80.456
  245.448   10.365    0.461    0.218  200.030   84.578
  245.698    9.808    0.437    0.212  199.978   85.431
  245.948   10.173    0.415    0.171  199.426   80.665
  246.198   11.355    0.378    0.133  200.370   76.194
  246.448   13.149    0.324    0.061  200.820   73.204
  246.698   16.235    0.319    0.040  201.758   71.394
  246.948   19.864    0.347    0.037  202.722   73.143
  247.198   21.373    0.349    0.071  204.168   75.777
  247.448   19.857    0.352    0.099  204.612   78.411
  247.698   17.785    0.371    0.118  204.567   81.340
  247.948   15.496    0.432    0.170  205.511   84.566
  248.198   13.134    0.458    0.176  206.964   87.492
  248.448   11.444    0.472    0.156  208.422   90.422
  248.698   10.344    0.480    0.137  209.373   93.652
  248.948    9.969    0.488    0.185  210.826   93.913
  249.198    9.968    0.490    0.183  213.281   94.475
  249.448   10.058    0.485    0.194  216.738   96.517
  249.698   10.149    0.478    0.188  213.178   98.266
  249.948   10.148    0.471    0.188  212.117  100.900
  250.198   10.429    0.462    0.212  214.585   99.094
  250.448   11.018    0.450    0.216  216.025   94.023
  250.698   11.533    0.452    0.200  210.967   90.145
  250.948   11.963    0.465    0.189  205.389   89.226
  251.198   12.754    0.451    0.197  202.336   86.532
  251.448   13.850    0.447    0.218  200.280   83.538
  251.698   14.766    0.438    0.232  199.226   81.439
  251.948   15.888    0.426    0.207  199.181   82.293
  252.198   17.253    0.398    0.192  199.117   82.555
  252.448   19.258    0.309    0.141  199.072   80.456
  252.698   21.105    0.272    0.050  199.020   76.285
  252.948   25.586    0.265    0.004  199.464   74.183
  253.198   28.040    0.347    0.037  201.424   75.336
  253.448   27.025    0.375    0.094  201.867   81.226
  253.698   24.653    0.402    0.167  200.820   85.340
  253.948   20.706    0.423    0.180  202.272   83.826
  254.198   16.763    0.422    0.186  204.213   84.091
  254.448   15.152    0.423    0.179  204.675   87.909
  254.698   14.470    0.434    0.168  204.624   91.431
  254.948   14.601    0.430    0.154  204.572   89.329
  255.198   15.856    0.396    0.132  202.002   81.898
  255.448   16.598    0.342    0.089  200.453   76.243
  255.698   17.058    0.330    0.007  199.888   75.317
  255.948   17.371    0.432    0.054  199.849   77.959
  256.198   16.590    0.450    0.148  199.791   82.073
  256.448   15.556    0.452    0.174  200.247   87.959
  256.698   14.855    0.445    0.186  200.684   87.040
  256.948   15.838    0.431    0.195  202.651   83.165
  257.198   16.886    0.420    0.176  203.602   77.799
  257.448   18.849    0.381    0.123  203.049   73.924
  257.698   22.230    0.288    0.082  204.000   69.454
  257.948   25.273    0.288    0.024  204.945   70.308
  258.198   25.269    0.331    0.071  205.896   78.570
  258.448   21.223    0.452    0.114  206.854   85.348
  258.698   19.360    0.451    0.176  206.796   84.721
  258.948   19.357    0.448    0.198  205.742   82.323
  259.198   19.894    0.440    0.184  204.688   81.700
  259.448   20.446    0.433    0.179  204.636   81.082
  259.698   21.599    0.423    0.167  204.585   80.163
  259.948   21.399    0.395    0.160  204.534   77.761
  260.198   20.624    0.378    0.129  203.473   75.951
  260.448   20.062    0.427    0.099  203.929   77.989
  260.698   19.694    0.445    0.166  204.881   81.518
  260.948   19.691    0.451    0.188  204.816   82.668
  261.198   19.869    0.391    0.164  204.778   80.270
  261.448   19.505    0.360    0.130  204.713   76.395
  261.698   18.972    0.420    0.060  205.671   77.545
  261.948   17.953    0.439    0.158  206.108   80.774
  262.198   17.624    0.451    0.177  206.063   85.476
  262.448   16.986    0.450    0.155  206.012   84.847
  262.698   16.829    0.446    0.142  205.954   83.643
  262.948   16.369    0.439    0.146  205.414   84.493
  263.198   15.922    0.438    0.170  205.362   86.531
  263.448   15.487    0.437    0.175  205.806   88.285
  263.698   15.628    0.450    0.172  205.754   86.770
  263.948   16.210    0.449    0.164  205.703   84.372
  264.198   17.441    0.419    0.142  205.658   81.977
  264.448   18.090    0.364    0.114  205.600   81.651
  264.698   18.254    0.375    0.099  206.050   83.985
