~VERSION INFORMATION
 VERS.                 2.0:   CWLS LOG ASCII STANDARD -VERSION 2.0
 WRAP.                  NO:   ONE LINE PER DEPTH STEP
~WELL INFORMATION BLOCK
#MNEM.UNIT           DATA                    DESCRIPTION OF MNEMONIC
#---------    -------------------            -------------------------------
# Generated from Intellog Unique Number	CS_77_79/WELL/879
WELL.         HB THORNBURY EV                : Well_name    - WELL
LOC .         00/06-20-078-11W4/0            : Location     - LOCATION
UWI .         00/06-20-078-11W4/0            : Uwi          - UNIQUE WELL ID
ENTR.         JHS                            : Entered      - ENTERED BY
SRVC.         SCHLUMBERGER                   : Scn          - SERVICE COMPANY
STRT.M        259.080                        : top_depth    - START DEPTH
STOP.M        493.580                        : bot_depth    - STOP DEPTH
STEP.M        0.25                           : increment    - STEP LENGTH
 NULL. -999.2500:NULL Value
~CURVE INFORMATION BLOCK
#MNEM UNIT       ERCB CURVE CODE    CURVE DESCRIPTION
#-----------   ------------------   ----------------------------------
DEPT.M        00 001 00 00         : DEPTH        - DEPTH
RHOB.KG/M3    00 350 00 00         : DENS         - BULK DENSITY
GR  .API      00 310 00 00         : GR           - GAMMA RAY
DPHI.V/V      00 890 00 00         : PHID         - DENSITY POROSITY (SANDSTONE)
NPHI.V/V      00 330 00 00         : PHIN         - NEUTRON POROSITY (SANDSTONE)
ILD .OHMM     00 120 00 00         : RESD         - DEEP RESISTIVITY (DIL)
~PARAMETER INFORMATION
#MNEM.UNIT           DATA             DESCRIPTION OF MNEMONIC
#---------         -----------     ------------------------------
GL  .M        704.088              : gl           - GROUND LEVEL ELEVATION
EREF.M        721.462              : kb           - ELEVATION OF DEPTH REFERENCE
DATM.M        721.462              : datum        - DATUM ELEVATION
TDD .M        498.348              : tdd          - TOTAL DEPTH DRILLER
RUN .         ONE                  : Run          - RUN NUMBER
ENG .         BILL                 : Engineer     - RECORDING ENGINEER
WIT .         JIM                  : Witness      - WITNESSED BY
MUD .         GEL                  : Mud_type     - MUD TYPE
MATR.         SANDSTONE            : Logunit      - NEUTRON MATRIX
TMAX.C        60                   : BHT          - MAXIMUM RECORDED TEMPERATURE
BHTD.M        498.348              : BHTDEP       - MAXIMUM RECORDED TEMPERATURE
MATR.         1                    : LOGUNIT      - NEUTRON MATRIX
RMT .C        25                   : MDTP         - TEMPERATURE OF MUD
NEUT.         1                    : NEUTRON      - NEUTRON TYPE
RESI.         0                    : RESIST       - RESISTIVITY TYPE
RMC .OHMM     0.25                 : RMC          - RESISTIVITY OF MUD CAKE
RMF .OHMM     0.25                 : RMF          - RESISTIVITY OF MUD FILTRATE
SUFT.C        15                   : SUFT         - SURFACE TEMPERATURE
~A  DEPTH     DENS       GR     PHID     PHIN     RESD
# ...
  295.580    0.000  127.106    0.262    0.545    5.286
  295.830    0.000  126.029    0.256    0.574    5.037
  296.080    0.000  122.824    0.262    0.587    4.683
  296.330    0.000  123.697    0.261    0.571    4.308
  296.580    0.000  125.664    0.269    0.579    3.982
  296.830    0.000  127.752    0.265    0.600    3.784
  297.080    0.000  128.044    0.268    0.615    3.851
  297.330    0.000  126.868    0.270    0.614    4.065
  297.580    0.000  122.152    0.268    0.571    5.083
  297.830    0.000  117.777    0.292    0.536    6.880
  298.080    0.000  112.178    0.300    0.517    9.679
  298.330    0.000  108.615    0.311    0.476   12.161
  298.580    0.000  108.179    0.297    0.459   14.502
  298.830    0.000  107.638    0.277    0.456   15.375
  299.080    0.000  107.788    0.287    0.473   15.282
  299.330    0.000  105.669    0.297    0.473   15.148
  299.580    0.000  102.727    0.304    0.459   15.094
  299.830    0.000  101.012    0.311    0.463   15.822
  300.080    0.000  101.730    0.314    0.467   15.153
  300.330    0.000  108.479    0.304    0.440   12.957
  300.580    0.000  114.102    0.272    0.430   10.592
  300.830    0.000  120.143    0.244    0.453    7.754
  301.080    0.000  125.190    0.236    0.501    6.795
  301.330    0.000  126.241    0.242    0.528    6.261
  301.580    0.000  125.248    0.250    0.544    6.286
  301.830    0.000  122.272    0.250    0.518    6.861
  302.080    0.000  120.779    0.274    0.504    8.235
  302.330    0.000  119.307    0.286    0.501    9.752
  302.580    0.000  116.384    0.297    0.482   10.858
  302.830    0.000  111.752    0.299    0.465   12.300
  303.080    0.000  105.993    0.286    0.460   13.294
  303.330    0.000   99.818    0.289    0.481   14.065
  303.580    0.000   95.775    0.309    0.488   14.476
  303.830    0.000   94.839    0.324    0.463   14.444
  304.080    0.000   97.225    0.306    0.445   13.821
  304.330    0.000  101.642    0.298    0.446   12.585
  304.580    0.000  104.666    0.295    0.443   11.586
  304.830    0.000  106.050    0.274    0.467   11.183
  305.080    0.000  104.960    0.275    0.488   11.014
  305.330    0.000  103.275    0.292    0.456   11.444
  305.580    0.000   98.428    0.280    0.451   11.926
  305.830    0.000   92.432    0.309    0.469   13.565
  306.080    0.000   88.728    0.328    0.490   16.866
  306.330    0.000   89.854    0.340    0.481   18.933
  306.580    0.000   90.154    0.328    0.478   22.262
  306.830    0.000   87.303    0.319    0.485   23.625
  307.080    0.000   83.875    0.324    0.490   23.593
  307.330    0.000   84.351    0.311    0.493   22.734
  307.580    0.000   88.810    0.286    0.496   20.955
  307.830    0.000   92.619    0.258    0.484   19.166
  308.080    0.000   95.106    0.264    0.480   16.574
  308.330    0.000   95.242    0.273    0.497   14.991
  308.580    0.000   95.385    0.274    0.483   12.993
  308.830    0.000   94.194    0.266    0.482   12.287
  309.080    0.000   94.661    0.278    0.501   12.472
  309.330    0.000   94.749    0.286    0.517   13.244
  309.580    0.000   94.058    0.296    0.518   14.488
  309.830    0.000   93.493    0.311    0.521   15.264
  310.080    0.000   92.436    0.310    0.496   15.250
  310.330    0.000   92.046    0.284    0.498   15.650
  310.580    0.000   90.551    0.274    0.514   16.149
  310.830    0.000   87.924    0.267    0.485   17.177
  311.080    0.000   86.390    0.250    0.449   18.100
  311.330    0.000   90.478    0.259    0.426   17.525
  311.580    0.000   94.638    0.329    0.465   16.705
  311.830    0.000   94.754    0.312    0.494   15.517
  312.080    0.000   93.891    0.303    0.525   14.100
  312.330    0.000   92.071    0.296    0.513   13.385
  312.580    0.000   91.136    0.289    0.496   13.019
  312.830    0.000   91.371    0.286    0.472   12.840
  313.080    0.000   94.804    0.294    0.463   13.073
  313.330    0.000   98.249    0.277    0.481   13.049
  313.580    0.000  102.679    0.269    0.484   13.098
  313.830    0.000  103.035    0.284    0.465   12.477
  314.080    0.000  102.514    0.298    0.462   11.577
  314.330    0.000  104.484    0.305    0.478   10.191
  314.580    0.000  105.704    0.283    0.499    8.998
  314.830    0.000  105.836    0.297    0.506    8.887
  315.080    0.000  103.011    0.311    0.483    9.204
  315.330    0.000  100.102    0.302    0.488    9.794
  315.580    0.000   99.649    0.298    0.482   10.545
  315.830    0.000   98.798    0.295    0.480   11.569
  316.080    0.000   97.823    0.292    0.484   12.435
  316.330    0.000   97.538    0.282    0.471   12.677
  316.580    0.000   95.673    0.306    0.463   12.634
  316.830    0.000   90.867    0.286    0.448   12.244
  317.080    0.000   86.216    0.277    0.455   11.870
  317.330    0.000   81.737    0.284    0.460   11.806
  317.580    0.000   79.274    0.272    0.456   11.809
  317.830    0.000   79.504    0.271    0.446   11.824
  318.080    0.000   79.676    0.279    0.454   11.547
  318.330    0.000   75.312    0.286    0.467   10.507
  318.580    0.000   67.944    0.288    0.495   10.232
  318.830    0.000   56.104    0.272    0.516   11.254
  319.080    0.000   47.172    0.291    0.525   13.375
  319.330    0.000   44.373    0.343    0.477   17.420
  319.580    0.000   44.501    0.363    0.427   21.321
  319.830    0.000   44.492    0.348    0.409   25.334
  320.080    0.000   44.404    0.348    0.418   28.470
  320.330    0.000   43.383    0.351    0.410   29.316
  320.580    0.000   42.602    0.364    0.407   28.747
  320.830    0.000   43.326    0.359    0.414   28.843
  321.080    0.000   41.722    0.345    0.431   28.355
  321.330    0.000   40.597    0.347    0.439   28.927
  321.580    0.000   41.028    0.344    0.428   28.869
  321.830    0.000   43.555    0.338    0.423   29.311
  322.080    0.000   44.983    0.346    0.416   29.435
  322.330    0.000   45.753    0.352    0.404   29.476
  322.580    0.000   44.765    0.353    0.397   29.491
  322.830    0.000   43.761    0.359    0.416   29.507
  323.080    0.000   43.369    0.350    0.408   29.524
  323.330    0.000   43.445    0.351    0.399   29.546
  323.580    0.000   42.754    0.361    0.414   29.554
  323.830    0.000   42.296    0.364    0.408   29.620
  324.080    0.000   41.295    0.364    0.402   28.994
  324.330    0.000   40.289    0.367    0.412   29.019
  324.580    0.000   40.264    0.364    0.417   28.539
  324.830    0.000   40.259    0.360    0.421   28.536
  325.080    0.000   38.589    0.362    0.424   29.156
  325.330    0.000   38.223    0.364    0.428   29.145
  325.580    0.000   38.248    0.360    0.429   29.169
  325.830    0.000   38.627    0.360    0.427   29.191
  326.080    0.000   39.227    0.351    0.426   29.208
  326.330    0.000   39.911    0.345    0.421   29.229
  326.580    0.000   39.837    0.343    0.426   29.245
  326.830    0.000   39.525    0.336    0.438   29.267
  327.080    0.000   39.274    0.338    0.446   29.299
  327.330    0.000   39.260    0.345    0.464   28.843
  327.580    0.000   39.214    0.357    0.440   28.852
  327.830    0.000   39.908    0.365    0.428   28.247
  328.080    0.000   39.849    0.367    0.434   28.354
  328.330    0.000   39.525    0.361    0.455   27.740
  328.580    0.000   37.467    0.350    0.435   27.814
  328.830    0.000   36.116    0.365    0.428   27.818
  329.080    0.000   37.767    0.365    0.423   27.708
  329.330    0.000   38.644    0.362    0.414   27.355
  329.580    0.000   39.970    0.357    0.415   27.376
  329.830    0.000   40.756    0.361    0.413   27.408
  330.080    0.000   42.797    0.377    0.410   26.987
  330.330    0.000   43.876    0.364    0.432   26.189
  330.580    0.000   44.155    0.391    0.468   25.419
  330.830    0.000   43.229    0.413    0.514   25.028
  331.080    0.000   40.970    0.410    0.514   25.028
  331.330    0.000   39.364    0.412    0.508   25.581
  331.580    0.000   38.346    0.395    0.485   26.012
  331.830    0.000   39.478    0.381    0.460   26.625
