~VERSION INFORMATION
 VERS.                 2.0:   CWLS LOG ASCII STANDARD -VERSION 2.0
 WRAP.                  NO:   ONE LINE PER DEPTH STEP
~WELL INFORMATION BLOCK
#MNEM.UNIT           DATA                    DESCRIPTION OF MNEMONIC
#---------    -------------------            -------------------------------
# Generated from Intellog Unique Number	CS_77_79/WELL/3292
WELL.         ALLIED ROXANA MINERALS LTD.    : Well_name    - WELL
LOC .         00/06-16-079-16W4/0            : Location     - LOCATION
UWI .         00/06-16-079-16W4/0            : Uwi          - UNIQUE WELL ID
ENTR.         JOETTE                         : Entered      - ENTERED BY
SRVC.         SCHLUMBERGER                   : Scn          - SERVICE COMPANY
DATE.         08-24-92                       : Date         - LOG DATE
STRT.M        213.36                         : top_depth    - START DEPTH
STOP.M        390.11                         : bot_depth    - STOP DEPTH
STEP.M        0.25                           : increment    - STEP LENGTH
 NULL. -999.2500:NULL Value
~CURVE INFORMATION BLOCK
#MNEM UNIT       ERCB CURVE CODE    CURVE DESCRIPTION
#-----------   ------------------   ----------------------------------
DEPT.M        00 001 00 00         : DEPTH        - DEPTH
GR  .API      00 310 00 00         : GR           - GAMMA RAY
NPHI.V/V      00 330 00 00         : PHIN         - NEUTRON POROSITY (SANDSTONE)
ILD .OHMM     00 120 00 00         : RESD         - DEEP RESISTIVITY (DIL)
~PARAMETER INFORMATION
#MNEM.UNIT           DATA             DESCRIPTION OF MNEMONIC
#---------         -----------     ------------------------------
GL  .M        575.462              : gl           - GROUND LEVEL ELEVATION
EREF.M        578.51               : kb           - ELEVATION OF DEPTH REFERENCE
DATM.M        578.51               : datum        - DATUM ELEVATION
TDD .M        389.23               : tdd          - TOTAL DEPTH DRILLER
RUN .         ONE                  : Run          - RUN NUMBER
ENG .         BILL                 : Engineer     - RECORDING ENGINEER
WIT .         JIM                  : Witness      - WITNESSED BY
MUD .         GEL                  : Mud_type     - MUD TYPE
MATR.         SANDSTONE            : Logunit      - NEUTRON MATRIX
TMAX.C        15.5556              : BHT          - MAXIMUM RECORDED TEMPERATURE
BHTD.M        389.23               : BHTDEP       - MAXIMUM RECORDED TEMPERATURE
MATR.         1                    : LOGUNIT      - NEUTRON MATRIX
RMT .C        15.5556              : MDTP         - TEMPERATURE OF MUD
NEUT.         1                    : NEUTRON      - NEUTRON TYPE
RESI.         0                    : RESIST       - RESISTIVITY TYPE
RMC .OHMM     4.71                 : RMC          - RESISTIVITY OF MUD CAKE
RMF .OHMM     4.71                 : RMF          - RESISTIVITY OF MUD FILTRATE
SUFT.C        5                    : SUFT         - SURFACE TEMPERATURE
~A  DEPTH       GR     PHIN     RESD
  213.360   91.972    0.544    5.236
  213.610   79.123    0.485    5.743
  213.860   76.083    0.448    6.184
  214.110   71.204    0.407    6.784
  214.360   64.485    0.413    7.581
  214.610   68.802    0.421    7.867
  214.860   72.512    0.417    8.016
  215.110   70.078    0.401    8.018
  215.360   72.556    0.402    7.874
  215.610   83.629    0.405    7.732
  215.860   84.874    0.440    7.592
  216.110   79.381    0.497    7.735
  216.360   79.406    0.448    7.738
  216.610   92.306    0.449    8.031
  216.860   92.951    0.472    8.335
  217.110   89.291    0.479    8.813
  217.360   77.061    0.501    9.146
  217.610   71.563    0.503    9.491
  217.860   62.392    0.477   10.034
  218.110   56.900    0.483   10.806
  218.360   52.033    0.487   11.636
  218.610   50.206    0.485   12.530
  218.860   49.625    0.467   13.247
  219.110   51.489    0.456   13.497
  219.360   53.354    0.457   13.753
  219.610   53.992    0.458   13.757
  219.860   52.184    0.452   13.759
  220.110   52.197    0.440   13.512
  220.360   51.622    0.462   13.268
  220.610   50.421    0.478   12.557
  220.860   50.440    0.481   11.885
  221.110   51.691    0.494   11.457
  221.360   54.169    0.500   10.843
  221.610   54.194    0.470   10.649
  221.860   52.380    0.469   10.651
  222.110   53.631    0.474   10.852
  222.360   57.960    0.476   11.264
  222.610   56.747    0.476   11.691
  222.860   55.546    0.486   11.691
  223.110   59.875    0.484   11.915
  223.360   58.668    0.485   11.275
  223.610   56.854    0.497   11.703
  223.860   56.879    0.498   11.922
  224.110   59.363    0.496   12.148
  224.360   56.936    0.460   12.151
  224.610   55.122    0.455   11.714
  224.860   56.373    0.461   10.687
  225.110   58.844    0.469   10.301
  225.360   63.161    0.481    8.891
  225.610   68.091    0.490    7.815
  225.860   82.223    0.529    6.870
  226.110   85.313    0.509    6.040
  226.360   92.082    0.527    5.510
  226.610   97.625    0.576    5.511
  226.860   97.650    0.592    5.615
  227.110   94.616    0.601    6.274
  227.360   89.731    0.624    7.009
  227.610   80.560    0.634    8.126
  227.860   75.068    0.589    9.597
  228.110   83.682    0.472   10.528
  228.360   92.290    0.431   10.725
  228.610   88.637    0.429   10.532
  228.860   91.121    0.431    9.608
  229.110   94.211    0.437    9.093
  229.360   93.010    0.454    8.448
  229.610   93.649    0.493    8.144
  229.860   94.900    0.537    7.707
  230.110   96.151    0.564    7.430
  230.360   97.403    0.583    7.433
  230.610   93.743    0.578    7.714
  230.860   87.025    0.548    8.307
  231.110   80.306    0.517    9.281
  231.360   71.749    0.496   13.676
  231.610   65.030    0.496   15.566
  231.860   58.312    0.503   21.700
  232.110   52.819    0.490   24.699
  232.360   49.779    0.497   28.633
  232.610   49.811    0.507   35.084
  232.860   50.443    0.515   39.930
  233.110   52.313    0.516   47.153
  233.360   52.952    0.523   55.682
  233.610   49.918    0.523   64.553
  233.860   48.717    0.486   73.470
  234.110   49.355    0.485   76.256
  234.360   51.220    0.481   73.513
  234.610   53.084    0.475   65.829
  234.860   53.716    0.485   60.049
  235.110   53.741    0.502   55.789
  235.360   52.540    0.518   50.887
  235.610   51.959    0.532   46.419
  235.860   53.210    0.503   44.747
  236.110   52.622    0.494   44.747
  236.360   49.595    0.500   45.610
  236.610   50.221    0.512   33.958
  236.860   51.478    0.522   29.856
  237.110   51.497    0.528   28.253
  237.360   52.135    0.525   25.301
  237.610   54.613    0.501   23.078
  237.860   55.251    0.493   21.050
  238.110   54.056    0.486   19.202
  238.360   54.082    0.503   17.840
  238.610   54.100    0.502   16.576
  238.860   53.513    0.474   15.689
  239.110   52.931    0.466   15.405
  239.360   52.956    0.476   14.851
  239.610   54.208    0.488   14.854
  239.860   55.459    0.500   14.588
  240.110   53.645    0.514   14.591
  240.360   51.831    0.511   14.594
  240.610   52.476    0.498   14.601
  240.860   54.953    0.499   14.603
  241.110   56.205    0.506   14.607
  241.360   56.223    0.515   14.344
  241.610   54.416    0.518   14.615
  241.860   53.834    0.504   14.619
  242.110   53.234    0.494   14.624
  242.360   52.658    0.491   14.626
  242.610   51.451    0.483   14.631
  242.860   49.637    0.474   14.636
  243.110   49.056    0.479   14.638
  243.360   49.087    0.485   14.643
  243.610   49.106    0.494   14.379
  243.860   48.512    0.506   14.382
  244.110   48.537    0.500   14.386
  244.360   49.789    0.487   14.390
  244.610   50.427    0.498   14.394
  244.860   49.226    0.508   14.398
  245.110   48.651    0.518   14.139
  245.360   49.283    0.523   14.143
  245.610   49.927    0.507   14.146
  245.860   49.952    0.497   14.151
  246.110   49.365    0.500   14.153
  246.360   49.383    0.523   13.898
  246.610   49.409    0.537   13.903
  246.860   49.434    0.546   13.907
  247.110   47.620    0.479   13.658
  247.360   48.258    0.495   13.659
  247.610   53.194    0.504   13.414
  247.860   56.285    0.521   13.417
  248.110   57.542    0.493   13.422
  248.360   58.168    0.461   13.425
  248.610   58.212    0.464   13.427
  248.860   58.225    0.475   13.433
  249.110   57.643    0.481   13.435
  249.360   58.282    0.473   13.690
  249.610   58.920    0.473   13.694
  249.860   59.552    0.486   13.698
  250.110   59.590    0.498   13.700
  250.360   58.989    0.511   13.959
  250.610   57.175    0.519   13.962
  250.860   55.361    0.509   13.966
  251.110   57.226    0.475   13.970
  251.360   57.251    0.458   13.974
  251.610   54.824    0.485   13.473
  251.860   53.010    0.494   13.229
  252.110   54.274    0.486   12.521
  252.360   57.358    0.489   12.070
  252.610   62.294    0.522   11.636
  252.860   64.765    0.531   12.076
  253.110   64.177    0.498   15.352
  253.360   58.078    0.492   22.208
  253.610   52.586    0.442   35.884
  253.860   48.926    0.397   64.773
  254.110   45.886    0.195   73.720
  254.360   46.525    0.166   63.623
  254.610   45.949    0.149   54.908
  254.860   45.349    0.163   49.172
  255.110   50.892    0.235   44.032
  255.360   58.899    0.409   39.426
  255.610   62.603    0.433   34.660
  255.860   65.074    0.461   30.470
  256.110   67.552    0.499   25.816
  256.360   67.577    0.527   19.945
  256.610   66.995    0.509   14.852
  256.860   66.407    0.516   12.354
  257.110   67.665    0.508   11.911
  257.360   68.910    0.484   11.483
  257.610   68.942    0.486   11.486
  257.860   66.514    0.521   11.278
  258.110   67.153    0.529   11.281
  258.360   68.404    0.541   11.284
  258.610   67.203    0.500   11.081
  258.860   67.835    0.504   11.083
  259.110   71.545    0.492   11.086
  259.360   66.046    0.482   11.090
  259.610   61.786    0.464   11.092
  259.860   62.418    0.481   11.096
  260.110   68.574    0.494   11.305
  260.360   69.826    0.476   11.308
  260.610   69.238    0.475   11.311
  260.860   68.056    0.509   11.315
  261.110   68.068    0.520   11.319
  261.360   69.933    0.530   11.113
  261.610   73.023    0.526   10.913
  261.860   71.209    0.532   10.717
  262.110   69.402    0.529   10.525
  262.360   68.814    0.521   10.526
  262.610   71.285    0.502   10.529
  262.860   73.149    0.509   10.533
  263.110   71.335    0.553   10.931
  263.360   65.230    0.578   11.345
  263.610   59.738    0.600   11.774
  263.860   55.478    0.546   12.220
  264.110   53.664    0.500   12.451
  264.360   53.070    0.485   12.456
  264.610   51.869    0.473   12.230
  264.860   50.067    0.490   11.790
  265.110   53.158    0.490   11.366
  265.360   58.701    0.506   10.957
  265.610   62.398    0.472   10.563
  265.860   65.488    0.454   10.374
  266.110   61.835    0.484   10.377
  266.360   56.962    0.485   10.572
  266.610   56.987    0.442   10.973
  266.860   54.560    0.452   11.388
  267.110   52.746    0.465   11.602
  267.360   53.385    0.465   12.042
