~VERSION INFORMATION
 VERS.                 2.0:   CWLS LOG ASCII STANDARD -VERSION 2.0
 WRAP.                  NO:   ONE LINE PER DEPTH STEP
~WELL INFORMATION BLOCK
#MNEM.UNIT           DATA                    DESCRIPTION OF MNEMONIC
#---------    -------------------            -------------------------------
# Generated from Intellog Unique Number	CW_70_72/WELL/1028
NULL.         -999.25                        : NULL_VALUE
WELL.         MANNVILLE ET AL PETER 09-34    : Well_name    - WELL              
LOC .         09-34-072-01W5                 : Location     - LOCATION          
UWI .         00/09-34-072-01W5/0            : Uwi          - UNIQUE WELL ID    
ENTR.         JAYE                           : Entered      - ENTERED BY        
SRVC.         WESTERN ATLAS                  : Scn          - SERVICE COMPANY   
DATE.         7 SEPT 80                      : Date         - LOG DATE          
STRT.M        440                            : top_depth    - START DEPTH       
STOP.M        695                            : bot_depth    - STOP DEPTH        
STEP.M        0.25                           : increment    - STEP LENGTH       
~CURVE INFORMATION BLOCK
#MNEM UNIT       ERCB CURVE CODE    CURVE DESCRIPTION
#-----------   ------------------   ----------------------------------
DEPT.M        00 001 00 00         : DEPTH        - DEPTH                       
DPHI.V/V      00 890 00 00         : PHID         - DENSITY POROSITY (SANDSTONE)
NPHI.V/V      00 330 00 00         : PHIN         - NEUTRON POROSITY (SANDSTONE)
GR  .API      00 310 00 00         : GR           - GAMMA RAY                   
CALI.MM       00 280 01 00         : CAL          - CALIPER                     
ILD .OHMM     00 120 00 00         : RESD         - DEEP RESISTIVITY (DIL)      
~PARAMETER INFORMATION       
#MNEM.UNIT           DATA             DESCRIPTION OF MNEMONIC
#---------         -----------     ------------------------------
GL  .M        651.1                : gl           - GROUND LEVEL ELEVATION      
EREF.M        654                  : kb           - ELEVATION OF DEPTH REFERENCE
DATM.M        651.1                : datum        - DATUM ELEVATION             
TDD .M        696                  : tdd          - TOTAL DEPTH DRILLER         
RUN .         ONE                  : Run          - RUN NUMBER                  
ENG .         IRELAND              : Engineer     - RECORDING ENGINEER          
WIT .         KELLY                : Witness      - WITNESSED BY                
BASE.         EDM                  : Branch       - HOME BASE OF LOGGING UNIT   
MUD .         GEL-CHEM             : Mud_type     - MUD TYPE                    
MATR.         SANDSTONE            : Logunit      - NEUTRON MATRIX              
TMAX.C        27.1                 : BHT          - MAXIMUM RECORDED TEMPERATURE
BHTD.M        697                  : BHTDEP       - MAXIMUM RECORDED TEMPERATURE
RMT .C        21.6                 : MDTP         - TEMPERATURE OF MUD          
MUDD.KG/M     1210                 : MWT          - MUD DENSITY                 
NEUT.         1                    : NEUTRON      - NEUTRON TYPE                
RESI.         0                    : RESIST       - RESISTIVITY TYPE            
RM  .OHMM     1.84                 : RM           - RESISTIVITY OF MUD          
RMC .OHMM     0                    : RMC          - RESISTIVITY OF MUD CAKE     
RMF .OHMM     1.47                 : RMF          - RESISTIVITY OF MUD FILTRATE 
SUFT.C        32                   : SUFT         - SURFACE TEMPERATURE         
~A  DEPTH     PHID     PHIN       GR      CAL     RESD
# ...
  622.500    0.096    0.301   84.804  161.137    8.750
  622.750    0.105    0.319   88.966  161.127    9.048
  623.000    0.114    0.343   91.697  161.118    9.501
  623.250    0.062    0.372   86.717  161.213    9.900
  623.500    0.052    0.314   83.167  161.412   10.220
  623.750    0.072    0.299   82.602  161.715   10.140
  624.000    0.076    0.300   86.204  162.018    9.315
  624.250    0.089    0.281   91.796  162.113    8.654
  624.500    0.119    0.306  100.684  162.105    8.177
  624.750    0.071    0.329   98.004  162.201    7.757
  625.000    0.058    0.308   97.439  162.504    7.498
  625.250    0.075    0.308  104.462  162.702    7.246
  625.500    0.091    0.331  109.805  162.796    6.846
  625.750    0.119    0.361  105.385  162.790    6.114
  626.000    0.125    0.362  100.031  162.780    5.190
  626.250    0.107    0.332   96.606  163.187    4.155
  626.500    0.079    0.318   96.601  164.319    2.927
  626.750    0.098    0.416   98.710  167.523    2.471
  627.000    0.203    0.535   98.643  178.917    2.149
  627.250    0.251    0.543   96.088  191.864    1.963
  627.500    0.242    0.549   96.393  184.910    1.898
  627.750    0.233    0.544   97.073  178.269    1.944
  628.000    0.209    0.506   98.623  172.145    2.019
  628.250    0.178    0.484  100.608  169.443    2.148
  628.500    0.176    0.468  104.085  167.672    2.354
  628.750    0.174    0.466  107.874  166.315    2.625
  629.000    0.151    0.471  111.973  165.478    2.994
  629.250    0.115    0.441  106.682  164.639    3.454
  629.500    0.100    0.399   99.525  164.216    4.320
  629.750    0.088    0.383   95.913  163.896    5.526
  630.000    0.063    0.377   94.105  163.786    6.658
  630.250    0.037    0.362   99.883  163.571    7.029
  630.500    0.079    0.336  105.351  163.458    6.910
  630.750    0.097    0.349  106.838  163.448    6.895
  631.000    0.107    0.359  107.455  163.335    7.159
  631.250    0.105    0.371  107.823  163.017    7.659
  631.500    0.077    0.381  104.086  162.699    8.101
  631.750    0.062    0.352   99.106  161.965    8.850
  632.000    0.052    0.315   92.136  161.128    9.520
  632.250    0.031    0.304   85.042  161.015    9.135
  632.500    0.036    0.277   93.929  161.836    8.453
  632.750    0.105    0.355  103.377  164.108    7.899
  633.000    0.148    0.392  103.123  165.860    7.764
  633.250    0.123    0.387   95.904  165.438    7.689
  633.500    0.104    0.364   90.738  164.394    7.820
  633.750    0.102    0.358   94.340  163.349    7.952
  634.000    0.123    0.366   95.578  162.303    8.009
  634.250    0.129    0.357   99.491  161.776    8.054
  634.500    0.135    0.356   98.118  160.938    8.021
  634.750    0.125    0.353   83.001  159.893    7.753
  635.000    0.101    0.339   71.864  158.331    7.003
  635.250    0.163    0.320   61.474  156.767    6.023
  635.500    0.196    0.324   47.352  154.686    5.189
  635.750    0.239    0.353   37.707  153.432    4.464
  636.000    0.274    0.365   39.194  152.907    4.069
  636.250    0.270    0.370   40.060  152.276    3.831
  636.500    0.263    0.376   39.247  151.958    3.716
  636.750    0.264    0.387   38.681  151.639    3.627
  637.000    0.267    0.383   38.926  151.319    3.605
  637.250    0.256    0.365   39.354  150.894    3.597
  637.500    0.254    0.359   39.785  150.576    3.590
  637.750    0.256    0.362   40.651  150.257    3.549
  638.000    0.256    0.356   41.642  150.871    3.535
  638.250    0.263    0.357   43.316  152.935    3.520
  638.500    0.266    0.362   44.989  154.273    3.502
  638.750    0.251    0.369   46.104  154.990    3.474
  639.000    0.249    0.368   47.093  155.294    3.460
  639.250    0.256    0.363   47.337  155.388    3.447
  639.500    0.247    0.345   47.581  155.380    3.452
  639.750    0.241    0.342   47.950  155.268    3.432
  640.000    0.248    0.350   48.691  154.949    3.419
  640.250    0.247    0.359   49.308  154.939    3.424
  640.500    0.237    0.367   50.235  154.931    3.436
  640.750    0.238    0.374   51.411  154.922    3.435
  641.000    0.246    0.355   52.339  154.604    3.447
  641.250    0.248    0.352   53.143  154.285    3.466
  641.500    0.242    0.350   54.380  153.965    3.518
  641.750    0.241    0.350   55.931  154.061    3.687
  642.000    0.243    0.354   57.045  154.777    3.908
  642.250    0.225    0.358   57.475  155.805    4.072
  642.500    0.189    0.361   57.781  156.315    4.284
  642.750    0.161    0.359   58.274  156.203    4.398
  643.000    0.168    0.352   59.637  155.987    4.355
  643.250    0.207    0.351   62.679  155.770    4.226
  643.500    0.226    0.359   59.503  155.556    4.169
  643.750    0.237    0.365   59.000  155.237    4.183
  644.000    0.242    0.373   58.497  154.710    4.239
  644.250    0.194    0.370   58.243  154.390    4.334
  644.500    0.172    0.350   59.855  153.967    4.450
  644.750    0.172    0.343   62.151  153.648    4.541
  645.000    0.187    0.358   62.271  153.329    4.646
  645.250    0.191    0.374   61.519  152.905    4.696
  645.500    0.187    0.372   61.141  152.688    4.732
  645.750    0.201    0.353   60.950  152.577    4.748
  646.000    0.208    0.351   60.758  152.464    4.801
  646.250    0.197    0.347   61.188  152.457    4.891
  646.500    0.191    0.336   63.484  152.553    5.030
  646.750    0.202    0.345   67.024  152.749    5.221
  647.000    0.186    0.357   66.894  152.845    5.482
  647.250    0.160    0.349   64.340  152.941    5.703
  647.500    0.148    0.321   65.081  153.037    5.776
  647.750    0.166    0.315   67.376  153.236    5.786
  648.000    0.188    0.320   70.419  153.226    5.786
  648.250    0.182    0.323   72.342  153.011    5.806
  648.500    0.186    0.329   72.958  153.003    5.859
  648.750    0.180    0.339   72.953  153.201    5.925
  649.000    0.176    0.328   72.637  153.712    6.014
  649.250    0.189    0.324   72.445  154.428    6.115
  649.500    0.190    0.334   73.809  155.043    6.312
  649.750    0.180    0.340   75.234  155.758    6.553
  650.000    0.178    0.345   68.388  156.268    6.933
  650.250    0.175    0.332   56.692  156.779    7.445
  650.500    0.170    0.300   46.550  156.977    7.456
  650.750    0.149    0.273   47.353  157.175    6.722
  651.000    0.191    0.293   52.385  157.168    6.536
  651.250    0.226    0.328   58.102  157.158    6.607
  651.500    0.176    0.322   66.118  157.151    6.899
  651.750    0.144    0.301   72.582  157.558    7.394
  652.000    0.125    0.290   82.589  158.481    8.060
  652.250    0.110    0.311   90.109  159.303    8.290
  652.500    0.138    0.361  100.862  161.056    7.630
  652.750    0.179    0.395  107.014  163.224    7.142
  653.000    0.197    0.401  104.521  164.667    6.851
  653.250    0.172    0.376  104.765  165.798    6.710
  653.500    0.158    0.359  106.563  167.655    6.759
  653.750    0.158    0.360  107.242  169.617    7.004
  654.000    0.182    0.397  105.372  167.431    7.450
  654.250    0.209    0.426  102.443  163.692    8.185
  654.500    0.185    0.373   99.204  160.056    9.211
  654.750    0.151    0.309   94.225  158.182   10.992
  655.000    0.137    0.287   88.125  157.447   13.466
  655.250    0.123    0.295   81.031  156.815   17.523
  655.500    0.117    0.305   67.530  156.913   21.507
  655.750    0.110    0.314   52.227  157.112   24.530
  656.000    0.101    0.307   30.269  156.895   27.510
  656.250    0.083    0.226   19.195  156.678   30.963
  656.500    0.057    0.156   21.552  156.671   29.703
  656.750    0.065    0.161   23.973  156.352   24.555
  657.000    0.085    0.176   26.082  155.515   21.121
  657.250    0.105    0.200   28.316  154.987   17.827
  657.500    0.127    0.214   30.488  155.600   17.425
  657.750    0.141    0.232   29.736  156.732   18.783
  658.000    0.074    0.248   19.843  158.071   19.646
  658.250    0.050    0.117   19.092  158.684   17.845
  658.500    0.046    0.102   21.699  158.780   15.642
  658.750    0.053    0.184   26.793  158.564   13.350
