~VERSION INFORMATION
 VERS.                 2.0:   CWLS LOG ASCII STANDARD -VERSION 2.0
 WRAP.                  NO:   ONE LINE PER DEPTH STEP
~WELL INFORMATION BLOCK
#MNEM.UNIT           DATA                    DESCRIPTION OF MNEMONIC
#---------    -------------------            -------------------------------
# Generated from Intellog Unique Number	CC_80_83/WELL/2304
NULL.         -999.25                        : NULL_VALUE
WELL.         CAN SUP PONY                   : Well_name    - WELL
LOC .         07-26-082-07W4                 : Location     - LOCATION          
UWI .         00/07-26-082-07W4/0            : Uwi          - UNIQUE WELL ID    
ENTR.         DW                             : Entered      - ENTERED BY        
SRVC.         SCHLUMBERGER                   : Scn          - SERVICE COMPANY   
DATE.         22 FEB 77                      : Date         - LOG DATE
STRT.M        198.12                         : top_depth    - START DEPTH       
STOP.M        451.109                        : bot_depth    - STOP DEPTH        
STEP.M        0.305                          : increment    - STEP LENGTH       
~CURVE INFORMATION BLOCK
#MNEM UNIT       ERCB CURVE CODE    CURVE DESCRIPTION
#-----------   ------------------   ----------------------------------
DEPT.M        00 001 00 00         : DEPTH        - DEPTH                       
DPHI.V/V      00 890 00 00         : PHID         - DENSITY POROSITY (LIMESTONE)
NPHI.V/V      00 330 00 00         : PHIN         - NEUTRON POROSITY (LIMESTONE)
GR  .API      00 310 00 00         : GR           - GAMMA RAY                   
ILD .OHMM     00 120 00 00         : RESD         - DEEP RESISTIVITY (DIL)      
~PARAMETER INFORMATION       
#MNEM.UNIT           DATA             DESCRIPTION OF MNEMONIC
#---------         -----------     ------------------------------
GL  .M        651.967              : gl           - GROUND LEVEL ELEVATION      
EREF.M        655.625              : kb           - ELEVATION OF DEPTH REFERENCE
DATM.M        655.625              : datum        - DATUM ELEVATION             
TDD .M        457.81               : tdd          - TOTAL DEPTH DRILLER         
RUN .         ONE                  : Run          - RUN NUMBER                  
ENG .         BILL                 : Engineer     - RECORDING ENGINEER          
WIT .         JIM                  : Witness      - WITNESSED BY                
MUD .         GEL                  : Mud_type     - MUD TYPE                    
MATR.         LIMESTONE            : Logunit      - NEUTRON MATRIX              
TMAX.C        31.1111              : BHT          - MAXIMUM RECORDED TEMPERATURE
BHTD.M        457.81               : BHTDEP       - MAXIMUM RECORDED TEMPERATURE
MATR.         1                    : LOGUNIT      - NEUTRON MATRIX              
RMT .C        25                   : MDTP         - TEMPERATURE OF MUD          
NEUT.         1                    : NEUTRON      - NEUTRON TYPE                
RESI.         0                    : RESIST       - RESISTIVITY TYPE            
RMC .OHMM     0.25                 : RMC          - RESISTIVITY OF MUD CAKE     
RMF .OHMM     0.25                 : RMF          - RESISTIVITY OF MUD FILTRATE 
SUFT.C        4                    : SUFT         - SURFACE TEMPERATURE         
~A  DEPTH     PHID     PHIN       GR     RESD
# ...
  410.265    0.357    0.450   37.295   35.803
  410.569    0.319    0.423   48.232   25.381
  410.874    0.282    0.398   63.441   24.931
  411.179    0.246    0.392   66.437   28.008
  411.484    0.251    0.390   64.584   36.688
  411.789    0.279    0.400   46.252   46.241
  412.093    0.307    0.369   40.123   55.015
  412.398    0.285    0.350   37.636   52.003
  412.703    0.256    0.348   38.828   47.308
  413.008    0.274    0.356   40.612   47.366
  413.313    0.276    0.394   38.739   49.276
  413.617    0.292    0.404   38.101   49.342
  413.922    0.315    0.404   41.116   42.374
  414.227    0.314    0.393   48.397   36.387
  414.532    0.305    0.380   57.505   23.892
  414.837    0.271    0.388   65.400   19.003
  415.142    0.215    0.395   67.191   16.636
  415.446    0.218    0.375   59.834   19.051
  415.751    0.244    0.376   60.404   22.238
  416.056    0.267    0.407   56.103   25.466
  416.361    0.296    0.428   44.477   28.610
  416.666    0.329    0.416   43.226   28.096
  416.970    0.322    0.421   52.336   19.168
  417.275    0.296    0.437   68.748   16.781
  417.580    0.267    0.412   73.599   12.599
  417.885    0.236    0.397   76.007   12.860
  418.190    0.225    0.413   77.798   12.633
  418.494    0.225    0.426   76.535   12.650
  418.799    0.248    0.433   72.234   13.412
  419.104    0.275    0.432   70.977   13.430
  419.409    0.259    0.443   70.944   12.695
  419.714    0.273    0.434   66.637   12.956
  420.018    0.285    0.441   67.213   15.415
  420.323    0.283    0.439   68.392   16.038
  420.628    0.263    0.441   72.626   13.774
  420.933    0.262    0.452   56.732   11.829
  421.238    0.276    0.428   56.695    8.714
  421.543    0.267    0.379   79.223    7.066
  421.847    0.209    0.401   93.212    6.681
  422.152    0.156    0.411   99.874    6.688
  422.457    0.178    0.415  103.502    6.959
  422.762    0.198    0.405  104.679    7.103
  423.067    0.194    0.402  104.040    7.248
  423.371    0.180    0.393   99.723    7.120
  423.676    0.173    0.401   97.866    7.129
  423.981    0.165    0.387   97.222    7.136
  424.286    0.170    0.415  101.453    7.144
  424.591    0.169    0.422  102.020    7.019
  424.895    0.162    0.403   98.940    7.030
  425.200    0.158    0.394   95.231    7.038
  425.505    0.158    0.389   95.813    7.046
  425.810    0.155    0.388   96.391    7.052
  426.115    0.154    0.396   93.915    6.930
  426.419    0.167    0.418   99.357    6.936
  426.724    0.175    0.438  102.366    7.078
  427.029    0.165    0.414   99.892    7.087
  427.334    0.165    0.397   97.420    6.963
  427.639    0.171    0.405   98.600    6.972
  427.944    0.174    0.395   97.954    6.848
  428.248    0.178    0.407   94.875    6.726
  428.553    0.181    0.417   86.293    6.732
  428.858    0.187    0.419   84.433    6.489
  429.163    0.196    0.406   88.048    6.372
  429.468    0.207    0.404   90.460    6.381
  429.772    0.194    0.407   92.247    6.391
  430.077    0.179    0.401   97.700    6.274
  430.382    0.166    0.405  102.538    6.165
  430.687    0.181    0.390  103.728    6.055
  430.992    0.176    0.404  101.860    5.946
  431.296    0.181    0.433   98.775    5.731
  431.601    0.197    0.424   93.853    5.629
  431.906    0.203    0.394   86.490    5.635
  432.211    0.221    0.381   83.414    5.862
  432.516    0.212    0.387   85.213    6.218
  432.820    0.186    0.402   91.268    6.471
  433.125    0.211    0.395   96.723    6.600
  433.430    0.167    0.410  104.000    6.869
  433.735    0.162    0.422  107.012    7.011
  434.040    0.176    0.400  101.485    7.155
  434.345    0.173    0.394  102.666    7.166
  434.649    0.167    0.385  105.074    7.171
  434.954    0.167    0.393  103.208    7.181
  435.259    0.160    0.394  105.003    7.192
  435.564    0.149    0.392  103.137    7.338
  435.869    0.149    0.409  105.531    7.350
  436.173    0.146    0.420  107.938    7.356
  436.478    0.157    0.398  111.560    7.227
  436.783    0.176    0.376  117.616    7.235
  437.088    0.190    0.400  121.240    6.973
  437.393    0.170    0.395  119.989    6.717
  437.697    0.168    0.397  114.460    5.881
  438.002    0.179    0.389  105.884    5.050
  438.307    0.190    0.367   99.146    4.095
  438.612    0.170    0.387   96.054    3.870
  438.917    0.198    0.400   81.997    4.607
  439.221    0.293    0.409   56.960    4.978
  439.526    0.306    0.406   55.085    6.522
  439.831    0.276    0.370   69.686    7.467
  440.136    0.205    0.366   93.430    7.619
  440.441    0.176    0.370   92.178    6.298
  440.746    0.193    0.362   88.485    5.106
  441.050    0.190    0.370   90.269    4.471
  441.355    0.184    0.395   78.653    4.309
  441.660    0.244    0.392   58.495    4.396
  441.965    0.278    0.368   62.721    5.335
  442.270    0.263    0.380   69.390    5.877
  442.574    0.230    0.380   74.227    6.993
  442.879    0.199    0.388   74.808    8.481
  443.184    0.176    0.373   65.017   11.768
  443.489    0.165    0.325   59.490   16.013
  443.794    0.073    0.269   55.185   20.578
  444.098    0.014    0.225   35.026   20.995
  444.403    0.000    0.199   21.572   24.514
  444.708    0.000    0.147   17.268   28.617
  445.013    0.000    0.137   17.224   30.347
  445.318    0.000    0.146   18.413   31.570
  445.622    0.000    0.150   20.199   33.483
  445.927    0.011    0.147   21.999   34.833
  446.232    0.000    0.134   21.956   37.655
  446.537    0.000    0.128   23.754   40.721
  446.842    0.002    0.126   26.150   39.987
  447.147    0.002    0.124   27.946   39.271
  447.451    0.000    0.134   29.133   41.660
  447.756    0.000    0.133   26.653   45.925
  448.061    0.000    0.125   26.011   45.958
  448.366    0.000    0.110   27.801   42.623
  448.671    0.000    0.120   31.425   40.286
  448.975    0.000    0.138   35.047   38.081
  449.280    0.000    0.155   30.120   36.698
  449.585    0.007    0.142   27.648   36.739
  449.890    0.000    0.132   25.180   37.494
  450.195    0.000    0.136   26.358   39.009
  450.499    0.005    0.149   54.985   41.379
  450.804    0.012    0.136   65.918   43.877
  451.109    0.010    0.122   67.107   47.442
