~VERSION INFORMATION
 VERS.                 2.0:   CWLS LOG ASCII STANDARD -VERSION 2.0
 WRAP.                  NO:   ONE LINE PER DEPTH STEP
~WELL INFORMATION BLOCK
#MNEM.UNIT           DATA                    DESCRIPTION OF MNEMONIC
#---------    -------------------            -------------------------------
# Generated from Intellog Unique Number	CS_71_72/WELL/689
WELL.         AEC IPIATIK                    : Well_name    - WELL
LOC .         00/05-21-071-04W4/0            : Location     - LOCATION
UWI .         00/05-21-071-04W4/0            : Uwi          - UNIQUE WELL ID
ENTR.         SP                             : Entered      - ENTERED BY
SRVC.         SCHLUMBERGER                   : Scn          - SERVICE COMPANY
STRT.M        290                            : top_depth    - START DEPTH
STOP.M        505                            : bot_depth    - STOP DEPTH
STEP.M        0.25                           : increment    - STEP LENGTH
 NULL. -999.2500:NULL Value
~CURVE INFORMATION BLOCK
#MNEM UNIT       ERCB CURVE CODE    CURVE DESCRIPTION
#-----------   ------------------   ----------------------------------
DEPT.M        00 001 00 00         : DEPTH        - DEPTH
ILD .OHMM     00 120 00 00         : RESD         - DEEP RESISTIVITY (DIL)
DPHI.V/V      00 890 00 00         : PHID         - DENSITY POROSITY (LIMESTONE)
NPHI.V/V      00 330 00 00         : PHIN         - NEUTRON POROSITY (LIMESTONE)
GR  .API      00 310 00 00         : GR           - GAMMA RAY
~PARAMETER INFORMATION
#MNEM.UNIT           DATA             DESCRIPTION OF MNEMONIC
#---------         -----------     ------------------------------
GL  .M        673.76               : gl           - GROUND LEVEL ELEVATION
EREF.M        677.96               : kb           - ELEVATION OF DEPTH REFERENCE
DATM.M        673.76               : datum        - DATUM ELEVATION
TDD .M        594                  : tdd          - TOTAL DEPTH DRILLER
RUN .         ONE                  : Run          - RUN NUMBER
ENG .         BILL                 : Engineer     - RECORDING ENGINEER
WIT .         JIM                  : Witness      - WITNESSED BY
MUD .         GEL                  : Mud_type     - MUD TYPE
MATR.         LIMESTONE            : Logunit      - NEUTRON MATRIX
TMAX.C        21                   : BHT          - MAXIMUM RECORDED TEMPERATURE
BHTD.M        594                  : BHTDEP       - MAXIMUM RECORDED TEMPERATURE
MATR.         1                    : LOGUNIT      - NEUTRON MATRIX
RMT .C        25                   : MDTP         - TEMPERATURE OF MUD
NEUT.         1                    : NEUTRON      - NEUTRON TYPE
RESI.         0                    : RESIST       - RESISTIVITY TYPE
RMC .OHMM     0.25                 : RMC          - RESISTIVITY OF MUD CAKE
RMF .OHMM     0.25                 : RMF          - RESISTIVITY OF MUD FILTRATE
SUFT.C        15                   : SUFT         - SURFACE TEMPERATURE
~A  DEPTH     RESD     PHID     PHIN       GR
  290.000    2.818    0.286    0.557   96.549
  290.250    2.707    0.296    0.557   95.600
  290.500    2.605    0.278    0.563   94.711
  290.750    2.554    0.268    0.567   94.190
  291.000    2.609    0.259    0.555   92.815
  291.250    2.802    0.245    0.529   91.200
  291.500    2.943    0.255    0.510   91.584
  291.750    2.945    0.269    0.515   94.627
  292.000    2.887    0.267    0.531   97.795
  292.250    2.858    0.265    0.544  100.716
  292.500    2.897    0.262    0.531   99.889
  292.750    2.993    0.266    0.520   97.066
  293.000    3.079    0.271    0.514   98.415
  293.250    3.140    0.259    0.521   99.706
  293.500    3.136    0.245    0.527  100.512
  293.750    3.104    0.238    0.505  100.108
  294.000    3.272    0.245    0.498   97.828
  294.250    3.437    0.244    0.519   97.245
  294.500    3.458    0.239    0.529   98.593
  294.750    3.416    0.233    0.517   97.584
  295.000    3.369    0.234    0.531   94.641
  295.250    3.371    0.260    0.546   93.026
  295.500    3.462    0.273    0.543   91.594
  295.750    3.544    0.277    0.517   90.403
  296.000    3.573    0.256    0.501   91.815
  296.250    3.588    0.240    0.499   94.013
  296.500    3.532    0.260    0.526   93.668
  296.750    3.336    0.273    0.522   94.778
  297.000    3.134    0.285    0.512   96.675
  297.250    2.977    0.288    0.519   96.995
  297.500    2.882    0.273    0.527   96.591
  297.750    2.847    0.272    0.532   95.219
  298.000    2.962    0.261    0.538   93.363
  298.250    3.134    0.260    0.553   91.326
  298.500    3.249    0.245    0.537   90.800
  298.750    3.294    0.245    0.510   90.881
  299.000    3.303    0.254    0.513   92.414
  299.250    3.463    0.248    0.529   93.763
  299.500    3.597    0.253    0.509   94.328
  299.750    3.708    0.263    0.493   96.283
  300.000    3.759    0.268    0.466   97.754
  300.250    3.538    0.259    0.491   95.838
  300.500    3.167    0.275    0.513   92.895
  300.750    2.959    0.280    0.530   90.796
  301.000    2.744    0.274    0.546   88.095
  301.250    2.597    0.278    0.556   85.874
  301.500    2.753    0.283    0.553   81.538
  301.750    3.144    0.283    0.532   76.174
  302.000    4.666    0.309    0.466   68.693
  302.250   11.150    0.284    0.313   66.354
  302.500   22.244    0.051    0.264   65.344
  302.750   30.367    0.068    0.191   55.324
  303.000   30.448    0.144    0.177   55.100
  303.250   26.407    0.187    0.209   55.965
  303.500   20.865    0.255    0.243   57.075
  303.750   18.747    0.282    0.263   58.971
  304.000   17.809    0.360    0.278   59.475
  304.250   17.364    0.376    0.279   59.916
  304.500   16.775    0.381    0.274   61.024
  304.750   16.234    0.390    0.270   62.798
  305.000   15.336    0.378    0.276   64.936
  305.250   14.142    0.386    0.277   65.922
  305.500   14.179    0.363    0.275   66.003
  305.750   16.436    0.352    0.287   65.601
  306.000   17.166    0.377    0.277   65.074
  306.250   16.989    0.396    0.266   63.520
  306.500   15.841    0.395    0.283   60.758
  306.750   14.312    0.393    0.296   58.843
  307.000   13.051    0.383    0.308   58.558
  307.250   11.660    0.362    0.325   59.728
  307.500   10.633    0.336    0.365   61.078
  307.750   10.195    0.314    0.399   62.004
  308.000    9.941    0.298    0.416   61.903
  308.250    9.893    0.306    0.428   59.201
  308.500    9.957    0.310    0.451   56.861
  308.750   10.019    0.303    0.471   55.791
  309.000    9.989    0.304    0.460   59.622
  309.250    9.960    0.317    0.445   60.549
  309.500    9.729    0.324    0.435   58.996
  309.750    9.072    0.335    0.422   57.079
  310.000    8.365    0.329    0.408   61.273
  310.250    7.962    0.328    0.436   66.556
  310.500    7.705    0.330    0.479   69.905
  310.750    7.569    0.336    0.502   71.677
  311.000    7.589    0.348    0.528   72.846
  311.250    7.666    0.358    0.563   73.894
  311.500    7.714    0.345    0.507   76.277
  311.750    7.821    0.356    0.486   79.502
  312.000    7.513    0.369    0.500   82.668
  312.250    7.019    0.335    0.515   84.619
  312.500    6.593    0.275    0.526   82.704
  312.750    6.276    0.235    0.415   86.111
  313.000    6.130    0.237    0.414   86.734
  313.250    6.067    0.246    0.412   84.637
  313.500    6.060    0.231    0.416   87.379
  313.750    6.236    0.225    0.425   94.116
  314.000    6.538    0.245    0.430   98.430
  314.250    6.829    0.261    0.430  100.866
  314.500    6.910    0.274    0.433  103.976
  314.750    6.614    0.279    0.443  106.048
  315.000    6.295    0.266    0.437  104.131
  315.250    5.880    0.244    0.446  100.581
  315.500    5.402    0.139    0.457   98.787
  315.750    4.926    0.127    0.468  101.286
  316.000    4.337    0.225    0.490  105.721
  316.250    4.029    0.236    0.525  107.254
  316.500    3.757    0.235    0.537  110.116
  316.750    3.569    0.236    0.524  114.734
  317.000    3.480    0.235    0.519  116.026
  317.250    3.374    0.218    0.550  116.712
  317.500    3.241    0.203    0.556  116.850
  317.750    3.108    0.203    0.545  116.688
  318.000    3.053    0.230    0.539  116.892
  318.250    3.043    0.251    0.528  116.484
  318.500    3.191    0.223    0.522  113.117
  318.750    3.557    0.104    0.526  109.747
  319.000    4.069    0.078    0.535  103.234
  319.250    4.553    0.073    0.494   96.055
  319.500    5.095    0.133    0.427   96.619
  319.750    5.861    0.191    0.438   89.380
  320.000    6.366    0.290    0.447   71.977
  320.250    6.502    0.329    0.426   64.012
  320.500    6.364    0.340    0.410   60.281
  320.750    6.056    0.346    0.406   63.385
  321.000    5.928    0.345    0.418   66.434
  321.250    5.977    0.321    0.420   68.870
  321.500    6.138    0.305    0.412   71.612
  321.750    6.654    0.296    0.405   73.264
  322.000    6.822    0.289    0.399   71.892
  322.250    6.853    0.293    0.395   71.550
  322.500    6.883    0.303    0.388   73.386
  322.750    6.901    0.292    0.400   77.578
  323.000    6.868    0.275    0.412   81.650
  323.250    6.861    0.250    0.415   84.088
  323.500    6.840    0.236    0.401   84.229
  323.750    6.807    0.232    0.396   82.192
  324.000    6.790    0.240    0.412   76.827
  324.250    6.754    0.268    0.426   69.710
  324.500    6.672    0.294    0.428   64.042
  324.750    6.494    0.319    0.405   60.492
  325.000    6.011    0.345    0.397   58.516
  325.250    5.850    0.335    0.400   60.834
  325.500    5.842    0.321    0.403   64.120
  325.750    5.937    0.313    0.407   64.442
  326.000    6.017    0.308    0.411   68.153
  326.250    6.169    0.313    0.415   71.801
  326.500    6.290    0.301    0.418   75.027
  326.750    6.364    0.286    0.415   77.466
  327.000    6.488    0.276    0.412   78.938
  327.250    6.627    0.274    0.406   79.745
  327.500    6.836    0.282    0.398   82.908
  327.750    6.889    0.275    0.409   87.286
  328.000    6.972    0.271    0.414   88.936
  328.250    7.016    0.258    0.408   89.925
  328.500    7.021    0.260    0.409   91.880
  328.750    6.974    0.266    0.403   93.774
  329.000    6.953    0.252    0.401   92.647
  329.250    6.946    0.245    0.414   89.700
  329.500    6.912    0.239    0.425   86.574
  329.750    6.841    0.246    0.423   86.895
  330.000    6.683    0.259    0.413   84.798
  330.250    6.552    0.277    0.401   78.288
  330.500    6.424    0.278    0.396   73.771
  330.750    6.264    0.264    0.396   70.644
  331.000    6.187    0.267    0.396   68.664
  331.250    6.146    0.282    0.394   66.627
  331.500    6.185    0.295    0.393   66.223
  331.750    6.237    0.298    0.393   70.056
  332.000    6.252    0.281    0.395   72.675
  332.250    6.222    0.267    0.402   77.294
  332.500    6.090    0.262    0.399   82.877
  332.750    5.959    0.260    0.395   86.829
  333.000    5.800    0.256    0.402   89.875
  333.250    5.740    0.251    0.427   91.285
