~VERSION INFORMATION
 VERS.                 2.0:   CWLS LOG ASCII STANDARD -VERSION 2.0
 WRAP.                  NO:   ONE LINE PER DEPTH STEP
~WELL INFORMATION BLOCK
#MNEM.UNIT           DATA                    DESCRIPTION OF MNEMONIC
#---------    -------------------            -------------------------------
# Generated from Intellog Unique Number	CW_82_90/WELL/416
NULL.         -999.25                        : NULL_VALUE
WELL.         GULF WABASCA                   : Well_name    - WELL              
LOC .         00/05-06-083-22W4/0            : Location     - LOCATION          
UWI .         00/05-06-083-22W4/0            : Uwi          - UNIQUE WELL ID    
ENTR.         JAYE                           : Entered      - ENTERED BY        
SRVC.         SCHLUMBERGER                   : Scn          - SERVICE COMPANY   
DATE.         31 DEC 73                      : Date         - LOG DATE          
STRT.M        252.984                        : top_depth    - START DEPTH       
STOP.M        432.734                        : bot_depth    - STOP DEPTH        
STEP.M        0.25                           : increment    - STEP LENGTH       
~CURVE INFORMATION BLOCK
#MNEM UNIT       ERCB CURVE CODE    CURVE DESCRIPTION
#-----------   ------------------   ----------------------------------
DEPT.M        00 001 00 00         : DEPTH        - DEPTH                       
ILD .OHMM     00 120 00 00         : RESD         - DEEP RESISTIVITY (DIL)      
CALI.MM       00 280 01 00         : CAL          - CALIPER                     
GR  .API      00 310 00 00         : GR           - GAMMA RAY                   
DPHI.V/V      00 890 00 00         : PHID         - DENSITY POROSITY (SANDSTONE)
NPHI.V/V      00 330 00 00         : PHIN         - NEUTRON POROSITY (SANDSTONE)
~PARAMETER INFORMATION       
#MNEM.UNIT           DATA             DESCRIPTION OF MNEMONIC
#---------         -----------     ------------------------------
GL  .M        620.573              : gl           - GROUND LEVEL ELEVATION      
EREF.M        623.926              : kb           - ELEVATION OF DEPTH REFERENCE
DATM.M        620.573              : datum        - DATUM ELEVATION             
TDD .M        441.046              : tdd          - TOTAL DEPTH DRILLER         
RUN .         TWO                  : Run          - RUN NUMBER                  
ENG .         WARKIW               : Engineer     - RECORDING ENGINEER          
WIT .         CAMPBELL             : Witness      - WITNESSED BY                
BASE.         EDMONTON             : Branch       - HOME BASE OF LOGGING UNIT   
MUD .         GEL CHEM             : Mud_type     - MUD TYPE                    
MATR.         SANDSTONE            : Logunit      - NEUTRON MATRIX              
TMAX.C        29.4                 : BHT          - MAXIMUM RECORDED TEMPERATURE
BHTD.M        441.046              : BHTDEP       - MAXIMUM RECORDED TEMPERATURE
RMT .C        15.5556              : MDTP         - TEMPERATURE OF MUD          
MUDD.KG/M     9200                 : MWT          - MUD DENSITY                 
NEUT.         1                    : NEUTRON      - NEUTRON TYPE                
RESI.         0                    : RESIST       - RESISTIVITY TYPE            
RM  .OHMM     2.1                  : RM           - RESISTIVITY OF MUD          
RMC .OHMM     0                    : RMC          - RESISTIVITY OF MUD CAKE     
RMF .OHMM     0                    : RMF          - RESISTIVITY OF MUD FILTRATE 
SUFT.C        -17.7778             : SUFT         - SURFACE TEMPERATURE         
~A  DEPTH     RESD      CAL       GR     PHID     PHIN
# ...
  289.484    9.611  248.300   69.720    0.325    0.656
  289.734    8.212  248.014   70.348    0.323    0.618
  289.984    7.148  249.587   72.128    0.326    0.600
  290.234    5.919  249.101   76.410    0.315    0.584
  290.484    5.076  247.892   80.143    0.300    0.566
  290.734    4.644  246.789   79.670    0.282    0.557
  290.984    4.554  246.610   76.153    0.276    0.586
  291.234    4.738  246.125   69.832    0.292    0.692
  291.484    5.087  245.636   69.239    0.316    0.660
  291.734    5.252  245.156   73.276    0.314    0.596
  291.984    5.248  244.479   76.643    0.300    0.614
  292.234    4.791  244.192   76.661    0.300    0.638
  292.484    4.522  243.803   79.478    0.293    0.625
  292.734    4.403  243.312   77.970    0.278    0.641
  292.984    4.383  243.135   76.039    0.278    0.668
  293.234    4.518  243.569   75.201    0.296    0.649
  293.484    4.823  244.833   74.607    0.311    0.626
  293.734    5.371  245.374   73.709    0.305    0.622
  293.984    6.115  245.402   69.704    0.309    0.670
  294.234    7.066  245.434   63.263    0.316    0.653
  294.484    8.105  246.085   58.956    0.327    0.659
  294.734    9.059  246.730   62.017    0.331    0.652
  294.984   10.276  246.960   64.834    0.325    0.656
  295.234   11.614  246.677   59.732    0.322    0.646
  295.484   12.745  246.192   56.520    0.338    0.605
  295.734   13.783  245.502   56.417    0.335    0.598
  295.984   14.933  244.601   56.616    0.326    0.584
  296.234   15.764  244.012   57.120    0.326    0.595
  296.484   15.838  245.995   57.683    0.338    0.577
  296.734   15.338  247.671   58.245    0.331    0.582
  296.984   14.716  248.737   59.723    0.315    0.586
  297.234   14.172  248.865   61.628    0.312    0.588
  297.484   13.749  248.785   63.961    0.308    0.547
  297.734   13.266  248.608   65.926    0.297    0.551
  297.984   12.680  248.227   68.195    0.294    0.545
  298.234   12.032  248.356   68.820    0.316    0.537
  298.484   11.396  247.873   67.678    0.322    0.558
  298.734   11.015  247.587   65.927    0.323    0.596
  298.984   11.027  247.307   64.481    0.322    0.588
  299.234   11.283  247.130   65.536    0.319    0.616
  299.484   11.696  247.263   67.194    0.317    0.599
  299.734   12.056  247.395   69.098    0.322    0.581
  299.984   12.292  247.627   68.444    0.318    0.566
  300.234   12.327  247.660   66.268    0.315    0.566
  300.484   12.338  247.890   66.344    0.330    0.646
  300.734   12.467  247.920   63.070    0.335    0.603
  300.984   12.638  247.843   59.126    0.333    0.572
  301.234   13.029  247.767   60.605    0.325    0.575
  301.484   13.479  248.621   63.913    0.307    0.572
  301.734   14.127  249.575   66.484    0.306    0.578
  301.984   14.942  249.910   66.439    0.304    0.603
  302.234   15.776  250.048   66.093    0.307    0.581
  302.484   16.812  249.662   65.558    0.307    0.551
  302.734   17.554  248.869   64.539    0.304    0.531
  302.984   18.308  248.794   62.302    0.308    0.559
  303.234   18.316  248.919   61.098    0.317    0.567
  303.484   16.938  248.439   61.541    0.323    0.562
  303.734   15.181  248.461   63.324    0.328    0.553
  303.984   13.989  248.081   64.496    0.329    0.535
  304.234   13.251  248.314   65.004    0.329    0.522
  304.484   12.997  248.445   64.530    0.318    0.498
  304.734   13.546  248.676   62.169    0.311    0.508
  304.984   14.171  248.399   60.236    0.320    0.516
  305.234   14.826  248.222   59.585    0.319    0.501
  305.484   15.283  248.248   58.989    0.312    0.492
  305.734   15.301  250.443   58.821    0.309    0.502
  305.984   15.425  252.219   58.900    0.310    0.506
  306.234   15.901  253.378   58.793    0.316    0.489
  306.484   16.789  253.818   58.870    0.322    0.495
  306.734   17.436  253.744   58.461    0.328    0.530
  306.984   17.875  251.716   57.562    0.331    0.519
  307.234   18.156  250.609   56.300    0.331    0.499
  307.484   18.376  250.121   55.888    0.326    0.519
  307.734   18.531  249.740   55.661    0.328    0.531
  307.984   18.684  249.249   55.737    0.336    0.569
  308.234   18.840  249.174   55.937    0.352    0.564
  308.484   19.139  248.893   56.075    0.340    0.528
  308.734   19.371  249.647   56.580    0.333    0.516
  308.984   19.313  250.599   57.385    0.321    0.514
  309.234   19.017  251.967   59.961    0.322    0.496
  309.484   18.483  253.233   63.450    0.329    0.518
  309.734   17.962  253.670   66.084    0.330    0.555
  309.984   17.013  253.909   67.258    0.333    0.573
  310.234   16.028  254.142   65.872    0.339    0.570
  310.484   15.293  254.685   65.953    0.338    0.566
  310.734   14.326  254.607   66.636    0.333    0.528
  310.984   13.346  254.534   67.567    0.317    0.520
  311.234   12.297  255.082   70.323    0.294    0.500
  311.484   11.289  255.622   70.156    0.248    0.486
  311.734   10.156  257.406   69.139    0.115    0.429
  311.984    8.888  256.091   71.772    0.077    0.298
  312.234    7.908  276.201   80.987    0.112    0.295
  312.484    7.206  274.374   88.621    0.171    0.498
  312.734    6.727  263.282   91.198    0.238    0.649
  312.984    6.671  262.285   91.154    0.230    0.645
  313.234    6.764  261.999   90.374    0.225    0.627
  313.484    6.935  260.483   89.171    0.234    0.597
  313.734    7.162  259.176   88.335    0.230    0.577
  313.984    7.451  259.095   86.888    0.229    0.561
  314.234    7.459  259.125   80.751    0.252    0.541
  314.484    7.382  259.872   82.106    0.253    0.543
  314.734    7.255  260.623   84.501    0.251    0.548
  314.984    7.145  261.268   86.160    0.242    0.546
  315.234    7.098  262.018   86.297    0.232    0.553
  315.484    7.104  262.666   85.767    0.230    0.602
  315.734    7.216  261.978   85.843    0.237    0.628
  315.984    7.370  260.866   85.678    0.249    0.625
  316.234    7.461  257.598   84.962    0.258    0.599
  316.484    7.508  254.226   83.394    0.266    0.576
  316.734    7.515  251.582   82.009    0.273    0.572
  316.984    7.399  250.884   82.633    0.263    0.583
  317.234    7.461  250.706   85.636    0.253    0.603
  317.484    7.634  251.764   86.686    0.252    0.589
  317.734    8.303  252.925   87.434    0.265    0.573
  317.984    8.829  253.885   90.007    0.255    0.563
  318.234   10.372  254.427   93.678    0.248    0.542
  318.484   13.457  255.077  100.701    0.215    0.528
  318.734   19.038  255.722  104.373    0.193    0.522
  318.984   26.635  256.054  101.341    0.117    0.477
  319.234   31.694  254.952   91.671    0.079    0.341
  319.484   31.785  254.359   73.471    0.045    0.266
  319.734   29.613  254.182   66.420    0.026    0.218
  319.984   26.299  253.902   49.257    0.010    0.194
  320.234   22.638  256.292   51.406   -0.001    0.182
  320.484   19.846  256.104   55.261   -0.000    0.183
  320.734   16.802  254.987   59.967    0.010    0.195
  320.984   14.759  252.430   66.623    0.057    0.216
  321.234   13.376  249.252   74.134    0.089    0.247
  321.484   12.646  247.830   80.057    0.168    0.469
  321.734   12.201  247.332   79.465    0.272    0.561
  321.984   11.902  248.797   76.618    0.300    0.568
  322.234   11.956  250.469   74.562    0.305    0.574
  322.484   12.034  252.345   73.968    0.303    0.579
  322.734   11.965  253.603   75.569    0.301    0.585
  322.984   11.840  253.627   75.098    0.301    0.601
  323.234   11.829  253.026   74.079    0.308    0.582
  323.484   11.817  252.634   71.475    0.317    0.563
  323.734   11.762  252.138   69.359    0.326    0.573
  323.984   11.644  251.849   73.031    0.325    0.593
  324.234   11.849  252.078   71.340    0.325    0.580
  324.484   11.538  252.096   69.711    0.327    0.566
  324.734   11.234  253.049   71.009    0.331    0.611
  324.984   10.839  253.168   72.971    0.337    0.650
  325.234   10.211  253.501   71.525    0.337    0.616
  325.484    9.442  253.523   73.796    0.329    0.577
  325.734    7.805  254.880   77.468    0.330    0.582
