~VERSION INFORMATION
 VERS.                 2.0:   CWLS LOG ASCII STANDARD -VERSION 2.0
 WRAP.                  NO:   ONE LINE PER DEPTH STEP
~WELL INFORMATION BLOCK
#MNEM.UNIT           DATA                    DESCRIPTION OF MNEMONIC
#---------    -------------------            -------------------------------
# Generated from Intellog Unique Number	CS_73_76/WELL/623
WELL.         PEX PHILLIPS AEC WIAU          : Well_name    - WELL
LOC .         00/06-10-073-07W4/0            : Location     - LOCATION
UWI .         00/06-10-073-07W4/0            : Uwi          - UNIQUE WELL ID
ENTR.         SP                             : Entered      - ENTERED BY
SRVC.         SCHLUMBERGER                   : Scn          - SERVICE COMPANY
STRT.M        350                            : top_depth    - START DEPTH
STOP.M        575                            : bot_depth    - STOP DEPTH
STEP.M        0.25                           : increment    - STEP LENGTH
 NULL. -999.2500:NULL Value
~CURVE INFORMATION BLOCK
#MNEM UNIT       ERCB CURVE CODE    CURVE DESCRIPTION
#-----------   ------------------   ----------------------------------
DEPT.M        00 001 00 00         : DEPTH        - DEPTH
ILD .OHMM     00 120 00 00         : RESD         - DEEP RESISTIVITY (DIL)
DPHI.V/V      00 890 00 00         : PHID         - DENSITY POROSITY (LIMESTONE)
NPHI.V/V      00 330 00 00         : PHIN         - NEUTRON POROSITY (LIMESTONE)
GR  .API      00 310 00 00         : GR           - GAMMA RAY
~PARAMETER INFORMATION
#MNEM.UNIT           DATA             DESCRIPTION OF MNEMONIC
#---------         -----------     ------------------------------
GL  .M        728.6                : gl           - GROUND LEVEL ELEVATION
EREF.M        733                  : kb           - ELEVATION OF DEPTH REFERENCE
DATM.M        728.6                : datum        - DATUM ELEVATION
TDD .M        581                  : tdd          - TOTAL DEPTH DRILLER
RUN .         ONE                  : Run          - RUN NUMBER
ENG .         BILL                 : Engineer     - RECORDING ENGINEER
WIT .         JIM                  : Witness      - WITNESSED BY
MUD .         GEL                  : Mud_type     - MUD TYPE
MATR.         LIMESTONE            : Logunit      - NEUTRON MATRIX
TMAX.C        14                   : BHT          - MAXIMUM RECORDED TEMPERATURE
BHTD.M        581                  : BHTDEP       - MAXIMUM RECORDED TEMPERATURE
MATR.         1                    : LOGUNIT      - NEUTRON MATRIX
RMT .C        25                   : MDTP         - TEMPERATURE OF MUD
NEUT.         1                    : NEUTRON      - NEUTRON TYPE
RESI.         0                    : RESIST       - RESISTIVITY TYPE
RMC .OHMM     0.25                 : RMC          - RESISTIVITY OF MUD CAKE
RMF .OHMM     0.25                 : RMF          - RESISTIVITY OF MUD FILTRATE
SUFT.C        15                   : SUFT         - SURFACE TEMPERATURE
~A  DEPTH     RESD     PHID     PHIN       GR
# ...
  480.500    5.290    0.268    0.470   74.348
  480.750    4.911    0.254    0.468   74.963
  481.000    4.645    0.240    0.493   74.987
  481.250    4.820    0.246    0.505   74.396
  481.500    5.094    0.268    0.533   65.977
  481.750    5.485    0.288    0.530   60.576
  482.000    5.798    0.290    0.495   60.598
  482.250    6.359    0.299    0.480   62.420
  482.500    6.722    0.307    0.471   63.638
  482.750    7.510    0.317    0.465   64.267
  483.000    7.793    0.303    0.470   63.075
  483.250    7.937    0.301    0.487   61.285
  483.500    7.790    0.301    0.503   61.300
  483.750    7.369    0.299    0.509   61.921
  484.000    6.122    0.291    0.489   63.143
  484.250    5.086    0.284    0.482   67.987
  484.500    4.072    0.282    0.498   72.222
  484.750    3.142    0.285    0.533   73.437
  485.000    2.709    0.316    0.585   75.268
  485.250    2.562    0.320    0.607   75.291
  485.500    2.468    0.315    0.606   74.100
  485.750    2.468    0.315    0.580   73.510
  486.000    2.561    0.303    0.549   71.718
  486.250    2.809    0.293    0.548   69.934
  486.500    3.139    0.295    0.561   68.744
  486.750    3.639    0.319    0.564   66.961
  487.000    3.919    0.315    0.508   65.772
  487.250    4.460    0.288    0.499   64.581
  487.500    4.984    0.273    0.504   63.392
  487.750    5.887    0.282    0.484   63.412
  488.000    6.578    0.227    0.493   63.442
  488.250    7.214    0.132    0.444   60.434
  488.500    7.214    0.134    0.386   62.860
  488.750    7.213    0.195    0.415   67.710
  489.000    7.079    0.235    0.462   68.318
  489.250    6.821    0.250    0.498   65.924
  489.500    6.695    0.242    0.498   66.546
  489.750    6.571    0.229    0.475   67.768
  490.000    6.331    0.239    0.478   69.594
  490.250    6.330    0.253    0.500   72.033
  490.500    6.329    0.240    0.483   72.044
  490.750    6.328    0.252    0.471   72.059
  491.000    6.328    0.234    0.477   72.681
  491.250    6.688    0.252    0.469   73.312
  491.500    6.687    0.260    0.463   73.929
  491.750    6.811    0.253    0.453   73.943
  492.000    6.810    0.248    0.460   74.558
  492.250    6.684    0.249    0.466   75.175
  492.500    6.808    0.254    0.470   74.590
  492.750    6.807    0.243    0.499   70.999
  493.000    6.806    0.239    0.525   70.408
  493.250    6.680    0.244    0.512   69.824
  493.500    6.679    0.247    0.498   69.242
  493.750    6.678    0.231    0.484   68.058
  494.000    6.555    0.229    0.484   66.869
  494.250    6.554    0.230    0.489   68.692
  494.500    6.553    0.242    0.484   72.926
  494.750    6.675    0.251    0.477   77.763
  495.000    6.798    0.236    0.472   78.382
  495.250    6.797    0.227    0.469   77.803
  495.500    6.195    0.221    0.483   76.614
  495.750    5.647    0.222    0.489   73.015
  496.000    5.341    0.241    0.492   70.028
  496.250    4.691    0.240    0.482   69.437
  496.500    4.275    0.239    0.474   68.259
  496.750    3.897    0.249    0.467   68.267
  497.000    3.422    0.255    0.514   69.496
  497.250    3.006    0.285    0.544   70.116
  497.500    2.843    0.304    0.563   70.731
  497.750    2.689    0.283    0.559   71.352
  498.000    2.688    0.291    0.556   71.974
  498.250    2.688    0.299    0.546   73.195
  498.500    2.688    0.293    0.536   74.419
  498.750    2.687    0.280    0.515   74.436
  499.000    2.687    0.269    0.498   74.451
  499.250    2.687    0.264    0.501   73.876
  499.500    2.686    0.248    0.506   73.283
  499.750    2.686    0.252    0.523   72.099
  500.000    3.057    0.254    0.531   70.310
  500.250    3.611    0.255    0.516   69.719
  500.500    3.888    0.273    0.494   68.538
  500.750    4.344    0.270    0.464   67.946
  501.000    4.508    0.259    0.473   67.965
  501.250    4.765    0.273    0.478   66.778
  501.500    4.764    0.272    0.491   64.388
  501.750    5.035    0.249    0.497   60.791
  502.000    5.948    0.252    0.531   57.192
  502.250    7.565    0.264    0.515   53.596
  502.500    8.612    0.309    0.533   49.997
  502.750   10.172    0.347    0.503   48.810
  503.000   11.157    0.343    0.488   49.430
  503.250   12.466    0.333    0.478   49.451
  503.500   13.423    0.337    0.472   48.870
  503.750   14.453    0.344    0.468   48.283
  504.000   15.277    0.352    0.472   47.693
  504.250   15.560    0.333    0.477   47.113
  504.500   15.557    0.317    0.464   46.526
  504.750   15.846    0.328    0.470   45.941
  505.000   16.442    0.334    0.473   44.758
  505.250   17.059    0.326    0.500   44.771
  505.500   17.376    0.327    0.490   46.598
  505.750   17.374    0.353    0.481   47.225
  506.000   17.695    0.359    0.485   47.237
  506.250   17.692    0.349    0.499   47.252
  506.500   17.690    0.333    0.512   47.281
  506.750   17.363    0.334    0.491   47.897
  507.000   17.361    0.345    0.471   47.910
  507.250   17.040    0.351    0.459   49.736
  507.500   16.725    0.354    0.454   50.357
  507.750   16.722    0.335    0.462   50.374
  508.000   17.033    0.313    0.465   50.392
  508.250   17.030    0.304    0.469   49.811
  508.500   17.029    0.328    0.488   48.616
  508.750   16.713    0.341    0.507   46.830
  509.000   16.102    0.354    0.512   46.846
  509.250   16.101    0.358    0.487   46.870
  509.500   16.399    0.361    0.490   46.885
  509.750   17.015    0.359    0.489   46.903
  510.000   17.331    0.354    0.479   46.921
  510.250   17.653    0.350    0.482   46.933
  510.500   17.980    0.346    0.472   45.750
  510.750   17.976    0.338    0.477   44.559
  511.000   17.644    0.324    0.485   43.372
  511.250   17.643    0.313    0.502   45.197
  511.500   17.316    0.303    0.497   47.024
  511.750   17.314    0.345    0.480   47.642
  512.000   17.635    0.357    0.477   46.462
  512.250   17.633    0.360    0.487   47.082
  512.500   17.959    0.357    0.495   47.695
  512.750   17.957    0.349    0.508   47.111
  513.000   18.289    0.346    0.497   46.527
  513.250   17.952    0.349    0.473   45.338
  513.500   17.619    0.351    0.466   46.570
  513.750   17.618    0.347    0.480   47.785
  514.000   16.974    0.345    0.486   50.215
  514.250   16.660    0.343    0.487   51.434
  514.500   16.352    0.340    0.474   50.252
  514.750   16.350    0.337    0.491   48.461
  515.000   16.654    0.334    0.491   46.066
  515.250   16.962    0.341    0.471   43.680
  515.500   17.600    0.345    0.465   43.698
  515.750   18.950    0.339    0.439   44.311
  516.000   20.030    0.225    0.366   42.524
  516.250   20.783    0.031    0.262   40.732
  516.500   20.399    0.062    0.260   38.944
  516.750   16.331    0.134    0.317   40.165
  517.000   14.081    0.215    0.382   43.798
  517.250   12.834    0.270    0.423   49.843
  517.500   11.915    0.324    0.451   51.665
  517.750   11.480    0.337    0.472   49.283
  518.000   11.061    0.342    0.482   48.693
  518.250   10.857    0.330    0.496   48.706
  518.500   10.656    0.329    0.473   46.918
  518.750   10.267    0.328    0.460   44.525
  519.000    9.892    0.337    0.459   45.752
  519.250    9.710    0.343    0.473   49.385
  519.500    8.850    0.318    0.474   53.018
  519.750    7.218    0.217    0.465   59.059
  520.000    5.997    0.179    0.454   65.702
  520.250    4.458    0.149    0.449   71.745
  520.500    3.440    0.201    0.459   72.363
  520.750    3.077    0.251    0.490   68.775
  521.000    3.439    0.272    0.521   66.377
  521.250    4.710    0.284    0.498   60.976
  521.500    6.103    0.289    0.481   55.566
  521.750    7.077    0.278    0.471   46.546
  522.000    9.170    0.275    0.460   40.545
  522.250   12.331    0.293    0.446   38.748
  522.500   15.398    0.288    0.443   35.154
  522.750   21.092    0.305    0.435   32.157
  523.000   24.915    0.311    0.429   28.563
  523.250   31.110    0.315    0.423   26.176
  523.500   36.073    0.333    0.422   25.585
  523.750   38.840    0.322    0.426   24.400
