~VERSION INFORMATION
 VERS.                 2.0:   CWLS LOG ASCII STANDARD -VERSION 2.0
 WRAP.                  NO:   ONE LINE PER DEPTH STEP
~WELL INFORMATION BLOCK
#MNEM.UNIT           DATA                    DESCRIPTION OF MNEMONIC
#---------    -------------------            -------------------------------
# Generated from Intellog Unique Number	CS_73_76/WELL/1044
WELL.         CANADIAN SUPERIOR OIL LTD.     : Well_name    - WELL
LOC .         00/06-20-076-14W4/0            : Location     - LOCATION
UWI .         00/06-20-076-14W4/0            : Uwi          - UNIQUE WELL ID
ENTR.         SP                             : Entered      - ENTERED BY
SRVC.         SCHLUMBERGER                   : Scn          - SERVICE COMPANY
STRT.M        315                            : top_depth    - START DEPTH
STOP.M        530                            : bot_depth    - STOP DEPTH
STEP.M        0.25                           : increment    - STEP LENGTH
 NULL. -999.2500:NULL Value
~CURVE INFORMATION BLOCK
#MNEM UNIT       ERCB CURVE CODE    CURVE DESCRIPTION
#-----------   ------------------   ----------------------------------
DEPT.M        00 001 00 00         : DEPTH        - DEPTH
DPHI.V/V      00 890 00 00         : PHID         - DENSITY POROSITY (LIMESTONE)
NPHI.V/V      00 330 00 00         : PHIN         - NEUTRON POROSITY (LIMESTONE)
GR  .API      00 310 00 00         : GR           - GAMMA RAY
ILD .OHMM     00 120 00 00         : RESD         - DEEP RESISTIVITY (DIL)
~PARAMETER INFORMATION
#MNEM.UNIT           DATA             DESCRIPTION OF MNEMONIC
#---------         -----------     ------------------------------
GL  .M        694.7                : gl           - GROUND LEVEL ELEVATION
EREF.M        698.7                : kb           - ELEVATION OF DEPTH REFERENCE
DATM.M        694.7                : datum        - DATUM ELEVATION
TDD .M        539                  : tdd          - TOTAL DEPTH DRILLER
RUN .         ONE                  : Run          - RUN NUMBER
ENG .         BILL                 : Engineer     - RECORDING ENGINEER
WIT .         JIM                  : Witness      - WITNESSED BY
MUD .         GEL                  : Mud_type     - MUD TYPE
MATR.         LIMESTONE            : Logunit      - NEUTRON MATRIX
TMAX.C        21                   : BHT          - MAXIMUM RECORDED TEMPERATURE
BHTD.M        539                  : BHTDEP       - MAXIMUM RECORDED TEMPERATURE
MATR.         1                    : LOGUNIT      - NEUTRON MATRIX
RMT .C        25                   : MDTP         - TEMPERATURE OF MUD
NEUT.         1                    : NEUTRON      - NEUTRON TYPE
RESI.         0                    : RESIST       - RESISTIVITY TYPE
RMC .OHMM     0.25                 : RMC          - RESISTIVITY OF MUD CAKE
RMF .OHMM     0.25                 : RMF          - RESISTIVITY OF MUD FILTRATE
SUFT.C        15                   : SUFT         - SURFACE TEMPERATURE
~A  DEPTH     PHID     PHIN       GR     RESD
# ...
  445.500    0.304    0.387   58.854    7.411
  445.750    0.317    0.406   59.471    7.417
  446.000    0.327    0.414   60.089    7.419
  446.250    0.335    0.414   60.705    7.423
  446.500    0.317    0.426   61.324    7.426
  446.750    0.328    0.436   61.336    7.430
  447.000    0.331    0.429   62.553    7.435
  447.250    0.334    0.417   63.172    7.440
  447.500    0.337    0.406   65.002    7.442
  447.750    0.328    0.398   65.614    7.310
  448.000    0.332    0.400   66.836    7.182
  448.250    0.325    0.409   65.638    7.184
  448.500    0.319    0.423   63.836    6.927
  448.750    0.326    0.424   62.033    6.803
  449.000    0.332    0.428   64.466    6.560
  449.250    0.313    0.446   63.872    6.442
  449.500    0.324    0.456   62.675    6.445
  449.750    0.325    0.445   64.500    6.450
  450.000    0.331    0.435   65.118    6.574
  450.250    0.325    0.446   65.734    6.576
  450.500    0.308    0.455   66.956    6.580
  450.750    0.290    0.434   66.363    6.706
  451.000    0.268    0.442   64.562    6.835
  451.250    0.268    0.446   63.967    7.230
  451.500    0.248    0.416   62.165    7.647
  451.750    0.225    0.390   60.361    8.088
  452.000    0.190    0.376   62.795    8.092
  452.250    0.224    0.362   65.831    7.246
  452.500    0.286    0.395   68.260    6.488
  452.750    0.304    0.435   71.297    6.255
  453.000    0.300    0.446   72.518    6.031
  453.250    0.283    0.465   70.718    6.033
  453.500    0.294    0.448   71.334    6.150
  453.750    0.293    0.449   74.368    6.153
  454.000    0.289    0.448   74.987    6.043
  454.250    0.281    0.437   72.579    5.936
  454.500    0.274    0.437   70.171    5.830
  454.750    0.291    0.453   71.395    5.621
  455.000    0.297    0.454   73.825    5.419
  455.250    0.303    0.474   73.836    5.226
  455.500    0.317    0.472   71.428    5.229
  455.750    0.321    0.476   73.255    5.231
  456.000    0.312    0.475   73.267    5.233
  456.250    0.296    0.481   72.068    5.236
  456.500    0.298    0.484   72.081    5.049
  456.750    0.306    0.467   72.700    5.146
  457.000    0.285    0.464   72.709    5.245
  457.250    0.281    0.447   73.933    5.548
  457.500    0.299    0.443   72.734    5.760
  457.750    0.299    0.448   70.934    5.870
  458.000    0.307    0.445   70.337    5.874
  458.250    0.303    0.453   72.165    5.877
  458.500    0.280    0.450   75.805    5.880
  458.750    0.291    0.447   77.028    5.884
  459.000    0.303    0.460   74.619    5.888
  459.250    0.299    0.476   72.818    5.890
  459.500    0.291    0.453   70.411    5.894
  459.750    0.292    0.423   68.002    5.896
  460.000    0.300    0.422   68.015    5.900
  460.250    0.315    0.417   68.027    5.903
  460.500    0.332    0.423   66.223    5.797
  460.750    0.334    0.431   64.421    5.911
  461.000    0.330    0.443   64.432    5.804
  461.250    0.320    0.441   62.630    5.806
  461.500    0.327    0.430   61.431    5.809
  461.750    0.322    0.421   62.048    5.813
  462.000    0.324    0.447   60.852    5.817
  462.250    0.325    0.443   59.652    5.820
  462.500    0.322    0.426   60.269    5.823
  462.750    0.327    0.405   61.492    5.935
  463.000    0.339    0.408   63.318    5.937
  463.250    0.333    0.428   62.123    5.941
  463.500    0.328    0.451   61.527    6.056
  463.750    0.314    0.463   63.353    6.058
  464.000    0.322    0.455   60.949    6.061
  464.250    0.304    0.439   59.144    6.065
  464.500    0.274    0.417   57.945    6.415
  464.750    0.255    0.390   57.354    7.443
  465.000    0.198    0.372   56.760    8.478
  465.250    0.100    0.216   53.748   10.021
  465.500    0.069    0.211   52.550   12.523
  465.750    0.066    0.207   53.771   14.529
  466.000    0.063    0.204   56.204   17.821
  466.250    0.065    0.200   55.004   21.065
  466.500    0.099    0.227   54.413   22.281
  466.750    0.132    0.277   62.892   19.222
  467.000    0.181    0.330   65.324   12.562
  467.250    0.253    0.409   67.149    9.173
  467.500    0.289    0.426   68.977    6.952
  467.750    0.317    0.441   70.198    6.580
  468.000    0.319    0.436   69.605    6.345
  468.250    0.329    0.427   67.804    6.233
  468.500    0.327    0.416   67.817    6.235
  468.750    0.322    0.408   67.834    6.124
  469.000    0.314    0.419   67.233    6.127
  469.250    0.302    0.435   70.269    6.130
  469.500    0.312    0.449   70.887    6.021
  469.750    0.322    0.452   70.294    5.914
  470.000    0.316    0.447   72.121    5.808
  470.250    0.323    0.437   73.342    5.600
  470.500    0.322    0.420   75.172    5.399
  470.750    0.314    0.403   76.994    5.402
  471.000    0.302    0.402   82.451    5.306
  471.250    0.285    0.421   80.649    5.211
  471.500    0.241    0.420   78.845    4.841
  471.750    0.266    0.448   80.069    4.844
  472.000    0.264    0.444   80.079    5.220
  472.250    0.252    0.443   75.858    5.521
  472.500    0.268    0.448   71.636    5.732
  472.750    0.251    0.452   68.623    5.843
  473.000    0.240    0.444   65.007    6.296
  473.250    0.218    0.421   61.993    7.039
  473.500    0.078    0.330   57.164    8.168
  473.750    0.041    0.253   55.363    9.476
  474.000    0.094    0.271   60.819   11.624
  474.250    0.148    0.345   71.112   10.602
  474.500    0.221    0.400   86.248    9.318
  474.750    0.205    0.426   87.468    8.342
  475.000    0.218    0.415   85.061    7.896
  475.250    0.222    0.424   86.283    7.336
  475.500    0.205    0.432   84.482    6.943
  475.750    0.211    0.434   85.702    6.695
  476.000    0.214    0.447   84.507    6.577
  476.250    0.215    0.440   85.123    6.459
  476.500    0.224    0.442   85.738    6.461
  476.750    0.224    0.431   88.172    6.465
  477.000    0.235    0.423   85.761    6.589
  477.250    0.221    0.417   84.566    6.718
  477.500    0.218    0.450   83.970    6.974
  477.750    0.214    0.453   85.193    7.107
  478.000    0.202    0.442   86.416    7.380
  478.250    0.196    0.453   86.430    7.663
  478.500    0.192    0.445   85.833    7.809
  478.750    0.207    0.434   84.639    8.109
  479.000    0.195    0.418   84.044    8.578
  479.250    0.186    0.411   82.845    8.741
  479.500    0.175    0.391   79.833    9.077
  479.750    0.164    0.373   79.847    9.252
  480.000    0.136    0.344   81.673    9.255
  480.250    0.191    0.418   85.917    9.091
  480.500    0.191    0.436   90.771    8.604
  480.750    0.199    0.425   95.013    7.994
  481.000    0.200    0.414   98.656    7.157
  481.250    0.200    0.406   98.063    6.775
  481.500    0.205    0.416   98.683    6.778
  481.750    0.223    0.416   97.481    6.657
  482.000    0.239    0.399   93.261    6.785
  482.250    0.232    0.408   92.060    7.044
  482.500    0.240    0.424   94.498    7.048
  482.750    0.248    0.426   93.900    6.671
  483.000    0.244    0.439   92.100    6.314
  483.250    0.244    0.447   90.898    6.202
  483.500    0.233    0.438   84.863    6.205
  483.750    0.222    0.428   83.664    6.209
  484.000    0.159    0.425   84.282    6.212
  484.250    0.110    0.432   86.109    5.879
  484.500    0.195    0.439   88.541    5.167
  484.750    0.242    0.451   87.946    3.844
  485.000    0.269    0.473   82.516    3.137
  485.250    0.295    0.483   81.316    2.757
  485.500    0.313    0.493   82.542    2.468
  485.750    0.302    0.501   83.760    2.293
  486.000    0.319    0.501   86.192    2.252
  486.250    0.319    0.519   84.390    2.339
  486.500    0.338    0.513   85.004    2.340
  486.750    0.349    0.507   87.439    2.341
  487.000    0.253    0.518   91.683    2.342
  487.250    0.235    0.497   94.114    2.432
  487.500    0.225    0.475   89.892    2.720
  487.750    0.234    0.457   88.089    3.098
  488.000    0.219    0.443   85.682    3.529
  488.250    0.197    0.400   92.351    4.019
  488.500    0.180    0.396   92.360    4.663
  488.750    0.187    0.412   92.976    5.615
