~VERSION INFORMATION
 VERS.                 2.0:   CWLS LOG ASCII STANDARD -VERSION 2.0
 WRAP.                  NO:   ONE LINE PER DEPTH STEP
~WELL INFORMATION BLOCK
#MNEM.UNIT           DATA                    DESCRIPTION OF MNEMONIC
#---------    -------------------            -------------------------------
# Generated from Intellog Unique Number	CX_WELLS/WELL/2736
WELL.         THORNBURY                      : Well_name    - WELL
LOC .         00/07-26-080-12W4/0            : Location     - LOCATION
UWI .         00/07-26-080-12W4/0            : Uwi          - UNIQUE WELL ID
ENTR.         TIM                            : Entered      - ENTERED BY
SRVC.         SCHLUMBERGER                   : Scn          - SERVICE COMPANY
STRT.M        270                            : top_depth    - START DEPTH
STOP.M        500                            : bot_depth    - STOP DEPTH
STEP.M        0.25                           : increment    - STEP LENGTH
 NULL. -999.2500:NULL Value
~CURVE INFORMATION BLOCK
#MNEM UNIT       ERCB CURVE CODE    CURVE DESCRIPTION
#-----------   ------------------   ----------------------------------
DEPT.M        00 001 00 00         : DEPTH        - DEPTH
GR  .API      00 310 00 00         : GR           - GAMMA RAY
NPHI.V/V      00 330 00 00         : PHIN         - NEUTRON POROSITY (SANDSTONE)
DPHI.V/V      00 890 00 00         : PHID         - DENSITY POROSITY (SANDSTONE)
ILD .OHMM     00 120 00 00         : RESD         - DEEP RESISTIVITY (DLL)
~PARAMETER INFORMATION
#MNEM.UNIT           DATA             DESCRIPTION OF MNEMONIC
#---------         -----------     ------------------------------
GL  .M        698.9                : gl           - GROUND LEVEL ELEVATION
EREF.M        702.6                : kb           - ELEVATION OF DEPTH REFERENCE
DATM.M        702.6                : datum        - DATUM ELEVATION
TDD .M        513                  : tdd          - TOTAL DEPTH DRILLER
RUN .         ONE                  : Run          - RUN NUMBER
ENG .         BILL                 : Engineer     - RECORDING ENGINEER
WIT .         JIM                  : Witness      - WITNESSED BY
MUD .         GEL                  : Mud_type     - MUD TYPE
MATR.         SANDSTONE            : Logunit      - NEUTRON MATRIX
TMAX.C        26                   : BHT          - MAXIMUM RECORDED TEMPERATURE
BHTD.M        513                  : BHTDEP       - MAXIMUM RECORDED TEMPERATURE
MATR.         1                    : LOGUNIT      - NEUTRON MATRIX
RMT .C        14.4                 : MDTP         - TEMPERATURE OF MUD
NEUT.         1                    : NEUTRON      - NEUTRON TYPE
RESI.         3                    : RESIST       - RESISTIVITY TYPE
RMC .OHMM     2.6                  : RMC          - RESISTIVITY OF MUD CAKE
RMF .OHMM     3.2                  : RMF          - RESISTIVITY OF MUD FILTRATE
SUFT.C        4                    : SUFT         - SURFACE TEMPERATURE
~A  DEPTH       GR     PHIN     PHID     RESD
# ...
  313.500   96.010    0.445    0.251   13.186
  313.750   96.067    0.449    0.248   12.970
  314.000   96.137    0.461    0.244   12.758
  314.250   96.751    0.472    0.248   12.555
  314.500   97.392    0.478    0.246   12.343
  314.750   98.634    0.485    0.243   12.134
  315.000   98.690    0.481    0.247   11.947
  315.250   96.404    0.467    0.257   11.971
  315.500   93.518    0.440    0.268   11.989
  315.750   92.989    0.439    0.262   12.007
  316.000   95.387    0.448    0.254   11.822
  316.250  100.170    0.461    0.252   11.834
  316.500  101.369    0.458    0.248   11.427
  316.750  102.597    0.460    0.244   10.830
  317.000  103.838    0.463    0.242   10.076
  317.250  104.480    0.469    0.248    9.729
  317.500  103.950    0.462    0.254    9.754
  317.750  101.664    0.456    0.263   10.337
  318.000   98.807    0.441    0.276   10.541
  318.250   96.493    0.416    0.280   10.765
  318.500   92.450    0.406    0.286   11.194
  318.750   89.579    0.404    0.293   11.641
  319.000   86.693    0.397    0.290   12.337
  319.250   82.079    0.401    0.285   12.587
  319.500   78.036    0.407    0.278   13.082
  319.750   73.993    0.416    0.279   13.865
  320.000   69.365    0.426    0.290   14.410
  320.250   64.737    0.435    0.306   15.857
  320.500   61.266    0.433    0.342   16.481
  320.750   57.209    0.409    0.324   17.476
  321.000   54.937    0.395    0.310   17.494
  321.250   55.007    0.396    0.314   18.191
  321.500   55.049    0.402    0.326   18.935
  321.750   55.120    0.407    0.337   18.973
  322.000   55.190    0.406    0.338   18.643
  322.250   55.218    0.407    0.338   18.347
  322.500   54.689    0.413    0.338   18.055
  322.750   53.574    0.426    0.339   18.073
  323.000   53.058    0.423    0.342   17.777
  323.250   53.700    0.417    0.345   17.485
  323.500   53.756    0.405    0.348   17.521
  323.750   53.827    0.402    0.349   17.573
  324.000   53.855    0.399    0.347   17.591
  324.250   53.911    0.401    0.347   17.644
  324.500   53.967    0.398    0.348   17.671
  324.750   54.023    0.395    0.350   18.047
  325.000   54.094    0.392    0.351   18.065
  325.250   54.721    0.390    0.355   18.119
  325.500   54.778    0.391    0.356   18.146
  325.750   55.433    0.394    0.352   18.183
  326.000   55.475    0.396    0.348   18.229
  326.250   56.131    0.396    0.347   18.265
  326.500   56.773    0.394    0.348   18.293
  326.750   56.815    0.394    0.347   18.348
  327.000   57.471    0.397    0.347   18.366
  327.250   57.527    0.400    0.346   18.422
  327.500   57.597    0.402    0.346   18.459
  327.750   57.626    0.402    0.345   18.486
  328.000   57.696    0.398    0.346   18.514
  328.250   58.324    0.394    0.351   18.570
  328.500   58.979    0.403    0.353   18.598
  328.750   59.635    0.416    0.354   18.293
  329.000   60.291    0.418    0.355   17.993
  329.250   60.319    0.406    0.355   18.029
  329.500   60.375    0.402    0.355   18.057
  329.750   60.459    0.410    0.354   18.093
  330.000   60.502    0.420    0.354   18.138
  330.250   60.558    0.428    0.353   18.166
  330.500   60.600    0.424    0.356   18.211
  330.750   60.656    0.418    0.356   18.257
  331.000   60.741    0.413    0.358   18.285
  331.250   60.769    0.408    0.358   18.312
  331.500   60.239    0.408    0.355   18.349
  331.750   59.724    0.408    0.355   18.386
  332.000   59.766    0.408    0.354   18.084
  332.250   59.822    0.408    0.354   18.121
  332.500   59.307    0.409    0.355   18.166
  332.750   59.363    0.411    0.357   17.860
  333.000   58.834    0.415    0.359   17.922
  333.250   55.948    0.422    0.356   17.949
  333.500   51.320    0.440    0.353   17.646
  333.750   52.561    0.445    0.349   17.691
  334.000   53.775    0.442    0.349   17.708
  334.250   55.587    0.440    0.349   17.753
  334.500   55.644    0.441    0.350   18.121
  334.750   54.543    0.444    0.351   18.497
  335.000   53.428    0.446    0.351   18.544
  335.250   52.885    0.447    0.350   18.572
  335.500   52.355    0.449    0.349   18.609
  335.750   52.411    0.450    0.349   18.656
  336.000   52.468    0.453    0.351   18.341
  336.250   53.709    0.452    0.352   18.387
  336.500   54.337    0.451    0.351   18.076
  336.750   54.992    0.447    0.347   18.122
  337.000   55.620    0.443    0.348   18.158
  337.250   55.133    0.442    0.354   18.204
  337.500   55.161    0.440    0.356   18.222
  337.750   55.231    0.442    0.357   18.259
  338.000   54.702    0.443    0.353   18.305
  338.250   54.744    0.439    0.351   18.332
  338.500   54.215    0.432    0.350   18.369
  338.750   54.271    0.428    0.352   18.406
  339.000   53.742    0.428    0.354   18.443
  339.250   53.812    0.437    0.355   18.480
  339.500   54.440    0.443    0.358   18.517
  339.750   55.695    0.427    0.356   18.564
  340.000   56.309    0.426    0.350   18.601
  340.250   56.965    0.438    0.345   18.638
  340.500   57.021    0.434    0.340   18.666
  340.750   57.077    0.418    0.336   18.704
  341.000   56.547    0.427    0.336   18.742
  341.250   56.018    0.435    0.340   18.789
  341.500   53.718    0.439    0.347   18.817
  341.750   53.788    0.441    0.352   18.864
  342.000   54.416    0.444    0.342   18.912
  342.250   55.072    0.448    0.339   18.940
  342.500   55.128    0.459    0.342   18.648
  342.750   56.355    0.458    0.346   18.334
  343.000   56.997    0.450    0.343   18.361
  343.250   57.039    0.444    0.337   18.078
  343.500   57.110    0.444    0.335   18.096
  343.750   57.751    0.442    0.337   17.818
  344.000   57.794    0.440    0.339   17.844
  344.250   59.620    0.431    0.337   17.871
  344.500   62.047    0.424    0.325   17.907
  344.750   63.246    0.418    0.319   17.952
  345.000   63.888    0.413    0.322   17.988
  345.250   63.944    0.409    0.325   18.024
  345.500   64.014    0.410    0.321   18.061
  345.750   64.056    0.414    0.320   18.088
  346.000   64.712    0.420    0.321   18.133
  346.250   64.769    0.425    0.327   17.827
  346.500   63.668    0.428    0.331   17.872
  346.750   63.110    0.429    0.334   17.579
  347.000   63.166    0.436    0.337   17.282
  347.250   63.822    0.442    0.341   16.999
  347.500   66.235    0.450    0.339   16.421
  347.750   67.434    0.445    0.328   15.847
  348.000   69.832    0.432    0.308   14.752
  348.250   74.587    0.410    0.294   13.982
  348.500   75.814    0.409    0.282   13.493
  348.750   75.885    0.418    0.282   12.554
  349.000   75.369    0.429    0.283   11.692
  349.250   75.397    0.442    0.287   11.489
  349.500   75.454    0.459    0.291   11.099
  349.750   74.938    0.458    0.295   11.121
  350.000   73.837    0.457    0.297   11.781
  350.250   73.280    0.456    0.298   12.244
  350.500   72.765    0.452    0.301   12.970
  350.750   71.650    0.450    0.308   13.739
  351.000   69.364    0.446    0.312   13.774
  351.250   67.064    0.447    0.321   13.795
  351.500   64.192    0.451    0.327   13.836
  351.750   61.321    0.453    0.335   13.850
  352.000   59.620    0.461    0.343   13.373
  352.250   62.618    0.468    0.340   12.912
  352.500   65.602    0.474    0.327   12.257
  352.750   66.815    0.469    0.319   11.822
  353.000   66.871    0.466    0.305   11.409
  353.250   66.928    0.458    0.315   10.819
  353.500   68.155    0.453    0.326   10.447
  353.750   68.811    0.448    0.336   10.086
  354.000   70.610    0.445    0.317    9.921
  354.250   74.765    0.451    0.289    9.579
  354.500   74.835    0.463    0.316    9.422
  354.750   71.949    0.461    0.321    9.436
  355.000   67.321    0.451    0.330    9.813
  355.250   64.464    0.443    0.332   10.594
  355.500   64.534    0.436    0.332   11.433
  355.750   64.562    0.427    0.332   12.111
  356.000   64.033    0.426    0.328   12.829
  356.250   64.089    0.429    0.326   13.347
  356.500   62.974    0.431    0.323   13.374
  356.750   61.887    0.431    0.322   13.407
