~VERSION INFORMATION
 VERS.                 2.0:   CWLS LOG ASCII STANDARD -VERSION 2.0
 WRAP.                  NO:   ONE LINE PER DEPTH STEP
~WELL INFORMATION BLOCK
#MNEM.UNIT           DATA                    DESCRIPTION OF MNEMONIC
#---------    -------------------            -------------------------------
# Generated from Intellog Unique Number	CW_70_72/WELL/829
NULL.         -999.25                        : NULL_VALUE
WELL.         SUNDANCE ET AL SMITH 06-29     : Well_name    - WELL              
LOC .         06-29-071-22W4                 : Location     - LOCATION          
UWI .         00/06-29-071-22W4/0            : Uwi          - UNIQUE WELL ID    
ENTR.         JAYE                           : Entered      - ENTERED BY        
SRVC.         SCHLUMBERGER                   : Scn          - SERVICE COMPANY   
DATE.         9 MAR 76                       : Date         - LOG DATE          
STRT.M        402.336                        : top_depth    - START DEPTH       
STOP.M        603.586                        : bot_depth    - STOP DEPTH        
STEP.M        0.25                           : increment    - STEP LENGTH       
~CURVE INFORMATION BLOCK
#MNEM UNIT       ERCB CURVE CODE    CURVE DESCRIPTION
#-----------   ------------------   ----------------------------------
DEPT.M        00 001 00 00         : DEPTH        - DEPTH                       
DPHI.V/V      00 890 00 00         : PHID         - DENSITY POROSITY (SANDSTONE)
NPHI.V/V      00 330 00 00         : PHIN         - NEUTRON POROSITY (SANDSTONE)
GR  .API      00 310 00 00         : GR           - GAMMA RAY                   
CALI.MM       00 280 01 00         : CAL          - CALIPER                     
ILD .OHMM     00 120 00 00         : RESD         - DEEP RESISTIVITY (DIL)      
~PARAMETER INFORMATION       
#MNEM.UNIT           DATA             DESCRIPTION OF MNEMONIC
#---------         -----------     ------------------------------
GL  .M        641.421              : gl           - GROUND LEVEL ELEVATION      
EREF.M        644.896              : kb           - ELEVATION OF DEPTH REFERENCE
DATM.M        641.421              : datum        - DATUM ELEVATION             
TDD .M        625.754              : tdd          - TOTAL DEPTH DRILLER         
RUN .         ONE                  : Run          - RUN NUMBER                  
BASE.         EDM                  : Branch       - HOME BASE OF LOGGING UNIT   
MUD .         GEL                  : Mud_type     - MUD TYPE                    
MATR.         SANDSTONE            : Logunit      - NEUTRON MATRIX              
TMAX.C        22.7778              : BHT          - MAXIMUM RECORDED TEMPERATURE
BHTD.M        626.669              : BHTDEP       - MAXIMUM RECORDED TEMPERATURE
RMT .C        21.6667              : MDTP         - TEMPERATURE OF MUD          
MUDD.KG/M     0                    : MWT          - MUD DENSITY                 
NEUT.         1                    : NEUTRON      - NEUTRON TYPE                
RESI.         0                    : RESIST       - RESISTIVITY TYPE            
RM  .OHMM     1.67                 : RM           - RESISTIVITY OF MUD          
RMC .OHMM     1.25                 : RMC          - RESISTIVITY OF MUD CAKE     
RMF .OHMM     2.74                 : RMF          - RESISTIVITY OF MUD FILTRATE 
SUFT.C        -17.7778             : SUFT         - SURFACE TEMPERATURE         
~A  DEPTH     PHID     PHIN       GR      CAL     RESD
# ...
  511.836    0.222    0.514  105.186  178.636    4.268
  512.086    0.267    0.500  107.332  190.096    4.591
  512.336    0.323    0.464  108.854  191.296    4.889
  512.586    0.335    0.399  104.391  157.847    5.325
  512.836    0.310    0.371   95.677  155.767    5.673
  513.086    0.160    0.403   96.265  155.802    5.969
  513.336    0.179    0.430   98.409  155.621    6.082
  513.586    0.194    0.453  100.304  155.453    6.032
  513.836    0.192    0.446  100.828  154.988    5.967
  514.086    0.186    0.426  101.542  155.340    5.906
  514.336    0.176    0.434  102.938  155.798    5.865
  514.586    0.189    0.440  105.394  156.058    5.803
  514.836    0.203    0.437  109.163  156.730    5.733
  515.086    0.185    0.433  112.929  158.142    5.715
  515.336    0.189    0.431  115.766  159.242    5.711
  515.586    0.191    0.433  117.224  159.709    5.787
  515.836    0.184    0.434  114.126  159.647    6.143
  516.086    0.199    0.427  108.722  159.046    6.703
  516.336    0.191    0.416  101.946  158.662    7.533
  516.586    0.173    0.404   93.610  158.383    8.831
  516.836    0.120    0.373   84.336  157.890   10.684
  517.086    0.062    0.319   75.687  157.424   16.009
  517.336    0.045    0.254   68.972  156.822   20.852
  517.586    0.034    0.232   68.494  156.119   18.242
  517.836    0.023    0.238   74.632  155.419   15.516
  518.086    0.016    0.271   81.900  155.143   11.687
  518.336    0.069    0.313   92.595  155.095    9.018
  518.586    0.099    0.363  100.978  155.444    7.784
  518.836    0.126    0.419  106.184  155.802    7.027
  519.086    0.155    0.425  109.953  156.371    6.569
  519.336    0.172    0.410  111.594  157.889    6.321
  519.586    0.160    0.407  112.120  158.464    6.096
  519.836    0.150    0.412  112.958  158.618    6.035
  520.086    0.163    0.418  114.978  158.549    6.069
  520.336    0.147    0.424  115.564  158.998    6.198
  520.586    0.152    0.431  111.035  159.059    6.328
  520.836    0.149    0.440  109.809  159.098    6.355
  521.086    0.147    0.446  112.018  159.130    6.232
  521.336    0.165    0.449  115.287  159.597    5.999
  521.586    0.174    0.454  117.247  160.592    5.638
  521.836    0.179    0.464  118.143  161.159    5.367
  522.086    0.185    0.458  118.232  161.206    5.301
  522.336    0.195    0.452  116.196  160.500    5.355
  522.586    0.179    0.441  113.786  160.021    5.478
  522.836    0.165    0.423  109.382  159.213    5.616
  523.086    0.162    0.393   99.235  158.411    5.693
  523.336    0.140    0.387   99.815  157.703    5.738
  523.586    0.144    0.403  102.028  157.330    5.678
  523.836    0.151    0.427  105.294  156.941    5.607
  524.086    0.157    0.447  107.880  156.774    5.468
  524.336    0.168    0.446  107.028  156.607    5.335
  524.586    0.184    0.446  109.550  156.856    5.260
  524.836    0.177    0.449  111.010  157.540    5.234
  525.086    0.171    0.448  107.603  158.740    5.255
  525.336    0.161    0.446  108.677  159.724    5.296
  525.586    0.179    0.443  109.707  159.988    5.369
  525.836    0.195    0.435  110.983  160.012    5.430
  526.086    0.203    0.422  113.000  159.950    5.494
  526.336    0.193    0.434  112.653  159.881    5.517
  526.586    0.196    0.455  108.810  159.830    5.473
  526.836    0.200    0.454  106.587  159.658    5.427
  527.086    0.192    0.450  107.984  159.059    5.379
  527.336    0.184    0.452  109.505  158.997    5.331
  527.586    0.182    0.470  106.100  158.926    5.288
  527.836    0.171    0.473  105.248  158.871    5.251
  528.086    0.164    0.464  108.020  158.588    5.208
  528.336    0.172    0.453  105.985  158.432    5.190
  528.586    0.168    0.458  104.259  157.721    5.182
  528.836    0.180    0.452  106.282  156.928    5.176
  529.086    0.195    0.445  108.800  156.013    5.181
  529.336    0.212    0.434  110.317  155.212    5.192
  529.586    0.194    0.432  111.346  154.623    5.215
  529.836    0.198    0.439  112.428  155.181    5.238
  530.086    0.174    0.444  113.082  156.911    5.251
  530.336    0.178    0.446  113.792  158.441    5.245
  530.586    0.192    0.446  115.002  159.963    5.227
  530.836    0.205    0.446  116.769  160.523    5.195
  531.086    0.203    0.452  118.231  160.137    5.196
  531.336    0.198    0.467  115.823  159.456    5.161
  531.586    0.191    0.477  110.602  158.438    5.260
  531.836    0.192    0.472  105.886  157.525    5.433
  532.086    0.193    0.463  100.547  156.830    5.631
  532.336    0.196    0.453   96.016  156.023    5.856
  532.586    0.184    0.446   92.227  155.524    6.076
  532.836    0.196    0.429   90.137  155.160    6.596
  533.086    0.182    0.426   86.102  154.659    7.249
  533.336    0.170    0.449   81.949  154.180    7.955
  533.586    0.148    0.303   74.797  153.590    8.523
  533.836    0.119    0.306   67.395  153.211    8.749
  534.086    0.169    0.321   66.919  152.829    8.238
  534.336    0.195    0.388   70.315  152.445    7.729
  534.586    0.165    0.381   74.582  152.376    7.159
  534.836    0.151    0.359   81.034  152.099    6.579
  535.086    0.131    0.350   86.235  152.136    6.036
  535.336    0.150    0.369   93.250  152.171    5.427
  535.586    0.214    0.394  102.382  152.544    4.871
  535.836    0.243    0.416  102.908  152.688    4.697
  536.086    0.220    0.418  100.562  153.148    4.735
  536.336    0.226    0.416  103.701  153.498    4.711
  536.586    0.222    0.440  102.545  153.855    4.732
  536.836    0.199    0.452   98.884  154.216    4.709
  537.086    0.205    0.445   99.096  154.801    4.659
  537.336    0.223    0.434  100.183  155.158    4.697
  537.586    0.228    0.429  103.077  156.888    4.897
  537.836    0.214    0.438  107.719  160.105    5.177
  538.086    0.198    0.461  110.864  164.569    5.586
  538.336    0.185    0.485  108.455  163.672    6.119
  538.586    0.166    0.473   99.995  159.272    6.318
  538.836    0.127    0.437   91.530  156.562    5.904
  539.086    0.093    0.328   96.674  155.755    5.457
  539.336    0.137    0.375  103.871  155.692    4.926
  539.586    0.194    0.425  110.076  155.938    4.672
  539.836    0.212    0.446  112.469  155.992    4.539
  540.086    0.228    0.447  112.990  156.352    4.541
  540.336    0.207    0.442  114.391  157.130    4.655
  540.586    0.202    0.431  113.725  159.069    4.565
  540.836    0.189    0.435  114.314  161.124    4.385
  541.086    0.176    0.475  120.265  167.291    4.220
  541.336    0.191    0.501  125.659  174.303    4.050
  541.586    0.212    0.517  129.113  179.847    3.999
  541.836    0.218    0.528  130.262  178.512    3.995
  542.086    0.219    0.542  125.980  175.383    4.108
  542.336    0.205    0.476  118.953  156.514    4.321
  542.586    0.233    0.448  105.188  156.759    4.603
  542.836    0.184    0.426  104.525  158.911    4.951
  543.086    0.182    0.427  107.168  160.016    5.196
  543.336    0.180    0.416  106.819  160.265    5.345
  543.586    0.160    0.409  106.844  159.975    5.418
  543.836    0.140    0.419  108.863  159.703    5.503
  544.086    0.114    0.434  111.569  159.326    5.567
  544.336    0.141    0.449  108.916  158.731    5.563
  544.586    0.130    0.452  105.383  158.360    5.554
  544.836    0.133    0.449  109.712  158.501    5.539
  545.086    0.187    0.439  117.471  158.632    5.492
  545.336    0.161    0.428  113.999  158.786    5.433
  545.586    0.145    0.439  108.847  159.260    5.413
  545.836    0.143    0.459  110.056  159.716    5.319
  546.086    0.167    0.457  113.390  160.194    5.265
  546.336    0.195    0.435  111.916  160.863    5.209
  546.586    0.180    0.433  110.753  161.425    5.128
  546.836    0.158    0.431  112.712  161.586    5.100
  547.086    0.147    0.414  116.359  161.727    5.056
  547.336    0.133    0.411  120.249  161.551    5.024
  547.586    0.155    0.417  122.210  161.168    4.971
  547.836    0.175    0.431  120.424  161.214    4.973
  548.086    0.169    0.438  118.509  161.047    4.958
