~VERSION INFORMATION
 VERS.                 2.0:   CWLS LOG ASCII STANDARD -VERSION 2.0
 WRAP.                  NO:   ONE LINE PER DEPTH STEP
~WELL INFORMATION BLOCK
#MNEM.UNIT           DATA                    DESCRIPTION OF MNEMONIC
#---------    -------------------            -------------------------------
# Generated from Intellog Unique Number	CS_69_70/WELL/805
WELL.         HUSKY OIL OPERATIONS           : Well_name    - WELL
LOC .         00/06-22-069-06W4/0            : Location     - LOCATION
UWI .         00/06-22-069-06W4/0            : Uwi          - UNIQUE WELL ID
ENTR.         SP                             : Entered      - ENTERED BY
SRVC.         SCHLUMBERGER                   : Scn          - SERVICE COMPANY
STRT.M        350                            : top_depth    - START DEPTH
STOP.M        585                            : bot_depth    - STOP DEPTH
STEP.M        0.25                           : increment    - STEP LENGTH
 NULL. -999.2500:NULL Value
~CURVE INFORMATION BLOCK
#MNEM UNIT       ERCB CURVE CODE    CURVE DESCRIPTION
#-----------   ------------------   ----------------------------------
DEPT.M        00 001 00 00         : DEPTH        - DEPTH
ILD .OHMM     00 120 00 00         : RESD         - DEEP RESISTIVITY (DIL)
DPHI.V/V      00 890 00 00         : PHID         - DENSITY POROSITY (LIMESTONE)
NPHI.V/V      00 330 00 00         : PHIN         - NEUTRON POROSITY (LIMESTONE)
GR  .API      00 310 00 00         : GR           - GAMMA RAY
~PARAMETER INFORMATION
#MNEM.UNIT           DATA             DESCRIPTION OF MNEMONIC
#---------         -----------     ------------------------------
GL  .M        710.5                : gl           - GROUND LEVEL ELEVATION
EREF.M        714.2                : kb           - ELEVATION OF DEPTH REFERENCE
DATM.M        710.5                : datum        - DATUM ELEVATION
TDD .M        591                  : tdd          - TOTAL DEPTH DRILLER
RUN .         ONE                  : Run          - RUN NUMBER
ENG .         BILL                 : Engineer     - RECORDING ENGINEER
WIT .         JIM                  : Witness      - WITNESSED BY
MUD .         GEL                  : Mud_type     - MUD TYPE
MATR.         LIMESTONE            : Logunit      - NEUTRON MATRIX
TMAX.C        27                   : BHT          - MAXIMUM RECORDED TEMPERATURE
BHTD.M        591                  : BHTDEP       - MAXIMUM RECORDED TEMPERATURE
MATR.         1                    : LOGUNIT      - NEUTRON MATRIX
RMT .C        25                   : MDTP         - TEMPERATURE OF MUD
NEUT.         1                    : NEUTRON      - NEUTRON TYPE
RESI.         0                    : RESIST       - RESISTIVITY TYPE
RMC .OHMM     0.25                 : RMC          - RESISTIVITY OF MUD CAKE
RMF .OHMM     0.25                 : RMF          - RESISTIVITY OF MUD FILTRATE
SUFT.C        15                   : SUFT         - SURFACE TEMPERATURE
~A  DEPTH     RESD     PHID     PHIN       GR
# ...
  393.500    4.876    0.279    0.418   84.334
  393.750    5.255    0.283    0.446   77.615
  394.000    5.770    0.302    0.453   68.076
  394.250    6.384    0.339    0.414   60.069
  394.500    7.318    0.369    0.394   56.291
  394.750    9.093    0.380    0.394   55.509
  395.000   11.363    0.372    0.403   61.101
  395.250   12.524    0.362    0.396   69.938
  395.500   13.371    0.344    0.383   77.000
  395.750   13.470    0.323    0.399   85.532
  396.000   10.245    0.295    0.414   94.062
  396.250    7.807    0.272    0.429   99.346
  396.500    6.898    0.233    0.433   95.751
  396.750    5.948    0.156    0.424   86.456
  397.000    5.497    0.112    0.404   73.672
  397.250    5.005    0.058    0.337   62.726
  397.500    4.766    0.013    0.276   57.230
  397.750    4.739   -0.007    0.217   53.756
  398.000    4.801   -0.015    0.199   57.450
  398.250    4.900    0.014    0.301   66.716
  398.500    4.964    0.108    0.417   74.449
  398.750    5.058    0.177    0.431   81.326
  399.000    5.211    0.218    0.438   88.265
  399.250    5.369    0.244    0.431   93.734
  399.500    5.552    0.258    0.430   97.366
  399.750    5.667    0.263    0.444   98.303
  400.000    5.849    0.267    0.453   97.705
  400.250    5.937    0.270    0.460   97.294
  400.500    6.015    0.273    0.464   96.639
  400.750    6.070    0.278    0.460   96.348
  401.000    6.115    0.276    0.451   96.611
  401.250    6.149    0.272    0.441   96.138
  401.500    6.171    0.271    0.430   92.052
  401.750    6.147    0.274    0.411   85.272
  402.000    6.089    0.285    0.397   80.816
  402.250    6.020    0.293    0.407   82.856
  402.500    5.886    0.301    0.413   85.567
  402.750    5.776    0.307    0.418   88.403
  403.000    5.668    0.298    0.428   90.500
  403.250    5.572    0.292    0.409   89.232
  403.500    5.530    0.292    0.399   94.151
  403.750    5.467    0.283    0.393   97.473
  404.000    5.446    0.276    0.392   96.817
  404.250    5.497    0.270    0.393   93.404
  404.500    5.663    0.264    0.396   89.195
  404.750    6.242    0.260    0.409   87.313
  405.000    6.803    0.269    0.422   87.332
  405.250    7.290    0.287    0.434   89.004
  405.500    7.682    0.305    0.441   89.264
  405.750    7.826    0.303    0.435   89.100
  406.000    7.206    0.283    0.430   90.585
  406.250    6.427    0.272    0.450   92.808
  406.500    5.951    0.275    0.464   92.639
  406.750    5.646    0.273    0.471   88.798
  407.000    5.366    0.273    0.484   82.571
  407.250    5.266    0.279    0.483   76.095
  407.500    5.197    0.265    0.438   71.580
  407.750    5.138    0.238    0.376   67.981
  408.000    5.051    0.189    0.327   64.935
  408.250    5.032    0.164    0.399   64.340
  408.500    5.022    0.224    0.436   62.090
  408.750    5.012    0.287    0.441   57.086
  409.000    5.021    0.319    0.424   53.183
  409.250    5.029    0.336    0.407   52.281
  409.500    5.066    0.345    0.405   55.239
  409.750    5.133    0.357    0.402   57.892
  410.000    5.219    0.364    0.406   58.090
  410.250    5.398    0.356    0.411   59.209
  410.500    5.551    0.345    0.401   62.904
  410.750    5.519    0.332    0.404   65.614
  411.000    5.305    0.316    0.416   61.772
  411.250    4.968    0.311    0.427   56.526
  411.500    4.776    0.327    0.426   53.906
  411.750    4.704    0.341    0.416   51.412
  412.000    4.695    0.351    0.411   49.468
  412.250    4.694    0.338    0.408   49.854
  412.500    4.702    0.329    0.407   51.647
  412.750    4.728    0.321    0.410   54.727
  413.000    4.745    0.323    0.412   56.949
  413.250    4.771    0.338    0.407   50.412
  413.500    4.824    0.357    0.409   46.877
  413.750    4.924    0.365    0.418   49.284
  414.000    5.083    0.358    0.426   51.566
  414.250    5.217    0.354    0.432   54.035
  414.500    5.305    0.353    0.446   55.829
  414.750    5.354    0.354    0.452   57.561
  415.000    5.384    0.349    0.441   56.963
  415.250    5.393    0.347    0.424   51.897
  415.500    5.393    0.354    0.408   56.692
  415.750    5.392    0.363    0.396   63.510
  416.000    5.431    0.342    0.417   68.243
  416.250    5.502    0.315    0.434   72.056
  416.500    5.533    0.304    0.428   75.811
  416.750    5.637    0.300    0.427   76.929
  417.000    5.721    0.300    0.427   75.967
  417.250    5.818    0.299    0.422   79.478
  417.500    5.949    0.301    0.417   82.800
  417.750    5.971    0.311    0.411   85.513
  418.000    5.881    0.311    0.407   82.037
  418.250    5.632    0.307    0.411   79.850
  418.500    5.455    0.309    0.418   81.766
  418.750    5.244    0.311    0.413   86.255
  419.000    5.041    0.302    0.414   90.069
  419.250    4.910    0.287    0.435   92.781
  419.500    4.809    0.277    0.439   90.900
  419.750    4.746    0.275    0.436   87.180
  420.000    4.710    0.288    0.451   80.644
  420.250    4.700    0.302    0.471   71.535
  420.500    4.673    0.312    0.477   65.918
  420.750    4.699    0.321    0.461   68.447
  421.000    4.734    0.325    0.455   69.996
  421.250    4.787    0.331    0.460   68.973
  421.500    4.886    0.337    0.458   66.782
  421.750    5.129    0.342    0.453   64.779
  422.000    5.374    0.335    0.451   64.611
  422.250    5.652    0.328    0.456   67.447
  422.500    5.780    0.326    0.462   69.855
  422.750    5.899    0.328    0.465   71.645
  423.000    5.899    0.332    0.469   65.906
  423.250    5.756    0.338    0.477   60.533
  423.500    5.512    0.341    0.448   57.242
  423.750    5.339    0.344    0.434   57.259
  424.000    5.200    0.340    0.427   57.953
  424.250    5.122    0.334    0.429   59.744
  424.500    5.093    0.325    0.417   63.129
  424.750    5.092    0.314    0.392   66.761
  425.000    5.158    0.302    0.385   69.780
  425.250    5.216    0.289    0.386   70.287
  425.500    5.314    0.281    0.396   65.036
  425.750    5.434    0.294    0.404   60.949
  426.000    5.505    0.309    0.403   59.925
  426.250    5.535    0.304    0.390   62.272
  426.500    5.618    0.302    0.378   61.674
  426.750    5.660    0.306    0.363   61.875
  427.000    5.659    0.308    0.346   67.161
  427.250    5.606    0.239    0.339   74.406
  427.500    5.542    0.224    0.337   83.120
  427.750    5.469    0.253    0.348   88.404
  428.000    5.428    0.258    0.369   92.832
  428.250    5.397    0.261    0.385   93.891
  428.500    5.356    0.268    0.401   94.214
  428.750    5.265    0.277    0.407   94.109
  429.000    5.167    0.279    0.397   93.453
  429.250    5.042    0.285    0.401   91.999
  429.500    4.948    0.279    0.419   86.014
  429.750    4.846    0.265    0.435   72.618
  430.000    4.782    0.257    0.450   63.387
  430.250    4.702    0.278    0.425   58.135
  430.500    4.622    0.296    0.404   58.887
  430.750    4.562    0.312    0.424   59.701
  431.000    4.510    0.317    0.434   57.267
  431.250    4.484    0.326    0.444   55.263
  431.500    4.417    0.342    0.438   57.550
  431.750    4.383    0.343    0.436   58.483
  432.000    4.317    0.344    0.444   56.970
  432.250    4.253    0.349    0.449   60.847
  432.500    4.197    0.341    0.439   63.681
  432.750    4.149    0.336    0.429   65.779
  433.000    4.095    0.330    0.449   61.693
  433.250    4.056    0.325    0.448   62.751
  433.500    4.033    0.326    0.437   63.871
  433.750    4.032    0.331    0.431   63.888
  434.000    4.062    0.333    0.434   68.010
  434.250    4.130    0.326    0.428   71.946
  434.500    4.192    0.316    0.423   72.578
  434.750    4.255    0.308    0.434   72.471
  435.000    4.319    0.306    0.445   72.611
  435.250    4.359    0.307    0.455   70.055
  435.500    4.391    0.306    0.447   69.218
  435.750    4.390    0.302    0.440   71.621
  436.000    4.390    0.299    0.443   74.027
  436.250    4.406    0.294    0.453   68.409
  436.500    4.455    0.299    0.460   61.446
  436.750    4.547    0.312    0.466   57.725
