~VERSION INFORMATION
 VERS.                 2.0:   CWLS LOG ASCII STANDARD -VERSION 2.0
 WRAP.                  NO:   ONE LINE PER DEPTH STEP
~WELL INFORMATION BLOCK
#MNEM.UNIT           DATA                    DESCRIPTION OF MNEMONIC
#---------    -------------------            -------------------------------
# Generated from Intellog Unique Number	CW_79_81/WELL/2449
WELL.         06-01-080-24W4                 : Well_name    - WELL
LOC .         00/06-01-080-24W4/0            : Location     - LOCATION
UWI .         00/06-01-080-24W4/0            : Uwi          - UNIQUE WELL ID
ENTR.         MAX                            : Entered      - ENTERED BY
SRVC.         COMPUTALOG                     : Scn          - SERVICE COMPANY
STRT.M        225                            : top_depth    - START DEPTH
STOP.M        454.75                         : bot_depth    - STOP DEPTH
STEP.M        0.25                           : increment    - STEP LENGTH
 NULL. -999.2500:NULL Value
~CURVE INFORMATION BLOCK
#MNEM UNIT       ERCB CURVE CODE    CURVE DESCRIPTION
#-----------   ------------------   ----------------------------------
DEPT.M        00 001 00 00         : DEPTH        - DEPTH
ILD .OHMM     00 120 00 00         : RESD         - DEEP RESISTIVITY (DIL)
NPHI.V/V      00 330 00 00         : PHIN         - NEUTRON POROSITY (SANDSTONE)
DPHI.V/V      00 890 00 00         : PHID         - DENSITY POROSITY (SANDSTONE)
GR  .API      00 310 00 00         : GR           - GAMMA RAY
CALI.MM       00 280 01 00         : CAL          - CALIPER
~PARAMETER INFORMATION
#MNEM.UNIT           DATA             DESCRIPTION OF MNEMONIC
#---------         -----------     ------------------------------
GL  .M        547.6                : gl           - GROUND LEVEL ELEVATION
EREF.M        552.6                : kb           - ELEVATION OF DEPTH REFERENCE
DATM.M        547.6                : datum        - DATUM ELEVATION
TDD .M        580.4                : tdd          - TOTAL DEPTH DRILLER
RUN .         ONE                  : Run          - RUN NUMBER
ENG .         BILL                 : Engineer     - RECORDING ENGINEER
WIT .         JIM                  : Witness      - WITNESSED BY
MUD .         GEL                  : Mud_type     - MUD TYPE
MATR.         SANDSTONE            : Logunit      - NEUTRON MATRIX
TMAX.C        22                   : BHT          - MAXIMUM RECORDED TEMPERATURE
BHTD.M        580.4                : BHTDEP       - MAXIMUM RECORDED TEMPERATURE
MATR.         1                    : LOGUNIT      - NEUTRON MATRIX
RMT .C        15.6                 : MDTP         - TEMPERATURE OF MUD
NEUT.         1                    : NEUTRON      - NEUTRON TYPE
RESI.         0                    : RESIST       - RESISTIVITY TYPE
RMC .OHMM     6                    : RMC          - RESISTIVITY OF MUD CAKE
RMF .OHMM     6                    : RMF          - RESISTIVITY OF MUD FILTRATE
SUFT.C        -20                  : SUFT         - SURFACE TEMPERATURE
~A  DEPTH     RESD     PHIN     PHID       GR      CAL
# ...
  407.500   14.178    0.368    0.148   80.369  254.972
  407.750   13.678    0.370    0.145   82.768  255.406
  408.000   13.685    0.373    0.145   81.546  255.443
  408.250   14.617    0.374    0.149   81.086  255.473
  408.500   17.637    0.376    0.160   82.775  254.908
  408.750   22.760    0.369    0.177   82.079  254.543
  409.000   29.453    0.351    0.199   75.122  255.073
  409.250   36.382    0.320    0.231   55.951  257.267
  409.500   43.181    0.309    0.260   42.302  258.122
  409.750   50.239    0.320    0.270   35.405  258.552
  410.000   57.367    0.320    0.274   31.190  258.687
  410.250   63.933    0.311    0.276   29.063  258.719
  410.500   68.679    0.302    0.277   28.426  258.749
  410.750   69.298    0.308    0.279   28.636  258.623
  411.000   67.251    0.317    0.281   28.408  257.832
  411.250   62.955    0.324    0.281   28.195  257.063
  411.500   59.278    0.324    0.280   28.332  254.214
  411.750   55.282    0.321    0.280   28.587  249.875
  412.000   51.443    0.319    0.279   28.843  244.738
  412.250   48.375    0.324    0.275   29.204  238.611
  412.500   45.889    0.329    0.272   29.719  233.672
  412.750   43.276    0.334    0.276   29.264  228.934
  413.000   40.360    0.337    0.277   29.163  224.196
  413.250   37.668    0.337    0.275   30.615  221.049
  413.500   35.077    0.333    0.272   32.962  219.989
  413.750   31.126    0.331    0.271   33.647  220.669
  414.000   26.794    0.333    0.270   33.419  221.948
  414.250   23.264    0.347    0.268   33.681  222.378
  414.500   20.940    0.349    0.266   33.935  222.510
  414.750   19.193    0.342    0.265   35.383  222.739
  415.000   17.894    0.334    0.262   38.980  223.068
  415.250   17.004    0.343    0.254   45.991  223.110
  415.500   16.378    0.349    0.253   48.744  223.140
  415.750   16.146    0.342    0.251   49.479  223.173
  416.000   15.830    0.338    0.249   49.141  222.909
  416.250   15.609    0.336    0.246   47.848  222.544
  416.500   15.446    0.335    0.243   45.959  222.275
  416.750   15.023    0.330    0.242   43.974  222.395
  417.000   14.579    0.324    0.235   43.501  222.846
  417.250   14.374    0.313    0.206   48.287  226.055
  417.500   14.250    0.297    0.176   53.613  232.847
  417.750   14.205    0.286    0.151   57.927  240.036
  418.000   14.237    0.287    0.136   59.916  245.333
  418.250   14.456    0.307    0.142   58.261  247.357
  418.500   15.030    0.314    0.162   57.035  247.394
  418.750   15.824    0.307    0.174   55.627  245.833
  419.000   17.021    0.307    0.188   54.395  243.082
  419.250   18.397    0.315    0.204   52.862  239.539
  419.500   19.779    0.330    0.226   50.255  236.196
  419.750   21.374    0.344    0.264   44.810  234.306
  420.000   22.565    0.352    0.274   41.354  232.680
  420.250   24.103    0.349    0.268   40.654  232.318
  420.500   24.666    0.345    0.263   41.210  231.954
  420.750   24.312    0.340    0.260   43.139  231.590
  421.000   23.131    0.337    0.257   45.603  231.325
  421.250   20.563    0.345    0.253   46.919  231.442
  421.500   17.830    0.364    0.251   47.434  231.893
  421.750   15.483    0.363    0.236   50.792  232.323
  422.000   13.776    0.355    0.196   56.119  235.136
  422.250   12.345    0.358    0.166   61.983  239.936
  422.500   11.094    0.374    0.156   68.263  245.134
  422.750    9.905    0.379    0.148   77.450  248.124
  423.000    9.327    0.375    0.145   83.931  248.983
  423.250    9.331    0.376    0.143   90.154  249.016
  423.500    9.592    0.381    0.144   91.365  246.961
  423.750   10.166    0.377    0.157   87.806  243.016
  424.000   11.123    0.365    0.179   78.941  236.984
  424.250   12.740    0.352    0.206   61.618  227.200
  424.500   13.873    0.348    0.231   52.442  221.854
  424.750   14.607    0.356    0.252   52.702  221.880
  425.000   15.299    0.355    0.255   54.212  221.913
  425.250   15.825    0.347    0.246   55.186  222.146
  425.500   16.127    0.336    0.236   55.267  222.575
  425.750   16.279    0.332    0.231   55.627  223.174
  426.000   16.413    0.345    0.229   56.147  224.036
  426.250   16.420    0.344    0.224   56.880  225.264
  426.500   16.517    0.340    0.223   57.076  226.488
  426.750   16.707    0.338    0.221   57.096  227.709
  427.000   16.932    0.337    0.216   57.295  229.528
  427.250   17.066    0.334    0.203   58.082  234.305
  427.500   17.075    0.327    0.186   58.350  240.136
  427.750   16.711    0.317    0.169   58.845  244.545
  428.000   16.354    0.308    0.151   60.414  245.669
  428.250   15.945    0.303    0.143   62.223  246.097
  428.500   15.491    0.306    0.144   64.389  246.925
  428.750   14.866    0.340    0.144   69.531  247.925
  429.000   13.998    0.418    0.145   77.254  248.791
  429.250   13.497    0.431    0.148   82.520  249.615
  429.500   12.942    0.425    0.143   82.958  249.845
  429.750   12.249    0.409    0.129   77.133  249.879
  430.000   11.244    0.390    0.112   69.639  249.914
  430.250    9.408    0.364    0.114   71.691  249.952
  430.500    7.805    0.345    0.141   74.689  249.979
  430.750    7.198    0.364    0.174   78.527  249.617
  431.000    7.024    0.365    0.183   80.573  249.248
  431.250    7.079    0.369    0.180   81.546  249.078
  431.500    7.240    0.376    0.173   81.565  249.111
  431.750    7.439    0.375    0.168   78.764  249.153
  432.000    7.616    0.367    0.161   71.827  249.183
  432.250    7.789    0.359    0.153   66.124  248.818
  432.500    7.879    0.351    0.144   64.888  247.564
  432.750    8.056    0.348    0.119   64.192  245.608
  433.000    8.434    0.353    0.096   62.663  243.150
  433.250    9.286    0.363    0.131   61.492  239.989
  433.500   10.432    0.349    0.160   61.512  237.952
  433.750   11.550    0.342    0.162   61.530  237.193
  434.000   12.731    0.348    0.182   61.728  236.428
  434.250   13.431    0.355    0.205   61.030  235.066
  434.500   13.361    0.359    0.224   59.260  234.003
  434.750   12.656    0.364    0.244   57.583  236.461
  435.000   12.007    0.368    0.258   59.840  240.639
  435.250   11.492    0.392    0.272   63.437  243.852
  435.500   10.693    0.421    0.290   69.362  246.764
  435.750    9.869    0.456    0.312   74.391  248.983
  436.000    9.093    0.494    0.345   76.438  250.509
  436.250    8.112    0.524    0.405   73.706  252.155
  436.500    7.140    0.523    0.397   69.500  254.263
  436.750    6.486    0.507    0.373   69.281  255.084
  437.000    5.896    0.489    0.316   73.892  256.504
  437.250    5.550    0.490    0.272   77.967  258.922
  437.500    5.382    0.510    0.255   79.060  261.640
  437.750    5.168    0.526    0.251   77.701  263.037
  438.000    5.054    0.514    0.236   77.970  263.899
  438.250    4.945    0.495    0.232   85.622  264.723
  438.500    4.840    0.471    0.220   89.162  266.447
  438.750    4.788    0.451    0.195   88.466  268.272
  439.000    4.781    0.435    0.166   84.667  269.696
  439.250    4.780    0.417    0.155   80.554  270.689
  439.500    4.931    0.399    0.198   82.562  271.548
  439.750    5.229    0.399    0.204   89.975  271.978
  440.000    5.487    0.404    0.167   94.348  272.410
  440.250    5.716    0.406    0.107   92.341  272.245
  440.500    5.923    0.402    0.055   85.444  271.583
  440.750    6.123    0.398    0.069   79.232  271.227
  441.000    6.222    0.394    0.101   75.527  271.257
  441.250    6.315    0.388    0.179   77.691  271.283
  441.500    6.551    0.382    0.210   79.143  271.021
  441.750    6.849    0.374    0.217   80.117  271.053
  442.000    7.149    0.366    0.216   81.089  271.677
  442.250    7.488    0.367    0.217   83.279  273.240
  442.500    7.845    0.390    0.225   85.784  274.930
  442.750    7.964    0.395    0.230   86.517  276.953
  443.000    8.218    0.391    0.225   86.715  277.779
  443.250    8.710    0.386    0.212   81.248  278.007
  443.500    9.354    0.380    0.184   72.084  278.037
  443.750    9.739    0.356    0.112   68.438  278.076
