~VERSION INFORMATION
 VERS.                 2.0:   CWLS LOG ASCII STANDARD -VERSION 2.0
 WRAP.                  NO:   ONE LINE PER DEPTH STEP
~WELL INFORMATION BLOCK
#MNEM.UNIT           DATA                    DESCRIPTION OF MNEMONIC
#---------    -------------------            -------------------------------
# Generated from Intellog Unique Number	CN_94_101/WELL/2602
WELL.         PARAMOUNT RESOURCES LTD.       : Well_name    - WELL
LOC .         00/05-24-094-18W4/0            : Location     - LOCATION
UWI .         00/05-24-094-18W400            : Uwi          - UNIQUE WELL ID
ENTR.         JOETTE                         : Entered      - ENTERED BY
SRVC.         COMPUTALOG                     : Scn          - SERVICE COMPANY
DATE.         06/12/92                       : Date         - LOG DATE
STRT.M        95                             : top_depth    - START DEPTH
STOP.M        275                            : bot_depth    - STOP DEPTH
STEP.M        0.25                           : increment    - STEP LENGTH
 NULL. -999.2500:NULL Value
~CURVE INFORMATION BLOCK
#MNEM UNIT       ERCB CURVE CODE    CURVE DESCRIPTION
#-----------   ------------------   ----------------------------------
DEPT.M        00 001 00 00         : DEPTH        - DEPTH
CALI.MM       00 280 01 00         : CAL          - CALIPER
GR  .API      00 310 00 00         : GR           - GAMMA RAY
NPHI.V/V      00 330 00 00         : PHIN         - NEUTRON POROSITY (SANDSTONE)
DPHI.V/V      00 890 00 00         : PHID         - DENSITY POROSITY (SANDSTONE)
ILD .OHMM     00 120 00 00         : RESD         - DEEP RESISTIVITY (DIL)
~PARAMETER INFORMATION
#MNEM.UNIT           DATA             DESCRIPTION OF MNEMONIC
#---------         -----------     ------------------------------
GL  .M        539.64               : gl           - GROUND LEVEL ELEVATION
EREF.M        543.44               : kb           - ELEVATION OF DEPTH REFERENCE
DATM.M        543.44               : datum        - DATUM ELEVATION
TDD .M        278.1                : tdd          - TOTAL DEPTH DRILLER
RUN .         ONE                  : Run          - RUN NUMBER
ENG .         JO                   : Engineer     - RECORDING ENGINEER
WIT .         TIM                  : Witness      - WITNESSED BY
MUD .         GEL                  : Mud_type     - MUD TYPE
MATR.         SANDSTONE            : Logunit      - NEUTRON MATRIX
TMAX.C        23                   : BHT          - MAXIMUM RECORDED TEMPERATURE
BHTD.M        278.1                : BHTDEP       - MAXIMUM RECORDED TEMPERATURE
RMT .C        20                   : MDTP         - TEMPERATURE OF MUD
MUDD.KG/M     1100                 : MWT          - MUD DENSITY
NEUT.         1                    : NEUTRON      - NEUTRON TYPE
RESI.         0                    : RESIST       - RESISTIVITY TYPE
RM  .OHMM     5.3                  : RM           - RESISTIVITY OF MUD
RMC .OHMM     5.3                  : RMC          - RESISTIVITY OF MUD CAKE
RMF .OHMM     7.5                  : RMF          - RESISTIVITY OF MUD FILTRATE
SUFT.C        4                    : SUFT         - SURFACE TEMPERATURE
~A  DEPTH      CAL       GR     PHIN     PHID     RESD
# ...
  168.000  160.335   72.095    0.388    0.325    7.440
  168.250  153.060   67.734    0.384    0.300    7.581
  168.500  148.895   71.441    0.387    0.293    7.433
  168.750  150.930   75.149    0.381    0.269    7.150
  169.000  156.081   77.611    0.381    0.243    6.747
  169.250  162.267   78.215    0.389    0.231    6.126
  169.500  168.446   81.302    0.416    0.210    6.122
  169.750  175.653   85.013    0.416    0.205    6.360
  170.000  175.618   88.100    0.402    0.231    6.481
  170.250  174.570   79.394    0.392    0.237    6.478
  170.500  174.529   73.788    0.394    0.245    6.231
  170.750  174.508   76.258    0.391    0.250    5.658
  171.000  175.508   92.379    0.383    0.256    5.443
  171.250  177.543   96.086    0.378    0.258    5.236
  171.500  178.557   96.686    0.383    0.237    5.234
  171.750  179.557   92.329    0.406    0.231    5.759
  172.000  179.543   84.244    0.405    0.237    6.336
  172.250  178.481   76.780    0.390    0.302    6.336
  172.500  173.275   71.173    0.378    0.272    7.240
  172.750  163.944   70.536    0.377    0.266    7.815
  173.000  160.807   69.903    0.369    0.262    8.435
  173.250  163.889   68.021    0.362    0.270    8.762
  173.500  165.924   65.517    0.371    0.299    9.276
  173.750  163.828   63.022    0.397    0.305    9.097
  174.000  162.766   61.140    0.390    0.255    8.104
  174.250  160.669   63.606    0.371    0.225    5.012
  174.500  159.614   66.697    0.367    0.222    4.552
  174.750  159.587   71.025    0.377    0.251    4.213
  175.000  159.559   77.836    0.381    0.276    4.052
  175.250  160.553   88.987    0.460    0.279    4.051
  175.500  161.573   90.216    0.475    0.253    4.128
  175.750  164.642   91.432    0.466    0.234    4.287
  176.000  167.711   91.424    0.457    0.232    4.453
  176.250  169.766   91.408    0.445    0.248    4.626
  176.500  172.828   92.012    0.438    0.253    4.992
  176.750  172.801   91.995    0.428    0.249    5.087
  177.000  172.780   95.699    0.407    0.241    5.084
  177.250  169.643   94.441    0.402    0.238    4.798
  177.500  167.546   95.049    0.411    0.237    4.704
  177.750  166.485   99.377    0.424    0.238    4.703
  178.000  168.519  102.456    0.437    0.241    4.792
  178.250  169.540  101.206    0.434    0.246    4.978
  178.500  171.574   89.393    0.477    0.257    5.582
  178.750  172.581   85.036    0.489    0.226    5.799
  179.000  173.581   73.227    0.380    0.173    6.380
  179.250  173.561   62.031    0.314    0.129    7.019
  179.500  172.506   76.914    0.348    0.188    7.153
  179.750  166.265   89.936    0.401    0.266    7.574
  180.000  163.141   92.402    0.412    0.275    8.018
  180.250  161.024   77.485    0.406    0.245    8.172
  180.500  161.010   75.607    0.370    0.209    8.487
  180.750  162.024   78.694    0.347    0.206    8.648
  181.000  163.024   87.362    0.372    0.229    8.810
  181.250  165.066   87.966    0.401    0.242    8.978
  181.500  169.169   86.709    0.425    0.251    9.325
  181.750  170.190   84.214    0.431    0.241    9.872
  182.000  174.293   77.370    0.421    0.198   10.061
  182.250  177.362   67.419    0.349    0.141   10.651
  182.500  178.362   67.403    0.274    0.108   10.855
  182.750  177.314   70.489    0.251    0.159   10.849
  183.000  166.942   81.649    0.333    0.203   10.042
  183.250  159.667   81.012    0.344    0.230    9.478
  183.500  166.880   77.892    0.356    0.256    7.818
  183.750  170.997   73.531    0.359    0.260    7.236
  184.000  173.032   74.756    0.361    0.258    7.235
  184.250  169.894   80.325    0.367    0.251    7.094
  184.500  163.667   80.925    0.382    0.250    7.228
  184.750  163.647   80.292    0.398    0.255    7.225
  185.000  164.653   82.758    0.394    0.264    7.085
  185.250  171.853   82.121    0.387    0.276    6.557
  185.500  175.970   75.886    0.377    0.272    6.308
  185.750  178.019   77.739    0.376    0.267    5.620
  186.000  179.025   90.748    0.382    0.260    4.725
  186.250  172.792   93.223    0.441    0.259    4.374
  186.500  165.516   94.439    0.468    0.260    4.288
  186.750  164.447   93.190    0.479    0.269    4.370
  187.000  165.461   94.415    0.485    0.277    4.717
  187.250  167.510   91.295    0.488    0.303    5.290
  187.500  170.572   77.624    0.418    0.325    5.711
  187.750  170.551   72.642    0.400    0.298    8.379
  188.000  166.365   67.040    0.387    0.271    8.872
  188.250  164.290   62.679    0.401    0.245    9.041
  188.500  160.124   62.662    0.410    0.227    8.532
  188.750  155.952   72.576    0.401    0.258    7.747
  189.000  153.863   75.038    0.392    0.302    6.770
  189.250  151.753   77.500    0.383    0.299    6.031
  189.500  152.767   79.966    0.388    0.272    5.269
  189.750  156.877   82.437    0.393    0.266    4.972
  190.000  160.987   85.528    0.385    0.255    4.783
  190.250  165.097   89.852    0.381    0.263    4.601
  190.500  166.111   91.701    0.390    0.267    4.871
  190.750  167.118   92.297    0.395    0.266    5.159
  191.000  167.091   92.285    0.413    0.268    5.568
  191.250  166.029   91.031    0.404    0.273    5.895
  191.500  164.967   86.041    0.393    0.266    6.123
  191.750  165.974   85.404    0.383    0.262    6.240
  192.000  168.008   88.495    0.378    0.276    6.735
  192.250  170.050   92.202    0.380    0.294    7.701
  192.500  171.063   90.945    0.372    0.264    8.637
  192.750  168.967   81.618    0.356    0.215    9.143
  193.000  162.733   78.490    0.342    0.138    8.966
  193.250  158.561   80.340    0.368    0.178    8.459
  193.500  163.706   82.806    0.378    0.202    8.138
  193.750  170.912   86.518    0.388    0.215    7.389
  194.000  175.016   89.604    0.401    0.233    7.109
  194.250  176.036   91.446    0.398    0.250    7.243
  194.500  177.043   90.809    0.377    0.275    7.381
  194.750  173.906   92.029    0.342    0.269    7.666
  195.000  168.713   92.642    0.368    0.260    7.234
  195.250  161.445   95.108    0.402    0.250    6.444
  195.500  163.479   94.471    0.404    0.243    5.419
  195.750  167.589   89.489    0.395    0.246    4.557
  196.000  172.734   85.749    0.391    0.246    4.301
  196.250  175.817  103.110    0.395    0.239    4.058
  196.500  177.858  106.193    0.423    0.237    4.215
  196.750  177.831  108.659    0.441    0.236    4.463
  197.000  175.734  105.544    0.441    0.232    5.005
  197.250  173.638   90.011    0.452    0.217    5.615
  197.500  173.604   82.542    0.398    0.206    6.060
  197.750  171.507   80.039    0.408    0.211    5.501
  198.000  166.315   96.780    0.442    0.221    5.293
  198.250  161.108  102.354    0.453    0.235    5.091
  198.500  163.143  104.820    0.445    0.243    4.897
  198.750  166.232  101.700    0.401    0.240    5.388
  199.000  168.274   97.331    0.391    0.240    6.402
  199.250  170.308   99.176    0.375    0.241    7.904
  199.500  171.315  101.651    0.355    0.241    9.389
  199.750  169.212  105.975    0.354    0.241    9.569
  200.000  167.122  105.338    0.358    0.242    9.750
  200.250  165.006  100.981    0.359    0.237    9.746
  200.500  164.992   95.378    0.359    0.229    9.555
  200.750  165.992   92.258    0.358    0.234    9.737
  201.000  166.992   90.376    0.357    0.236   10.508
  201.250  169.047   89.743    0.349    0.229   10.709
  201.500  171.088   87.865    0.344    0.213   11.122
  201.750  173.137   83.504    0.327    0.195   10.698
  202.000  175.164   81.621    0.351    0.208   10.097
  202.250  174.116   87.194    0.372    0.231    9.167
  202.500  174.075   91.522    0.374    0.230    8.990
  202.750  176.130   93.989    0.374    0.227    8.647
  203.000  181.268   95.205    0.378    0.227    8.644
  203.250  183.309   95.818    0.396    0.234    8.639
  203.500  180.178   99.525    0.393    0.232    8.637
  203.750  178.082   98.263    0.382    0.228    8.800
  204.000  174.951   88.937    0.373    0.235    9.141
  204.250  170.793   84.572    0.363    0.249    9.864
