~VERSION INFORMATION
 VERS.                 2.0:   CWLS LOG ASCII STANDARD -VERSION 2.0
 WRAP.                  NO:   ONE LINE PER DEPTH STEP
~WELL INFORMATION BLOCK
#MNEM.UNIT           DATA                    DESCRIPTION OF MNEMONIC
#---------    -------------------            -------------------------------
# Generated from Intellog Unique Number	CC_80_83/WELL/2299
NULL.         -999.25                        : NULL_VALUE
WELL.         HB HORSER                      : Well_name    - WELL              
LOC .         07-23-083-13W4                 : Location     - LOCATION          
UWI .         00/07-23-083-13W400            : Uwi          - UNIQUE WELL ID    
ENTR.         DW                             : Entered      - ENTERED BY        
SRVC.         SCHLUMBERGER                   : Scn          - SERVICE COMPANY   
DATE.         17 MAR 75                      : Date         - LOG DATE
STRT.M        91.44                          : top_depth    - START DEPTH       
STOP.M        338.328                        : bot_depth    - STOP DEPTH        
STEP.M        0.3048                         : increment    - STEP LENGTH       
~CURVE INFORMATION BLOCK
#MNEM UNIT       ERCB CURVE CODE    CURVE DESCRIPTION
#-----------   ------------------   ----------------------------------
DEPT.M        00 001 00 00         : DEPTH        - DEPTH                       
DPHI.V/V      00 890 00 00         : PHID         - DENSITY POROSITY (LIMESTONE)
NPHI.V/V      00 330 00 00         : PHIN         - NEUTRON POROSITY (LIMESTONE)
GR  .API      00 310 00 00         : GR           - GAMMA RAY                   
ILD .OHMM     00 120 00 00         : RESD         - DEEP RESISTIVITY (DIL)      
~PARAMETER INFORMATION       
#MNEM.UNIT           DATA             DESCRIPTION OF MNEMONIC
#---------         -----------     ------------------------------
GL  .M        561.442              : gl           - GROUND LEVEL ELEVATION      
EREF.M        563.88               : kb           - ELEVATION OF DEPTH REFERENCE
DATM.M        563.88               : datum        - DATUM ELEVATION             
TDD .M        353.263              : tdd          - TOTAL DEPTH DRILLER         
RUN .         ONE                  : Run          - RUN NUMBER                  
ENG .         BILL                 : Engineer     - RECORDING ENGINEER          
WIT .         JIM                  : Witness      - WITNESSED BY                
MUD .         GEL                  : Mud_type     - MUD TYPE                    
MATR.         LIMESTONE            : Logunit      - NEUTRON MATRIX              
TMAX.C        23.8889              : BHT          - MAXIMUM RECORDED TEMPERATURE
BHTD.M        353.263              : BHTDEP       - MAXIMUM RECORDED TEMPERATURE
MATR.         1                    : LOGUNIT      - NEUTRON MATRIX              
RMT .C        25                   : MDTP         - TEMPERATURE OF MUD          
NEUT.         1                    : NEUTRON      - NEUTRON TYPE                
RESI.         0                    : RESIST       - RESISTIVITY TYPE            
RMC .OHMM     0.25                 : RMC          - RESISTIVITY OF MUD CAKE     
RMF .OHMM     0.25                 : RMF          - RESISTIVITY OF MUD FILTRATE 
SUFT.C        4                    : SUFT         - SURFACE TEMPERATURE         
~A  DEPTH     PHID     PHIN       GR     RESD
# ...
  303.580    0.285    0.433   54.559   26.539
  303.885    0.285    0.469   47.606   35.762
  304.190    0.275    0.447   52.019   40.763
  304.495    0.278    0.469   58.461   40.046
  304.799    0.268    0.469   64.496   40.080
  305.104    0.261    0.401   74.585   33.309
  305.409    0.273    0.432   76.563   26.675
  305.714    0.270    0.445   70.826   22.171
  306.019    0.298    0.468   63.065   21.377
  306.323    0.301    0.459   67.472   21.800
  306.628    0.264    0.431   75.539   23.498
  306.933    0.278    0.459   64.527   27.292
  307.238    0.272    0.469   64.065   30.536
  307.543    0.284    0.455   66.852   34.812
  307.847    0.289    0.472   69.240   36.837
  308.152    0.282    0.448   72.029   34.231
  308.457    0.282    0.471   67.104   29.522
  308.762    0.281    0.453   61.363   29.011
  309.067    0.281    0.448   53.201   30.695
  309.372    0.279    0.426   58.423   33.708
  309.676    0.296    0.461   64.859   41.391
  309.981    0.284    0.475   61.963   44.628
  310.286    0.257    0.474   71.249   40.701
  310.591    0.260    0.428   76.067   32.589
  310.896    0.267    0.455   73.979   28.641
  311.200    0.286    0.475   63.784   27.618
  311.505    0.282    0.452   60.482   29.230
  311.810    0.258    0.451   56.371   30.359
  312.115    0.294    0.447   54.289   32.133
  312.420    0.288    0.442   57.892   32.758
  312.724    0.276    0.477   65.547   32.181
  313.029    0.266    0.459   69.556   31.619
  313.334    0.244    0.428   86.141   29.926
  313.639    0.145    0.388  118.942   26.789
  313.944    0.130    0.397  120.125   17.483
  314.248    0.139    0.398  117.228   12.523
  314.553    0.151    0.407  114.340   10.803
  314.858    0.154    0.413  116.718   10.225
  315.163    0.147    0.383  116.668    9.862
  315.468    0.165    0.388  112.150   10.054
  315.773    0.183    0.404  103.981   11.042
  316.077    0.210    0.408   85.663   12.587
  316.382    0.222    0.419   86.824   15.173
  316.687    0.199    0.414  101.790   16.357
  316.992    0.173    0.381  126.901   15.776
  317.297    0.164    0.388  132.935   14.387
  317.601    0.164    0.422  132.068   11.735
  317.906    0.154    0.443  136.884    8.251
  318.211    0.142    0.471  129.930    7.117
  318.516    0.143    0.481  124.606    6.865
  318.821    0.157    0.463  127.801    6.997
  319.125    0.162    0.419  123.284    7.977
  319.430    0.182    0.447  115.925    9.438
  319.735    0.184    0.430  128.046   11.164
  320.040    0.216    0.462  126.370   14.495
  320.345    0.278    0.478  112.519   17.798
  320.649    0.287    0.464  101.100   23.108
  320.954    0.277    0.455   99.425   29.449
  321.259    0.268    0.441  109.113   31.165
  321.564    0.162    0.412  119.204   24.957
  321.869    0.177    0.402  108.599   17.874
  322.174    0.151    0.385  112.196   12.567
  322.478    0.161    0.374  123.101   10.446
  322.783    0.158    0.414  138.474   10.073
  323.088    0.157    0.487  131.925   10.463
  323.393    0.170    0.499  122.135   11.492
  323.698    0.166    0.479  120.862   12.159
  324.002    0.155    0.414  126.492   12.402
  324.307    0.138    0.418  126.436   11.956
  324.612    0.071    0.431  127.603    8.888
  324.917    0.067    0.455  119.834    7.117
  325.222    0.096    0.522  125.055    6.371
  325.526    0.097    0.507  130.285    5.811
  325.831    0.106    0.504  124.544    5.502
  326.136    0.120    0.497  128.960    5.405
  326.441    0.116    0.463  126.876    5.510
  326.746    0.092    0.456  124.383    5.723
  327.050    0.105    0.478  125.150    5.945
  327.355    0.095    0.471  121.032    5.953
  327.660    0.093    0.480  114.893    5.956
  327.965    0.086    0.486  110.372    5.962
  328.270    0.073    0.499  104.637    5.966
  328.575    0.055    0.498   97.693    6.198
  328.879    0.063    0.438   93.981    6.558
  329.184    0.054    0.452   88.656    7.069
  329.489    0.031    0.457   74.391    7.910
  329.794    0.049    0.440   54.053    9.534
  330.099    0.057    0.234   40.203   14.906
  330.403    0.035    0.214   42.177   21.238
  330.708    0.069    0.227   48.613   23.326
  331.013    0.106    0.341   98.880   15.510
  331.318    0.096    0.398   95.184    9.575
  331.623    0.105    0.472   68.347    9.234
  331.927    0.092    0.523   65.048    9.954
  332.232    0.137    0.313   77.170   12.923
  332.537    0.132    0.439   77.113   21.766
  332.842    0.050    0.458   47.837   40.227
  333.147    0.044    0.189   42.907   66.504
  333.451    0.041    0.195   37.184   93.013
  333.756    0.051    0.205   31.446   98.447
  334.061    0.051    0.197   27.333   96.706
  334.366    0.064    0.192   22.409   84.981
  334.671    0.059    0.210   24.389   64.353
  334.976    0.024    0.208   23.922   49.658
  335.280    0.021    0.185   23.472   45.288
  335.585    0.042    0.186   26.661   40.546
  335.890    0.095    0.250   29.049   37.665
  336.195    0.093    0.295   31.024   36.321
  336.500    0.082    0.244   35.433   39.901
  336.804    0.042    0.224   24.827   44.640
  337.109    0.076    0.212   21.531   55.836
  337.414    0.103    0.222   17.005   75.243
  337.719    0.084    0.225   14.115   82.647
  338.024    0.064    0.215   12.443   82.712
  338.328    0.072    0.206   11.576   76.856
