~VERSION INFORMATION
 VERS.                 2.0:   CWLS LOG ASCII STANDARD -VERSION 2.0
 WRAP.                  NO:   ONE LINE PER DEPTH STEP
~WELL INFORMATION BLOCK
#MNEM.UNIT           DATA                    DESCRIPTION OF MNEMONIC
#---------    -------------------            -------------------------------
# Generated from Intellog Unique Number	CW_70_72/WELL/3016
NULL.         -999.25                        : NULL_VALUE
WELL.         GULF CHISHOLM 07-10            : Well_name    - WELL              
LOC .         07-10-070-26W4                 : Location     - LOCATION          
UWI .         00/07-10-070-26W4/0            : Uwi          - UNIQUE WELL ID    
ENTR.         J                              : Entered      - ENTERED BY        
SRVC.         SCHLUMBERGER                   : Scn          - SERVICE COMPANY   
DATE.         12 MAR 77                      : Date         - LOG DATE          
STRT.M        463.296                        : top_depth    - START DEPTH       
STOP.M        701.046                        : bot_depth    - STOP DEPTH        
STEP.M        0.25                           : increment    - STEP LENGTH       
~CURVE INFORMATION BLOCK
#MNEM UNIT       ERCB CURVE CODE    CURVE DESCRIPTION
#-----------   ------------------   ----------------------------------
DEPT.M        00 001 00 00         : DEPTH        - DEPTH                       
ILD .OHMM     00 120 00 00         : RESD         - DEEP RESISTIVITY (DIL)      
CALI.MM       00 280 01 00         : CAL          - CALIPER                     
GR  .API      00 310 00 00         : GR           - GAMMA RAY                   
NPHI.V/V      00 330 00 00         : PHIN         - NEUTRON POROSITY (SANDSTONE)
DPHI.V/V      00 890 00 00         : PHID         - DENSITY POROSITY (SANDSTONE)
~PARAMETER INFORMATION       
#MNEM.UNIT           DATA             DESCRIPTION OF MNEMONIC
#---------         -----------     ------------------------------
GL  .M        638.861              : gl           - GROUND LEVEL ELEVATION      
EREF.M        642.214              : kb           - ELEVATION OF DEPTH REFERENCE
DATM.M        638.861              : datum        - DATUM ELEVATION             
TDD .M        701.345              : tdd          - TOTAL DEPTH DRILLER         
RUN .         ONE                  : Run          - RUN NUMBER                  
ENG .         FIGGURES             : Engineer     - RECORDING ENGINEER          
WIT .         LANE                 : Witness      - WITNESSED BY                
BASE.         EDM                  : Branch       - HOME BASE OF LOGGING UNIT   
MATR.         SANDSTONE            : Logunit      - NEUTRON MATRIX              
TMAX.C        25.5556              : BHT          - MAXIMUM RECORDED TEMPERATURE
BHTD.M        701.345              : BHTDEP       - MAXIMUM RECORDED TEMPERATURE
RMT .C        16.6667              : MDTP         - TEMPERATURE OF MUD          
MUDD.KG/M     1116                 : MWT          - MUD DENSITY                 
NEUT.         1                    : NEUTRON      - NEUTRON TYPE                
RESI.         0                    : RESIST       - RESISTIVITY TYPE            
RM  .OHMM     0.54                 : RM           - RESISTIVITY OF MUD          
RMC .OHMM     0.25                 : RMC          - RESISTIVITY OF MUD CAKE     
RMF .OHMM     0.25                 : RMF          - RESISTIVITY OF MUD FILTRATE 
SUFT.C        -17.7778             : SUFT         - SURFACE TEMPERATURE         
~A  DEPTH     RESD      CAL       GR     PHIN     PHID
# ...
  645.796    4.035  158.379  120.890    0.403    0.135
  646.046    4.024  158.824  124.313    0.405    0.155
  646.296    3.999  159.162  121.413    0.421    0.156
  646.546    3.974  159.383  122.948    0.420    0.142
  646.796    3.978  159.321  125.937    0.414    0.133
  647.046    3.988  159.546  125.818    0.409    0.121
  647.296    4.022  159.686  125.721    0.411    0.124
  647.546    4.041  160.121  125.806    0.415    0.106
  647.796    4.134  160.660  127.881    0.411    0.100
  648.046    4.268  160.699  123.102    0.397    0.093
  648.296    4.743  160.716  117.779    0.392    0.110
  648.546    5.164  159.621  111.727    0.391    0.127
  648.796    5.420  157.892  100.628    0.384    0.119
  649.046    5.466  157.007   91.844    0.359    0.076
  649.296    5.342  156.405   86.219    0.334    0.053
  649.546    4.934  156.545  105.905    0.354    0.004
  649.796    4.532  157.190  120.185    0.401   -0.005
  650.046    4.051  157.734  125.062    0.426    0.088
  650.296    3.693  158.272  122.582    0.443    0.129
  650.546    3.711  158.201  119.507    0.424    0.138
  650.796    3.924  158.420  115.759    0.413    0.124
  651.046    4.265  158.554  112.193    0.407    0.094
  651.296    4.764  157.865  109.295    0.400    0.101
  651.546    5.321  157.168  105.917    0.395    0.115
  651.796    5.868  156.596  100.529    0.386    0.132
  652.046    6.081  156.202   96.711    0.378    0.111
  652.296    5.966  155.927   99.046    0.349    0.102
  652.546    5.602  155.548  105.190    0.351    0.063
  652.796    5.269  155.361  109.332    0.369    0.106
  653.046    4.876  155.193  112.203    0.396    0.145
  653.296    4.604  155.217  114.828    0.418    0.170
  653.546    4.467  155.249  116.425    0.429    0.146
  653.796    4.359  155.158  114.081    0.401    0.140
  654.046    4.355  155.195  111.590    0.375    0.124
  654.296    4.407  155.427  110.948    0.371    0.133
  654.546    4.525  155.565  110.728    0.375    0.131
  654.796    4.838  155.795  111.779    0.369    0.120
  655.046    5.172  156.014  114.521    0.358    0.118
  655.296    5.519  155.951  112.781    0.346    0.102
  655.546    5.890  155.780  106.182    0.334    0.091
  655.796    5.982  155.812  103.953    0.329    0.103
  656.046    5.536  157.055  114.286    0.317    0.074
  656.296    5.029  156.999  121.101    0.330    0.057
  656.546    4.528  157.120  125.124    0.349    0.080
  656.796    4.284  157.038  129.509    0.374    0.108
  657.046    4.156  157.285  131.779    0.436    0.129
  657.296    4.070  157.917  131.311    0.422    0.116
  657.546    4.022  158.361  124.711    0.405    0.109
  657.796    4.026  158.489  125.693    0.387    0.105
  658.046    4.074  158.429  125.472    0.381    0.091
  658.296    4.131  158.345  130.096    0.389    0.080
  658.546    4.173  158.578  131.817    0.399    0.100
  658.796    4.185  158.608  131.772    0.404    0.125
  659.046    4.181  158.726  131.061    0.414    0.128
  659.296    4.125  158.775  129.377    0.419    0.090
  659.546    4.068  157.962  124.470    0.387    0.107
  659.796    3.912  157.987  126.013    0.372    0.125
  660.046    3.783  157.809  130.089    0.392    0.138
  660.296    3.745  158.149  133.514    0.420    0.135
  660.546    3.882  158.693  133.708    0.437    0.116
  660.796    4.044  158.525  125.898    0.378    0.146
  661.046    4.583  158.452  115.533    0.343    0.133
  661.296    5.369  158.370  108.142    0.326    0.092
  661.546    6.007  157.978  104.331    0.315    0.044
  661.796    6.069  158.020  104.291    0.316    0.047
  662.046    5.699  157.953  105.338    0.327    0.077
  662.296    5.360  157.553  107.232    0.358    0.107
  662.546    5.090  157.064  106.459    0.363    0.077
  662.796    5.040  156.389  105.995    0.349    0.067
  663.046    5.119  156.087  108.075    0.329    0.077
  663.296    5.208  155.500  109.730    0.322    0.087
  663.546    5.299  156.050  108.353    0.321    0.099
  663.796    5.392  155.988  112.853    0.320    0.107
  664.046    5.558  156.218  117.175    0.315    0.103
  664.296    5.792  156.963  120.121    0.312    0.093
  664.546    6.002  157.392  125.963    0.319    0.092
  664.796    6.120  157.820  132.290    0.330    0.097
  665.046    6.193  157.972  138.748    0.340    0.109
  665.296    6.255  158.302  146.292    0.348    0.117
  665.546    6.330  158.443  145.640    0.342    0.116
  665.796    6.395  158.569  131.330    0.332    0.113
  666.046    6.472  158.608  120.779    0.325    0.120
  666.296    6.526  158.298  115.577    0.312    0.110
  666.546    6.568  158.444  117.111    0.307    0.092
  666.796    6.586  158.787  119.491    0.314    0.111
  667.046    6.473  158.711  119.147    0.323    0.113
  667.296    6.469  157.924  117.941    0.327    0.106
  667.546    6.498  156.506  116.325    0.327    0.114
  667.796    6.468  155.411  113.306    0.322    0.106
  668.046    6.511  153.887  110.105    0.311    0.103
  668.296    6.541  152.781  107.389    0.306    0.112
  668.546    6.547  152.304  107.099    0.315    0.111
  668.796    6.567  151.402  108.750    0.331    0.100
  669.046    6.657  150.923  109.627    0.343    0.104
  669.296    6.873  150.527  108.791    0.357    0.121
  669.546    7.308  150.038  103.590    0.367    0.130
  669.796    8.222  149.669   91.890    0.348    0.103
  670.046   11.127  149.391   80.973    0.289    0.089
  670.296   14.202  149.192   64.844    0.242    0.057
  670.546   17.317  149.132   57.758    0.187    0.024
  670.796   19.916  149.151   67.908    0.164    0.005
  671.046   19.649  149.399   74.608    0.162   -0.010
  671.296   16.504  150.244   81.412    0.169    0.001
  671.546   13.759  151.505   86.902    0.193    0.043
  671.796   11.002  152.561   93.537    0.237    0.068
  672.046    9.239  153.827   99.324    0.287    0.083
  672.296    7.718  154.577  105.165    0.325    0.123
  672.546    6.936  154.709  103.181    0.351    0.099
  672.796    6.549  152.682   94.213    0.363    0.106
  673.046    6.298  150.635   92.706    0.351    0.119
  673.296    6.280  150.061   97.037    0.336    0.128
  673.546    6.275  150.997  100.633    0.338    0.149
  673.796    6.078  151.833  103.263    0.345    0.177
  674.046    5.781  152.703  105.704    0.349    0.158
  674.296    5.630  153.972  107.846    0.362    0.154
  674.546    5.614  155.644  113.693    0.371    0.144
  674.796    5.702  156.506  120.513    0.383    0.132
  675.046    5.942  157.349  115.550    0.379    0.116
  675.296    6.330  157.988  105.001    0.345    0.132
  675.546    6.680  158.126   98.822    0.326    0.122
  675.796    7.449  157.745   95.626    0.312    0.108
  676.046    8.050  157.465   92.122    0.297    0.112
  676.296    8.748  157.183   84.486    0.273    0.072
  676.546    9.544  157.102   79.707    0.241    0.039
  676.796    9.854  156.824   94.175    0.249    0.017
  677.046    9.474  156.448  107.120    0.347    0.007
  677.296    8.270  156.052  117.030    0.363    0.043
  677.546    7.404  155.890  123.123    0.382    0.089
  677.796    6.569  155.808  122.711    0.387    0.111
  678.046    6.225  155.208  115.139    0.365    0.120
  678.296    6.323  153.915  106.903    0.346    0.096
  678.546    6.375  152.915  123.007    0.329    0.084
  678.796    6.152  154.279  142.142    0.351    0.095
  679.046    5.819  156.565  146.227    0.372    0.113
  679.296    5.154  157.204  138.538    0.395    0.128
  679.546    4.786  157.346  124.036    0.406    0.127
  679.796    4.748  157.056  114.893    0.393    0.077
  680.046    4.930  156.569  101.857    0.366    0.059
  680.296    5.242  155.463   92.398    0.297    0.040
  680.546    5.402  154.680   87.382    0.303    0.146
  680.796    5.557  153.779   85.812    0.310    0.191
  681.046    5.614  153.398   87.355    0.323    0.226
  681.296    5.558  153.518   93.130    0.323    0.204
  681.546    5.306  154.375  101.168    0.314    0.189
  681.796    4.937  156.255  110.530    0.306    0.162
  682.046    4.729  157.412  115.950    0.304    0.135
