~VERSION INFORMATION
 VERS.                 2.0:   CWLS LOG ASCII STANDARD -VERSION 2.0
 WRAP.                  NO:   ONE LINE PER DEPTH STEP
~WELL INFORMATION BLOCK
#MNEM.UNIT           DATA                    DESCRIPTION OF MNEMONIC
#---------    -------------------            -------------------------------
# Generated from Intellog Unique Number	CC_84_87/WELL/1169
NULL.         -999.25                        : NULL_VALUE
WELL.         BP GRANOR                      : Well_name    - WELL              
LOC .         07-29-084-18W4                 : Location     - LOCATION          
UWI .         00/07-29-084-18W400            : Uwi          - UNIQUE WELL ID    
ENTR.         JHS                            : Entered      - ENTERED BY        
SRVC.         SCHLUMBERGER                   : Scn          - SERVICE COMPANY   
DATE.         01 MAR 81                      : Date         - LOG DATE
STRT.M        115                            : top_depth    - START DEPTH       
STOP.M        364.897                        : bot_depth    - STOP DEPTH        
STEP.M        0.3                            : increment    - STEP LENGTH       
~CURVE INFORMATION BLOCK
#MNEM UNIT       ERCB CURVE CODE    CURVE DESCRIPTION
#-----------   ------------------   ----------------------------------
DEPT.M        00 001 00 00         : DEPTH        - DEPTH                       
DPHI.V/V      00 890 00 00         : PHID         - DENSITY POROSITY (LIMESTONE)
NPHI.V/V      00 330 00 00         : PHIN         - NEUTRON POROSITY (LIMESTONE)
GR  .API      00 310 00 00         : GR           - GAMMA RAY                   
ILD .OHMM     00 120 00 00         : RESD         - DEEP RESISTIVITY (DIL)      
~PARAMETER INFORMATION       
#MNEM.UNIT           DATA             DESCRIPTION OF MNEMONIC
#---------         -----------     ------------------------------
GL  .M        567.8                : gl           - GROUND LEVEL ELEVATION      
EREF.M        571.5                : kb           - ELEVATION OF DEPTH REFERENCE
DATM.M        571.5                : datum        - DATUM ELEVATION             
TDD .M        350                  : tdd          - TOTAL DEPTH DRILLER         
RUN .         ONE                  : Run          - RUN NUMBER                  
ENG .         BILL                 : Engineer     - RECORDING ENGINEER          
WIT .         JIM                  : Witness      - WITNESSED BY                
MUD .         GEL                  : Mud_type     - MUD TYPE                    
MATR.         LIMESTONE            : Logunit      - NEUTRON MATRIX              
TMAX.C        20                   : BHT          - MAXIMUM RECORDED TEMPERATURE
BHTD.M        350                  : BHTDEP       - MAXIMUM RECORDED TEMPERATURE
MATR.         1                    : LOGUNIT      - NEUTRON MATRIX              
RMT .C        25                   : MDTP         - TEMPERATURE OF MUD          
NEUT.         1                    : NEUTRON      - NEUTRON TYPE                
RESI.         0                    : RESIST       - RESISTIVITY TYPE            
RMC .OHMM     0.25                 : RMC          - RESISTIVITY OF MUD CAKE     
RMF .OHMM     0.25                 : RMF          - RESISTIVITY OF MUD FILTRATE 
SUFT.C        15                   : SUFT         - SURFACE TEMPERATURE         
~A  DEPTH     PHID     PHIN       GR     RESD
# ...
  323.799    0.283    0.480   83.182   16.598
  324.099    0.249    0.397   82.579   15.971
  324.399    0.235    0.411   87.976   15.971
  324.699    0.206    0.381   95.773   15.667
  324.999    0.166    0.379   99.971   14.788
  325.299    0.165    0.387   99.968   12.925
  325.599    0.157    0.387   95.765   11.739
  325.899    0.155    0.381   87.363   11.296
  326.199    0.142    0.367   76.560   11.296
  326.499    0.143    0.345   83.757   12.678
  326.799    0.175    0.350   89.154   13.432
  327.099    0.165    0.370   93.351   13.959
  327.399    0.149    0.376   96.948   13.432
  327.699    0.149    0.379  101.746   12.437
  327.999    0.175    0.394  103.543   10.870
  328.298    0.181    0.405   92.141   10.064
  328.598    0.214    0.392   80.738    9.500
  328.898    0.215    0.382   78.335    9.873
  329.198    0.221    0.373   74.133   12.437
  329.498    0.256    0.411   71.130   14.788
  329.798    0.282    0.431   71.727   18.274
  330.098    0.263    0.422   76.525   23.021
  330.398    0.252    0.414   86.122   22.582
  330.698    0.244    0.473   87.919   20.511
  330.998    0.265    0.507   43.517   18.274
  331.298    0.277    0.507   30.314   18.629
  331.598    0.295    0.369   30.311   23.468
  331.898    0.293    0.331   36.909   29.563
  332.198    0.264    0.336   57.906   36.532
  332.498    0.226    0.352   71.103   37.965
  332.798    0.246    0.364   71.100   29.563
  333.098    0.192    0.370   71.697   23.468
  333.398    0.201    0.396   77.695   20.120
  333.698    0.220    0.383   87.891   19.736
  333.998    0.218    0.398   98.689   19.360
  334.298    0.190    0.412   87.886   17.584
  334.598    0.218    0.403   68.084   17.926
  334.898    0.237    0.382   62.081   19.736
  335.198    0.254    0.386   62.078   21.315
  335.498    0.266    0.386   53.676   24.862
  335.798    0.267    0.410   48.873   27.373
  336.098    0.261    0.417   53.070   32.549
  336.398    0.248    0.353   63.267   37.242
  336.698    0.243    0.352  111.264   37.965
  336.998    0.215    0.412  143.660   27.905
  337.298    0.204    0.448  140.658   18.629
  337.598    0.178    0.469  105.855   12.437
  337.898    0.165    0.394   92.653    9.684
  338.198    0.175    0.364   81.251    9.684
  338.498    0.208    0.347   60.848   10.260
  338.798    0.217    0.341   52.445   11.296
  339.098    0.185    0.316   65.043   13.693
  339.398    0.143    0.311   78.240   15.971
  339.698    0.158    0.317   75.237   15.667
  339.998    0.202    0.325   57.834   15.667
  340.298    0.250    0.342   38.632   16.598
  340.598    0.292    0.347   32.029   18.274
  340.898    0.282    0.356   29.027   21.729
  341.198    0.333    0.386   30.224   25.345
  341.498    0.318    0.469   38.021   30.723
  341.798    0.267    0.471   48.218   35.153
  342.098    0.241    0.390   67.415   35.153
  342.398    0.237    0.344   75.812   31.928
  342.698    0.210    0.335   74.009   26.852
  342.998    0.229    0.345   68.607   23.021
  343.298    0.237    0.330   63.204   20.909
  343.598    0.233    0.317   63.801   20.120
  343.898    0.221    0.316   62.598   21.315
  344.198    0.185    0.338   63.796   22.582
  344.498    0.184    0.356   61.993   22.151
  344.798    0.249    0.362   63.790   19.360
  345.098    0.273    0.358   66.788   19.360
  345.398    0.258    0.380   66.785   19.736
  345.698    0.247    0.334   67.382   23.468
  345.998    0.231    0.327   66.779   29.000
  346.298    0.212    0.321   66.176   33.826
  346.598    0.157    0.327   66.774   35.836
  346.898    0.200    0.324   66.171   37.242
  347.198    0.206    0.328   67.368   30.723
  347.498    0.210    0.328   64.966   27.905
  347.798    0.214    0.318   64.363   30.138
  348.098    0.186    0.316   70.360   35.153
  348.398    0.238    0.328   63.758   40.221
  348.698    0.230    0.338   48.755   21.729
  348.998    0.214    0.336   46.952   23.924
  349.298    0.296    0.354   45.149   46.915
  349.598    0.295    0.354   42.746   46.915
  349.898    0.338    0.376   40.944   31.928
  350.198    0.353    0.391   37.941   23.021
  350.498    0.354    0.402   33.139   18.274
  350.798    0.360    0.411   29.536   16.921
  351.098    0.371    0.420   27.734   20.120
  351.398    0.382    0.432   25.930   67.621
  351.698    0.391    0.439   24.128   61.419
  351.998    0.396    0.445   22.925   56.869
  352.298    0.388    0.451   22.323   65.069
  352.598    0.392    0.454   21.720   86.840
  352.897    0.405    0.444   21.717  130.079
  353.197    0.415    0.427   21.115  382.096
  353.497    0.398    0.399   20.512 1212.180
  353.797    0.225    0.360   19.909  735.013
  354.097    0.171    0.350   19.906  445.682
  354.397    0.132    0.344   19.904  240.777
  354.697    0.204    0.335   18.100  260.041
  354.997    0.229    0.341   16.898  360.664
  355.297    0.253    0.375   15.695 1360.520
  355.597    0.263    0.409   15.092 1497.920
  355.897    0.168    0.403   14.490 1527.020
  356.197    0.158    0.374   13.887 1469.370
  356.497    0.140    0.363   12.684 1386.950
  356.797    0.116    0.350   12.082 1144.180
  357.097    0.144    0.336   12.079  873.985
  357.397    0.171    0.345   12.076  707.265
  357.697    0.150    0.333   13.273  693.786
  357.997    0.186    0.336   14.471  809.241
  358.297    0.152    0.352   15.668  873.985
  358.597    0.138    0.340   18.065  707.265
  358.897    0.098    0.287   19.262  500.224
  359.197    0.065    0.267   18.660  333.947
  359.497    0.036    0.256   19.256  202.491
  359.797    0.002    0.226   19.854  127.600
  360.097    0.041    0.208   20.451   77.371
  360.397    0.013    0.196   22.248   54.722
  360.697    0.000    0.210   24.046   51.653
  360.997    0.017    0.229   27.643   55.785
  361.297    0.027    0.225   33.641   63.828
  361.597    0.013    0.218   34.837   75.897
  361.897    0.012    0.221   32.435   85.185
  362.197    0.004    0.235   28.832   85.185
  362.497    0.030    0.236   27.029   74.450
  362.797    0.033    0.231   28.227   70.274
  363.097    0.011    0.227   32.423   73.031
  363.397    0.007    0.223   34.821   80.407
  363.697    0.000    0.207   38.418   93.787
  363.997    0.000    0.213   38.416  127.600
  364.297    0.021    0.212   32.413  135.182
  364.597    0.000    0.203   30.010  122.783
  364.897    0.000    0.198   30.607   99.361
