~VERSION INFORMATION
 VERS.                 2.0:   CWLS LOG ASCII STANDARD -VERSION 2.0
 WRAP.                  NO:   ONE LINE PER DEPTH STEP
~WELL INFORMATION BLOCK
#MNEM.UNIT           DATA                    DESCRIPTION OF MNEMONIC
#---------    -------------------            -------------------------------
# Generated from Intellog Unique Number	CS_77_79/WELL/886
WELL.         PEX LOUGHERY                   : Well_name    - WELL
LOC .         00/06-30-078-05W4/0            : Location     - LOCATION
UWI .         00/06-30-078-05W4/0            : Uwi          - UNIQUE WELL ID
ENTR.         JHS                            : Entered      - ENTERED BY
SRVC.         SCHLUMBERGER                   : Scn          - SERVICE COMPANY
STRT.M        115                            : top_depth    - START DEPTH
STOP.M        390                            : bot_depth    - STOP DEPTH
STEP.M        0.25                           : increment    - STEP LENGTH
 NULL. -999.2500:NULL Value
~CURVE INFORMATION BLOCK
#MNEM UNIT       ERCB CURVE CODE    CURVE DESCRIPTION
#-----------   ------------------   ----------------------------------
DEPT.M        00 001 00 00         : DEPTH        - DEPTH
DPHI.V/V      00 890 00 00         : PHID         - DENSITY POROSITY (LIMESTONE)
NPHI.V/V      00 330 00 00         : PHIN         - NEUTRON POROSITY (LIMESTONE)
GR  .API      00 310 00 00         : GR           - GAMMA RAY
ILD .OHMM     00 120 00 00         : RESD         - DEEP RESISTIVITY (DIL)
RHOB.KG/M3    00 350 00 00         : DENS         - BULK DENSITY
~PARAMETER INFORMATION
#MNEM.UNIT           DATA             DESCRIPTION OF MNEMONIC
#---------         -----------     ------------------------------
GL  .M        552.72               : gl           - GROUND LEVEL ELEVATION
EREF.M        555.82               : kb           - ELEVATION OF DEPTH REFERENCE
DATM.M        555.82               : datum        - DATUM ELEVATION
TDD .M        398                  : tdd          - TOTAL DEPTH DRILLER
RUN .         ONE                  : Run          - RUN NUMBER
ENG .         BILL                 : Engineer     - RECORDING ENGINEER
WIT .         JIM                  : Witness      - WITNESSED BY
MUD .         GEL                  : Mud_type     - MUD TYPE
MATR.         LIMESTONE            : Logunit      - NEUTRON MATRIX
TMAX.C        18.5                 : BHT          - MAXIMUM RECORDED TEMPERATURE
BHTD.M        398                  : BHTDEP       - MAXIMUM RECORDED TEMPERATURE
MATR.         1                    : LOGUNIT      - NEUTRON MATRIX
RMT .C        25                   : MDTP         - TEMPERATURE OF MUD
NEUT.         1                    : NEUTRON      - NEUTRON TYPE
RESI.         0                    : RESIST       - RESISTIVITY TYPE
RMC .OHMM     0.25                 : RMC          - RESISTIVITY OF MUD CAKE
RMF .OHMM     0.25                 : RMF          - RESISTIVITY OF MUD FILTRATE
SUFT.C        15                   : SUFT         - SURFACE TEMPERATURE
~A  DEPTH     PHID     PHIN       GR     RESD     DENS
# ...
  334.000    0.137    0.388   91.219    7.312 2475.780
  334.250    0.158    0.361  100.367    7.449 2440.050
  334.500    0.194    0.366  107.075    7.879 2379.080
  334.750    0.194    0.393  108.295    7.876 2379.080
  335.000    0.182    0.407  106.468    7.582 2398.010
  335.250    0.170    0.389  100.981    7.437 2419.040
  335.500    0.164    0.377   92.445    7.295 2429.550
  335.750    0.175    0.375   94.885    7.293 2410.640
  336.000    0.191    0.383   98.545    7.153 2383.310
  336.250    0.206    0.391   99.156    7.286 2358.080
  336.500    0.219    0.398   96.718    7.284 2334.960
  336.750    0.213    0.403   99.767    7.146 2345.470
  337.000    0.201    0.407   96.110    6.878 2366.500
  337.250    0.200    0.416   91.843    6.748 2368.610
  337.500    0.211    0.412   95.503    6.618 2349.690
  337.750    0.211    0.409  104.650    6.617 2349.690
  338.000    0.203    0.416  109.529    6.490 2362.310
  338.250    0.200    0.436  109.530    6.488 2368.620
  338.500    0.207    0.448  104.653    6.608 2356.010
  338.750    0.225    0.422  101.606    6.607 2324.480
  339.000    0.208    0.399  100.387    6.730 2353.920
  339.250    0.202    0.388  100.388    6.727 2364.430
  339.500    0.201    0.383   99.780    6.725 2366.540
  339.750    0.207    0.390   99.171    6.723 2356.030
  340.000    0.216    0.411   98.562    6.595 2341.320
  340.250    0.219    0.411   98.563    6.592 2335.010
  340.500    0.216    0.415   99.174    6.588 2341.330
  340.750    0.216    0.420   96.126    6.587 2341.330
  341.000    0.232    0.438   85.761    6.585 2314.000
  341.250    0.262    0.439   66.860    6.582 2261.440
  341.500    0.278    0.364   63.203    6.335 2234.110
  341.750    0.255    0.355   72.960    6.216 2274.060
  342.000    0.227    0.363   78.449    5.983 2322.430
  342.250    0.213    0.377   86.377    5.980 2345.550
  342.500    0.201    0.391   95.524    6.093 2366.580
  342.750    0.219    0.407   91.867    6.324 2335.050
  343.000    0.264    0.395   73.575    6.442 2259.370
  343.250    0.282    0.407   57.722    6.320 2227.830
  343.500    0.299    0.415   45.528    6.083 2198.400
  343.750    0.288    0.375   47.968    5.856 2217.330
  344.000    0.277    0.367   63.213    5.327 2236.250
  344.250    0.278    0.389   69.312    5.225 2234.150
  344.500    0.293    0.405   65.654    5.030 2208.930
  344.750    0.302    0.374   56.509    5.123 2194.210
  345.000    0.279    0.336   59.559    5.319 2232.060
  345.250    0.267    0.353   68.707    5.317 2253.090
  345.500    0.262    0.393   68.708    5.416 2261.500
  345.750    0.248    0.378   76.636    5.312 2286.740
  346.000    0.230    0.383   83.954    5.412 2316.180
  346.250    0.262    0.420   78.467    5.618 2261.520
  346.500    0.305    0.427   44.931    5.832 2187.930
  346.750    0.329    0.398   37.616    5.830 2147.990
  347.000    0.313    0.362   35.787    5.828 2175.330
  347.250    0.307    0.369   34.569    5.402 2185.840
  347.500    0.309    0.384   35.789    5.103 2181.640
  347.750    0.327    0.373   39.449    4.730 2150.110
  348.000    0.337    0.380   40.060    4.553 2133.290
  348.250    0.332    0.394   40.671    4.383 2141.710
  348.500    0.319    0.370   45.550    4.300 2164.840
  348.750    0.308    0.367   49.819    4.217 2183.760
  349.000    0.308    0.385   44.942    4.378 2183.770
  349.250    0.341    0.402   34.578    4.545 2127.000
  349.500    0.357    0.388   27.871    4.543 2099.680
  349.750    0.348    0.375   31.531    4.457 2114.400
  350.000    0.331    0.377   38.849    4.290 2143.830
  350.250    0.334    0.384   35.801    4.208 2139.630
  350.500    0.351    0.389   30.924    4.128 2110.200
  350.750    0.364    0.390   26.657    4.205 2087.080
  351.000    0.362    0.396   29.707    4.203 2091.290
  351.250    0.353    0.397   35.806    4.123 2106.010
  351.500    0.350    0.384   38.246    4.044 2112.320
  351.750    0.358    0.389   38.857    4.043 2097.610
  352.000    0.357    0.411   38.248    3.966 2099.710
  352.250    0.350    0.406   36.420    3.965 2112.330
  352.500    0.340    0.388   35.811    3.963 2129.160
  352.750    0.335    0.381   38.252    4.037 2137.570
  353.000    0.329    0.375   40.692    4.113 2148.090
  353.250    0.321    0.352   40.083    4.112 2160.700
  353.500    0.310    0.358   42.523    4.187 2179.630
  353.750    0.302    0.367   44.963    4.266 2194.350
  354.000    0.239    0.351   57.159    4.513 2301.580
  354.250    0.136    0.340   78.502    4.865 2478.190
  354.500    0.093    0.368  107.162    5.245 2551.780
  354.750    0.144    0.413   87.041    5.762 2463.480
  355.000    0.184    0.456   66.920    6.450 2396.200
  355.250    0.320    0.421   46.189    6.695 2162.840
  355.500    0.340    0.389   38.263    6.090 2129.200
  355.750    0.342    0.399   33.996    5.646 2125.000
  356.000    0.346    0.408   33.997    4.852 2118.700
  356.250    0.348    0.395   34.608    4.584 2114.490
  356.500    0.349    0.386   32.170    4.249 2112.400
  356.750    0.351    0.379   29.122    4.090 2110.300
  357.000    0.358    0.386   30.343    4.011 2097.680
  357.250    0.368    0.401   31.563    3.935 2080.870
  357.500    0.364    0.417   29.735    3.934 2087.180
  357.750    0.359    0.407   34.615    4.008 2095.590
  358.000    0.363    0.404   37.055    4.083 2089.290
  358.250    0.358    0.401   37.055    4.081 2097.700
  358.500    0.345    0.407   35.837    4.079 2120.830
  358.750    0.333    0.397   34.009    4.155 2139.760
  359.000    0.338    0.391   34.010    4.154 2131.350
  359.250    0.351    0.388   32.182    4.152 2110.330
  359.500    0.340    0.396   32.793    4.151 2129.260
  359.750    0.330    0.426   29.745    4.228 2146.080
  360.000    0.347    0.415   29.136    4.227 2116.650
  360.250    0.356    0.408   36.455    4.225 2101.940
  360.500    0.364    0.421   34.017    4.145 2087.220
  360.750    0.369    0.404   27.920    4.066 2078.820
  361.000    0.356    0.392   26.092    4.065 2101.950
  361.250    0.343    0.395   32.190    3.986 2122.980
  361.500    0.337    0.415   32.191    3.985 2133.500
  361.750    0.349    0.426   26.705    3.983 2112.470
  362.000    0.357    0.407   26.096    3.982 2099.860
  362.250    0.362    0.392   30.975    4.056 2091.460
  362.500    0.362    0.411   34.025    4.055 2091.460
  362.750    0.357    0.421   30.977    4.054 2099.880
  363.000    0.358    0.417   26.101    4.052 2097.780
  363.250    0.362    0.395   24.272    3.974 2091.470
  363.500    0.360    0.385   27.322    3.899 2093.580
  363.750    0.332    0.380   46.226    3.898 2141.940
  364.000    0.196    0.372   66.959    3.971 2375.320
  364.250    0.183    0.360  100.497    4.200 2396.340
  364.500    0.201    0.359   96.230    4.702 2366.910
  364.750    0.218    0.362   88.304    5.166 2337.480
  365.000    0.231    0.369   80.378    6.120 2314.360
  365.250    0.228    0.381   79.159    6.982 2320.670
  365.500    0.219    0.379   85.258    7.526 2335.390
  365.750    0.213    0.384   89.527    7.813 2345.910
  366.000    0.208    0.380   90.138    7.958 2354.320
  366.250    0.210    0.372   83.432    7.957 2350.120
  366.500    0.225    0.372   78.555    7.659 2324.890
  366.750    0.233    0.376   77.337    7.802 2312.280
  367.000    0.226    0.375   81.606    8.252 2322.800
  367.250    0.220    0.387   82.217    8.250 2333.320
  367.500    0.222    0.407   81.609    7.940 2331.220
  367.750    0.236    0.415   82.219    7.789 2305.990
  368.000    0.237    0.435   86.489    7.499 2303.890
  368.250    0.228    0.415   91.368    7.218 2320.720
  368.500    0.219    0.401   95.637    7.081 2335.440
  368.750    0.219    0.419   90.760    7.212 2335.440
  369.000    0.241    0.431   83.444    7.347 2297.600
  369.250    0.271    0.419   74.908    7.344 2247.140
  369.500    0.285    0.415   68.812    7.342 2221.920
  369.750    0.294    0.416   63.935    7.068 2207.210
  370.000    0.308    0.421   59.668    6.551 2184.080
  370.250    0.310    0.419   61.498    6.427 2179.880
