~VERSION INFORMATION
 VERS.                 2.0:   CWLS LOG ASCII STANDARD -VERSION 2.0
 WRAP.                  NO:   ONE LINE PER DEPTH STEP
~WELL INFORMATION BLOCK
#MNEM.UNIT           DATA                    DESCRIPTION OF MNEMONIC
#---------    -------------------            -------------------------------
# Generated from Intellog Unique Number	CW_73_75/WELL/2735
WELL.         BRENDA ET AL MARTEN HILLS 09-1 : Well_name    - WELL
LOC .         00/09-10-073-25W4/0            : Location     - LOCATION
UWI .         00/09-10-073-25W4/0            : Uwi          - UNIQUE WELL ID
ENTR.         JAYE                           : Entered      - ENTERED BY
SRVC.         SCHLUMBERGER                   : Scn          - SERVICE COMPANY
DATE.         16 FEB 82                      : Date         - LOG DATE
STRT.M        390                            : top_depth    - START DEPTH
STOP.M        620                            : bot_depth    - STOP DEPTH
STEP.M        0.25                           : increment    - STEP LENGTH
 NULL. -999.2500:NULL Value
~CURVE INFORMATION BLOCK
#MNEM UNIT       ERCB CURVE CODE    CURVE DESCRIPTION
#-----------   ------------------   ----------------------------------
DEPT.M        00 001 00 00         : DEPTH        - DEPTH
DPHI.V/V      00 890 00 00         : PHID         - DENSITY POROSITY (SANDSTONE)
NPHI.V/V      00 330 00 00         : PHIN         - NEUTRON POROSITY (SANDSTONE)
GR  .API      00 310 00 00         : GR           - GAMMA RAY
CALI.MM       00 280 01 00         : CAL          - CALIPER
ILD .OHMM     00 120 00 00         : RESD         - DEEP RESISTIVITY (DIL)
~PARAMETER INFORMATION
#MNEM.UNIT           DATA             DESCRIPTION OF MNEMONIC
#---------         -----------     ------------------------------
GL  .M        633.6                : gl           - GROUND LEVEL ELEVATION
EREF.M        637.3                : kb           - ELEVATION OF DEPTH REFERENCE
DATM.M        633.6                : datum        - DATUM ELEVATION
TDD .M        628                  : tdd          - TOTAL DEPTH DRILLER
RUN .         ONE                  : Run          - RUN NUMBER
ENG .         SMYTHE               : Engineer     - RECORDING ENGINEER
WIT .         SAY                  : Witness      - WITNESSED BY
BASE.         EDM                  : Branch       - HOME BASE OF LOGGING UNIT
MUD .         GEL MUDM             : Mud_type     - MUD TYPE
MATR.         SANDSTONE            : Logunit      - NEUTRON MATRIX
TMAX.C        28                   : BHT          - MAXIMUM RECORDED TEMPERATURE
BHTD.M        627.5                : BHTDEP       - MAXIMUM RECORDED TEMPERATURE
RMT .C        12.7                 : MDTP         - TEMPERATURE OF MUD
MUDD.KG/M     1110                 : MWT          - MUD DENSITY
NEUT.         1                    : NEUTRON      - NEUTRON TYPE
RESI.         0                    : RESIST       - RESISTIVITY TYPE
RM  .OHMM     4.32                 : RM           - RESISTIVITY OF MUD
RMC .OHMM     0                    : RMC          - RESISTIVITY OF MUD CAKE
RMF .OHMM     4.55                 : RMF          - RESISTIVITY OF MUD FILTRATE
SUFT.C        0                    : SUFT         - SURFACE TEMPERATURE
~A  DEPTH     PHID     PHIN       GR      CAL     RESD
# ...
  463.000    0.316    0.433   53.454  154.364    4.412
  463.250    0.313    0.420   55.942  154.653    4.286
  463.500    0.305    0.423   57.235  154.293    4.132
  463.750    0.283    0.444   58.092  153.941    4.177
  464.000    0.252    0.462   60.012  153.585    4.371
  464.250    0.176    0.419   59.991  153.446    4.896
  464.500    0.149    0.360   57.641  153.821    5.558
  464.750    0.154    0.307   54.607  153.463    6.017
  465.000    0.199    0.346   52.514  153.732    6.026
  465.250    0.243    0.371   53.238  153.483    5.593
  465.500    0.272    0.397   57.108  153.444    5.231
  465.750    0.289    0.430   58.716  152.780    4.967
  466.000    0.304    0.417   57.685  152.007    4.863
  466.250    0.292    0.412   60.739  152.385    4.796
  466.500    0.279    0.407   61.027  152.239    4.794
  466.750    0.275    0.400   60.252  152.521    4.811
  467.000    0.292    0.409   62.423  152.900    4.826
  467.250    0.297    0.423   66.291  153.071    4.889
  467.500    0.295    0.431   63.696  153.235    5.029
  467.750    0.286    0.431   61.917  153.084    5.402
  468.000    0.260    0.418   62.578  153.278    5.750
  468.250    0.207    0.375   61.550  153.333    6.490
  468.500    0.118    0.293   55.689  153.187    7.481
  468.750    0.134    0.294   55.480  153.250    7.946
  469.000    0.204    0.362   71.834  153.305    8.172
  469.250    0.212    0.398   82.101  153.579    7.716
  469.500    0.196    0.374   85.781  153.759    7.468
  469.750    0.189    0.346   80.864  153.509    7.227
  470.000    0.209    0.360   77.010  153.054    7.021
  470.250    0.230    0.400   73.285  152.792    6.808
  470.500    0.245    0.428   70.873  152.338    6.514
  470.750    0.267    0.419   70.976  152.303    6.232
  471.000    0.284    0.407   75.597  152.157    6.136
  471.250    0.296    0.418   79.904  152.220    6.180
  471.500    0.291    0.428   79.316  152.296    6.602
  471.750    0.283    0.438   74.644  152.342    7.257
  472.000    0.262    0.428   66.275  152.735    8.286
  472.250    0.228    0.377   58.279  152.685    9.160
  472.500    0.196    0.330   54.742  152.858   10.498
  472.750    0.219    0.348   56.726  152.919   12.426
  473.000    0.233    0.370   55.888  153.195   14.241
  473.250    0.119    0.290   54.045  153.462   15.243
  473.500    0.015    0.242   54.837  153.635   15.947
  473.750    0.022    0.250   55.066  154.116   16.811
  474.000    0.034    0.230   53.910  155.331   17.422
  474.250    0.044    0.196   52.001  157.286   17.613
  474.500    0.096    0.199   52.856  159.016   17.308
  474.750    0.116    0.234   56.161  159.084   15.406
  475.000    0.145    0.265   63.291  156.222   12.030
  475.250    0.171    0.287   70.481  154.612    7.296
  475.500    0.221    0.334   79.748  154.152    6.409
  475.750    0.251    0.426   84.182  154.215    5.782
  476.000    0.228    0.407   86.227  154.285    5.266
  476.250    0.216    0.435   92.039  154.351    4.925
  476.500    0.221    0.460   93.145  154.419    4.812
  476.750    0.218    0.412   90.421  154.897    4.837
  477.000    0.211    0.400   92.154  156.214    4.872
  477.250    0.205    0.390   90.061  157.640    4.973
  477.500    0.204    0.401   86.145  158.855    5.183
  477.750    0.202    0.425   88.318  159.859    5.391
  478.000    0.192    0.420   93.628  160.562    5.460
  478.250    0.204    0.418   92.350  161.036    5.427
  478.500    0.208    0.425   90.254  161.205    5.313
  478.750    0.199    0.449   93.055  162.005    5.201
  479.000    0.191    0.451   97.678  163.534    5.043
  479.250    0.197    0.448   99.909  165.061    4.983
  479.500    0.199    0.444   96.058  165.967    4.925
  479.750    0.191    0.455   97.666  166.033    4.849
  480.000    0.200    0.461   97.766  166.408    4.764
  480.250    0.210    0.454   97.554  166.681    4.664
  480.500    0.197    0.445   99.226  166.008    4.618
  480.750    0.193    0.463  101.336  162.418    4.713
  481.000    0.230    0.459   96.918  157.359    4.978
  481.250    0.248    0.446   86.916  154.494    5.308
  481.500    0.275    0.433   81.685  152.572    5.627
  481.750    0.293    0.443   77.704  152.002    5.865
  482.000    0.304    0.491   74.733  152.180    5.918
  482.250    0.308    0.493   75.149  152.560    5.927
  482.500    0.289    0.469   81.712  153.247    5.801
  482.750    0.271    0.433   84.389  153.737    5.680
  483.000    0.266    0.429   83.610  154.105    5.455
  483.250    0.261    0.428   84.527  154.606    5.330
  483.500    0.253    0.413   87.202  154.758    5.267
  483.750    0.246    0.440   89.315  154.835    5.265
  484.000    0.238    0.449   86.214  154.789    5.323
  484.250    0.235    0.441   80.416  154.756    5.371
  484.500    0.254    0.422   79.388  154.606    5.400
  484.750    0.294    0.433   77.229  154.676    5.367
  485.000    0.310    0.425   74.071  154.739    5.254
  485.250    0.309    0.411   71.157  154.800    5.074
  485.500    0.313    0.405   70.508  155.068    4.977
  485.750    0.317    0.411   70.673  155.134    4.863
  486.000    0.306    0.407   70.837  155.215    4.778
  486.250    0.301    0.399   71.752  155.378    4.722
  486.500    0.300    0.398   72.293  155.858    4.675
  486.750    0.299    0.412   70.701  156.334    4.655
  487.000    0.296    0.416   73.249  156.819    4.636
  487.250    0.291    0.416   76.301  157.096    4.652
  487.500    0.286    0.430   75.900  157.264    4.694
  487.750    0.279    0.435   69.035  157.119    4.782
  488.000    0.284    0.427   66.629  156.883    4.816
  488.250    0.291    0.410   66.478  156.834    4.878
  488.500    0.294    0.398   67.900  156.784    4.998
  488.750    0.284    0.416   70.008  157.058    5.360
  489.000    0.269    0.421   69.103  157.441    5.770
  489.250    0.249    0.386   65.441  157.824    6.258
  489.500    0.232    0.367   67.301  157.894    6.840
  489.750    0.246    0.333   69.536  157.843    7.547
  490.000    0.290    0.389   70.517  157.806    8.093
  490.250    0.301    0.423   70.617  158.074    7.892
  490.500    0.280    0.443   70.278  157.936    7.066
  490.750    0.262    0.448   69.568  157.995    6.709
  491.000    0.280    0.440   69.163  158.081    6.347
  491.250    0.294    0.423   69.894  158.349    5.902
  491.500    0.291    0.411   72.316  158.508    5.552
  491.750    0.295    0.402   76.310  158.682    5.192
  492.000    0.291    0.413   77.545  158.737    5.054
  492.250    0.285    0.430   74.505  158.397    4.863
  492.500    0.293    0.442   70.526  158.349    4.815
  492.750    0.304    0.436   68.621  158.098    4.813
  493.000    0.304    0.422   69.036  157.856    4.747
  493.250    0.301    0.415   69.827  157.494    4.736
  493.500    0.284    0.415   70.684  156.939    4.707
  493.750    0.284    0.415   71.788  156.471    4.687
  494.000    0.288    0.409   71.513  156.124    4.668
  494.250    0.283    0.408   71.052  156.200    4.666
  494.500    0.284    0.416   72.784  156.358    4.664
  494.750    0.293    0.428   73.826  156.835    4.644
  495.000    0.297    0.427   74.493  157.432    4.660
  495.250    0.285    0.419   76.162  157.381    4.685
  495.500    0.263    0.394   80.030  157.137    4.790
  495.750    0.208    0.394   90.298  157.515    4.834
  496.000    0.181    0.424   95.295  160.720    4.906
  496.250    0.171    0.438   98.785  162.347    4.979
  496.500    0.166    0.445  102.718  163.566    5.043
  496.750    0.167    0.447  106.333  163.844    5.080
  497.000    0.185    0.439  107.377  164.010    5.155
  497.250    0.181    0.427  105.283  164.072    5.251
  497.500    0.176    0.443  103.437  164.246    5.320
  497.750    0.173    0.445  103.857  164.311    5.409
  498.000    0.163    0.438  104.268  164.372    5.469
  498.250    0.156    0.432  104.119  163.702    5.614
  498.500    0.190    0.430  103.281  160.946    5.719
  498.750    0.222    0.424  101.560  155.679    5.760
  499.000    0.215    0.407   96.893  153.443    5.813
  499.250    0.208    0.391   93.982  153.302    5.843
