~VERSION INFORMATION
 VERS.                 2.0:   CWLS LOG ASCII STANDARD -VERSION 2.0
 WRAP.                  NO:   ONE LINE PER DEPTH STEP
~WELL INFORMATION BLOCK
#MNEM.UNIT           DATA                    DESCRIPTION OF MNEMONIC
#---------    -------------------            -------------------------------
# Generated from Intellog Unique Number	CS_71_72/WELL/829
WELL.         BRENDA ET AL NIXON             : Well_name    - WELL
LOC .         00/07-31-072-15W4/0            : Location     - LOCATION
UWI .         00/07-31-072-15W4/0            : Uwi          - UNIQUE WELL ID
ENTR.         SP                             : Entered      - ENTERED BY
SRVC.         SCHLUMBERGER                   : Scn          - SERVICE COMPANY
STRT.M        240                            : top_depth    - START DEPTH
STOP.M        445                            : bot_depth    - STOP DEPTH
STEP.M        0.25                           : increment    - STEP LENGTH
 NULL. -999.2500:NULL Value
~CURVE INFORMATION BLOCK
#MNEM UNIT       ERCB CURVE CODE    CURVE DESCRIPTION
#-----------   ------------------   ----------------------------------
DEPT.M        00 001 00 00         : DEPTH        - DEPTH
GR  .API      00 310 00 00         : GR           - GAMMA RAY
NPHI.V/V      00 330 00 00         : PHIN         - NEUTRON POROSITY (LIMESTONE)
DPHI.V/V      00 890 00 00         : PHID         - DENSITY POROSITY (LIMESTONE)
ILD .OHMM     00 120 00 00         : RESD         - DEEP RESISTIVITY (DIL)
~PARAMETER INFORMATION
#MNEM.UNIT           DATA             DESCRIPTION OF MNEMONIC
#---------         -----------     ------------------------------
GL  .M        575                  : gl           - GROUND LEVEL ELEVATION
EREF.M        577.75               : kb           - ELEVATION OF DEPTH REFERENCE
DATM.M        575                  : datum        - DATUM ELEVATION
TDD .M        470                  : tdd          - TOTAL DEPTH DRILLER
RUN .         ONE                  : Run          - RUN NUMBER
ENG .         BILL                 : Engineer     - RECORDING ENGINEER
WIT .         JIM                  : Witness      - WITNESSED BY
MUD .         GEL                  : Mud_type     - MUD TYPE
MATR.         LIMESTONE            : Logunit      - NEUTRON MATRIX
TMAX.C        23                   : BHT          - MAXIMUM RECORDED TEMPERATURE
BHTD.M        470                  : BHTDEP       - MAXIMUM RECORDED TEMPERATURE
MATR.         1                    : LOGUNIT      - NEUTRON MATRIX
RMT .C        25                   : MDTP         - TEMPERATURE OF MUD
NEUT.         1                    : NEUTRON      - NEUTRON TYPE
RESI.         0                    : RESIST       - RESISTIVITY TYPE
RMC .OHMM     0.25                 : RMC          - RESISTIVITY OF MUD CAKE
RMF .OHMM     0.25                 : RMF          - RESISTIVITY OF MUD FILTRATE
SUFT.C        15                   : SUFT         - SURFACE TEMPERATURE
~A  DEPTH       GR     PHIN     PHID     RESD
# ...
  283.500  128.912    0.372    0.279    7.445
  283.750  124.002    0.374    0.278    7.448
  284.000  120.932    0.368    0.270    7.455
  284.250  123.397    0.369    0.257    7.458
  284.500  127.092    0.374    0.248    7.326
  284.750  131.403    0.374    0.241    7.329
  285.000  133.867    0.388    0.237    7.196
  285.250  132.029    0.400    0.235    6.809
  285.500  129.574    0.410    0.231    6.439
  285.750  134.502    0.418    0.228    5.977
  286.000  137.579    0.426    0.230    5.548
  286.250  143.732    0.417    0.241    5.151
  286.500  144.353    0.412    0.259    5.058
  286.750  128.990    0.418    0.271    4.875
  287.000  118.545    0.416    0.285    5.160
  287.250  107.485    0.401    0.298    5.261
  287.500  111.180    0.395    0.298    5.365
  287.750  113.030    0.423    0.291    5.470
  288.000  111.193    0.418    0.285    5.577
  288.250  119.194    0.413    0.282    5.687
  288.500  124.733    0.405    0.284    5.909
  288.750  126.580    0.409    0.289    6.022
  289.000  125.970    0.407    0.285    6.258
  289.250  126.590    0.389    0.280    6.502
  289.500  129.057    0.381    0.276    6.505
  289.750  125.990    0.378    0.268    6.634
  290.000  120.463    0.390    0.264    6.762
  290.250  116.165    0.392    0.260    7.027
  290.500  114.942    0.391    0.258    7.032
  290.750  114.947    0.387    0.260    7.035
  291.000  118.643    0.384    0.270    7.038
  291.250  121.106    0.402    0.277    6.913
  291.500  124.803    0.412    0.279    6.662
  291.750  125.421    0.412    0.280    6.422
  292.000  121.741    0.406    0.270    6.305
  292.250  118.056    0.403    0.254    6.310
  292.500  122.366    0.398    0.216    6.314
  292.750  124.215    0.395    0.220    6.438
  293.000  112.542    0.398    0.242    6.563
  293.250  104.555    0.417    0.254    6.568
  293.500  106.405    0.430    0.261    6.698
  293.750  107.641    0.429    0.292    6.701
  294.000  102.730    0.406    0.308    6.706
  294.250   99.047    0.395    0.304    6.838
  294.500   94.135    0.397    0.311    6.841
  294.750   92.296    0.393    0.315    6.975
  295.000   95.991    0.390    0.313    7.113
  295.250  102.144    0.388    0.296    6.983
  295.500  109.529    0.387    0.283    6.989
  295.750  114.453    0.394    0.266    6.862
  296.000  118.146    0.410    0.273    6.739
  296.250  120.611    0.423    0.277    6.496
  296.500  118.158    0.425    0.280    6.379
  296.750  127.385    0.435    0.276    6.264
  297.000  128.621    0.448    0.275    6.038
  297.250  117.562    0.436    0.273    6.041
  297.500  113.265    0.423    0.265    6.159
  297.750  118.805    0.427    0.256    6.399
  298.000  119.423    0.421    0.259    6.775
  298.250  115.744    0.405    0.260    7.039
  298.500  113.903    0.402    0.261    7.311
  298.750  102.228    0.411    0.266    7.741
  299.000   90.553    0.419    0.331    8.351
  299.250   77.651    0.402    0.334    8.513
  299.500   72.123    0.383    0.314    8.682
  299.750   69.671    0.361    0.320    8.850
  300.000   69.467    0.382    0.334    9.024
  300.250   67.008    0.387    0.339    9.031
  300.500   65.779    0.402    0.347    8.867
  300.750   65.779    0.398    0.351    8.707
  301.000   66.393    0.392    0.350    8.551
  301.250   67.008    0.391    0.348    8.398
  301.500   68.238    0.388    0.343    8.095
  301.750   66.393    0.378    0.342    8.100
  302.000   67.008    0.376    0.345    7.952
  302.250   69.467    0.387    0.348    7.812
  302.500   67.008    0.405    0.349    7.815
  302.750   67.623    0.403    0.348    7.678
  303.000   73.770    0.389    0.346    7.682
  303.250   72.541    0.383    0.345    7.542
  303.500   80.533    0.400    0.346    7.546
  303.750   86.066    0.417    0.350    7.553
  304.000   84.836    0.432    0.353    7.556
  304.250   77.459    0.420    0.351    7.421
  304.500   76.844    0.409    0.350    7.426
  304.750   74.385    0.405    0.349    7.429
  305.000   71.926    0.410    0.351    7.435
  305.250   71.311    0.417    0.357    7.441
  305.500   71.926    0.428    0.362    7.444
  305.750   76.230    0.427    0.363    7.450
  306.000   78.689    0.415    0.362    7.453
  306.250   79.303    0.409    0.360    7.322
  306.500   79.918    0.406    0.359    7.325
  306.750   75.000    0.409    0.357    7.329
  307.000   71.926    0.411    0.359    7.334
  307.250   75.000    0.413    0.357    7.340
  307.500   78.689    0.413    0.357    7.482
  307.750   79.918    0.401    0.362    7.350
  308.000   78.689    0.399    0.361    7.353
  308.250   76.844    0.400    0.358    7.360
  308.500   77.459    0.410    0.357    7.362
  308.750   78.689    0.405    0.358    7.232
  309.000   80.533    0.396    0.361    7.234
  309.250   81.762    0.395    0.363    7.240
  309.500   81.147    0.415    0.365    7.245
  309.750   79.918    0.418    0.366    7.249
  310.000   76.230    0.416    0.367    7.252
  310.250   75.000    0.422    0.363    7.259
  310.500   75.000    0.428    0.361    7.263
  310.750   75.615    0.429    0.361    7.269
  311.000   78.074    0.427    0.362    7.272
  311.250   79.303    0.416    0.363    7.279
  311.500   78.689    0.406    0.364    7.283
  311.750   77.459    0.401    0.364    7.286
  312.000   76.844    0.406    0.361    7.290
  312.250   76.844    0.405    0.358    7.296
  312.500   76.844    0.411    0.357    7.299
  312.750   73.156    0.421    0.363    7.305
  313.000   71.311    0.427    0.367    7.175
  313.250   71.311    0.436    0.369    7.179
  313.500   70.082    0.438    0.362    7.182
  313.750   68.853    0.427    0.356    7.189
  314.000   68.238    0.414    0.356    7.192
  314.250   68.853    0.414    0.358    7.196
  314.500   70.082    0.417    0.363    7.336
  314.750   74.385    0.409    0.364    7.343
  315.000   78.689    0.402    0.367    7.346
  315.250   78.074    0.414    0.364    7.351
  315.500   76.844    0.414    0.361    7.356
  315.750   76.230    0.413    0.359    7.361
  316.000   76.230    0.412    0.361    7.365
  316.250   76.230    0.407    0.361    7.370
  316.500   79.303    0.402    0.356    7.803
  316.750   82.377    0.395    0.349    7.806
  317.000   81.762    0.404    0.347    7.811
  317.250   78.074    0.433    0.348    7.817
  317.500   73.770    0.435    0.349    7.822
  317.750   71.311    0.420    0.349    7.828
  318.000   73.770    0.409    0.348    7.833
  318.250   81.147    0.403    0.347    7.838
  318.500   84.221    0.417    0.347    7.841
  318.750   83.607    0.417    0.346    7.848
  319.000   82.992    0.421    0.343    7.707
  319.250   84.836    0.430    0.340    7.711
  319.500   84.836    0.417    0.338    7.573
  319.750   84.221    0.413    0.335    7.437
  320.000   82.992    0.424    0.335    7.169
  320.250   84.221    0.421    0.338    7.038
  320.500   84.836    0.417    0.319    6.535
  320.750   85.451    0.409    0.248    6.416
  321.000   84.221    0.407    0.249    5.955
  321.250   90.984    0.410    0.263    5.426
  321.500  104.508    0.416    0.270    5.036
  321.750  113.115    0.427    0.267    4.589
  322.000  114.344    0.429    0.275    4.340
  322.250  112.500    0.425    0.270    4.105
  322.500  110.656    0.432    0.251    3.883
  322.750  118.648    0.427    0.238    3.742
  323.000  121.721    0.420    0.237    3.675
  323.250  120.492    0.410    0.234    3.677
  323.500  117.418    0.404    0.231    3.679
  323.750  114.344    0.413    0.227    3.613
  324.000  108.811    0.407    0.239    3.230
  324.250  112.500    0.400    0.249    2.835
  324.500  116.189    0.393    0.257    2.632
  324.750  118.648    0.389    0.250    2.584
  325.000  118.648    0.405    0.246    2.490
  325.250  120.492    0.436    0.246    2.842
  325.500  121.721    0.437    0.245    3.304
  325.750  120.492    0.430    0.242    3.631
  326.000  119.262    0.417    0.240    3.992
  326.250  112.500    0.413    0.244    4.226
  326.500  110.041    0.415    0.249    4.390
  326.750  108.197    0.414    0.283    4.476
