~VERSION INFORMATION
 VERS.                 2.0:   CWLS LOG ASCII STANDARD -VERSION 2.0
 WRAP.                  NO:   ONE LINE PER DEPTH STEP
~WELL INFORMATION BLOCK
#MNEM.UNIT           DATA                    DESCRIPTION OF MNEMONIC
#---------    -------------------            -------------------------------
# Generated from Intellog Unique Number	CW_82_90/WELL/3415
WELL.         CDN SUP SIMON                  : Well_name    - WELL
LOC .         00/03-34-088-20W4/0            : Location     - LOCATION
UWI .         00/03-34-088-20W4/0            : Uwi          - UNIQUE WELL ID
ENTR.         MAX                            : Entered      - ENTERED BY
SRVC.         SCHLUMBERGER                   : Scn          - SERVICE COMPANY
STRT.M        60.96                          : top_depth    - START DEPTH
STOP.M        237.71                         : bot_depth    - STOP DEPTH
STEP.M        0.25                           : increment    - STEP LENGTH
 NULL. -999.2500:NULL Value
~CURVE INFORMATION BLOCK
#MNEM UNIT       ERCB CURVE CODE    CURVE DESCRIPTION
#-----------   ------------------   ----------------------------------
DEPT.M        00 001 00 00         : DEPTH        - DEPTH
GR  .API      00 310 00 00         : GR           - GAMMA RAY
CALI.MM       00 280 01 00         : CAL          - CALIPER
DPHI.V/V      00 890 00 00         : PHID         - DENSITY POROSITY (SANDSTONE)
NPHI.V/V      00 330 00 00         : PHIN         - NEUTRON POROSITY (SANDSTONE)
ILD .OHMM     00 120 00 00         : RESD         - DEEP RESISTIVITY (DIL)
~PARAMETER INFORMATION
#MNEM.UNIT           DATA             DESCRIPTION OF MNEMONIC
#---------         -----------     ------------------------------
GL  .M        517.55               : gl           - GROUND LEVEL ELEVATION
EREF.M        521.513              : kb           - ELEVATION OF DEPTH REFERENCE
DATM.M        517.55               : datum        - DATUM ELEVATION
TDD .M        259.08               : tdd          - TOTAL DEPTH DRILLER
RUN .         ONE                  : Run          - RUN NUMBER
ENG .         BILL                 : Engineer     - RECORDING ENGINEER
WIT .         JIM                  : Witness      - WITNESSED BY
MUD .         GEL                  : Mud_type     - MUD TYPE
MATR.         SANDSTONE            : Logunit      - NEUTRON MATRIX
TMAX.C        24.4444              : BHT          - MAXIMUM RECORDED TEMPERATURE
BHTD.M        259.08               : BHTDEP       - MAXIMUM RECORDED TEMPERATURE
MATR.         1                    : LOGUNIT      - NEUTRON MATRIX
RMT .C        20                   : MDTP         - TEMPERATURE OF MUD
NEUT.         1                    : NEUTRON      - NEUTRON TYPE
RESI.         0                    : RESIST       - RESISTIVITY TYPE
RMC .OHMM     4.3                  : RMC          - RESISTIVITY OF MUD CAKE
RMF .OHMM     4.67                 : RMF          - RESISTIVITY OF MUD FILTRATE
SUFT.C        -20.5556             : SUFT         - SURFACE TEMPERATURE
~A  DEPTH       GR      CAL     PHID     PHIN     RESD
# ...
  206.960   98.106  221.544    0.202    0.453   13.570
  207.210   98.137  221.112    0.199    0.446   13.823
  207.460   97.016  221.196    0.189    0.434   14.080
  207.710   94.430  221.250    0.175    0.437   14.344
  207.960   94.466  220.817    0.161    0.441   14.097
  208.210   95.668  220.886    0.174    0.451   13.728
  208.460   96.874  220.947    0.162    0.442   13.133
  208.710   98.367  221.509    0.178    0.446   13.141
  208.960   99.578  221.571    0.197    0.445   13.267
  209.210   99.619  221.138    0.198    0.436   13.393
  209.460   99.355  221.701    0.179    0.417   13.400
  209.710   98.525  222.248    0.169    0.417   13.408
  209.960   98.561  222.316    0.148    0.428   13.414
  210.210   97.728  222.378    0.152    0.442   13.788
  210.460   95.141  222.454    0.166    0.456   14.427
  210.710   91.971  222.507    0.186    0.460   14.962
  210.960   86.757  223.070    0.172    0.433   15.106
  211.210   83.879  223.131    0.141    0.404   14.844
  211.460   86.542  222.706    0.151    0.395   14.200
  211.710   92.995  223.754    0.168    0.408   14.081
  211.960   97.402  223.816    0.169    0.417   14.216
  212.210   98.035  222.897    0.156    0.419   14.223
  212.460   97.192  222.473    0.132    0.422   14.232
  212.710   95.197  221.053    0.099    0.426   13.986
  212.960   95.816  219.642    0.090    0.430   13.744
  213.210   99.058  222.664    0.133    0.439   13.507
  213.460  101.717  226.179    0.158    0.445   13.155
  213.710  104.964  227.729    0.188    0.437   12.697
  213.960  108.492  227.797    0.196    0.421   13.169
  214.210  110.282  227.851    0.200    0.426   14.028
  214.460  108.861  227.927    0.208    0.430   14.681
  214.710  105.700  227.495    0.214    0.417   15.226
  214.960  103.109  225.089    0.221    0.409   15.370
  215.210   99.952  223.183    0.221    0.404   15.800
  215.460   99.101  222.751    0.222    0.400   15.948
  215.710   97.689  222.812    0.212    0.396   16.541
  215.960   97.720  222.380    0.194    0.391   17.940
  216.210   96.891  222.456    0.197    0.386   20.911
  216.460   95.761  222.016    0.179    0.381   20.921
  216.710   94.345  221.584    0.157    0.372   20.194
  216.960   94.964  221.660    0.117    0.349   18.636
  217.210  100.241  221.714    0.091    0.329   16.007
  217.460  109.030  222.762    0.127    0.364   14.774
  217.710  110.523  224.805    0.179    0.387   14.262
  217.960  109.689  224.380    0.162    0.399   14.140
  218.210  107.972  222.976    0.180    0.401   14.536
  218.460  106.856  222.529    0.193    0.401   14.939
  218.710  106.883  222.597    0.201    0.399   15.082
  218.960  105.758  222.666    0.197    0.396   14.688
  219.210  103.463  223.213    0.164    0.394   12.393
  219.460  101.459  223.783    0.145    0.393   11.334
  219.710  103.831  225.325    0.118    0.402   10.183
  219.960  111.157  227.861    0.125    0.425    9.149
  220.210  114.691  229.395    0.197    0.459    8.519
  220.460  115.615  228.485    0.206    0.478    8.224
  220.710  114.768  228.538    0.212    0.462    8.762
  220.960  111.894  228.129    0.214    0.444    9.589
  221.210  107.850  226.702    0.204    0.428   10.589
  221.460  101.766  224.288    0.167    0.412   11.800
  221.710   99.762  224.364    0.181    0.417   13.029
  221.960   99.802  224.425    0.173    0.424   14.133
  222.210  100.134  224.001    0.163    0.435   13.520
  222.460  101.336  224.069    0.161    0.435   12.147
  222.710  103.995  224.130    0.167    0.426   11.830
  222.960  106.946  224.192    0.176    0.427   11.836
  223.210  106.112  224.253    0.168    0.428   11.737
  223.460  104.404  224.314    0.147    0.414   11.638
  223.710  103.857  224.375    0.107    0.398   11.437
  223.960  107.974  224.436    0.080    0.418   11.140
  224.210  114.135  224.505    0.135    0.435   11.145
  224.460  117.085  224.073    0.155    0.440   11.052
  224.710  113.337  224.149    0.150    0.448   10.862
  224.960  113.091  224.210    0.142    0.458   10.769
  225.210  111.952  223.786    0.131    0.459    9.940
  225.460  104.707  223.353    0.113    0.450    9.256
  225.710  103.868  222.913    0.085    0.432    8.934
  225.960  105.653  225.457    0.069    0.411    8.702
  226.210  113.563  227.986    0.083    0.407    9.188
  226.460  115.356  229.042    0.194    0.428    9.876
  226.710  115.684  226.635    0.190    0.442   10.713
  226.960  116.303  226.203    0.181    0.436   11.517
  227.210  114.882  227.745    0.175    0.418   12.492
  227.460  110.546  226.333    0.166    0.405   13.795
  227.710  106.507  222.939    0.149    0.391   14.828
  227.960  101.589  221.528    0.127    0.375   15.240
  228.210   95.796  221.589    0.096    0.358   14.845
  228.460   97.294  221.658    0.047    0.338   14.329
  228.710  100.536  222.205    0.027    0.317   13.832
  228.960  106.109  224.741    0.144    0.340   13.714
  229.210  107.320  225.296    0.149    0.379   13.600
  229.460  104.729  223.406    0.138    0.387   13.978
  229.710  104.769  221.971    0.129    0.372   14.238
  229.960  110.926  221.045    0.099    0.356   14.767
  230.210  117.091  220.135    0.127    0.395   15.315
  230.460  118.010  218.715    0.138    0.393   16.026
  230.710  116.589  216.802    0.120    0.379   16.470
  230.960  114.872  217.357    0.104    0.367   16.043
  231.210  114.326  218.405    0.097    0.349   15.627
  231.460  111.748  219.955    0.088    0.332   15.492
  231.710  111.196  220.509    0.075    0.334   15.089
  231.960  110.654  221.087    0.120    0.389   14.962
  232.210  109.233  221.626    0.178    0.407   14.703
  232.460  109.274  221.209    0.174    0.418   13.570
  232.710  108.722  221.278    0.146    0.403   11.762
  232.960  111.382  222.820    0.129    0.411   10.757
  233.210  114.637  224.354    0.189    0.444    9.665
  233.460  113.211  224.415    0.191    0.462    8.840
  233.710  111.790  224.484    0.178    0.473    8.085
  233.960  111.831  224.552    0.161    0.477    7.805
  234.210  111.867  223.627    0.152    0.463    7.879
  234.460  113.073  223.209    0.151    0.441    8.171
  234.710  114.275  222.769    0.131    0.420    9.188
  234.960  113.738  224.812    0.108    0.400    9.876
  235.210  111.438  224.873    0.115    0.395   11.204
  235.460  108.277  223.454    0.132    0.392   11.619
  235.710  107.721  222.528    0.147    0.396   11.116
  235.960  108.049  222.605    0.164    0.397   10.538
  236.210  110.421  222.165    0.176    0.423    9.639
  236.460  104.628  222.226    0.188    0.442    8.817
  236.710   95.338  222.302    0.182    0.442    8.901
  236.960   88.380  221.862    0.156    0.418   10.008
  237.210   82.296  221.453    0.153    0.413   11.252
  237.460   75.925  222.008    0.165    0.395   13.112
  237.710   75.382  223.056    0.174    0.353   14.742
