~VERSION INFORMATION
 VERS.                 2.0:   CWLS LOG ASCII STANDARD -VERSION 2.0
 WRAP.                  NO:   ONE LINE PER DEPTH STEP
~WELL INFORMATION BLOCK
#MNEM.UNIT           DATA                    DESCRIPTION OF MNEMONIC
#---------    -------------------            -------------------------------
# Generated from Intellog Unique Number	CW_70_72/WELL/3305
NULL.         -999.25                        : NULL_VALUE
WELL.         CHEVRON MGSU1 MITSUE           : Well_name    - WELL              
LOC .         08-24-070-04W5                 : Location     - LOCATION          
UWI .         00/08-24-070-04W5/0            : Uwi          - UNIQUE WELL ID    
ENTR.         CAMPBELL                       : Entered      - ENTERED BY        
SRVC.         WESTERN ATLAS                  : Scn          - SERVICE COMPANY   
DATE.         18 DEC. 1983                   : Date         - LOG DATE          
STRT.M        655                            : top_depth    - START DEPTH       
STOP.M        815                            : bot_depth    - STOP DEPTH        
STEP.M        0.25                           : increment    - STEP LENGTH       
~CURVE INFORMATION BLOCK
#MNEM UNIT       ERCB CURVE CODE    CURVE DESCRIPTION
#-----------   ------------------   ----------------------------------
DEPT.M        00 001 00 00         : DEPTH        - DEPTH                       
CALI.MM       00 280 01 00         : CAL          - CALIPER                     
DELT.US/F     00 520 00 00         : DELT         - SONIC TRAVEL TIME           
GR  .API      00 310 00 00         : GR           - GAMMA RAY                   
ILD .OHMM     00 120 00 00         : RESD         - DEEP RESISTIVITY (DIL)      
~PARAMETER INFORMATION       
#MNEM.UNIT           DATA             DESCRIPTION OF MNEMONIC
#---------         -----------     ------------------------------
GL  .M        132                  : gl           - GROUND LEVEL ELEVATION      
EREF.M        138.15               : kb           - ELEVATION OF DEPTH REFERENCE
DATM.M        138.15               : datum        - DATUM ELEVATION             
TDD .M        1852.3               : tdd          - TOTAL DEPTH DRILLER         
RUN .         ONE                  : Run          - RUN NUMBER                  
ENG .         ILAMBORN             : Engineer     - RECORDING ENGINEER          
WIT .         HALAB                : Witness      - WITNESSED BY                
MUD .         GEL                  : Mud_type     - MUD TYPE                    
MATR.         SANDSTONE            : Logunit      - NEUTRON MATRIX              
TMAX.C        40                   : BHT          - MAXIMUM RECORDED TEMPERATURE
BHTD.M        1852.3               : BHTDEP       - MAXIMUM RECORDED TEMPERATURE
RMT .C        15                   : MDTP         - TEMPERATURE OF MUD          
MUDD.KG/M     1125                 : MWT          - MUD DENSITY                 
NEUT.         1                    : NEUTRON      - NEUTRON TYPE                
RESI.         0                    : RESIST       - RESISTIVITY TYPE            
RM  .OHMM     0.9                  : RM           - RESISTIVITY OF MUD          
RMC .OHMM     1.3                  : RMC          - RESISTIVITY OF MUD CAKE     
RMF .OHMM     0.75                 : RMF          - RESISTIVITY OF MUD FILTRATE 
SUFT.C        -4                   : SUFT         - SURFACE TEMPERATURE         
~A  DEPTH      CAL     DELT       GR     RESD
# ...
  742.000    0.000    0.000    0.000    0.000
  742.250    0.000    0.000    0.000    0.000
  742.500    0.000    0.000    0.000    0.000
  742.750    0.000    0.000    0.000    0.000
  743.000    0.000    0.000    0.000    0.000
  743.250    0.000    0.000    0.000    0.000
  743.500    0.000    0.000    0.000    0.000
  743.750    0.000    0.000    0.000    0.000
  744.000    0.000    0.000    0.000    0.000
  744.250    0.000    0.000    0.000    0.000
  744.500    0.000    0.000    0.000    0.000
  744.750    0.000    0.000    0.000    0.000
  745.000    0.000    0.000    0.000    0.000
  745.250    0.000    0.000    0.000    0.000
  745.500    0.000    0.000    0.000    0.000
  745.750    0.000    0.000    0.000    0.000
  746.000    0.000    0.000    0.000    0.000
  746.250    0.000    0.000    0.000    0.000
  746.500    0.000    0.000    0.000    0.000
  746.750    0.000    0.000    0.000    0.000
  747.000    0.000    0.000    0.000    0.000
  747.250    0.000    0.000    0.000    0.000
  747.500    0.000    0.000    0.000    0.000
  747.750    0.000    0.000    0.000    0.000
  748.000    0.000    0.000    0.000    0.000
  748.250    0.000    0.000    0.000    0.000
  748.500    0.000    0.000    0.000    0.000
  748.750    0.000    0.000    0.000    0.000
  749.000    0.000    0.000    0.000    0.000
  749.250    0.000    0.000    0.000    0.000
  749.500    0.000    0.000    0.000    0.000
  749.750    0.000    0.000    0.000    0.000
  750.000    0.000    0.000    0.000    0.000
  750.250    0.000    0.000    0.000    0.000
  750.500    0.000    0.000    0.000    0.000
  750.750    0.000    0.000    0.000    0.000
  751.000    0.000    0.000    0.000    0.000
  751.250    0.000    0.000    0.000    0.000
  751.500    0.000    0.000    0.000    0.000
  751.750    0.000    0.000    0.000    0.000
  752.000    0.000    0.000    0.000    0.000
  752.250    0.000    0.000    0.000    0.000
  752.500    0.000    0.000    0.000    0.000
  752.750    0.000    0.000    0.000    0.000
  753.000    0.000    0.000    0.000    0.000
  753.250    0.000    0.000    0.000    0.000
  753.500    0.000    0.000    0.000    0.000
  753.750    0.000    0.000    0.000    0.000
  754.000    0.000    0.000    0.000    0.000
  754.250    0.000    0.000    0.000    0.000
  754.500    0.000    0.000    0.000    0.000
  754.750    0.000    0.000    0.000    0.000
  755.000    0.000    0.000    0.000    0.000
  755.250    0.000    0.000    0.000    0.000
  755.500    0.000    0.000    0.000    0.000
  755.750    0.000    0.000    0.000    0.000
  756.000    0.000    0.000    0.000    0.000
  756.250    0.000    0.000    0.000    0.000
  756.500    0.000    0.000    0.000    0.000
  756.750    0.000    0.000    0.000    0.000
  757.000    0.000    0.000    0.000    0.000
  757.250    0.000    0.000    0.000    0.000
  757.500    0.000    0.000    0.000    0.000
  757.750    0.000    0.000    0.000    0.000
  758.000    0.000    0.000    0.000    0.000
  758.250    0.000    0.000    0.000    0.000
  758.500    0.000    0.000    0.000    0.000
  758.750    0.000    0.000    0.000    0.000
  759.000    0.000    0.000    0.000    0.000
  759.250    0.000    0.000    0.000    0.000
  759.500    0.000    0.000    0.000    0.000
  759.750    0.000    0.000    0.000    0.000
  760.000  236.890  330.956   60.462    2.696
  760.250  238.953  336.527   59.292    2.749
  760.500  239.997  344.899   59.024    2.829
  760.750  241.557  348.060   58.755    2.911
  761.000  243.626  348.020   59.995    2.914
  761.250  244.676  346.366   60.326    2.917
  761.500  246.745  342.714   60.661    2.893
  761.750  253.347  339.463   60.995    2.896
  762.000  256.913  334.997   61.029    2.926
  762.250  260.491  332.960   61.363    2.956
  762.500  262.541  328.901   62.306    2.987
  762.750  266.615  324.046   62.943    3.017
  763.000  270.187  319.191   63.277    3.048
  763.250  271.747  315.138   63.315    3.225
  763.500  270.804  310.284   63.641    3.412
  763.750  268.340  305.418   63.980    3.577
  764.000  267.882  300.162   63.112    3.820
  764.250  267.932  294.512   63.447    4.233
  764.500  267.983  286.851   65.588    4.478
  764.750  270.046  296.425   68.941    4.652
  765.000  273.114  306.400   72.596    4.406
  765.250  276.189  316.781   75.953    4.370
  765.500  278.749  319.942   78.706    4.497
  765.750  279.806  309.070   79.640    4.671
  766.000  280.359  300.207   80.281    4.763
  766.250  278.914  316.194   80.016    4.811
  766.500  274.934  329.380   80.041    5.186
  766.750  268.440  314.500   80.376    5.288
  767.000  264.466  309.239   80.107    5.392
  767.250  263.015  310.803   78.330    5.811
  767.500  261.556  303.944   72.025    6.439
  767.750  258.086  290.667   66.022    7.135
  768.000  257.640  273.783   61.825    7.690
  768.250  260.193  269.329   60.953    8.063
  768.500  270.813  281.714   65.823    7.025
  768.750  278.409  290.887   69.474    5.686
  769.000  288.519  303.667   71.619    4.910
  769.250  297.637  326.467   72.562    4.565
  769.500  298.190  342.058   73.194    4.363
  769.750  288.169  335.200   73.835    4.327
  770.000  276.657  327.139   73.265    4.291
  770.250  276.211  321.477   70.879    4.296
  770.500  275.243  321.838   67.596    4.222
  770.750  274.797  323.797   65.215    4.426
  771.000  274.841  318.530   67.960    4.597
  771.250  274.899  313.681   72.826    4.517
  771.500  274.446  314.437   75.278    4.522
  771.750  273.504  329.628   75.914    4.612
  772.000  273.548  335.990   76.555    4.745
  772.250  273.096  332.738   75.679    4.838
  772.500  272.637  319.868   74.504    4.934
  772.750  272.185  311.406   73.934    5.173
  773.000  271.230  307.754   73.963    5.274
  773.250  270.281  303.294   74.901    5.377
  773.500  270.332  300.844   76.146    5.483
  773.750  270.382  301.194   75.273    5.591
  774.000  275.463  303.153   74.099    5.648
  774.250  282.556  306.320   75.335    5.654
  774.500  290.151  309.470   78.994    5.505
  774.750  295.232  311.840   82.347    5.118
  775.000  300.816  319.015   85.100    4.544
  775.250  304.387  337.406   85.435    4.383
  775.500  306.450  350.593   82.446    4.113
  775.750  306.501  356.159   77.046    3.753
  776.000  302.528  359.314   74.967    3.152
  776.250  298.554  366.890   77.418    2.747
  776.500  298.108  430.982   77.146    2.307
  776.750  306.710  473.432   74.764    1.718
  777.000  312.803  515.075   72.689    1.430
  777.250  313.357  511.022   73.325    1.379
  777.500  311.402  480.110   74.561    1.355
  777.750  308.422  458.416   76.409    1.395
  778.000  303.952  437.925   78.857    1.476
  778.250  300.476  343.277   79.192    1.650
  778.500  298.521  299.935   77.712    1.933
  778.750  301.086  293.872   71.109    2.182
  779.000  305.161  294.228   68.124    2.463
  779.250  308.223  308.617   68.757    2.858
  779.500  310.789  321.002   68.488    3.410
  779.750  312.349  324.964   68.521    3.744
  780.000  311.909  330.925   69.459    4.035
  780.250  311.451  328.876   70.704    4.076
  780.500  310.005  329.633   71.944    4.081
  780.750  309.037  326.387   73.188    4.123
  781.000  305.064  292.263   73.821    4.204
  781.250  303.103  278.190   69.629    4.327
  781.500  301.148  268.921   66.652    4.452
  781.750  300.689  329.006   65.775    4.540
  782.000  302.249  335.774   67.615    4.673
  782.250  306.336  329.316   68.855    4.764
  782.500  309.399  320.849   68.888    4.813
  782.750  311.964  320.408   69.227    4.818
  783.000  313.524  323.570   68.954    4.564
  783.250  313.575  330.739   68.690    4.443
  783.500  310.608  336.305   68.727    4.406
  783.750  303.610  341.069   69.054    4.290
  784.000  295.613  303.338   69.992    4.294
  784.250  288.622  255.192   72.142    4.420
  784.500  288.673  234.707   73.390    4.677
  784.750  289.226  223.434   74.019    4.812
  785.000  291.295  224.992   72.241    5.045
  785.250  292.352  259.821   71.980    5.291
