~VERSION INFORMATION
 VERS.                 2.0:   CWLS LOG ASCII STANDARD -VERSION 2.0
 WRAP.                  NO:   ONE LINE PER DEPTH STEP
~WELL INFORMATION BLOCK
#MNEM.UNIT           DATA                    DESCRIPTION OF MNEMONIC
#---------    -------------------            -------------------------------
# Generated from Intellog Unique Number	CS_71_72/WELL/838
WELL.         AMOCO AEC IPIATIK              : Well_name    - WELL
LOC .         00/08-16-072-05W4/0            : Location     - LOCATION
UWI .         00/08-16-072-05W4/0            : Uwi          - UNIQUE WELL ID
ENTR.         SP                             : Entered      - ENTERED BY
SRVC.         SCHLUMBERGER                   : Scn          - SERVICE COMPANY
STRT.M        320                            : top_depth    - START DEPTH
STOP.M        560                            : bot_depth    - STOP DEPTH
STEP.M        0.25                           : increment    - STEP LENGTH
 NULL. -999.2500:NULL Value
~CURVE INFORMATION BLOCK
#MNEM UNIT       ERCB CURVE CODE    CURVE DESCRIPTION
#-----------   ------------------   ----------------------------------
DEPT.M        00 001 00 00         : DEPTH        - DEPTH
GR  .API      00 310 00 00         : GR           - GAMMA RAY
NPHI.V/V      00 330 00 00         : PHIN         - NEUTRON POROSITY (LIMESTONE)
DPHI.V/V      00 890 00 00         : PHID         - DENSITY POROSITY (LIMESTONE)
ILD .OHMM     00 120 00 00         : RESD         - DEEP RESISTIVITY (DIL)
~PARAMETER INFORMATION
#MNEM.UNIT           DATA             DESCRIPTION OF MNEMONIC
#---------         -----------     ------------------------------
GL  .M        697.9                : gl           - GROUND LEVEL ELEVATION
EREF.M        702.17               : kb           - ELEVATION OF DEPTH REFERENCE
DATM.M        697.9                : datum        - DATUM ELEVATION
TDD .M        583                  : tdd          - TOTAL DEPTH DRILLER
RUN .         ONE                  : Run          - RUN NUMBER
ENG .         BILL                 : Engineer     - RECORDING ENGINEER
WIT .         JIM                  : Witness      - WITNESSED BY
MUD .         GEL                  : Mud_type     - MUD TYPE
MATR.         LIMESTONE            : Logunit      - NEUTRON MATRIX
TMAX.C        20                   : BHT          - MAXIMUM RECORDED TEMPERATURE
BHTD.M        583                  : BHTDEP       - MAXIMUM RECORDED TEMPERATURE
MATR.         1                    : LOGUNIT      - NEUTRON MATRIX
RMT .C        25                   : MDTP         - TEMPERATURE OF MUD
NEUT.         1                    : NEUTRON      - NEUTRON TYPE
RESI.         0                    : RESIST       - RESISTIVITY TYPE
RMC .OHMM     0.25                 : RMC          - RESISTIVITY OF MUD CAKE
RMF .OHMM     0.25                 : RMF          - RESISTIVITY OF MUD FILTRATE
SUFT.C        15                   : SUFT         - SURFACE TEMPERATURE
~A  DEPTH       GR     PHIN     PHID     RESD
# ...
  494.000   73.872    0.392    0.223   13.562
  494.250   72.674    0.395    0.230   12.625
  494.500   71.477    0.405    0.242   12.401
  494.750   71.484    0.388    0.246   12.179
  495.000   70.887    0.377    0.245   12.177
  495.250   66.074    0.373    0.237   12.176
  495.500   67.287    0.370    0.229   12.394
  495.750   68.498    0.380    0.222   12.613
  496.000   66.698    0.382    0.224   12.839
  496.250   64.896    0.385    0.242   13.069
  496.500   66.107    0.392    0.255   13.068
  496.750   72.138    0.404    0.262   13.300
  497.000   75.156    0.424    0.250   13.298
  497.250   72.151    0.434    0.234   13.297
  497.500   60.110    0.422    0.223   13.534
  497.750   53.490    0.413    0.237   16.176
  498.000   46.268    0.396    0.282   23.112
  498.250   42.658    0.388    0.305   29.144
  498.500   40.859    0.384    0.320   36.747
  498.750   39.659    0.399    0.303   41.634
  499.000   39.669    0.411    0.303   57.399
  499.250   40.277    0.405    0.308   66.199
  499.500   40.283    0.402    0.305   69.828
  499.750   40.290    0.400    0.296   68.576
  500.000   40.295    0.401    0.292   66.161
  500.250   40.302    0.422    0.303   64.982
  500.500   41.513    0.426    0.305   61.587
  500.750   43.931    0.422    0.305   60.492
  501.000   46.948    0.421    0.309   51.505
  501.250   51.172    0.433    0.297   44.646
  501.500   54.792    0.432    0.291   34.154
  501.750   59.618    0.429    0.275   22.651
  502.000   62.036    0.430    0.273   17.640
  502.250   62.644    0.442    0.286   15.846
  502.500   65.062    0.435    0.305   14.752
  502.750   66.874    0.436    0.312   14.233
  503.000   68.690    0.431    0.303   13.731
  503.250   68.694    0.421    0.291   13.487
  503.500   70.509    0.413    0.281   13.246
  503.750   72.926    0.409    0.269   12.780
  504.000   77.151    0.403    0.263   11.686
  504.250   81.374    0.400    0.251   10.880
  504.500   85.597    0.396    0.242   10.129
  504.750   89.218    0.391    0.233    9.263
  505.000   92.235    0.391    0.230    8.321
  505.250   98.267    0.403    0.217    7.886
  505.500  101.285    0.416    0.208    7.608
  505.750  101.291    0.420    0.200    7.472
  506.000   91.058    0.421    0.193    7.471
  506.250   82.027    0.396    0.183    7.470
  506.500   73.601    0.388    0.169    7.740
  506.750   72.402    0.375    0.155    8.165
  507.000   72.408    0.367    0.101    8.768
  507.250   74.825    0.349    0.013    9.415
  507.500   79.654    0.334   -0.000   10.110
  507.750   81.465    0.343    0.106   10.857
  508.000   85.086    0.373    0.185   11.051
  508.250   73.647    0.384    0.210   10.661
  508.500   67.027    0.374    0.224   10.104
  508.750   62.213    0.370    0.230    9.748
  509.000   60.413    0.362    0.240    9.405
  509.250   65.241    0.361    0.247    9.074
  509.500   67.052    0.371    0.235    8.912
  509.750   70.675    0.391    0.222    9.234
  510.000   67.067    0.408    0.213    9.740
  510.250   61.650    0.416    0.208   10.093
  510.500   58.043    0.392    0.255   10.838
  510.750   60.460    0.382    0.287   11.433
  511.000   65.890    0.379    0.274   11.847
  511.250   68.304    0.384    0.269   12.275
  511.500   73.130    0.381    0.275   12.494
  511.750   76.752    0.378    0.277   12.272
  512.000   79.167    0.379    0.269   10.264
  512.250   69.535    0.380    0.271    9.556
  512.500   67.734    0.374    0.270    8.584
  512.750   72.564    0.368    0.252    7.440
  513.000   74.374    0.367    0.235    6.927
  513.250   71.972    0.368    0.210    6.803
  513.500   70.170    0.361    0.179    6.682
  513.750   70.781    0.348    0.187    7.175
  514.000   71.388    0.339    0.175    7.984
  514.250   63.565    0.335    0.171    7.567
  514.500   56.943    0.356    0.163    7.983
  514.750   50.926    0.372    0.193    8.571
  515.000   47.920    0.384    0.230    8.881
  515.250   50.939    0.391    0.274    8.881
  515.500   61.790    0.385    0.302    8.416
  515.750   68.422    0.372    0.294    8.120
  516.000   78.671    0.366    0.252    7.425
  516.250   87.713    0.373    0.186    7.293
  516.500   93.141    0.387    0.161    7.292
  516.750   91.943    0.379    0.164    7.422
  517.000   96.770    0.372    0.167    7.691
  517.250  103.405    0.394    0.148    8.258
  517.500  105.217    0.411    0.138    8.557
  517.750   96.188    0.424    0.157    8.710
  518.000   87.158    0.435    0.169    8.709
  518.250   80.540    0.421    0.164    8.707
  518.500   76.328    0.400    0.174    8.552
  518.750   73.322    0.387    0.178    8.551
  519.000   70.316    0.392    0.196    8.398
  519.250   68.516    0.387    0.206    8.102
  519.500   70.329    0.378    0.216    7.958
  519.750   75.155    0.357    0.205    7.678
  520.000   81.186    0.369    0.188    7.408
  520.250   86.011    0.391    0.175    7.147
  520.500   92.044    0.403    0.164    7.145
  520.750   95.664    0.407    0.163    7.145
  521.000   98.684    0.416    0.170    7.403
  521.250   98.689    0.423    0.171    7.402
  521.500   98.093    0.430    0.179    7.670
  521.750   99.307    0.448    0.179    7.948
  522.000   99.312    0.453    0.167    8.089
  522.250   98.715    0.461    0.162    8.088
  522.500   95.709    0.426    0.153    8.087
  522.750   96.921    0.401    0.149    7.943
  523.000   98.132    0.397    0.149    7.941
  523.250   95.729    0.395    0.165    7.940
  523.500   90.917    0.388    0.185    8.082
  523.750   87.309    0.386    0.170    8.081
  524.000   82.495    0.388    0.164    8.080
  524.250   62.623    0.389    0.212    7.522
  524.500   51.183    0.390    0.261    7.129
  524.750   42.755    0.399    0.278    5.753
  525.000   27.711    0.393    0.325    4.095
  525.250   28.313    0.391    0.325    3.742
  525.500   27.711    0.394    0.317    3.419
  525.750   27.108    0.387    0.311    3.298
  526.000   24.699    0.385    0.315    3.123
  526.250   23.494    0.390    0.317    2.959
  526.500   22.892    0.385    0.308    2.853
  526.750   22.289    0.380    0.314    2.800
  527.000   24.699    0.384    0.320    2.748
  527.250   25.904    0.387    0.321    2.698
  527.500   26.506    0.393    0.326    2.696
  527.750   25.904    0.399    0.322    2.694
  528.000   26.506    0.411    0.314    2.691
  528.250   27.711    0.420    0.308    2.690
  528.500   28.313    0.426    0.310    2.688
  528.750   26.506    0.407    0.326    2.734
  529.000   25.301    0.399    0.325    2.781
  529.250   24.699    0.393    0.324    2.779
  529.500   25.301    0.389    0.318    2.777
  529.750   26.506    0.389    0.310    2.825
  530.000   25.301    0.399    0.314    2.823
  530.250   25.301    0.404    0.312    2.820
  530.500   25.904    0.409    0.306    2.819
  530.750   26.506    0.399    0.322    2.816
  531.000   25.904    0.395    0.334    2.814
  531.250   25.904    0.391    0.337    2.763
  531.500   27.711    0.389    0.328    2.760
  531.750   29.518    0.386    0.321    2.759
  532.000   31.325    0.397    0.313    2.756
  532.250   32.530    0.409    0.308    2.804
  532.500   33.133    0.426    0.353    2.851
  532.750   33.133    0.422    0.365    2.901
  533.000   31.928    0.407    0.353    2.951
  533.250   30.120    0.410    0.355    2.949
  533.500   28.916    0.414    0.336    2.894
  533.750   28.313    0.416    0.326    2.893
  534.000   27.711    0.418    0.344    2.890
  534.250   28.916    0.420    0.336    2.889
  534.500   30.120    0.421    0.324    2.886
  534.750   31.928    0.408    0.314    2.885
  535.000   31.325    0.403    0.303    2.882
  535.250   28.313    0.406    0.297    2.879
  535.500   27.108    0.391    0.295    2.878
  535.750   27.711    0.385    0.296    2.876
  536.000   28.916    0.383    0.315    2.872
  536.250   30.120    0.379    0.330    2.870
  536.500   30.723    0.378    0.309    2.920
  536.750   30.723    0.383    0.303    2.866
  537.000   27.711    0.394    0.312    2.864
  537.250   26.506    0.400    0.319    2.812
