~VERSION INFORMATION
 VERS.                 2.0:   CWLS LOG ASCII STANDARD -VERSION 2.0
 WRAP.                  NO:   ONE LINE PER DEPTH STEP
~WELL INFORMATION BLOCK
#MNEM.UNIT           DATA                    DESCRIPTION OF MNEMONIC
#---------    -------------------            -------------------------------
# Generated from Intellog Unique Number	CS_67_68/WELL/2168
WELL.         06-13-067-08W4                 : Well_name    - WELL
LOC .         00/06-13-067-08W4/0            : Location     - LOCATION
UWI .         00/06-13-067-08W4/0            : Uwi          - UNIQUE WELL ID
ENTR.         SP                             : Entered      - ENTERED BY
SRVC.         SCHLUMBERGER                   : Scn          - SERVICE COMPANY
STRT.M        335                            : top_depth    - START DEPTH
STOP.M        566                            : bot_depth    - STOP DEPTH
STEP.M        0.25                           : increment    - STEP LENGTH
 NULL. -999.2500:NULL Value
~CURVE INFORMATION BLOCK
#MNEM UNIT       ERCB CURVE CODE    CURVE DESCRIPTION
#-----------   ------------------   ----------------------------------
DEPT.M        00 001 00 00         : DEPTH        - DEPTH
ILD .OHMM     00 120 00 00         : RESD         - DEEP RESISTIVITY (DIL)
DPHI.V/V      00 890 00 00         : PHID         - DENSITY POROSITY (LIMESTONE)
NPHI.V/V      00 330 00 00         : PHIN         - NEUTRON POROSITY (LIMESTONE)
GR  .API      00 310 00 00         : GR           - GAMMA RAY
CALI.MM       00 280 01 00         : CAL          - CALIPER
~PARAMETER INFORMATION
#MNEM.UNIT           DATA             DESCRIPTION OF MNEMONIC
#---------         -----------     ------------------------------
GL  .M        646.93               : gl           - GROUND LEVEL ELEVATION
EREF.M        650.73               : kb           - ELEVATION OF DEPTH REFERENCE
DATM.M        650.73               : datum        - DATUM ELEVATION
TDD .M        570                  : tdd          - TOTAL DEPTH DRILLER
RUN .         ONE                  : Run          - RUN NUMBER
ENG .         BILL                 : Engineer     - RECORDING ENGINEER
WIT .         JIM                  : Witness      - WITNESSED BY
MUD .         GEL                  : Mud_type     - MUD TYPE
MATR.         LIMESTONE            : Logunit      - NEUTRON MATRIX
TMAX.C        21                   : BHT          - MAXIMUM RECORDED TEMPERATURE
BHTD.M        570.5                : BHTDEP       - MAXIMUM RECORDED TEMPERATURE
MATR.         1                    : LOGUNIT      - NEUTRON MATRIX
RMT .C        25                   : MDTP         - TEMPERATURE OF MUD
NEUT.         1                    : NEUTRON      - NEUTRON TYPE
RESI.         0                    : RESIST       - RESISTIVITY TYPE
RMC .OHMM     0.25                 : RMC          - RESISTIVITY OF MUD CAKE
RMF .OHMM     0.25                 : RMF          - RESISTIVITY OF MUD FILTRATE
SUFT.C        15                   : SUFT         - SURFACE TEMPERATURE
~A  DEPTH     RESD     PHID     PHIN       GR      CAL
# ...
  408.000    6.038    0.252    0.377   82.255  157.412
  408.250    5.874    0.252    0.380   80.102  157.517
  408.500    5.671    0.249    0.403   78.256  157.418
  408.750    5.433    0.247    0.429   74.441  157.216
  409.000    5.226    0.259    0.439   70.194  156.705
  409.250    5.083    0.297    0.445   66.501  156.606
  409.500    5.058    0.310    0.439   64.409  156.609
  409.750    5.061    0.320    0.429   67.120  157.023
  410.000    5.084    0.307    0.421   71.310  158.155
  410.250    5.030    0.296    0.413   73.713  159.390
  410.500    4.902    0.282    0.423   78.641  160.213
  410.750    4.743    0.256    0.423   83.569  161.448
  411.000    4.639    0.236    0.422   88.927  162.888
  411.250    4.479    0.221    0.447   95.025  164.328
  411.500    4.332    0.217    0.473   99.461  164.023
  411.750    4.174    0.243    0.475  101.495  164.129
  412.000    4.106    0.247    0.457   98.910  163.003
  412.250    4.164    0.245    0.460   96.819  161.467
  412.500    4.206    0.258    0.464   89.678  159.930
  412.750    4.233    0.271    0.434   82.783  158.497
  413.000    4.252    0.282    0.443   78.167  157.884
  413.250    4.255    0.285    0.467   75.213  157.887
  413.500    4.274    0.283    0.450   74.353  158.198
  413.750    4.181    0.300    0.457   72.815  158.714
  414.000    3.722    0.309    0.457   69.738  159.436
  414.250    3.300    0.300    0.434   83.471  161.081
  414.500    2.905    0.279    0.419   93.818  163.753
  414.750    2.537    0.264    0.490  103.241  166.219
  415.000    2.582    0.265    0.536  107.061  168.274
  415.250    2.840    0.278    0.559  108.972  171.253
  415.500    3.183    0.287    0.561  103.863  171.051
  415.750    3.649    0.296    0.561   94.135  165.513
  416.000    4.144    0.307    0.529   86.563  161.103
  416.250    4.592    0.298    0.501   79.422  156.898
  416.500    4.984    0.291    0.451   78.870  154.130
  416.750    5.248    0.280    0.428   79.303  153.620
  417.000    5.343    0.267    0.420   81.152  153.520
  417.250    5.346    0.256    0.414   83.494  153.832
  417.500    5.309    0.247    0.462   85.897  153.834
  417.750    5.272    0.239    0.459   86.576  154.145
  418.000    5.119    0.234    0.446   87.317  154.559
  418.250    4.998    0.232    0.425   87.873  154.870
  418.500    4.789    0.232    0.427   84.612  155.181
  418.750    4.580    0.242    0.431   78.394  155.287
  419.000    4.380    0.267    0.423   72.423  154.572
  419.250    4.245    0.301    0.412   71.070  153.856
  419.500    4.106    0.347    0.416   71.996  153.244
  419.750    4.078    0.343    0.426   72.921  153.144
  420.000    4.143    0.337    0.433   73.293  152.531
  420.250    4.225    0.338    0.442   72.925  152.021
  420.500    4.291    0.339    0.447   70.710  151.306
  420.750    4.435    0.331    0.437   72.128  150.899
  421.000    4.540    0.320    0.426   74.470  150.799
  421.250    4.638    0.310    0.418   77.612  150.802
  421.500    4.720    0.299    0.416   79.585  150.600
  421.750    4.823    0.287    0.439   80.633  150.603
  422.000    4.918    0.279    0.457   81.928  150.504
  422.250    4.997    0.273    0.472   83.716  150.712
  422.500    5.038    0.268    0.485   85.134  150.716
  422.750    5.099    0.278    0.496   86.675  150.924
  423.000    5.210    0.284    0.480   88.647  151.235
  423.250    5.243    0.281    0.460   89.881  151.340
  423.500    5.266    0.280    0.445   89.390  151.548
  423.750    5.250    0.281    0.456   87.730  152.578
  424.000    5.195    0.275    0.438   87.423  154.839
  424.250    5.110    0.257    0.423   89.703  156.689
  424.500    5.085    0.259    0.430   91.614  158.334
  424.750    5.012    0.265    0.442   93.648  160.082
  425.000    4.922    0.239    0.447   95.251  161.933
  425.250    4.806    0.227    0.445   95.807  163.475
  425.500    4.657    0.233    0.438   96.117  164.710
  425.750    4.488    0.248    0.444   97.104  165.636
  426.000    4.268    0.240    0.460  100.246  166.563
  426.250    3.997    0.217    0.470  101.603  168.722
  426.500    3.695    0.194    0.458   99.018  173.446
  426.750    3.461    0.256    0.460   97.050  179.093
  427.000    3.261    0.285    0.475   96.744  185.664
  427.250    2.991    0.287    0.474   96.561  185.052
  427.500    2.608    0.269    0.481   94.531  179.923
  427.750    2.361    0.248    0.489   93.486  184.237
  428.000    2.166    0.233    0.490   94.842  188.345
  428.250    2.281    0.225    0.482   98.293  186.295
  428.500    2.625    0.228    0.477  100.757  187.325
  428.750    3.131    0.238    0.472  104.762  189.894
  429.000    3.735    0.235    0.469  107.534  179.942
  429.250    4.123    0.226    0.478  108.645  173.582
  429.500    4.391    0.217    0.467  105.691  168.864
  429.750    4.452    0.234    0.467  103.414  167.328
  430.000    4.398    0.255    0.484  102.431  165.792
  430.250    4.342    0.258    0.501  102.371  164.974
  430.500    4.677    0.255    0.502  102.127  164.053
  430.750    5.038    0.242    0.484  101.513  163.748
  431.000    5.216    0.224    0.473  100.776  163.649
  431.250    5.249    0.216    0.465   99.300  164.781
  431.500    5.164    0.227    0.459   98.624  166.837
  431.750    4.930    0.239    0.464   99.981  169.405
  432.000    4.777    0.272    0.487  102.446  170.845
  432.250    4.603    0.269    0.500  104.172  170.746
  432.500    4.436    0.244    0.504  106.329  173.109
  432.750    4.258    0.234    0.494  100.112  182.451
  433.000    4.261    0.369    0.486   95.988  200.004
  433.250    4.437    0.459    0.510   93.773  211.912
  433.500    4.440    0.334    0.532   88.541  199.805
  433.750    4.376    0.305    0.494   90.883  180.822
  434.000    4.186    0.299    0.469   93.779  164.507
  434.250    4.055    0.320    0.478   95.935  176.825
  434.500    3.864    0.313    0.497   97.846  191.402
  434.750    3.688    0.297    0.511   99.449  206.799
  435.000    3.567    0.295    0.533  100.929  199.618
  435.250    3.549    0.308    0.551   98.898  195.721
  435.500    3.633    0.324    0.558   95.267  207.321
  435.750    3.769    0.347    0.533   94.038  188.031
  436.000    3.850    0.365    0.509   93.239  172.537
  436.250    3.912    0.355    0.495   91.763  161.969
  436.500    3.966    0.334    0.503   89.179  156.636
  436.750    3.992    0.325    0.492   87.641  153.765
  437.000    3.979    0.310    0.473   87.028  153.153
  437.250    3.937    0.299    0.470   86.044  152.951
  437.500    3.866    0.293    0.476   83.706  153.056
  437.750    3.768    0.299    0.480   79.213  153.059
  438.000    3.658    0.308    0.490   74.412  153.062
  438.250    3.572    0.317    0.477   71.519  152.860
  438.500    3.515    0.324    0.463   69.120  152.658
  438.750    3.504    0.328    0.455   67.582  152.558
  439.000    3.519    0.326    0.451   66.106  152.665
  439.250    3.589    0.323    0.450   65.492  152.872
  439.500    3.639    0.323    0.451   66.972  153.286
  439.750    3.614    0.329    0.452   68.144  153.597
  440.000    3.562    0.334    0.458   69.562  153.909
  440.250    3.505    0.330    0.454   71.103  154.116
  440.500    3.461    0.324    0.451   71.782  154.427
  440.750    3.405    0.319    0.454   74.186  154.430
  441.000    3.325    0.322    0.453   74.742  154.741
  441.250    3.283    0.326    0.460   72.712  155.155
  441.500    3.286    0.328    0.471   70.558  155.364
  441.750    3.264    0.337    0.483   67.912  155.469
  442.000    3.247    0.347    0.470   66.498  155.678
  442.250    3.244    0.351    0.455   66.254  155.989
  442.500    3.246    0.355    0.443   65.332  156.094
  442.750    3.254    0.354    0.442   66.380  156.200
  443.000    3.293    0.352    0.449   66.813  156.101
  443.250    3.320    0.357    0.466   64.968  155.796
  443.500    3.341    0.353    0.458   63.430  155.594
  443.750    3.363    0.354    0.450   64.048  155.392
  444.000    3.372    0.356    0.459   65.220  155.394
  444.250    3.367    0.349    0.466   66.145  155.397
