~VERSION INFORMATION
 VERS.                 2.0:   CWLS LOG ASCII STANDARD -VERSION 2.0
 WRAP.                  NO:   ONE LINE PER DEPTH STEP
~WELL INFORMATION BLOCK
#MNEM.UNIT           DATA                    DESCRIPTION OF MNEMONIC
#---------    -------------------            -------------------------------
# Generated from Intellog Unique Number	CS_69_70/WELL/854
WELL.         HUSKY OIL OPERATIONS           : Well_name    - WELL
LOC .         00/08-32-069-06W4/0            : Location     - LOCATION
UWI .         00/08-32-069-06W4/0            : Uwi          - UNIQUE WELL ID
ENTR.         SP                             : Entered      - ENTERED BY
SRVC.         SCHLUMBERGER                   : Scn          - SERVICE COMPANY
STRT.M        330                            : top_depth    - START DEPTH
STOP.M        570                            : bot_depth    - STOP DEPTH
STEP.M        0.25                           : increment    - STEP LENGTH
 NULL. -999.2500:NULL Value
~CURVE INFORMATION BLOCK
#MNEM UNIT       ERCB CURVE CODE    CURVE DESCRIPTION
#-----------   ------------------   ----------------------------------
DEPT.M        00 001 00 00         : DEPTH        - DEPTH
ILD .OHMM     00 120 00 00         : RESD         - DEEP RESISTIVITY (DIL)
DPHI.V/V      00 890 00 00         : PHID         - DENSITY POROSITY (LIMESTONE)
NPHI.V/V      00 330 00 00         : PHIN         - NEUTRON POROSITY (LIMESTONE)
GR  .API      00 310 00 00         : GR           - GAMMA RAY
~PARAMETER INFORMATION
#MNEM.UNIT           DATA             DESCRIPTION OF MNEMONIC
#---------         -----------     ------------------------------
GL  .M        685.1                : gl           - GROUND LEVEL ELEVATION
EREF.M        688.8                : kb           - ELEVATION OF DEPTH REFERENCE
DATM.M        685.1                : datum        - DATUM ELEVATION
TDD .M        575                  : tdd          - TOTAL DEPTH DRILLER
RUN .         ONE                  : Run          - RUN NUMBER
ENG .         BILL                 : Engineer     - RECORDING ENGINEER
WIT .         JIM                  : Witness      - WITNESSED BY
MUD .         GEL                  : Mud_type     - MUD TYPE
MATR.         LIMESTONE            : Logunit      - NEUTRON MATRIX
TMAX.C        25                   : BHT          - MAXIMUM RECORDED TEMPERATURE
BHTD.M        575                  : BHTDEP       - MAXIMUM RECORDED TEMPERATURE
MATR.         1                    : LOGUNIT      - NEUTRON MATRIX
RMT .C        25                   : MDTP         - TEMPERATURE OF MUD
NEUT.         1                    : NEUTRON      - NEUTRON TYPE
RESI.         0                    : RESIST       - RESISTIVITY TYPE
RMC .OHMM     0.25                 : RMC          - RESISTIVITY OF MUD CAKE
RMF .OHMM     0.25                 : RMF          - RESISTIVITY OF MUD FILTRATE
SUFT.C        15                   : SUFT         - SURFACE TEMPERATURE
~A  DEPTH     RESD     PHID     PHIN       GR
# ...
  373.500    5.951    0.250    0.424   97.889
  373.750    6.238    0.259    0.416   93.143
  374.000    6.416    0.264    0.413   94.838
  374.250    6.827    0.238    0.451   95.319
  374.500    7.075    0.192    0.450   85.103
  374.750    7.332    0.164    0.350   74.400
  375.000    7.500    0.199    0.383   76.643
  375.250    7.333    0.226    0.415   87.031
  375.500    6.997    0.244    0.433   93.285
  375.750    6.479    0.254    0.445   95.164
  376.000    6.056    0.262    0.439   99.169
  376.250    5.855    0.270    0.452  103.357
  376.500    5.703    0.269    0.460  103.290
  376.750    5.587    0.259    0.453  101.947
  377.000    5.556    0.256    0.445  104.373
  377.250    5.641    0.254    0.446  105.705
  377.500    5.748    0.248    0.457  105.516
  377.750    5.879    0.264    0.467  102.715
  378.000    6.036    0.278    0.479   98.394
  378.250    6.244    0.284    0.453   92.797
  378.500    6.374    0.293    0.410   87.807
  378.750    6.471    0.297    0.387   85.431
  379.000    6.435    0.290    0.401   86.883
  379.250    6.340    0.294    0.413   92.530
  379.500    6.328    0.284    0.410   97.265
  379.750    6.412    0.276    0.400  100.299
  380.000    6.696    0.277    0.400  101.995
  380.250    6.734    0.274    0.403   96.884
  380.500    6.709    0.266    0.392   94.447
  380.750    6.622    0.262    0.385   93.529
  381.000    6.523    0.258    0.396   96.380
  381.250    6.402    0.258    0.411   99.778
  381.500    6.355    0.260    0.418   99.590
  381.750    6.343    0.265    0.418   96.545
  382.000    6.391    0.269    0.407   93.500
  382.250    6.440    0.256    0.426   92.705
  382.500    6.440    0.262    0.442   91.666
  382.750    6.368    0.274    0.434   94.880
  383.000    6.238    0.275    0.439   97.186
  383.250    6.180    0.266    0.458   98.760
  383.500    6.089    0.263    0.467   96.079
  383.750    6.021    0.270    0.466   94.007
  384.000    5.987    0.270    0.458   91.388
  384.250    5.988    0.270    0.448   86.885
  384.500    6.067    0.280    0.451   78.796
  384.750    6.148    0.293    0.451   70.524
  385.000    6.312    0.307    0.427   61.827
  385.250    6.741    0.320    0.412   58.236
  385.500    7.952    0.252    0.437   58.047
  385.750   10.383    0.163    0.462   53.909
  386.000   12.646    0.040    0.204   49.466
  386.250   14.208    0.008    0.163   50.495
  386.500   13.156   -0.002    0.154   53.771
  386.750    9.724    0.270    0.278   57.898
  387.000    7.822    0.319    0.342   61.719
  387.250    6.668    0.338    0.387   63.113
  387.500    5.749    0.349    0.411   64.383
  387.750    5.215    0.357    0.417   67.417
  388.000    5.166    0.363    0.421   70.571
  388.250    5.137    0.364    0.430   71.842
  388.500    5.071    0.346    0.417   66.610
  388.750    4.986    0.333    0.406   65.267
  389.000    4.958    0.325    0.398   69.698
  389.250    4.894    0.337    0.393   70.969
  389.500    4.857    0.351    0.392   62.393
  389.750    4.821    0.355    0.399   56.856
  390.000    4.840    0.353    0.396   58.856
  390.250    4.950    0.350    0.391   65.415
  390.500    5.063    0.339    0.388   71.426
  390.750    5.121    0.333    0.398   75.370
  391.000    5.150    0.329    0.416   69.713
  391.250    5.112    0.336    0.430   61.623
  391.500    5.045    0.341    0.420   57.485
  391.750    4.980    0.347    0.409   57.540
  392.000    4.961    0.337    0.398   60.633
  392.250    4.980    0.331    0.394   63.363
  392.500    5.037    0.328    0.411   68.949
  392.750    5.171    0.336    0.422   73.441
  393.000    5.329    0.324    0.409   77.568
  393.250    5.586    0.307    0.385   81.147
  393.500    5.811    0.293    0.367   83.209
  393.750    5.855    0.283    0.384   84.237
  394.000    5.844    0.285    0.402   84.474
  394.250    5.790    0.292    0.387   85.319
  394.500    5.747    0.299    0.381   85.070
  394.750    5.715    0.294    0.386   85.793
  395.000    5.726    0.276    0.397   93.082
  395.250    5.759    0.262    0.412   97.634
  395.500    5.705    0.250    0.430   99.391
  395.750    5.642    0.242    0.421   99.932
  396.000    5.547    0.243    0.413   95.672
  396.250    5.363    0.264    0.428   85.760
  396.500    5.205    0.287    0.443   76.698
  396.750    4.994    0.321    0.460   69.885
  397.000    4.856    0.339    0.433   62.708
  397.250    4.893    0.351    0.417   54.740
  397.500    4.949    0.351    0.426   54.977
  397.750    5.081    0.345    0.435   58.496
  398.000    5.177    0.345    0.419   59.342
  398.250    5.295    0.345    0.439   62.132
  398.500    5.447    0.335    0.455   68.021
  398.750    5.540    0.325    0.463   74.639
  399.000    5.572    0.307    0.423   78.707
  399.250    5.583    0.288    0.399   80.342
  399.500    5.572    0.279    0.393   77.723
  399.750    5.449    0.289    0.391   66.595
  400.000    5.209    0.308    0.372   58.627
  400.250    5.045    0.320    0.352   53.456
  400.500    5.008    0.324    0.342   56.671
  400.750    5.027    0.330    0.348   61.284
  401.000    5.113    0.329    0.357   65.837
  401.250    5.240    0.312    0.365   68.506
  401.500    5.269    0.291    0.370   70.201
  401.750    5.299    0.279    0.371   70.621
  402.000    5.300    0.296    0.375   71.345
  402.250    5.280    0.319    0.378   73.770
  402.500    5.211    0.324    0.378   75.467
  402.750    5.144    0.315    0.372   77.649
  403.000    5.232    0.313    0.371   82.870
  403.250    5.463    0.297    0.363   89.854
  403.500    5.661    0.269    0.352   95.865
  403.750    5.845    0.251    0.361   94.583
  404.000    5.968    0.247    0.372   92.876
  404.250    6.047    0.250    0.377   96.820
  404.500    6.128    0.243    0.387   98.820
  404.750    6.128    0.235    0.404  100.455
  405.000    6.128    0.231    0.399  101.726
  405.250    6.128    0.243    0.393  100.444
  405.500    6.129    0.258    0.402   95.516
  405.750    6.210    0.267    0.414   83.962
  406.000    6.509    0.253    0.419   73.684
  406.250    6.873    0.256    0.413   67.844
  406.500    6.991    0.285    0.400   66.319
  406.750    6.887    0.304    0.403   66.738
  407.000    6.547    0.321    0.417   67.401
  407.250    6.212    0.322    0.422   69.219
  407.500    5.774    0.321    0.412   70.368
  407.750    5.603    0.320    0.410   71.941
  408.000    5.336    0.319    0.412   73.031
  408.250    5.121    0.314    0.419   73.451
  408.500    4.777    0.309    0.424   67.914
  408.750    4.698    0.318    0.430   60.432
  409.000    4.671    0.330    0.426   61.156
  409.250    4.628    0.330    0.419   64.005
  409.500    4.602    0.322    0.418   65.156
  409.750    4.594    0.317    0.431   66.913
  410.000    4.603    0.323    0.441   64.294
  410.250    4.603    0.325    0.442   65.138
  410.500    4.569    0.318    0.433   67.625
  410.750    4.543    0.311    0.430   72.116
  411.000    4.527    0.304    0.438   75.514
  411.250    4.493    0.299    0.446   77.697
  411.500    4.451    0.299    0.457   75.504
  411.750    4.385    0.298    0.456   79.144
  412.000    4.361    0.293    0.440   80.780
  412.250    4.312    0.291    0.432   74.818
  412.500    4.288    0.290    0.436   73.900
  412.750    4.264    0.298    0.446   72.436
  413.000    4.272    0.311    0.443   69.877
  413.250    4.305    0.319    0.428   69.447
  413.500    4.338    0.320    0.420   69.745
  413.750    4.395    0.321    0.429   69.676
  414.000    4.437    0.327    0.438   69.126
  414.250    4.471    0.328    0.436   67.174
  414.500    4.479    0.325    0.427   65.528
  414.750    4.479    0.320    0.433   63.577
  415.000    4.488    0.329    0.428   59.499
  415.250    4.497    0.339    0.417   55.300
  415.500    4.489    0.350    0.409   54.382
  415.750    4.464    0.357    0.405   55.288
  416.000    4.439    0.353    0.406   56.559
  416.250    4.447    0.350    0.412   56.857
  416.500    4.431    0.353    0.428   56.791
  416.750    4.398    0.353    0.423   58.608
