~VERSION INFORMATION
 VERS.                 2.0:   CWLS LOG ASCII STANDARD -VERSION 2.0
 WRAP.                  NO:   ONE LINE PER DEPTH STEP
~WELL INFORMATION BLOCK
#MNEM.UNIT           DATA                    DESCRIPTION OF MNEMONIC
#---------    -------------------            -------------------------------
# Generated from Intellog Unique Number	CN_91_93/WELL/2819
WELL.         PARAMOUNT RESOURCES LTD.       : Well_name    - WELL
LOC .         00/06-01-093-21W4/0            : Location     - LOCATION
UWI .         00/06-01-093-21W4/0            : Uwi          - UNIQUE WELL ID
ENTR.         JOETTE                         : Entered      - ENTERED BY
SRVC.         COMPUTALOG                     : Scn          - SERVICE COMPANY
DATE.         03/24/92                       : Date         - LOG DATE
STRT.M        100                            : top_depth    - START DEPTH
STOP.M        235                            : bot_depth    - STOP DEPTH
STEP.M        0.25                           : increment    - STEP LENGTH
 NULL. -999.2500:NULL Value
~CURVE INFORMATION BLOCK
#MNEM UNIT       ERCB CURVE CODE    CURVE DESCRIPTION
#-----------   ------------------   ----------------------------------
DEPT.M        00 001 00 00         : DEPTH        - DEPTH
CALI.MM       00 280 01 00         : CAL          - CALIPER
GR  .API      00 310 00 00         : GR           - GAMMA RAY
NPHI.V/V      00 330 00 00         : PHIN         - NEUTRON POROSITY (SANDSTONE)
DPHI.V/V      00 890 00 00         : PHID         - DENSITY POROSITY (SANDSTONE)
ILD .OHMM     00 120 00 00         : RESD         - DEEP RESISTIVITY (DIL)
~PARAMETER INFORMATION
#MNEM.UNIT           DATA             DESCRIPTION OF MNEMONIC
#---------         -----------     ------------------------------
GL  .M        443.43               : gl           - GROUND LEVEL ELEVATION
EREF.M        547.23               : kb           - ELEVATION OF DEPTH REFERENCE
DATM.M        547.23               : datum        - DATUM ELEVATION
TDD .M        234.4                : tdd          - TOTAL DEPTH DRILLER
RUN .         ONE                  : Run          - RUN NUMBER
ENG .         JO                   : Engineer     - RECORDING ENGINEER
WIT .         TIM                  : Witness      - WITNESSED BY
MUD .         GEL                  : Mud_type     - MUD TYPE
MATR.         SANDSTONE            : Logunit      - NEUTRON MATRIX
TMAX.C        23                   : BHT          - MAXIMUM RECORDED TEMPERATURE
BHTD.M        234.4                : BHTDEP       - MAXIMUM RECORDED TEMPERATURE
RMT .C        10.5                 : MDTP         - TEMPERATURE OF MUD
MUDD.KG/M     1100                 : MWT          - MUD DENSITY
NEUT.         1                    : NEUTRON      - NEUTRON TYPE
RESI.         0                    : RESIST       - RESISTIVITY TYPE
RM  .OHMM     5.2                  : RM           - RESISTIVITY OF MUD
RMC .OHMM     5.2                  : RMC          - RESISTIVITY OF MUD CAKE
RMF .OHMM     5.2                  : RMF          - RESISTIVITY OF MUD FILTRATE
SUFT.C        4                    : SUFT         - SURFACE TEMPERATURE
~A  DEPTH      CAL       GR     PHIN     PHID     RESD
  100.000  234.135  106.080    0.475    0.250    5.543
  100.250  236.261  106.144    0.452    0.246    5.451
  100.500  235.358  105.618    0.449    0.222    5.895
  100.750  231.453  104.471    0.458    0.211    6.497
  101.000  227.495  103.929    0.450    0.217    7.302
  101.250  227.629  104.583    0.434    0.225    8.048
  101.500  227.682  104.647    0.450    0.234    8.703
  101.750  229.807   99.881    0.461    0.236    9.229
  102.000  232.969   94.478    0.434    0.234    9.432
  102.250  236.105   93.346    0.422    0.225    8.761
  102.500  237.221   94.606    0.417    0.225    9.121
  102.750  235.308   96.487    0.390    0.215    9.491
  103.000  234.405   94.734    0.387    0.185   10.070
  103.250  236.531   90.558    0.420    0.271   11.111
  103.500  233.609   85.776    0.430    0.275   11.561
  103.750  226.649   86.462    0.444    0.240   12.042
  104.000  235.841   87.115    0.440    0.235   12.301
  104.250  232.919   86.573    0.446    0.240   12.565
  104.500  224.950   88.471    0.434    0.240   12.124
  104.750  222.055   90.352    0.422    0.245   10.431
  105.000  224.180   90.400    0.427    0.251    9.153
  105.250  224.287   88.041    0.424    0.245    9.168
  105.500  226.439   86.288    0.427    0.237    9.926
  105.750  229.521   86.352    0.425    0.258    9.948
  106.000  234.729   87.021    0.427    0.270    9.061
  106.250  237.837   85.268    0.422    0.282    7.797
  106.500  239.963   82.303    0.440    0.269    6.972
  106.750  239.060   85.412    0.462    0.253    6.235
  107.000  235.102   88.521    0.454    0.238    5.575
  107.250  232.180   90.370    0.454    0.230    4.986
  107.500  232.340   93.478    0.459    0.224    4.723
  107.750  232.420   95.965    0.464    0.231    4.471
  108.000  232.526  100.285    0.460    0.237    4.314
  108.250  231.650   99.759    0.450    0.248    4.324
  108.500  230.721   98.580    0.457    0.254    4.501
  108.750  229.791   94.404    0.451    0.252    4.868
  109.000  228.941   90.850    0.460    0.237    5.573
  109.250  230.004   88.507    0.471    0.224    6.256
  109.500  237.258   88.555    0.452    0.223    7.591
  109.750  239.330   91.025    0.399    0.225    8.204
  110.000  239.437   97.147    0.376    0.209    8.385
  110.250  228.465   99.028    0.357    0.144    8.404
  110.500  221.452   91.823    0.343    0.101    9.088
  110.750  223.577   83.407    0.367    0.161    8.769
  111.000  224.694   80.442    0.398    0.228    7.690
  111.250  219.753   84.762    0.405    0.252    5.907
  111.500  216.831   84.221    0.428    0.261    5.085
  111.750  228.069   86.102    0.430    0.239    4.726
  112.000  232.240   86.166    0.452    0.235    4.555
  112.250  228.309   86.214    0.504    0.242    4.482
  112.500  226.396   88.701    0.515    0.240    4.575
  112.750  229.558   91.187    0.521    0.237    4.766
  113.000  231.630   88.829    0.479    0.236    5.054
  113.250  231.737   77.990    0.466    0.228    5.789
  113.500  228.815   72.586    0.456    0.227    6.755
  113.750  227.939   73.862    0.444    0.237    7.886
  114.000  231.101   78.181    0.421    0.267    8.687
  114.250  233.173   82.501    0.405    0.273    9.394
  114.500  236.308   84.383    0.388    0.268    9.979
  114.750  236.415   83.235    0.366    0.251    9.995
  115.000  233.519   82.072    0.367    0.251    9.650
  115.250  234.609   79.107    0.392    0.257    9.130
  115.500  238.754   80.988    0.422    0.256    8.984
  115.750  238.887   81.658    0.451    0.232    8.673
  116.000  237.957   76.270    0.459    0.177    8.524
  116.250  235.035   74.517    0.446    0.186    9.049
  116.500  233.123   75.187    0.437    0.243    9.410
  116.750  234.239   76.462    0.422    0.273    9.985
  117.000  234.346   80.782    0.417    0.264   10.594
  117.250  231.424   85.070    0.406    0.261   10.822
  117.500  223.454   93.025    0.413    0.265   10.251
  117.750  216.494   91.287    0.420    0.267    9.167
  118.000  216.601   88.913    0.414    0.266    8.845
  118.250  221.755   85.326    0.410    0.254    8.693
  118.500  234.003   81.756    0.406    0.224    9.060
  118.750  236.155   81.214    0.415    0.231    9.070
  119.000  236.235   83.095    0.429    0.258    9.096
  119.250  237.351   83.781    0.427    0.256    8.940
  119.500  240.513   82.650    0.417    0.228    8.635
  119.750  241.629   83.319    0.431    0.218    8.487
  120.000  236.688   84.595    0.443    0.227    7.879
  120.250  231.747   85.854    0.439    0.248    7.046
  120.500  229.808   88.947    0.448    0.262    5.726
  120.750  227.922   93.888    0.485    0.263    4.235
  121.000  230.075   96.359    0.469    0.257    3.789
  121.250  231.191   93.394    0.461    0.241    3.726
  121.500  233.290   88.613    0.460    0.230    3.804
  121.750  234.406   89.282    0.453    0.239    4.199
  122.000  236.505   87.529    0.436    0.239    4.364
  122.250  236.638   84.549    0.415    0.223    4.997
  122.500  233.716   79.161    0.392    0.174    5.833
  122.750  230.794   79.241    0.411    0.187    6.689
  123.000  231.910   84.757    0.450    0.231    6.697
  123.250  234.010   86.622    0.490    0.254    6.582
  123.500  236.162   84.869    0.460    0.264    5.999
  123.750  235.232   82.526    0.430    0.234    4.786
  124.000  230.345   81.968    0.444    0.192    4.123
  124.250  228.379   79.019    0.442    0.179    4.052
  124.500  226.520   82.096    0.446    0.199    4.059
  124.750  226.600   89.428    0.501    0.221    4.148
  125.000  227.689   89.524    0.515    0.234    4.319
  125.250  228.859   88.951    0.505    0.237    4.676
  125.500  228.939   85.986    0.480    0.247    4.771
  125.750  229.019   86.066    0.474    0.254    4.967
  126.000  227.159   89.159    0.449    0.248    5.073
  126.250  226.203   92.857    0.444    0.229    5.191
  126.500  225.300   95.344    0.401    0.211    5.200
  126.750  224.424   93.591    0.402    0.159    5.208
  127.000  224.504   90.020    0.418    0.122    5.217
  127.250  225.647   89.478    0.438    0.137    5.235
  127.500  226.790   93.177    0.459    0.161    5.244
  127.750  228.915  100.509    0.478    0.197    5.359
  128.000  230.032  106.041    0.470    0.194    5.365
  128.250  232.157  106.742    0.489    0.193    5.480
  128.500  233.247  106.790    0.474    0.196    5.493
  128.750  233.380  105.053    0.470    0.193    5.408
  129.000  233.460  102.678    0.459    0.189    5.315
  129.250  230.538  105.149    0.443    0.198    5.324
  129.500  230.671  109.469    0.458    0.194    5.142
  129.750  232.770  106.489    0.459    0.180    5.054
  130.000  235.932  102.312    0.459    0.138    5.063
  130.250  236.039  101.181    0.468    0.135    5.171
  130.500  235.109  103.652    0.483    0.164    5.183
  130.750  231.178  107.366    0.483    0.183    5.294
  131.000  228.282  109.853    0.483    0.205    5.309
  131.250  227.353  110.507    0.467    0.202    5.318
  131.500  227.486  111.192    0.455    0.203    5.236
  131.750  228.576  109.439    0.448    0.213    5.146
  132.000  231.738  106.459    0.462    0.219    4.968
  132.250  231.817   99.860    0.469    0.230    4.882
  132.500  230.968   93.261    0.469    0.235    4.801
  132.750  229.029   91.492    0.470    0.229    4.812
  133.000  227.090   95.222    0.465    0.220    4.915
  133.250  223.185   97.103    0.464    0.221    5.120
  133.500  222.255   97.151    0.463    0.232    5.333
  133.750  221.406   97.215    0.440    0.236    5.442
  134.000  223.478   95.478    0.444    0.229    5.665
  134.250  229.695   93.725    0.455    0.217    5.901
  134.500  230.758   91.350    0.462    0.213    6.025
  134.750  228.872   85.962    0.454    0.223    6.157
  135.000  222.922   82.982    0.461    0.240    6.175
  135.250  219.973   82.440    0.468    0.247    6.069
  135.500  221.143   83.126    0.445    0.251    5.965
  135.750  221.223   87.430    0.433    0.242    5.334
  136.000  221.303   86.888    0.465    0.232    4.592
  136.250  222.472   89.980    0.474    0.234    4.029
