~VERSION INFORMATION
 VERS.                 2.0:   CWLS LOG ASCII STANDARD -VERSION 2.0
 WRAP.                  NO:   ONE LINE PER DEPTH STEP
~WELL INFORMATION BLOCK
#MNEM.UNIT           DATA                    DESCRIPTION OF MNEMONIC
#---------    -------------------            -------------------------------
# Generated from Intellog Unique Number	CS_67_68/WELL/662
WELL.         BURNT LAKE                     : Well_name    - WELL
LOC .         00/06-13-068-03W4/0            : Location     - LOCATION
UWI .         00/06-13-068-03W4/0            : Uwi          - UNIQUE WELL ID
ENTR.         SP                             : Entered      - ENTERED BY
SRVC.         SCHLUMBERGER                   : Scn          - SERVICE COMPANY
STRT.M        380                            : top_depth    - START DEPTH
STOP.M        620                            : bot_depth    - STOP DEPTH
STEP.M        0.25                           : increment    - STEP LENGTH
 NULL. -999.2500:NULL Value
~CURVE INFORMATION BLOCK
#MNEM UNIT       ERCB CURVE CODE    CURVE DESCRIPTION
#-----------   ------------------   ----------------------------------
DEPT.M        00 001 00 00         : DEPTH        - DEPTH
ILD .OHMM     00 120 00 00         : RESD         - DEEP RESISTIVITY (DIL)
DPHI.V/V      00 890 00 00         : PHID         - DENSITY POROSITY (LIMESTONE)
NPHI.V/V      00 330 00 00         : PHIN         - NEUTRON POROSITY (LIMESTONE)
GR  .API      00 310 00 00         : GR           - GAMMA RAY
~PARAMETER INFORMATION
#MNEM.UNIT           DATA             DESCRIPTION OF MNEMONIC
#---------         -----------     ------------------------------
GL  .M        722.86               : gl           - GROUND LEVEL ELEVATION
EREF.M        726.87               : kb           - ELEVATION OF DEPTH REFERENCE
DATM.M        722.86               : datum        - DATUM ELEVATION
TDD .M        630                  : tdd          - TOTAL DEPTH DRILLER
RUN .         ONE                  : Run          - RUN NUMBER
ENG .         BILL                 : Engineer     - RECORDING ENGINEER
WIT .         JIM                  : Witness      - WITNESSED BY
MUD .         GEL                  : Mud_type     - MUD TYPE
MATR.         LIMESTONE            : Logunit      - NEUTRON MATRIX
TMAX.C        18.3                 : BHT          - MAXIMUM RECORDED TEMPERATURE
BHTD.M        630                  : BHTDEP       - MAXIMUM RECORDED TEMPERATURE
MATR.         1                    : LOGUNIT      - NEUTRON MATRIX
RMT .C        25                   : MDTP         - TEMPERATURE OF MUD
NEUT.         1                    : NEUTRON      - NEUTRON TYPE
RESI.         0                    : RESIST       - RESISTIVITY TYPE
RMC .OHMM     0.25                 : RMC          - RESISTIVITY OF MUD CAKE
RMF .OHMM     0.25                 : RMF          - RESISTIVITY OF MUD FILTRATE
SUFT.C        15                   : SUFT         - SURFACE TEMPERATURE
~A  DEPTH     RESD     PHID     PHIN       GR
  380.000    2.721    0.259    0.521   98.108
  380.250    2.762    0.259    0.529  102.321
  380.500    2.813    0.261    0.535  104.397
  380.750    2.898    0.264    0.518  100.125
  381.000    3.002    0.265    0.497   96.402
  381.250    3.064    0.264    0.493   98.417
  381.500    3.144    0.255    0.496  101.043
  381.750    3.209    0.245    0.495  100.556
  382.000    3.250    0.235    0.500   99.702
  382.250    3.280    0.246    0.505  102.023
  382.500    3.315    0.257    0.489  103.977
  382.750    3.377    0.256    0.487  103.856
  383.000    3.440    0.236    0.507  103.369
  383.250    3.497    0.206    0.528   98.974
  383.500    3.542    0.190    0.539   94.762
  383.750    3.561    0.205    0.489   92.321
  384.000    3.593    0.230    0.479   93.971
  384.250    3.632    0.244    0.476   96.657
  384.500    3.604    0.244    0.477   98.673
  384.750    3.489    0.239    0.493  100.322
  385.000    3.328    0.242    0.511  102.704
  385.250    3.121    0.236    0.522  104.659
  385.500    2.982    0.235    0.534  106.003
  385.750    2.926    0.251    0.545  106.126
  386.000    2.941    0.257    0.554  104.539
  386.250    2.990    0.252    0.540  103.808
  386.500    3.035    0.249    0.533  104.419
  386.750    3.079    0.247    0.531  102.039
  387.000    3.125    0.247    0.525  102.040
  387.250    3.225    0.248    0.518  104.116
  387.500    3.316    0.250    0.534  103.934
  387.750    3.390    0.251    0.538  103.019
  388.000    3.428    0.258    0.502  101.311
  388.250    3.407    0.259    0.486  112.789
  388.500    3.355    0.258    0.485  121.948
  388.750    3.297    0.256    0.480  118.102
  389.000    3.199    0.255    0.508  108.824
  389.250    3.103    0.250    0.525  101.865
  389.500    2.959    0.246    0.538   98.874
  389.750    2.887    0.247    0.522   95.517
  390.000    3.141    0.264    0.376   89.169
  390.250    4.711    0.301    0.323   79.524
  390.500    7.761    0.327    0.276   71.344
  390.750   14.126    0.345    0.250   60.051
  391.000   20.066    0.386    0.230   59.441
  391.250   28.769    0.406    0.219   61.579
  391.500   33.235    0.382    0.216   62.801
  391.750   33.285    0.372    0.230   62.619
  392.000   30.233    0.353    0.246   59.567
  392.250   25.425    0.338    0.262   56.760
  392.500   23.311    0.327    0.275   56.577
  392.750   21.943    0.373    0.277   58.288
  393.000   19.447    0.388    0.259   60.975
  393.250   18.868    0.398    0.246   63.662
  393.500   17.727    0.407    0.233   64.518
  393.750   16.128    0.414    0.224   64.579
  394.000   15.737    0.410    0.241   64.397
  394.250   14.160    0.391    0.288   62.811
  394.500   12.669    0.375    0.315   59.698
  394.750   11.660    0.364    0.340   56.952
  395.000   10.750    0.355    0.353   59.273
  395.250   10.390    0.347    0.363   62.265
  395.500   10.212    0.346    0.363   63.243
  395.750    9.869    0.355    0.362   63.732
  396.000    9.395    0.354    0.365   63.977
  396.250    8.712    0.348    0.382   60.987
  396.500    7.766    0.343    0.398   58.912
  396.750    6.832    0.341    0.402   62.209
  397.000    6.335    0.367    0.403   67.888
  397.250    6.099    0.386    0.439   73.567
  397.500    6.499    0.400    0.577   75.521
  397.750    6.695    0.371    0.535   65.510
  398.000    7.174    0.357    0.418   58.856
  398.250    7.545    0.345    0.386   56.293
  398.500    7.514    0.335    0.417   63.681
  398.750    7.221    0.318    0.434   67.162
  399.000    6.861    0.305    0.446   67.285
  399.250    6.303    0.278    0.428   73.513
  399.500    5.757    0.259    0.423   81.023
  399.750    5.348    0.265    0.430   87.068
  400.000    5.034    0.250    0.445   90.976
  400.250    4.829    0.243    0.461   93.235
  400.500    4.800    0.247    0.468   94.030
  400.750    5.029    0.249    0.457   93.603
  401.000    5.239    0.243    0.463   90.979
  401.250    5.667    0.246    0.471   88.844
  401.500    6.084    0.246    0.453   87.684
  401.750    6.339    0.267    0.423   87.502
  402.000    6.432    0.276    0.446   90.250
  402.250    6.664    0.271    0.459   92.937
  402.500    6.994    0.257    0.431   94.220
  402.750    7.273    0.230    0.380   91.352
  403.000    7.436    0.231    0.355   82.928
  403.250    7.589    0.244    0.342   77.312
  403.500    7.544    0.247    0.332   76.580
  403.750    7.583    0.261    0.336   77.924
  404.000    7.680    0.270    0.365   77.498
  404.250    7.736    0.272    0.384   73.470
  404.500    7.806    0.271    0.379   73.531
  404.750    7.847    0.282    0.368   74.082
  405.000    7.978    0.283    0.388   72.068
  405.250    8.142    0.263    0.396   69.749
  405.500    8.309    0.250    0.381   65.843
  405.750    8.431    0.271    0.383   60.105
  406.000    8.555    0.283    0.386   56.504
  406.250    8.585    0.288    0.378   55.956
  406.500    8.598    0.274    0.377   59.375
  406.750    8.515    0.267    0.379   61.330
  407.000    8.401    0.263    0.379   62.124
  407.250    8.210    0.257    0.375   63.468
  407.500    7.859    0.243    0.383   68.658
  407.750    7.567    0.256    0.390   71.895
  408.000    6.835    0.274    0.388   65.974
  408.250    5.912    0.211    0.397   65.609
  408.500    5.038    0.177    0.421   85.145
  408.750    4.399    0.183    0.453   97.051
  409.000    3.899    0.208    0.481  106.026
  409.250    3.568    0.222    0.503  110.423
  409.500    3.614    0.228    0.521  114.087
  409.750    3.895    0.226    0.535  116.469
  410.000    4.491    0.240    0.535  114.150
  410.250    5.091    0.266    0.527   85.518
  410.500    5.871    0.299    0.490   71.538
  410.750    6.782    0.335    0.439   63.542
  411.000    7.703    0.338    0.420   60.979
  411.250    8.348    0.331    0.424   63.055
  411.500    8.471    0.334    0.427   66.658
  411.750    8.342    0.318    0.415   70.566
  412.000    8.184    0.309    0.398   75.024
  412.250    8.119    0.300    0.383   79.481
  412.500    8.178    0.294    0.408   83.634
  412.750    8.568    0.292    0.425   86.870
  413.000    8.943    0.294    0.441   88.581
  413.250    9.247    0.295    0.449   85.468
  413.500    9.296    0.292    0.443   81.012
  413.750    9.154    0.290    0.449   78.266
  414.000    9.014    0.289    0.444   77.717
  414.250    8.910    0.291    0.456   78.634
  414.500    8.807    0.291    0.472   79.978
  414.750    8.705    0.289    0.484   81.322
  415.000    8.636    0.282    0.469   82.849
  415.250    8.649    0.270    0.446   82.178
  415.500    9.113    0.264    0.454   81.569
  415.750   10.101    0.266    0.481   82.241
  416.000   10.927    0.117    0.494   80.105
  416.250   10.540    0.103    0.412   72.780
  416.500    9.829    0.146    0.358   68.691
  416.750    9.304    0.194    0.372   74.675
  417.000    8.741    0.230    0.412   78.461
  417.250    8.385    0.255    0.443   80.781
  417.500    8.195    0.276    0.454   81.881
  417.750    8.176    0.300    0.445   75.106
  418.000    8.204    0.323    0.435   63.385
  418.250    8.232    0.337    0.418   63.935
  418.500    8.167    0.313    0.398   67.660
  418.750    8.027    0.302    0.416   70.958
  419.000    7.772    0.308    0.428   69.554
  419.250    7.483    0.314    0.402   57.590
  419.500    7.123    0.313    0.373   55.270
  419.750    6.923    0.290    0.383   66.199
  420.000    6.666    0.273    0.400   71.878
  420.250    6.441    0.268    0.404   74.626
  420.500    6.378    0.259    0.400   76.214
  420.750    6.473    0.254    0.402   77.558
  421.000    6.846    0.251    0.394   78.170
  421.250    7.119    0.266    0.392   79.453
  421.500    7.347    0.287    0.408   81.591
  421.750    7.428    0.293    0.422   83.301
  422.000    7.411    0.290    0.431   84.339
  422.250    7.366    0.299    0.443   77.930
  422.500    7.350    0.307    0.448   72.986
  422.750    7.375    0.311    0.436   68.042
  423.000    7.470    0.305    0.440   67.493
  423.250    7.652    0.292    0.439   76.102
