~VERSION INFORMATION
 VERS.                 2.0:   CWLS LOG ASCII STANDARD -VERSION 2.0
 WRAP.                  NO:   ONE LINE PER DEPTH STEP
~WELL INFORMATION BLOCK
#MNEM.UNIT           DATA                    DESCRIPTION OF MNEMONIC
#---------    -------------------            -------------------------------
# Generated from Intellog Unique Number	CX_WELLS/WELL/4026
WELL.         PACIFIC WILLOW                 : Well_name    - WELL
LOC .         00/07-09-077-04W5/0            : Location     - LOCATION
UWI .         00/07-09-077-04W5/0            : Uwi          - UNIQUE WELL ID
ENTR.         T                              : Entered      - ENTERED BY
SRVC.         SCHLUMBERGER                   : Scn          - SERVICE COMPANY
STRT.F        1400                           : top_depth    - START DEPTH
STOP.F        2149.67                        : bot_depth    - STOP DEPTH
STEP.F        0.82                           : increment    - STEP LENGTH
 NULL. -999.2500:NULL Value
~CURVE INFORMATION BLOCK
#MNEM UNIT       ERCB CURVE CODE    CURVE DESCRIPTION
#-----------   ------------------   ----------------------------------
DEPT.F        00 001 00 00         : DEPTH        - DEPTH
GR  .API      00 310 00 00         : GR           - GAMMA RAY
NPHI.V/V      00 330 00 00         : PHIN         - NEUTRON POROSITY (SANDSTONE)
DPHI.V/V      00 890 00 00         : PHID         - DENSITY POROSITY (SANDSTONE)
ILD .OHMM     00 120 00 00         : RESD         - DEEP RESISTIVITY (DIL)
~PARAMETER INFORMATION
#MNEM.UNIT           DATA             DESCRIPTION OF MNEMONIC
#---------         -----------     ------------------------------
GL  .F        2352                 : gl           - GROUND LEVEL ELEVATION
EREF.F        2364.5               : kb           - ELEVATION OF DEPTH REFERENCE
DATM.F        2364.5               : datum        - DATUM ELEVATION
TDD .F        2166                 : tdd          - TOTAL DEPTH DRILLER
RUN .         ONE                  : Run          - RUN NUMBER
ENG .         BILL                 : Engineer     - RECORDING ENGINEER
WIT .         JIM                  : Witness      - WITNESSED BY
MUD .         GEL                  : Mud_type     - MUD TYPE
MATR.         SANDSTONE            : Logunit      - NEUTRON MATRIX
TMAX.F        82                   : BHT          - MAXIMUM RECORDED TEMPERATURE
BHTD.F        2166                 : BHTDEP       - MAXIMUM RECORDED TEMPERATURE
MATR.         1                    : LOGUNIT      - NEUTRON MATRIX
RMT .F        65                   : MDTP         - TEMPERATURE OF MUD
NEUT.         1                    : NEUTRON      - NEUTRON TYPE
RESI.         4.1                  : RESIST       - RESISTIVITY TYPE
RMC .OHMM     3.5                  : RMC          - RESISTIVITY OF MUD CAKE
RMF .OHMM     3.5                  : RMF          - RESISTIVITY OF MUD FILTRATE
SUFT.F        35                   : SUFT         - SURFACE TEMPERATURE
~A  DEPTH       GR     PHIN     PHID     RESD
# ...
 1685.430  102.351    0.469    0.209    4.461
 1686.250  103.009    0.473    0.191    4.466
 1687.070  105.549    0.476    0.179    4.474
 1687.890  106.805    0.476    0.178    4.395
 1688.710  111.796    0.478    0.172    4.318
 1689.530  114.935    0.481    0.173    4.488
 1690.350  116.205    0.493    0.183    4.577
 1691.170  117.475    0.507    0.190    5.035
 1691.990  118.760    0.509    0.201    5.538
 1692.810  116.369    0.510    0.232    5.979
 1693.640  104.174    0.498    0.240    6.213
 1694.460   90.754    0.487    0.252    6.458
 1695.280   85.284    0.486    0.257    6.586
 1696.100   73.089    0.495    0.251    6.846
 1696.920   74.404    0.504    0.242    6.984
 1697.740   75.061    0.496    0.243    6.994
 1698.560   75.764    0.487    0.246    7.002
 1699.380   76.406    0.478    0.242    6.879
 1700.200   77.094    0.471    0.241    6.637
 1701.020   77.781    0.464    0.244    6.398
 1701.840   77.811    0.467    0.243    6.169
 1702.660   79.126    0.474    0.237    6.059
 1703.480   79.784    0.480    0.234    5.736
 1704.300   81.697    0.481    0.230    5.744
 1705.120   82.354    0.482    0.224    5.640
 1705.940   87.331    0.478    0.209    5.541
 1706.760   90.440    0.476    0.197    5.343
 1707.580   92.367    0.472    0.180    4.965
 1708.400   91.814    0.467    0.185    4.786
 1709.220   90.634    0.473    0.192    4.532
 1710.040   88.855    0.481    0.201    4.451
 1710.860   84.656    0.484    0.207    4.291
 1711.680   82.847    0.488    0.219    4.217
 1712.500   81.682    0.488    0.224    4.067
 1713.320   83.595    0.485    0.228    3.995
 1714.140   86.120    0.478    0.236    3.998
 1714.960   87.988    0.472    0.236    3.856
 1715.780   93.593    0.467    0.178    3.861
 1716.600   96.103    0.480    0.152    3.793
 1717.420   96.761    0.486    0.146    3.729
 1718.240   95.625    0.477    0.171    3.731
 1719.060   95.042    0.466    0.178    3.667
 1719.880   94.504    0.459    0.147    3.671
 1720.700   95.790    0.465    0.140    3.607
 1721.520   97.703    0.476    0.140    3.612
 1722.340   98.988    0.474    0.164    3.684
 1723.160   98.435    0.464    0.175    3.758
 1723.980   97.867    0.458    0.173    3.762
 1724.800   96.088    0.453    0.166    3.838
 1725.620   97.374    0.452    0.164    3.916
 1726.440   99.272    0.458    0.166    3.994
 1727.260  100.557    0.464    0.164    4.077
 1728.080  100.661    0.472    0.161    4.157
 1728.900  100.706    0.476    0.154    4.161
 1729.720  100.766    0.479    0.149    4.244
 1730.540  100.228    0.486    0.153    4.330
 1731.360  100.273    0.493    0.156    4.335
 1732.190   98.509    0.498    0.158    4.422
 1733.010   97.329    0.494    0.166    4.427
 1733.830   96.148    0.488    0.177    4.433
 1734.650   93.757    0.481    0.185    4.438
 1735.470   92.591    0.482    0.180    4.443
 1736.290   92.038    0.483    0.186    4.450
 1737.110   88.421    0.484    0.197    4.371
 1737.930   84.805    0.485    0.207    4.217
 1738.750   81.816    0.480    0.221    4.220
 1739.570   83.699    0.473    0.219    4.145
 1740.390   88.063    0.471    0.200    3.998
 1741.210   93.024    0.472    0.187    4.003
 1742.030   97.986    0.470    0.175    4.006
 1742.850   98.688    0.469    0.174    4.014
 1743.670   98.748    0.471    0.175    4.016
 1744.490   99.406    0.473    0.170    4.100
 1745.310   99.465    0.474    0.170    4.181
 1746.130   99.525    0.475    0.176    4.184
 1746.950   98.374    0.485    0.185    4.351
 1747.770   95.968    0.497    0.209    4.437
 1748.590   91.739    0.491    0.218    4.613
 1749.410   90.588    0.486    0.228    4.705
 1750.230   90.633    0.481    0.236    4.985
 1751.050   90.095    0.476    0.236    5.181
 1751.870   87.704    0.476    0.230    5.698
 1752.690   87.136    0.478    0.225    6.389
 1753.510   89.676    0.478    0.221    6.763
 1754.330   90.947    0.476    0.217    7.165
 1755.150   93.472    0.476    0.222    7.173
 1755.970   92.919    0.477    0.230    6.918
 1756.790   89.288    0.478    0.239    6.671
 1757.610   86.284    0.486    0.248    6.313
 1758.430   84.505    0.488    0.247    6.085
 1759.250   83.952    0.480    0.242    5.760
 1760.070   80.948    0.477    0.245    5.768
 1760.890   77.959    0.472    0.250    5.773
 1761.710   77.391    0.470    0.249    5.780
 1762.530   78.064    0.470    0.241    5.786
 1763.350   79.379    0.471    0.232    5.794
 1764.170   81.277    0.477    0.227    5.801
 1764.990   85.013    0.481    0.234    5.806
 1765.810   88.764    0.476    0.236    5.704
 1766.630   90.632    0.468    0.236    5.500
 1767.450   91.335    0.458    0.238    5.404
 1768.270   87.718    0.456    0.243    5.211
 1769.090   84.699    0.456    0.246    5.121
 1769.910   79.872    0.454    0.252    4.937
 1770.730   76.240    0.453    0.258    4.853
 1771.560   75.075    0.452    0.267    4.767
 1772.380   77.003    0.450    0.270    4.596
 1773.200   78.258    0.460    0.254    4.600
 1774.020   80.156    0.471    0.236    4.520
 1774.840   83.279    0.473    0.218    4.525
 1775.660   85.207    0.474    0.205    4.448
 1776.480   85.895    0.475    0.194    4.455
 1777.300   85.940    0.473    0.182    4.458
 1778.120   87.225    0.468    0.164    4.463
 1778.940   86.044    0.464    0.149    4.555
 1779.760   78.751    0.459    0.131    4.557
 1780.580   73.909    0.452    0.101    4.477
 1781.400   69.067    0.432    0.037    4.402
 1782.220   64.225    0.238    0.007    4.405
 1783.040   65.510    0.198    0.088    4.494
 1783.860   69.246    0.222    0.117    5.229
 1784.680   72.370    0.265    0.148    7.479
 1785.500   76.748    0.335    0.178    8.704
 1786.320   80.484    0.377    0.196    7.931
 1787.140   82.382    0.400    0.188    7.228
 1787.960   81.829    0.431    0.155    6.713
 1788.780   79.438    0.399    0.134    5.896
 1789.600   79.498    0.381    0.093    5.789
 1790.420   80.768    0.342    0.090    5.690
 1791.240   82.069    0.359    0.123    5.696
 1792.060   83.966    0.383    0.174    5.597
 1792.880   85.894    0.404    0.187    5.502
 1793.700   86.537    0.416    0.199    5.506
 1794.520   87.225    0.430    0.202    5.412
 1795.340   87.299    0.446    0.197    5.415
 1796.160   87.329    0.451    0.194    5.224
 1796.980   86.791    0.457    0.187    5.130
 1797.800   85.625    0.452    0.179    4.948
 1798.620   84.460    0.445    0.146    4.953
 1799.440   85.760    0.404    0.122    4.959
 1800.260   86.417    0.396    0.146    5.357
 1801.080   88.330    0.424    0.153    5.461
 1801.900   88.375    0.448    0.166    5.571
 1802.720   89.048    0.464    0.176    5.273
 1803.540   89.107    0.456    0.190    5.083
 1804.360   89.795    0.447    0.204    4.901
 1805.180   90.482    0.448    0.219    4.814
 1806.000   90.542    0.452    0.227    4.730
 1806.820   90.602    0.453    0.219    4.649
 1807.640   90.647    0.453    0.210    4.567
 1808.460   89.481    0.463    0.200    4.489
 1809.280   87.090    0.464    0.200    4.409
 1810.100   86.552    0.460    0.203    4.334
 1810.930   85.999    0.459    0.201    4.338
 1811.750   86.043    0.462    0.195    4.261
 1812.570   86.731    0.468    0.191    4.267
 1813.390   88.031    0.469    0.187    4.193
 1814.210   88.076    0.469    0.181    4.196
 1815.030   89.361    0.467    0.174    4.281
 1815.850   90.049    0.459    0.177    4.367
 1816.670   90.706    0.454    0.178    4.456
 1817.490   92.021    0.450    0.176    4.545
 1818.310   92.679    0.448    0.173    4.641
 1819.130   93.964    0.444    0.165    4.643
 1819.950   95.264    0.462    0.160    4.647
 1820.770   94.726    0.507    0.158    4.570
 1821.590   93.531    0.514    0.165    4.571
 1822.410   91.139    0.505    0.192    4.577
 1823.230   89.376    0.489    0.199    4.669
 1824.050   88.210    0.466    0.206    4.854
 1824.870   87.657    0.455    0.212    4.950
 1825.690   89.585    0.453    0.212    5.246
 1826.510   90.228    0.450    0.209    5.769
 1827.330   92.141    0.445    0.204    6.113
