~VERSION INFORMATION
 VERS.                 2.0:   CWLS LOG ASCII STANDARD -VERSION 2.0
 WRAP.                  NO:   ONE LINE PER DEPTH STEP
~WELL INFORMATION BLOCK
#MNEM.UNIT           DATA                    DESCRIPTION OF MNEMONIC
#---------    -------------------            -------------------------------
# Generated from Intellog Unique Number	CW_82_90/WELL/502
WELL.         GULF WABASCA 06-14             : Well_name    - WELL
LOC .         00/06-14-083-23W4/0            : Location     - LOCATION
UWI .         00/06-14-083-23W4/0            : Uwi          - UNIQUE WELL ID
ENTR.         JAYE                           : Entered      - ENTERED BY
SRVC.         SCHLUMBERGER                   : Scn          - SERVICE COMPANY
DATE.         9 JAN 74                       : Date         - LOG DATE
STRT.M        222.504                        : top_depth    - START DEPTH
STOP.M        426.754                        : bot_depth    - STOP DEPTH
STEP.M        0.25                           : increment    - STEP LENGTH
 NULL. -999.2500:NULL Value
~CURVE INFORMATION BLOCK
#MNEM UNIT       ERCB CURVE CODE    CURVE DESCRIPTION
#-----------   ------------------   ----------------------------------
DEPT.M        00 001 00 00         : DEPTH        - DEPTH
ILD .OHMM     00 120 00 00         : RESD         - DEEP RESISTIVITY (DIL)
CALI.MM       00 280 01 00         : CAL          - CALIPER
GR  .API      00 310 00 00         : GR           - GAMMA RAY
NPHI.V/V      00 330 00 00         : PHIN         - NEUTRON POROSITY (SANDSTONE)
DPHI.V/V      00 890 00 00         : PHID         - DENSITY POROSITY (SANDSTONE)
~PARAMETER INFORMATION
#MNEM.UNIT           DATA             DESCRIPTION OF MNEMONIC
#---------         -----------     ------------------------------
GL  .M        607.771              : gl           - GROUND LEVEL ELEVATION
EREF.M        609.295              : kb           - ELEVATION OF DEPTH REFERENCE
DATM.M        607.771              : datum        - DATUM ELEVATION
TDD .M        426.72               : tdd          - TOTAL DEPTH DRILLER
ENG .         CHAUDHARY            : Engineer     - RECORDING ENGINEER
WIT .         LONG & CAMPBELL      : Witness      - WITNESSED BY
BASE.         EDMONTON             : Branch       - HOME BASE OF LOGGING UNIT
MUD .         GEL                  : Mud_type     - MUD TYPE
MATR.         SANDSTONE            : Logunit      - NEUTRON MATRIX
TMAX.C        29.4444              : BHT          - MAXIMUM RECORDED TEMPERATURE
BHTD.M        426.72               : BHTDEP       - MAXIMUM RECORDED TEMPERATURE
RMT .C        11.6667              : MDTP         - TEMPERATURE OF MUD
MUDD.KG/M     0                    : MWT          - MUD DENSITY
NEUT.         1                    : NEUTRON      - NEUTRON TYPE
RESI.         0                    : RESIST       - RESISTIVITY TYPE
RM  .OHMM     4.77                 : RM           - RESISTIVITY OF MUD
RMC .OHMM     0                    : RMC          - RESISTIVITY OF MUD CAKE
RMF .OHMM     0                    : RMF          - RESISTIVITY OF MUD FILTRATE
SUFT.C        -17.7778             : SUFT         - SURFACE TEMPERATURE
~A  DEPTH     RESD      CAL       GR     PHIN     PHID
# ...
  295.504    8.170  160.695   82.326    0.503    0.236
  295.754    7.813  160.832   84.243    0.517    0.228
  296.004    7.298  160.976   82.684    0.521    0.218
  296.254    6.966  160.819   78.990    0.519    0.229
  296.504    6.748  160.646   75.600    0.516    0.250
  296.754    6.730  158.531   70.687    0.505    0.277
  297.004    6.824  157.944   69.613    0.493    0.312
  297.254    7.020  158.095   66.162    0.512    0.297
  297.504    7.883  158.029   56.859    0.509    0.299
  297.754    9.045  156.729   47.921    0.477    0.339
  298.004   11.795  155.740   44.654    0.460    0.344
  298.254   13.635  154.355   43.889    0.449    0.338
  298.504   16.894  153.867   45.376    0.463    0.338
  298.754   19.353  153.713   47.109    0.475    0.356
  299.004   20.912  154.270   47.074    0.490    0.360
  299.254   21.202  154.509   47.591    0.490    0.364
  299.504   21.614  153.315   48.467    0.483    0.375
  299.754   21.754  152.225   49.411    0.475    0.369
  300.004   21.975  152.785   49.248    0.508    0.366
  300.254   22.080  153.651   48.297    0.497    0.360
  300.504   22.103  156.066   49.541    0.496    0.358
  300.754   22.248  157.761   48.959    0.500    0.356
  301.004   22.347  158.636   48.877    0.494    0.355
  301.254   22.578  159.202   49.509    0.486    0.356
  301.504   22.727  159.029   50.261    0.479    0.363
  301.754   22.869  159.174   48.939    0.482    0.362
  302.004   22.810  158.801   49.327    0.476    0.357
  302.254   22.749  156.370   51.002    0.467    0.357
  302.504   22.524  155.687   51.634    0.470    0.362
  302.754   22.179  155.112   53.188    0.480    0.366
  303.004   21.330  154.739   55.893    0.482    0.366
  303.254   19.597  154.060   65.428    0.472    0.357
  303.504   16.025  155.862   75.637    0.475    0.298
  303.754   13.318  158.174   74.564    0.495    0.279
  304.004   12.261  159.452   69.469    0.500    0.176
  304.254   11.941  160.535   65.714    0.483    0.138
  304.504   11.674  161.710   64.336    0.329    0.079
  304.754   11.370  163.198   75.397    0.310    0.058
  305.004   10.697  163.964   88.472    0.378    0.193
  305.254    9.937  164.004   88.009    0.488    0.225
  305.504    8.917  163.943   86.574    0.497    0.222
  305.754    7.943  163.372   87.331    0.499    0.221
  306.004    7.514  163.108   84.795    0.512    0.222
  306.254    7.535  163.142   82.197    0.503    0.235
  306.504    7.626  162.681   82.043    0.495    0.245
  306.754    7.675  162.410   84.562    0.487    0.241
  307.004    7.810  162.138   84.162    0.494    0.253
  307.254    8.081  162.283   82.119    0.501    0.225
  307.504    8.221  162.330   82.445    0.506    0.220
  307.754    8.319  162.267   85.640    0.510    0.236
  308.004    8.328  161.897   86.951    0.502    0.228
  308.254    8.202  162.039   86.363    0.491    0.217
  308.504    8.032  161.983   85.415    0.502    0.196
  308.754    7.881  161.816   84.405    0.515    0.197
  309.004    7.788  161.962   82.781    0.506    0.226
  309.254    7.711  162.011   80.613    0.495    0.227
  309.504    7.649  162.152   79.845    0.488    0.219
  309.754    7.656  162.513   82.313    0.512    0.232
  310.004    7.608  162.963   84.831    0.521    0.226
  310.254    7.601  163.211   82.177    0.511    0.237
  310.504    7.527  163.050   80.491    0.503    0.235
  310.754    7.399  163.091   80.029    0.494    0.225
  311.004    7.353  162.001   80.180    0.489    0.235
  311.254    7.294  161.526   80.508    0.493    0.252
  311.504    7.260  161.048   82.732    0.490    0.237
  311.754    7.188  160.789   84.276    0.490    0.231
  312.004    7.143  160.938   82.904    0.497    0.223
  312.254    7.086  160.871   80.425    0.510    0.231
  312.504    7.197  161.225   79.353    0.515    0.248
  312.754    7.554  161.268   74.866    0.508    0.269
  313.004    8.223  161.208   69.100    0.491    0.296
  313.254    9.455  161.038   69.368    0.461    0.281
  313.504   10.693  160.879   70.185    0.427    0.277
  313.754   12.361  160.824   69.423    0.402    0.244
  314.004   13.808  160.861   71.153    0.431    0.178
  314.254   13.642  160.178   73.192    0.457    0.095
  314.504   13.270  159.601   74.070    0.486    0.237
  314.754   13.086  159.963   74.032    0.502    0.322
  315.004   13.172  160.310   73.388    0.510    0.326
  315.254   13.159  160.355   71.765    0.504    0.322
  315.504   12.981  161.011   70.388    0.497    0.304
  315.754   12.598  161.273   69.807    0.490    0.295
  316.004   12.072  161.512   70.014    0.499    0.310
  316.254   11.651  161.764   71.195    0.496    0.311
  316.504   11.062  161.084   73.965    0.488    0.318
  316.754   10.466  160.615   77.770    0.478    0.301
  317.004    9.774  160.349   83.466    0.472    0.265
  317.254    9.112  160.283   85.809    0.493    0.248
  317.504    8.327  160.018   86.934    0.505    0.231
  317.754    7.750  159.858   86.163    0.495    0.244
  318.004    7.069  159.692   85.457    0.484    0.238
  318.254    6.724  160.347   86.094    0.493    0.236
  318.504    6.694  160.812   84.842    0.492    0.228
  318.754    6.925  161.157   74.376    0.486    0.227
  319.004    7.215  161.413   69.218    0.474    0.235
  319.254    7.797  161.659   69.918    0.474    0.233
  319.504    8.273  161.077   74.942    0.462    0.222
  319.754    8.236  160.813   79.724    0.476    0.269
  320.004    7.244  161.071   82.979    0.493    0.261
  320.254    6.488  161.102   86.361    0.490    0.246
  320.504    6.115  161.256   88.761    0.490    0.228
  320.754    5.558  161.404   91.835    0.501    0.224
  321.004    5.162  161.341   92.590    0.505    0.220
  321.254    4.857  161.381   88.774    0.501    0.225
  321.504    4.757  161.320   90.388    0.524    0.234
  321.754    4.975  160.948   89.925    0.491    0.223
  322.004    5.356  160.993   86.777    0.472    0.147
  322.254    5.929  160.827   84.913    0.467    0.118
  322.504    6.244  160.662   86.705    0.466    0.139
  322.754    7.062  160.095   86.066    0.467    0.207
  323.004    8.003  159.820   82.061    0.472    0.230
  323.254    9.352  159.967   77.697    0.486    0.216
  323.504   10.597  160.120   75.103    0.485    0.218
  323.754   11.390  160.057   73.296    0.474    0.240
  324.004   11.654  160.095   73.079    0.481    0.258
  324.254   11.710  160.136   76.029    0.487    0.248
  324.504   11.552  160.183   82.643    0.480    0.262
  324.754   11.230  160.428   88.092    0.475    0.248
  325.004   10.780  161.403   84.890    0.458    0.244
  325.254   10.384  162.069   83.204    0.463    0.238
  325.504   10.077  162.211   84.696    0.477    0.250
  325.754    9.997  161.323   84.534    0.479    0.249
  326.004   10.009  160.746   85.538    0.475    0.244
  326.254   10.034  160.997   86.902    0.469    0.239
  326.504   10.402  161.043   86.745    0.475    0.241
  326.754   10.562  160.576   82.991    0.487    0.256
  327.004   10.729  160.407   74.906    0.481    0.271
  327.254   10.899  160.036   77.252    0.455    0.262
  327.504   10.987  159.356   80.325    0.463    0.255
  327.754   11.142  159.408   78.951    0.455    0.245
  328.004   11.253  159.438   77.141    0.444    0.231
  328.254   11.327  159.069   71.865    0.471    0.233
  328.504   11.296  158.702   67.619    0.492    0.263
  328.754   11.185  158.238   59.901    0.477    0.305
  329.004   11.195  158.383   61.026    0.462    0.300
  329.254   11.187  158.417   61.902    0.478    0.299
  329.504   11.157  158.155   62.782    0.474    0.301
  329.754   11.087  158.398   64.515    0.470    0.302
  330.004   11.001  158.657   65.764    0.471    0.299
  330.254   10.971  158.696   67.735    0.470    0.201
  330.504   10.920  158.938   70.017    0.463    0.200
  330.754   10.871  158.674   68.579    0.461    0.240
  331.004   10.825  158.406   68.482    0.466    0.254
  331.254   10.757  157.941   65.582    0.458    0.246
  331.504   10.709  157.769   64.390    0.452    0.247
  331.754   10.680  157.913   64.778    0.446    0.267
