~VERSION INFORMATION
 VERS.                 2.0:   CWLS LOG ASCII STANDARD -VERSION 2.0
 WRAP.                  NO:   ONE LINE PER DEPTH STEP
~WELL INFORMATION BLOCK
#MNEM.UNIT           DATA                    DESCRIPTION OF MNEMONIC
#---------    -------------------            -------------------------------
# Generated from Intellog Unique Number	CW_73_75/WELL/199
WELL.         GLEN ISLE ET AL MITSUE 02-01   : Well_name    - WELL
LOC .         00/02-01-074-05W5/0            : Location     - LOCATION
UWI .         00/02-01-074-05W5/0            : Uwi          - UNIQUE WELL ID
ENTR.         JAYE                           : Entered      - ENTERED BY
SRVC.         WESTERN ATLAS                  : Scn          - SERVICE COMPANY
DATE.         8 DEC 88                       : Date         - LOG DATE
STRT.M        370                            : top_depth    - START DEPTH
STOP.M        630                            : bot_depth    - STOP DEPTH
STEP.M        0.25                           : increment    - STEP LENGTH
 NULL. -999.2500:NULL Value
~CURVE INFORMATION BLOCK
#MNEM UNIT       ERCB CURVE CODE    CURVE DESCRIPTION
#-----------   ------------------   ----------------------------------
DEPT.M        00 001 00 00         : DEPTH        - DEPTH
GR  .API      00 310 00 00         : GR           - GAMMA RAY
NPHI.V/V      00 330 00 00         : PHIN         - NEUTRON POROSITY (SANDSTONE)
DPHI.V/V      00 890 00 00         : PHID         - DENSITY POROSITY (SANDSTONE)
ILD .OHMM     00 120 00 00         : RESD         - DEEP RESISTIVITY (DIL)
CALI.MM       00 280 01 00         : CAL          - CALIPER
~PARAMETER INFORMATION
#MNEM.UNIT           DATA             DESCRIPTION OF MNEMONIC
#---------         -----------     ------------------------------
GL  .M        589.5                : gl           - GROUND LEVEL ELEVATION
EREF.M        593.84               : kb           - ELEVATION OF DEPTH REFERENCE
DATM.M        589.5                : datum        - DATUM ELEVATION
TDD .M        1650                 : tdd          - TOTAL DEPTH DRILLER
RUN .         ONE                  : Run          - RUN NUMBER
ENG .         YEAGER               : Engineer     - RECORDING ENGINEER
WIT .         PUTZ                 : Witness      - WITNESSED BY
BASE.         LEDUC                : Branch       - HOME BASE OF LOGGING UNIT
MATR.         SANDSTONE            : Logunit      - NEUTRON MATRIX
TMAX.C        51                   : BHT          - MAXIMUM RECORDED TEMPERATURE
BHTD.M        1650.3               : BHTDEP       - MAXIMUM RECORDED TEMPERATURE
RMT .C        51                   : MDTP         - TEMPERATURE OF MUD
MUDD.KG/M     1125                 : MWT          - MUD DENSITY
NEUT.         1                    : NEUTRON      - NEUTRON TYPE
RESI.         0                    : RESIST       - RESISTIVITY TYPE
RM  .OHMM     6.27                 : RM           - RESISTIVITY OF MUD
RMC .OHMM     4.87                 : RMC          - RESISTIVITY OF MUD CAKE
RMF .OHMM     8.75                 : RMF          - RESISTIVITY OF MUD FILTRATE
SUFT.C        0                    : SUFT         - SURFACE TEMPERATURE
~A  DEPTH       GR     PHIN     PHID     RESD      CAL
# ...
  443.000   64.342    0.292    0.279    5.910  218.607
  443.250   60.789    0.293    0.280    6.163  218.505
  443.500   64.398    0.291    0.298    6.450  218.197
  443.750   67.274    0.285    0.296    6.615  217.874
  444.000   59.686    0.278    0.290    6.722  217.775
  444.250   56.137    0.275    0.299    6.743  217.558
  444.500   52.649    0.278    0.308    6.676  217.467
  444.750   57.297    0.293    0.312    6.538  217.153
  445.000   62.429    0.297    0.314    6.391  216.953
  445.250   61.331    0.283    0.321    6.246  216.728
  445.500   57.347    0.280    0.318    6.117  216.843
  445.750   61.508    0.288    0.306    5.957  216.209
  446.000   64.014    0.295    0.293    5.801  216.413
  446.250   57.775    0.300    0.302    5.608  216.731
  446.500   56.426    0.299    0.298    5.361  217.931
  446.750   69.084    0.298    0.266    5.250  219.171
  447.000   79.173    0.299    0.239    5.189  220.684
  447.250   74.273    0.300    0.215    5.157  221.585
  447.500   69.568    0.306    0.202    5.202  222.512
  447.750   69.992    0.315    0.195    5.227  223.435
  448.000   70.166    0.312    0.191    5.253  224.143
  448.250   71.151    0.305    0.197    5.299  224.835
  448.500   69.436    0.298    0.218    5.296  224.955
  448.750   65.949    0.296    0.213    5.273  225.251
  449.000   69.370    0.296    0.191    5.211  225.747
  449.250   78.420    0.290    0.182    5.150  225.967
  449.500   75.722    0.283    0.189    5.110  225.954
  449.750   73.826    0.287    0.201    5.003  225.954
  450.000   72.053    0.293    0.214    4.936  225.852
  450.250   70.952    0.290    0.223    4.915  225.424
  450.500   69.723    0.284    0.240    4.930  225.215
  450.750   84.391    0.279    0.236    4.936  224.314
  451.000   82.442    0.280    0.222    4.924  223.181
  451.250   68.069    0.291    0.212    4.930  222.353
  451.500   78.586    0.294    0.209    5.000  221.831
  451.750   78.031    0.285    0.209    5.053  221.335
  452.000   72.278    0.282    0.210    5.153  220.815
  452.250   71.360    0.283    0.210    5.374  220.319
  452.500   68.669    0.286    0.213    5.956  219.285
  452.750   81.266    0.293    0.232    6.965  217.347
  453.000   73.742    0.304    0.270    7.907  214.796
  453.250   61.019    0.310    0.290    8.170  212.043
  453.500   46.952    0.309    0.305    7.824  210.403
  453.750   43.216    0.301    0.310    7.370  209.790
  454.000   54.897    0.294    0.300    7.059  209.591
  454.250   52.567    0.293    0.285    6.925  209.479
  454.500   46.698    0.295    0.290    6.820  209.362
  454.750   51.708    0.301    0.297    6.765  209.474
  455.000   55.131    0.303    0.302    6.786  209.981
  455.250   56.903    0.302    0.307    6.934  210.470
  455.500   58.797    0.301    0.308    7.046  210.478
  455.750   52.310    0.302    0.303    7.199  210.279
  456.000   48.578    0.305    0.296    7.329  210.050
  456.250   55.119    0.313    0.288    7.434  209.867
  456.500   48.451    0.314    0.293    7.387  209.964
  456.750   53.591    0.306    0.303    7.329  209.640
  457.000   55.237    0.305    0.316    7.244  209.426
  457.250   52.236    0.306    0.322    7.146  209.238
  457.500   53.273    0.310    0.321    7.076  209.239
  457.750   46.239    0.315    0.320    7.046  209.539
  458.000   46.668    0.314    0.318    7.002  210.130
  458.250   47.580    0.314    0.315    6.932  210.655
  458.500   48.131    0.311    0.316    6.877  211.253
  458.750   52.042    0.312    0.321    6.785  211.870
  459.000   55.162    0.313    0.317    6.669  212.160
  459.250   60.354    0.313    0.310    6.604  212.272
  459.500   59.496    0.319    0.313    6.563  212.570
  459.750   57.843    0.321    0.322    6.546  212.468
  460.000   57.780    0.320    0.324    6.543  212.450
  460.250   52.151    0.322    0.320    6.563  212.354
  460.500   54.596    0.319    0.316    6.559  212.323
  460.750   55.818    0.319    0.307    6.591  212.333
  461.000   53.306    0.326    0.302    6.661  212.451
  461.250   55.508    0.335    0.306    6.806  212.441
  461.500   52.572    0.333    0.327    7.032  211.814
  461.750   53.911    0.329    0.327    7.251  211.423
  462.000   57.276    0.337    0.318    7.355  210.992
  462.250   54.278    0.347    0.322    7.350  210.470
  462.500   61.428    0.353    0.304    7.066  210.371
  462.750   62.468    0.344    0.296    6.403  210.590
  463.000   60.633    0.339    0.291    6.043  210.679
  463.250   59.157    0.351    0.283    5.788  211.285
  463.500   59.527    0.360    0.270    5.720  213.333
  463.750   62.154    0.364    0.241    6.042  216.084
  464.000   69.859    0.358    0.239    6.685  218.831
  464.250   66.122    0.351    0.255    7.788  219.030
  464.500   70.283    0.339    0.272    9.415  219.435
  464.750   70.095    0.325    0.187   10.769  219.937
  465.000   60.556    0.280    0.045   10.087  220.237
  465.250   49.296    0.190    0.011    8.212  220.851
  465.500   49.663    0.173   -0.004    6.923  221.865
  465.750   49.843    0.172    0.009    5.935  222.168
  466.000   57.725    0.199    0.166    5.368  223.072
  466.250   63.477    0.302    0.226    5.161  224.501
  466.500   75.588    0.342    0.256    5.512  226.734
  466.750   69.285    0.359    0.270    6.109  228.168
  467.000   65.794    0.367    0.277    6.708  228.978
  467.250   71.055    0.361    0.292    6.792  228.775
  467.500   68.789    0.356    0.306    6.064  228.568
  467.750   57.230    0.360    0.311    5.444  228.861
  468.000   59.059    0.354    0.292    5.205  229.883
  468.250   71.720    0.353    0.276    5.154  231.079
  468.500   66.329    0.340    0.287    5.160  231.910
  468.750   69.208    0.342    0.286    5.233  233.033
  469.000   71.469    0.380    0.274    5.250  234.658
  469.250   61.680    0.378    0.267    5.208  235.671
  469.500   55.810    0.368    0.271    5.081  234.859
  469.750   60.759    0.366    0.287    4.976  234.235
  470.000   62.348    0.358    0.273    4.991  233.836
  470.250   66.991    0.346    0.262    5.053  233.729
  470.500   73.293    0.338    0.254    5.134  233.523
  470.750   64.663    0.363    0.247    5.169  232.073
  471.000   64.237    0.377    0.274    5.053  231.261
  471.250   60.076    0.370    0.303    4.885  231.980
  471.500   68.940    0.354    0.268    4.618  234.422
  471.750   65.878    0.352    0.247    4.615  237.781
  472.000   64.102    0.347    0.241    4.733  240.119
  472.250   61.291    0.341    0.241    4.890  240.832
  472.500   69.053    0.348    0.245    5.118  240.205
  472.750   67.517    0.346    0.251    5.249  239.707
  473.000   63.853    0.342    0.257    5.074  239.190
  473.250   64.585    0.344    0.262    4.798  239.587
  473.500   67.392    0.359    0.270    4.681  239.898
  473.750   59.679    0.347    0.259    4.635  240.298
  474.000   59.501    0.349    0.243    4.641  240.379
  474.250   54.180    0.357    0.234    4.777  239.992
  474.500   81.880    0.360    0.223    5.027  238.658
  474.750   70.257    0.361    0.241    5.137  238.757
  475.000   68.850    0.366    0.270    5.021  240.280
  475.250   62.734    0.357    0.257    4.809  241.610
  475.500   72.635    0.352    0.260    4.744  243.240
  475.750   68.293    0.340    0.274    4.733  244.246
  476.000   75.509    0.339    0.244    4.686  244.643
  476.250   77.832    0.350    0.219    4.649  244.729
  476.500   72.631    0.362    0.218    4.578  244.735
  476.750   68.408    0.360    0.246    4.524  244.732
  477.000   74.461    0.354    0.240    4.439  244.539
  477.250   72.258    0.348    0.227    4.371  244.941
  477.500   61.002    0.350    0.250    4.320  246.148
  477.750   69.624    0.363    0.260    4.254  247.363
  478.000   70.901    0.370    0.241    4.205  248.280
  478.250   70.895    0.365    0.218    4.202  249.103
  478.500   70.168    0.352    0.225    4.184  250.524
  478.750   67.838    0.345    0.225    4.196  251.950
  479.000   65.392    0.353    0.224    4.217  253.267
  479.250   69.793    0.348    0.220    4.455  254.494
