~VERSION INFORMATION
 VERS.                 2.0:   CWLS LOG ASCII STANDARD -VERSION 2.0
 WRAP.                  NO:   ONE LINE PER DEPTH STEP
~WELL INFORMATION BLOCK
#MNEM.UNIT           DATA                    DESCRIPTION OF MNEMONIC
#---------    -------------------            -------------------------------
# Generated from Intellog Unique Number	CW_73_75/WELL/554
WELL.         GULF POC DROWNED 06-26         : Well_name    - WELL
LOC .         00/06-26-075-21W4/0            : Location     - LOCATION
UWI .         00/06-26-075-21W4/0            : Uwi          - UNIQUE WELL ID
ENTR.         JAYE                           : Entered      - ENTERED BY
SRVC.         SCHLUMBERGER                   : Scn          - SERVICE COMPANY
DATE.         2 MAR 78                       : Date         - LOG DATE
STRT.M        393.192                        : top_depth    - START DEPTH
STOP.M        594.442                        : bot_depth    - STOP DEPTH
STEP.M        0.25                           : increment    - STEP LENGTH
 NULL. -999.2500:NULL Value
~CURVE INFORMATION BLOCK
#MNEM UNIT       ERCB CURVE CODE    CURVE DESCRIPTION
#-----------   ------------------   ----------------------------------
DEPT.M        00 001 00 00         : DEPTH        - DEPTH
ILD .OHMM     00 120 00 00         : RESD         - DEEP RESISTIVITY (DIL)
NPHI.V/V      00 330 00 00         : PHIN         - NEUTRON POROSITY (SANDSTONE)
DPHI.V/V      00 890 00 00         : PHID         - DENSITY POROSITY (SANDSTONE)
GR  .API      00 310 00 00         : GR           - GAMMA RAY
CALI.MM       00 280 01 00         : CAL          - CALIPER
~PARAMETER INFORMATION
#MNEM.UNIT           DATA             DESCRIPTION OF MNEMONIC
#---------         -----------     ------------------------------
GL  .M        698.297              : gl           - GROUND LEVEL ELEVATION
EREF.M        702.412              : kb           - ELEVATION OF DEPTH REFERENCE
DATM.M        698.297              : datum        - DATUM ELEVATION
TDD .M        595.884              : tdd          - TOTAL DEPTH DRILLER
RUN .         ONE                  : Run          - RUN NUMBER
ENG .         VERRAIRES            : Engineer     - RECORDING ENGINEER
WIT .         BRINKMAN             : Witness      - WITNESSED BY
BASE.         EDM                  : Branch       - HOME BASE OF LOGGING UNIT
MUD .         GEL CHEM             : Mud_type     - MUD TYPE
MATR.         SANDSTONE            : Logunit      - NEUTRON MATRIX
TMAX.C        28.3333              : BHT          - MAXIMUM RECORDED TEMPERATURE
BHTD.M        590.702              : BHTDEP       - MAXIMUM RECORDED TEMPERATURE
RMT .C        15.5556              : MDTP         - TEMPERATURE OF MUD
MUDD.KG/M     1104                 : MWT          - MUD DENSITY
NEUT.         1                    : NEUTRON      - NEUTRON TYPE
RESI.         0                    : RESIST       - RESISTIVITY TYPE
RM  .OHMM     3.39                 : RM           - RESISTIVITY OF MUD
RMC .OHMM     0                    : RMC          - RESISTIVITY OF MUD CAKE
RMF .OHMM     4.56                 : RMF          - RESISTIVITY OF MUD FILTRATE
SUFT.C        -17.7778             : SUFT         - SURFACE TEMPERATURE
~A  DEPTH     RESD     PHIN     PHID       GR      CAL
  393.192    2.688    0.522    0.228  106.119  167.039
  393.442    2.654    0.515    0.224  104.039  166.965
  393.692    2.644    0.503    0.217  102.205  166.158
  393.942    2.668    0.493    0.230   99.815  165.568
  394.192    2.779    0.483    0.237   96.870  165.487
  394.442    2.948    0.474    0.225   91.641  165.414
  394.692    3.192    0.485    0.229   88.016  165.450
  394.942    3.502    0.495    0.236   84.888  165.061
  395.192    4.009    0.503    0.248   78.299  164.362
  395.442    4.614    0.490    0.271   64.181  163.551
  395.692    5.321    0.423    0.233   58.089  161.917
  395.942    6.091    0.438    0.258   57.921  161.003
  396.192    6.571    0.447    0.278   59.544  159.675
  396.442    6.632    0.453    0.290   61.786  159.497
  396.692    6.390    0.459    0.296   63.779  159.630
  396.942    6.249    0.455    0.296   64.908  159.973
  397.192    6.237    0.444    0.281   64.987  160.322
  397.442    6.365    0.435    0.268   65.623  160.558
  397.692    6.496    0.446    0.286   66.691  160.910
  397.942    6.629    0.443    0.319   66.276  161.355
  398.192    6.715    0.434    0.265   66.109  161.600
  398.442    6.727    0.431    0.240   68.352  161.620
  398.692    6.652    0.446    0.227   71.394  161.547
  398.942    6.470    0.460    0.215   75.486  161.472
  399.192    6.374    0.463    0.257   76.986  161.400
  399.442    6.245    0.456    0.279   78.239  161.539
  399.692    6.074    0.442    0.284   79.922  161.776
  399.942    5.874    0.430    0.235   90.374  162.014
  400.192    5.702    0.445    0.244   90.022  162.373
  400.442    5.618    0.467    0.253   85.595  162.508
  400.692    5.545    0.463    0.254   86.045  162.427
  400.942    5.484    0.470    0.252   84.089  162.354
  401.192    5.383    0.474    0.236   79.107  161.969
  401.442    5.216    0.470    0.251   74.432  161.788
  401.692    5.026    0.460    0.273   72.723  161.921
  401.942    4.789    0.453    0.271   75.766  162.058
  402.192    4.632    0.459    0.251   82.513  161.981
  402.442    4.563    0.452    0.248   90.925  161.905
  402.692    4.657    0.471    0.224   97.611  163.400
  402.942    4.814    0.457    0.231   83.369  167.610
  403.192    5.014    0.439    0.251   74.065  169.002
  403.442    5.184    0.420    0.290   67.293  166.836
  403.692    5.419    0.399    0.292   72.312  164.362
  403.942    5.613    0.406    0.259   75.416  163.341
  404.192    5.792    0.425    0.242   72.100  161.707
  404.442    5.988    0.425    0.255   75.268  160.689
  404.692    6.066    0.428    0.207   83.804  160.508
  404.942    6.032    0.464    0.180   94.317  159.911
  405.192    6.031    0.480    0.222   92.174  159.214
  405.442    6.144    0.478    0.252   85.834  157.882
  405.692    6.281    0.442    0.279   76.840  155.822
  405.942    6.518    0.432    0.285   67.351  154.494
  406.192    6.726    0.427    0.296   61.814  154.738
  406.442    6.928    0.421    0.303   61.029  155.709
  406.692    7.096    0.417    0.306   64.998  156.469
  406.942    7.282    0.416    0.293   72.549  157.236
  407.192    7.404    0.413    0.275   74.111  157.784
  407.442    7.459    0.412    0.257   71.905  158.651
  407.692    7.472    0.428    0.256   70.380  159.519
  407.942    7.416    0.425    0.258   70.891  160.283
  408.192    7.213    0.420    0.251   75.911  161.152
  408.442    6.873    0.421    0.238   82.350  162.128
  408.692    6.538    0.423    0.234   87.245  162.469
  408.942    6.265    0.427    0.217   91.521  162.812
  409.192    6.093    0.441    0.232   97.283  163.051
  409.442    5.980    0.448    0.240   90.878  163.497
  409.692    5.958    0.456    0.249   84.662  163.742
  409.942    6.002    0.463    0.257   79.124  163.876
  410.192    6.091    0.456    0.269   76.736  163.798
  410.442    6.297    0.448    0.268   79.161  163.835
  410.692    6.534    0.437    0.255   87.882  163.654
  410.942    6.793    0.441    0.235   96.854  163.684
  411.192    6.945    0.448    0.278   98.599  163.402
  411.442    7.193    0.434    0.241   95.531  163.017
  411.692    7.396    0.408    0.224   92.709  162.832
  411.942    7.660    0.400    0.207   96.123  162.653
  412.192    7.890    0.405    0.181  102.252  162.689
  412.442    8.066    0.409    0.230   96.714  162.924
  412.692    8.186    0.405    0.246   91.177  162.753
  412.942    8.231    0.387    0.243   88.787  162.467
  413.192    8.246    0.377    0.233   87.386  162.289
  413.442    8.215    0.369    0.214   84.317  162.112
  413.692    8.200    0.376    0.219   77.112  162.559
  413.942    7.945    0.395    0.249   62.994  162.376
  414.192    7.473    0.405    0.279   48.320  161.467
  414.442    7.175    0.393    0.306   41.979  159.616
  414.692    6.837    0.388    0.313   36.688  157.768
  414.942    6.515    0.379    0.331   34.484  157.275
  415.192    6.371    0.364    0.316   34.256  157.308
  415.442    6.208    0.356    0.313   33.903  157.754
  415.692    6.116    0.354    0.312   36.762  158.624
  415.942    6.026    0.363    0.319   41.223  159.591
  416.192    5.959    0.381    0.323   40.318  160.674
  416.442    5.937    0.393    0.321   38.235  161.435
  416.692    5.936    0.398    0.304   36.154  162.202
  416.942    5.969    0.390    0.300   34.630  162.223
  417.192    6.046    0.378    0.307   34.215  162.045
  417.442    6.046    0.373    0.303   36.767  161.558
  417.692    6.068    0.379    0.308   39.376  161.169
  417.942    6.056    0.380    0.317   46.184  160.156
  418.192    6.067    0.370    0.317   59.907  159.350
  418.442    6.089    0.359    0.304   70.234  158.856
  418.692    6.134    0.373    0.282   83.895  158.992
  418.942    6.202    0.390    0.227   91.260  159.549
  419.192    6.271    0.419    0.196   93.685  159.995
  419.442    6.329    0.435    0.194   93.705  160.548
  419.692    6.388    0.439    0.214   95.390  160.995
  419.942    6.375    0.436    0.229   97.323  161.448
  420.192    6.166    0.432    0.240   98.205  161.787
  420.442    5.757    0.440    0.226   99.889  162.661
  420.692    5.257    0.446    0.201  103.857  164.672
  420.942    4.731    0.458    0.223  109.803  167.838
  421.192    4.117    0.475    0.246  114.326  166.301
  421.442    3.491    0.505    0.204  117.863  165.285
  421.692    3.095    0.545    0.206  119.734  164.271
  421.942    2.895    0.548    0.197  115.801  163.155
  422.192    2.703    0.540    0.206  121.066  162.664
  422.442    2.644    0.538    0.217  122.257  162.068
  422.692    2.614    0.540    0.166  120.300  161.572
  422.942    2.604    0.546    0.117  118.219  161.298
  423.192    2.638    0.552    0.164  119.595  161.425
  423.442    2.692    0.534    0.153  126.219  161.876
  423.692    2.851    0.545    0.172  128.336  163.057
  423.942    3.059    0.517    0.221  125.022  165.699
  424.192    3.399    0.489    0.212  118.866  168.655
  424.442    4.129    0.465    0.210  117.156  170.152
  424.692    4.761    0.444    0.224  120.198  170.286
  424.942    5.213    0.445    0.199  123.241  168.231
  425.192    5.429    0.477    0.218  119.680  166.899
  425.442    5.429    0.482    0.223  113.093  172.053
  425.692    5.429    0.469    0.230  101.998  177.307
  425.942    5.561    0.466    0.230   88.868  182.460
  426.192    5.856    0.469    0.270   81.416  174.338
  426.442    6.111    0.457    0.289   78.902  166.738
  426.692    6.317    0.442    0.282   85.403  163.214
  426.942    6.471    0.428    0.275   91.841  160.945
  427.192    6.640    0.425    0.260   98.404  159.305
  427.442    6.689    0.447    0.271   99.409  158.396
  427.692    6.714    0.468    0.263   91.032  158.118
  427.942    6.664    0.483    0.274   85.001  158.352
  428.192    6.639    0.482    0.309   81.316  158.589
  428.442    6.589    0.471    0.305   79.788  158.831
  428.692    6.540    0.458    0.289   85.427  158.757
  428.942    6.528    0.448    0.276   89.517  158.687
  429.192    6.491    0.438    0.266   91.078  158.609
  429.442    6.431    0.428    0.260   91.655  159.267
