~VERSION INFORMATION
 VERS.                 2.0:   CWLS LOG ASCII STANDARD -VERSION 2.0
 WRAP.                  NO:   ONE LINE PER DEPTH STEP
~WELL INFORMATION BLOCK
#MNEM.UNIT           DATA                    DESCRIPTION OF MNEMONIC
#---------    -------------------            -------------------------------
# Generated from Intellog Unique Number	CS_73_76/WELL/1040
WELL.         ANDERSON EXPLORATION LTD       : Well_name    - WELL
LOC .         00/06-13-075-12W4/0            : Location     - LOCATION
UWI .         00/06-13-075-12W4/0            : Uwi          - UNIQUE WELL ID
ENTR.         SP                             : Entered      - ENTERED BY
SRVC.         SCHLUMBERGER                   : Scn          - SERVICE COMPANY
STRT.M        295                            : top_depth    - START DEPTH
STOP.M        533                            : bot_depth    - STOP DEPTH
STEP.M        0.25                           : increment    - STEP LENGTH
 NULL. -999.2500:NULL Value
~CURVE INFORMATION BLOCK
#MNEM UNIT       ERCB CURVE CODE    CURVE DESCRIPTION
#-----------   ------------------   ----------------------------------
DEPT.M        00 001 00 00         : DEPTH        - DEPTH
GR  .API      00 310 00 00         : GR           - GAMMA RAY
NPHI.V/V      00 330 00 00         : PHIN         - NEUTRON POROSITY (LIMESTONE)
DPHI.V/V      00 890 00 00         : PHID         - DENSITY POROSITY (LIMESTONE)
ILD .OHMM     00 120 00 00         : RESD         - DEEP RESISTIVITY (DIL)
~PARAMETER INFORMATION
#MNEM.UNIT           DATA             DESCRIPTION OF MNEMONIC
#---------         -----------     ------------------------------
GL  .M        672.6                : gl           - GROUND LEVEL ELEVATION
EREF.M        676.1                : kb           - ELEVATION OF DEPTH REFERENCE
DATM.M        672.6                : datum        - DATUM ELEVATION
TDD .M        533                  : tdd          - TOTAL DEPTH DRILLER
RUN .         ONE                  : Run          - RUN NUMBER
ENG .         BILL                 : Engineer     - RECORDING ENGINEER
WIT .         JIM                  : Witness      - WITNESSED BY
MUD .         GEL                  : Mud_type     - MUD TYPE
MATR.         LIMESTONE            : Logunit      - NEUTRON MATRIX
TMAX.C        23.5                 : BHT          - MAXIMUM RECORDED TEMPERATURE
BHTD.M        533                  : BHTDEP       - MAXIMUM RECORDED TEMPERATURE
MATR.         1                    : LOGUNIT      - NEUTRON MATRIX
RMT .C        25                   : MDTP         - TEMPERATURE OF MUD
NEUT.         1                    : NEUTRON      - NEUTRON TYPE
RESI.         0                    : RESIST       - RESISTIVITY TYPE
RMC .OHMM     0.25                 : RMC          - RESISTIVITY OF MUD CAKE
RMF .OHMM     0.25                 : RMF          - RESISTIVITY OF MUD FILTRATE
SUFT.C        15                   : SUFT         - SURFACE TEMPERATURE
~A  DEPTH       GR     PHIN     PHID     RESD
# ...
  469.000   97.368    0.480    0.186    3.094
  469.250   97.976    0.495    0.189    3.270
  469.500   94.367    0.509    0.198    3.456
  469.750   91.964    0.514    0.152    3.520
  470.000   92.573    0.497    0.131    3.651
  470.250   95.593    0.487    0.146    3.718
  470.500   98.011    0.473    0.176    3.787
  470.750   98.617    0.496    0.193    3.786
  471.000   93.204    0.504    0.208    3.715
  471.250   90.799    0.517    0.191    3.646
  471.500   90.206    0.530    0.182    3.782
  471.750   90.813    0.498    0.177    4.226
  472.000   91.421    0.476    0.183    4.809
  472.250   92.032    0.469    0.178    5.679
  472.500   90.229    0.456    0.170    6.345
  472.750   86.621    0.441    0.170    7.089
  473.000   82.411    0.427    0.172    7.631
  473.250   76.395    0.409    0.183    7.917
  473.500   77.605    0.384    0.165    8.062
  473.750   79.418    0.400    0.132    8.211
  474.000   77.619    0.413    0.075    8.362
  474.250   77.624    0.404    0.030    9.341
  474.500   82.451    0.382    0.071   10.057
  474.750   89.686    0.407    0.126   11.444
  475.000   89.695    0.427    0.170   11.874
  475.250   89.098    0.422    0.218   12.549
  475.500   90.912    0.398    0.244   13.262
  475.750   91.520    0.404    0.245   13.506
  476.000   90.926    0.396    0.241   13.011
  476.250   93.946    0.388    0.236   12.304
  476.500   97.566    0.389    0.229   11.212
  476.750  101.790    0.393    0.218   10.409
  477.000  102.999    0.400    0.212   10.028
  477.250  105.417    0.405    0.206    9.309
  477.500  107.230    0.408    0.199    9.480
  477.750  108.442    0.412    0.198   10.989
  478.000  104.232    0.413    0.207   11.832
  478.250   98.815    0.416    0.217   12.739
  478.500   87.377    0.396    0.229   15.325
  478.750   77.746    0.363    0.242   17.121
  479.000   72.931    0.350    0.252   18.093
  479.250   68.117    0.349    0.259   18.089
  479.500   69.931    0.350    0.251   17.106
  479.750   74.157    0.352    0.236   16.480
  480.000   75.367    0.355    0.217   17.741
  480.250   75.373    0.360    0.210   20.950
  480.500   70.561    0.367    0.218   22.556
  480.750   69.966    0.377    0.235   25.199
  481.000   71.175    0.378    0.257   27.635
  481.250   67.570    0.385    0.263   29.206
  481.500   65.164    0.394    0.258   30.299
  481.750   62.159    0.386    0.279   29.735
  482.000   62.768    0.379    0.285   28.648
  482.250   66.392    0.375    0.284   26.107
  482.500   68.805    0.374    0.269   23.353
  482.750   73.635    0.383    0.252   21.680
  483.000   75.445    0.390    0.230   20.502
  483.250   78.464    0.369    0.212   19.387
  483.500   80.881    0.364    0.216   20.490
  483.750   80.887    0.366    0.206   22.471
  484.000   70.653    0.377    0.196   23.747
  484.250   64.634    0.381    0.217   23.305
  484.500   64.039    0.389    0.237   22.872
  484.750   68.866    0.383    0.248   19.355
  485.000   72.487    0.372    0.219   17.966
  485.250   72.493    0.369    0.166   18.297
  485.500   69.487    0.390    0.143   20.442
  485.750   67.686    0.396    0.155   23.701
  486.000   67.693    0.398    0.185   23.259
  486.250   74.327    0.404    0.214   17.941
  486.500   81.564    0.406    0.240   14.362
  486.750   87.594    0.384    0.235   11.712
  487.000   93.021    0.395    0.194    9.204
  487.250   98.451    0.414    0.115    7.934
  487.500   97.855    0.443    0.092    8.542
  487.750   91.837    0.477    0.119   13.566
  488.000   84.013    0.484    0.164   23.638
  488.250   78.598    0.436    0.206   41.188
  488.500   74.988    0.355    0.232   63.035
  488.750   70.778    0.374    0.266   74.445
  489.000   71.387    0.387    0.293   81.646
  489.250   67.779    0.390    0.309   87.898
  489.500   61.763    0.387    0.305   91.190
  489.750   57.551    0.386    0.297   80.077
  490.000   57.558    0.385    0.293   67.762
  490.250   59.371    0.385    0.292   58.415
  490.500   64.803    0.403    0.311   50.355
  490.750   67.218    0.414    0.305   45.048
  491.000   71.442    0.414    0.298   41.055
  491.250   73.254    0.419    0.289   39.549
  491.500   72.660    0.427    0.281   39.539
  491.750   72.062    0.431    0.281   35.370
  492.000   73.876    0.438    0.282   30.489
  492.250   79.910    0.433    0.283   25.801
  492.500   84.134    0.429    0.277   21.832
  492.750   87.754    0.427    0.238   19.531
  493.000   90.772    0.428    0.229   17.800
  493.250   93.189    0.411    0.221   15.629
  493.500   93.796    0.397    0.223   14.244
  493.750   96.214    0.389    0.218   12.508
  494.000   99.836    0.370    0.199   11.613
  494.250  101.044    0.369    0.188   10.583
  494.500  104.064    0.382    0.180    9.824
  494.750  105.878    0.387    0.169    9.464
  495.000  106.489    0.391    0.164    9.461
  495.250  105.891    0.397    0.156    9.997
  495.500  104.693    0.403    0.158   10.565
  495.750  104.097    0.384    0.182   10.761
  496.000  105.911    0.387    0.190   11.165
  496.250  108.330    0.392    0.205   11.799
  496.500  108.334    0.389    0.227   12.938
  496.750  103.520    0.372    0.221   13.929
  497.000   93.286    0.370    0.194   14.722
  497.250   80.642    0.381    0.182   15.559
  497.500   72.213    0.388    0.188   16.140
  497.750   71.017    0.396    0.190   15.264
  498.000   78.253    0.401    0.209   12.681
  498.250   84.884    0.413    0.216   11.135
  498.500   95.734    0.429    0.204   10.727
  498.750   96.345    0.415    0.173   11.334
  499.000   86.110    0.394    0.163   11.759
  499.250   80.694    0.360    0.171   12.200
  499.500   80.098    0.353    0.182   12.426
  499.750   80.707    0.353    0.182   13.376
  500.000   81.980    0.375    0.213   14.663
  500.250   82.582    0.364    0.209   15.216
  500.500   84.400    0.353    0.195   15.501
  500.750   86.217    0.345    0.197   15.790
  501.000   86.214    0.340    0.203   16.692
  501.250   80.136    0.347    0.216   17.322
  501.500   69.808    0.355    0.230   17.976
  501.750   63.124    0.361    0.252   18.312
  502.000   63.118    0.368    0.237   19.003
  502.250   62.507    0.369    0.232   20.089
  502.500   58.858    0.375    0.209   20.847
  502.750   54.603    0.379    0.243   21.633
  503.000   55.813    0.373    0.266   22.450
  503.250   60.058    0.368    0.262   23.297
  503.500   63.090    0.363    0.255   24.176
  503.750   64.909    0.373    0.260   24.628
  504.000   66.118    0.385    0.245   27.017
  504.250   61.257    0.388    0.260   29.638
  504.500   55.179    0.388    0.267   30.756
  504.750   55.782    0.392    0.256   31.331
  505.000   58.205    0.401    0.266   31.917
  505.250   60.630    0.398    0.277   30.756
  505.500   62.448    0.386    0.261   28.036
  505.750   62.444    0.375    0.255   26.521
  506.000   68.510    0.366    0.249   24.628
  506.250   70.328    0.360    0.230   22.450
  506.500   71.539    0.366    0.213   22.450
  506.750   71.535    0.369    0.226   22.450
  507.000   68.494    0.374    0.239   22.869
  507.250   64.845    0.375    0.228   22.450
  507.500   63.020    0.370    0.238   20.847
  507.750   62.406    0.364    0.234   22.038
  508.000   61.796    0.362    0.228   22.038
  508.250   58.147    0.367    0.225   23.297
  508.500   54.499    0.374    0.230   24.176
  508.750   51.459    0.383    0.246   26.035
  509.000   49.632    0.385    0.255   27.017
  509.250   50.840    0.380    0.240   27.522
  509.500   51.443    0.371    0.233   25.088
  509.750   52.046    0.366    0.231   22.450
  510.000   52.043    0.363    0.220   21.633
  510.250   52.646    0.372    0.223   22.038
  510.500   52.641    0.377    0.229   22.869
  510.750   52.030    0.385    0.243   24.176
  511.000   48.381    0.380    0.261   25.088
  511.250   48.984    0.377    0.272   25.088
  511.500   52.015    0.373    0.260   23.297
  511.750   53.225    0.373    0.248   22.869
  512.000   54.437    0.373    0.235   24.176
  512.250   55.645    0.375    0.227   26.521
