~VERSION INFORMATION
 VERS.                 2.0:   CWLS LOG ASCII STANDARD -VERSION 2.0
 WRAP.                  NO:   ONE LINE PER DEPTH STEP
~WELL INFORMATION BLOCK
#MNEM.UNIT           DATA                    DESCRIPTION OF MNEMONIC
#---------    -------------------            -------------------------------
# Generated from Intellog Unique Number	CS_71_72/WELL/804
WELL.         BVX ET AL LYLE                 : Well_name    - WELL
LOC .         00/07-07-072-16W4/0            : Location     - LOCATION
UWI .         00/07-07-072-16W4/0            : Uwi          - UNIQUE WELL ID
ENTR.         SP                             : Entered      - ENTERED BY
SRVC.         SCHLUMBERGER                   : Scn          - SERVICE COMPANY
STRT.M        274.32                         : top_depth    - START DEPTH
STOP.M        450.82                         : bot_depth    - STOP DEPTH
STEP.M        0.25                           : increment    - STEP LENGTH
 NULL. -999.2500:NULL Value
~CURVE INFORMATION BLOCK
#MNEM UNIT       ERCB CURVE CODE    CURVE DESCRIPTION
#-----------   ------------------   ----------------------------------
DEPT.M        00 001 00 00         : DEPTH        - DEPTH
GR  .API      00 310 00 00         : GR           - GAMMA RAY
DPHI.V/V      00 890 00 00         : PHID         - DENSITY POROSITY (SANDSTONE)
NPHI.V/V      00 330 00 00         : PHIN         - NEUTRON POROSITY (SANDSTONE)
ILD .OHMM     00 120 00 00         : RESD         - DEEP RESISTIVITY (DIL)
~PARAMETER INFORMATION
#MNEM.UNIT           DATA             DESCRIPTION OF MNEMONIC
#---------         -----------     ------------------------------
GL  .M        594.36               : gl           - GROUND LEVEL ELEVATION
EREF.M        597.408              : kb           - ELEVATION OF DEPTH REFERENCE
DATM.M        594.36               : datum        - DATUM ELEVATION
TDD .M        454.152              : tdd          - TOTAL DEPTH DRILLER
RUN .         ONE                  : Run          - RUN NUMBER
ENG .         BILL                 : Engineer     - RECORDING ENGINEER
WIT .         JIM                  : Witness      - WITNESSED BY
MUD .         GEL                  : Mud_type     - MUD TYPE
MATR.         SANDSTONE            : Logunit      - NEUTRON MATRIX
TMAX.C        25.5556              : BHT          - MAXIMUM RECORDED TEMPERATURE
BHTD.M        454.152              : BHTDEP       - MAXIMUM RECORDED TEMPERATURE
MATR.         1                    : LOGUNIT      - NEUTRON MATRIX
RMT .C        25                   : MDTP         - TEMPERATURE OF MUD
NEUT.         1                    : NEUTRON      - NEUTRON TYPE
RESI.         0                    : RESIST       - RESISTIVITY TYPE
RMC .OHMM     0.25                 : RMC          - RESISTIVITY OF MUD CAKE
RMF .OHMM     0.25                 : RMF          - RESISTIVITY OF MUD FILTRATE
SUFT.C        15                   : SUFT         - SURFACE TEMPERATURE
~A  DEPTH       GR     PHID     PHIN     RESD
# ...
  317.820   70.404    0.298    0.484    8.708
  318.070   62.475    0.286    0.485    8.225
  318.320   61.714    0.277    0.505    7.674
  318.570   65.859    0.265    0.516    7.045
  318.820   70.968    0.247    0.481    6.516
  319.070   73.764    0.249    0.475    6.202
  319.320   79.297    0.235    0.498    6.006
  319.570   85.082    0.213    0.507    5.814
  319.820   89.714    0.207    0.521    5.732
  320.070   93.492    0.223    0.548    5.643
  320.320   95.236    0.233    0.547    5.785
  320.570   91.656    0.244    0.546    6.013
  320.820   91.236    0.237    0.565    6.231
  321.070   91.469    0.253    0.586    6.438
  321.320   89.097    0.287    0.533    6.382
  321.570   82.268    0.286    0.474    6.711
  321.820   77.663    0.288    0.482    6.837
  322.070   71.129    0.290    0.466    6.972
  322.320   66.943    0.290    0.455    7.110
  322.570   72.891    0.276    0.478    7.112
  322.820   77.249    0.253    0.475    7.107
  323.070   81.687    0.235    0.503    6.905
  323.320   83.993    0.254    0.526    6.430
  323.570   85.481    0.268    0.534    6.049
  323.820   86.885    0.250    0.519    5.503
  324.070   89.480    0.240    0.513    5.102
  324.320   92.731    0.237    0.554    5.084
  324.570   94.157    0.235    0.582    5.385
  324.820   94.475    0.229    0.609    5.982
  325.070   92.027    0.225    0.587    6.745
  325.320   88.248    0.230    0.561    7.613
  325.570   84.800    0.253    0.521    8.553
  325.820   80.879    0.266    0.515    9.781
  326.070   78.534    0.267    0.534   11.381
  326.320   76.165    0.267    0.567   12.257
  326.570   72.790    0.304    0.591   13.616
  326.820   65.418    0.336    0.589   14.421
  327.070   59.975    0.348    0.533   14.433
  327.320   52.140    0.343    0.504   12.256
  327.570   50.276    0.338    0.488   10.645
  327.820   52.850    0.340    0.476    9.369
  328.070   54.793    0.334    0.480    8.532
  328.320   55.134    0.322    0.492    7.894
  328.570   52.897    0.329    0.487    7.674
  328.820   49.132    0.325    0.478    7.330
  329.070   47.186    0.328    0.482    7.228
  329.320   50.344    0.335    0.492    7.295
  329.570   52.986    0.339    0.489    7.206
  329.820   53.123    0.335    0.483    7.119
  330.070   48.916    0.335    0.501    7.137
  330.320   49.404    0.330    0.500    7.045
  330.570   52.492    0.333    0.468    7.056
  330.820   55.604    0.330    0.454    7.059
  331.070   57.389    0.323    0.480    7.070
  331.320   57.680    0.329    0.487    6.986
  331.570   57.350    0.324    0.487    6.991
  331.820   56.441    0.320    0.483    6.991
  332.070   57.038    0.323    0.489    6.999
  332.320   58.820    0.338    0.503    6.912
  332.570   57.324    0.338    0.510    6.919
  332.820   55.403    0.348    0.499    6.996
  333.070   56.207    0.335    0.478    7.006
  333.320   57.903    0.328    0.475    7.012
  333.570   60.073    0.324    0.468    7.014
  333.820   59.746    0.338    0.465    7.018
  334.070   57.707    0.347    0.474    7.021
  334.320   55.829    0.347    0.487    7.024
  334.570   53.296    0.338    0.497    7.029
  334.820   52.997    0.336    0.482    7.028
  335.070   56.302    0.339    0.468    7.122
  335.320   59.390    0.334    0.457    7.133
  335.570   62.098    0.331    0.447    7.201
  335.820   57.394    0.334    0.481    7.210
  336.070   54.367    0.333    0.472    7.119
  336.320   57.743    0.330    0.465    7.129
  336.570   59.020    0.323    0.482    7.132
  336.820   59.637    0.317    0.487    7.135
  337.070   58.826    0.317    0.498    7.138
  337.320   56.798    0.328    0.482    7.140
  337.570   55.482    0.322    0.468    7.144
  337.820   54.069    0.324    0.476    7.148
  338.070   53.883    0.328    0.481    7.152
  338.320   54.856    0.322    0.479    7.151
  338.570   56.578    0.319    0.486    7.243
  338.820   55.758    0.317    0.491    7.236
  339.070   53.804    0.323    0.479    7.311
  339.320   52.960    0.332    0.472    7.284
  339.570   55.203    0.338    0.486    7.251
  339.820   56.103    0.342    0.495    7.251
  340.070   56.362    0.343    0.491    7.255
  340.320   54.905    0.339    0.489    7.258
  340.570   52.282    0.335    0.489    7.261
  340.820   51.374    0.333    0.487    7.258
  341.070   51.428    0.333    0.484    7.346
  341.320   51.796    0.334    0.467    7.348
  341.570   53.014    0.335    0.459    7.353
  341.820   55.538    0.339    0.486    7.356
  342.070   56.521    0.344    0.488    7.362
  342.320   57.460    0.345    0.481    7.374
  342.570   57.039    0.345    0.499    7.449
  342.820   54.597    0.343    0.513    7.446
  343.070   54.416    0.334    0.506    7.446
  343.320   54.250    0.329    0.480    7.371
  343.570   55.139    0.320    0.477    7.377
  343.820   55.094    0.314    0.460    7.381
  344.070   56.794    0.318    0.479    7.439
  344.320   57.040    0.328    0.459    7.466
  344.570   57.488    0.319    0.462    7.470
  344.820   57.129    0.319    0.484    7.426
  345.070   56.842    0.329    0.497    7.403
  345.320   55.735    0.332    0.478    7.329
  345.570   56.607    0.331    0.508    7.298
  345.820   58.314    0.326    0.519    7.065
  346.070   59.807    0.324    0.496    6.811
  346.320   60.828    0.329    0.461    6.576
  346.570   61.138    0.322    0.454    6.453
  346.820   61.826    0.309    0.457    6.306
  347.070   61.113    0.290    0.501    6.198
  347.320   60.552    0.285    0.560    6.156
  347.570   59.190    0.285    0.526    6.158
  347.820   57.935    0.305    0.495    6.164
  348.070   55.871    0.311    0.498    6.162
  348.320   56.088    0.311    0.500    6.248
  348.570   57.947    0.307    0.542    6.338
  348.820   59.970    0.301    0.569    6.332
  349.070   60.056    0.301    0.575    6.337
  349.320   59.387    0.317    0.515    6.340
  349.570   59.328    0.327    0.496    6.343
  349.820   60.951    0.326    0.510    6.353
  350.070   61.855    0.319    0.502    6.270
  350.320   63.077    0.314    0.515    6.220
  350.570   62.880    0.310    0.528    6.205
  350.820   62.408    0.307    0.504    6.122
  351.070   64.334    0.304    0.492    6.076
  351.320   66.135    0.303    0.495    6.037
  351.570   65.523    0.319    0.509    5.899
  351.820   64.841    0.325    0.514    5.723
  352.070   65.029    0.331    0.499    5.642
  352.320   68.084    0.318    0.496    5.504
  352.570   70.922    0.301    0.522    5.418
  352.820   74.508    0.290    0.545    5.431
  353.070   75.844    0.290    0.534    5.495
  353.320   76.855    0.306    0.508    5.535
  353.570   73.235    0.298    0.485    5.679
  353.820   71.508    0.290    0.491    5.681
  354.070   71.186    0.279    0.510    5.685
  354.320   72.602    0.277    0.547    5.688
  354.570   72.625    0.295    0.547    5.698
  354.820   67.413    0.318    0.522    5.599
  355.070   65.076    0.330    0.510    5.469
  355.320   65.213    0.316    0.487    5.465
  355.570   66.207    0.308    0.482    5.466
  355.820   67.677    0.304    0.493    5.471
  356.070   68.759    0.300    0.516    5.491
  356.320   69.756    0.297    0.545    5.718
  356.570   69.757    0.297    0.566    5.799
  356.820   68.549    0.299    0.547    5.805
  357.070   64.482    0.306    0.524    5.724
  357.320   62.494    0.311    0.511    5.728
  357.570   61.401    0.316    0.503    5.729
  357.820   61.947    0.318    0.487    5.734
  358.070   63.936    0.320    0.478    5.777
  358.320   65.147    0.324    0.474    5.816
  358.570   65.683    0.324    0.478    5.821
  358.820   64.282    0.321    0.483    5.831
  359.070   61.922    0.318    0.468    5.745
  359.320   58.821    0.315    0.470    5.759
  359.570   58.850    0.309    0.496    5.639
  359.820   62.121    0.309    0.478    5.599
  360.070   64.858    0.324    0.500    5.552
  360.320   64.043    0.319    0.517    5.404
  360.570   61.592    0.312    0.539    5.217
  360.820   60.201    0.315    0.550    5.098
  361.070   60.655    0.307    0.531    4.874
