~VERSION INFORMATION
 VERS.                 2.0:   CWLS LOG ASCII STANDARD -VERSION 2.0
 WRAP.                  NO:   ONE LINE PER DEPTH STEP
~WELL INFORMATION BLOCK
#MNEM.UNIT           DATA                    DESCRIPTION OF MNEMONIC
#---------    -------------------            -------------------------------
# Generated from Intellog Unique Number	CW_82_90/WELL/3068
WELL.         07-36-086-22W4                 : Well_name    - WELL
LOC .         00/07-36-086-22W4/0            : Location     - LOCATION
UWI .         00/07-36-086-22W4/0            : Uwi          - UNIQUE WELL ID
ENTR.         MAX                            : Entered      - ENTERED BY
SRVC.         SCHLUMBERGER                   : Scn          - SERVICE COMPANY
STRT.M        152.4                          : top_depth    - START DEPTH
STOP.M        350.4                          : bot_depth    - STOP DEPTH
STEP.M        0.25                           : increment    - STEP LENGTH
 NULL. -999.2500:NULL Value
~CURVE INFORMATION BLOCK
#MNEM UNIT       ERCB CURVE CODE    CURVE DESCRIPTION
#-----------   ------------------   ----------------------------------
DEPT.M        00 001 00 00         : DEPTH        - DEPTH
ILD .OHMM     00 120 00 00         : RESD         - DEEP RESISTIVITY (DIL)
NPHI.V/V      00 330 00 00         : PHIN         - NEUTRON POROSITY (SANDSTONE)
DPHI.V/V      00 890 00 00         : PHID         - DENSITY POROSITY (SANDSTONE)
CALI.MM       00 280 01 00         : CAL          - CALIPER
GR  .API      00 310 00 00         : GR           - GAMMA RAY
~PARAMETER INFORMATION
#MNEM.UNIT           DATA             DESCRIPTION OF MNEMONIC
#---------         -----------     ------------------------------
GL  .M        567.842              : gl           - GROUND LEVEL ELEVATION
EREF.M        571.195              : kb           - ELEVATION OF DEPTH REFERENCE
DATM.M        567.842              : datum        - DATUM ELEVATION
TDD .M        350.215              : tdd          - TOTAL DEPTH DRILLER
RUN .         ONE                  : Run          - RUN NUMBER
ENG .         BILL                 : Engineer     - RECORDING ENGINEER
WIT .         JIM                  : Witness      - WITNESSED BY
MUD .         GEL                  : Mud_type     - MUD TYPE
MATR.         SANDSTONE            : Logunit      - NEUTRON MATRIX
TMAX.C        15.5556              : BHT          - MAXIMUM RECORDED TEMPERATURE
BHTD.M        350.215              : BHTDEP       - MAXIMUM RECORDED TEMPERATURE
MATR.         1                    : LOGUNIT      - NEUTRON MATRIX
RMT .C        9.44444              : MDTP         - TEMPERATURE OF MUD
NEUT.         1                    : NEUTRON      - NEUTRON TYPE
RESI.         0                    : RESIST       - RESISTIVITY TYPE
RMC .OHMM     7.05                 : RMC          - RESISTIVITY OF MUD CAKE
RMF .OHMM     7.05                 : RMF          - RESISTIVITY OF MUD FILTRATE
SUFT.C        -23.3333             : SUFT         - SURFACE TEMPERATURE
~A  DEPTH     RESD     PHIN     PHID      CAL       GR
# ...
  188.900   20.867    0.482    0.356  225.173   56.810
  189.150   19.944    0.485    0.330  225.656   58.845
  189.400   18.724    0.495    0.319  227.127   60.004
  189.650   17.265    0.507    0.309  229.092   60.874
  189.900   15.777    0.521    0.321  231.547   61.741
  190.150   14.945    0.540    0.332  231.537   61.735
  190.400   14.673    0.530    0.320  231.529   61.730
  190.650   15.620    0.542    0.302  231.518   62.305
  190.900   16.929    0.514    0.288  232.000   62.591
  191.150   19.018    0.475    0.278  231.990   62.876
  191.400   18.177    0.446    0.270  231.486   67.244
  191.650   10.894    0.462    0.254  230.981   87.939
  191.900    8.395    0.490    0.234  228.502   99.887
  192.150    6.297    0.515    0.223  227.009  105.420
  192.400    5.404    0.522    0.217  227.000  105.122
  192.650    5.165    0.527    0.209  227.483  102.783
  192.900    5.072    0.547    0.212  228.460  101.902
  193.150    5.303    0.559    0.215  229.436  100.439
  193.400    5.957    0.551    0.245  229.426   90.811
  193.650    8.226    0.530    0.259  229.907   68.645
  193.900   10.385    0.497    0.279  230.389   58.724
  194.150   13.347    0.472    0.297  229.888   59.011
  194.400   19.451    0.473    0.305  230.864   60.754
  194.650   21.851    0.504    0.315  231.840   62.205
  194.900   23.052    0.510    0.332  226.891   61.616
  195.150   24.758    0.497    0.349  225.401   58.986
  195.400   26.120    0.487    0.344  223.415   57.520
  195.650   27.309    0.478    0.335  222.909   57.224
  195.900   28.045    0.481    0.333  222.901   55.466
  196.150   28.038    0.477    0.335  223.383   55.170
  196.400   29.051    0.472    0.343  223.865   56.037
  196.650   29.304    0.467    0.354  224.349   56.324
  196.900   29.294    0.460    0.347  224.339   56.901
  197.150   29.283    0.469    0.345  225.316   56.603
  197.400   28.752    0.490    0.340  225.304   56.305
  197.650   28.743    0.504    0.343  225.294   56.588
  197.900   28.478    0.501    0.337  225.283   56.876
  198.150   28.461    0.504    0.340  224.780   57.452
  198.400   28.456    0.502    0.347  224.274   57.154
  198.650   28.442    0.497    0.337  224.759   56.273
  198.900   28.438    0.488    0.330  224.253   56.267
  199.150   28.430    0.492    0.335  223.256   56.260
  199.400   28.676    0.496    0.332  223.246   55.963
  199.650   28.924    0.494    0.330  223.728   56.247
  199.900   29.176    0.493    0.330  226.186   56.824
  200.150   29.427    0.497    0.329  228.643   57.986
  200.400   29.952    0.499    0.324  229.124   59.437
  200.650   31.036    0.492    0.304  226.648   59.721
  200.900   33.634    0.473    0.279  224.166   56.799
  201.150   35.805    0.429    0.257  224.157   56.211
  201.400   41.321    0.351    0.229  224.147   56.205
  201.650   50.324    0.177    0.070  224.136   55.615
  201.900   72.682    0.159    0.028  224.619   52.984
  202.150  123.383    0.151    0.016  224.609   50.062
  202.400  162.910    0.144    0.039  225.091   46.266
  202.650  227.000    0.133    0.029  225.574   43.051
  202.900  330.807    0.126    0.018  225.564   43.337
  203.150  413.852    0.119    0.008  226.048   43.622
  203.400  436.626    0.105    0.006  226.529   41.867
  203.650  499.366    0.102    0.016  227.011   40.403
  203.900  566.065    0.105    0.018  227.003   40.688
  204.150  591.833    0.108    0.011  226.498   42.430
  204.400  618.798    0.108   -0.002  226.488   43.008
  204.650  670.613    0.108   -0.003  226.478   41.835
  204.900  733.349    0.113    0.004  226.466   41.828
  205.150  746.362    0.127    0.021  226.456   44.156
  205.400  451.374    0.149    0.029  226.445   47.648
  205.650  245.094    0.177    0.038  226.432   50.847
  205.900  185.508    0.219    0.068  226.423   52.008
  206.150  141.669    0.251    0.127  226.906   53.751
  206.400  104.379    0.301    0.231  227.389   55.787
  206.650   57.704    0.464    0.274  228.365   59.862
  206.900   32.477    0.486    0.323  228.850   61.605
  207.150   28.634    0.499    0.320  229.332   61.308
  207.400   28.112    0.500    0.309  227.838   61.008
  207.650   28.105    0.503    0.298  226.348   61.295
  207.900   28.096    0.487    0.288  225.351   59.539
  208.150   28.339    0.452    0.256  224.844   58.950
  208.400   28.329    0.431    0.216  224.834   59.235
  208.650   27.568    0.454    0.268  224.330   60.686
  208.900   26.349    0.486    0.321  224.320   61.846
  209.150   23.651    0.493    0.320  224.310   63.007
  209.400   22.810    0.487    0.318  224.300   65.333
  209.650   22.598    0.479    0.318  224.288   65.035
  209.900   22.188    0.475    0.324  224.276   65.320
  210.150   21.983    0.469    0.312  222.778   66.771
  210.400   21.779    0.492    0.305  225.243   68.224
  210.650   21.772    0.489    0.297  225.727   67.925
  210.900   21.960    0.475    0.283  225.224   66.462
  211.150   21.562    0.479    0.266  224.716   66.162
  211.400   20.608    0.487    0.231  224.707   67.906
  211.650   18.170    0.490    0.259  225.191   71.399
  211.900   12.799    0.501    0.298  225.180   78.682
  212.150    9.430    0.525    0.292  225.170   83.924
  212.400    6.127    0.537    0.273  225.159   90.041
  212.650    5.119    0.544    0.259  225.147   96.448
  212.900    4.276    0.569    0.236  224.645  101.399
  213.150    3.978    0.589    0.225  224.633  109.265
  213.400    3.906    0.613    0.227  224.623  110.133
  213.650    4.048    0.596    0.210  224.612  112.168
  213.900    4.309    0.562    0.201  225.095  112.745
  214.150    4.841    0.537    0.191  225.579  103.700
  214.400    5.199    0.560    0.181  224.580  102.528
  214.650    5.198    0.603    0.204  224.570  108.936
  214.900    5.058    0.598    0.212  224.063  108.346
  215.150    4.664    0.598    0.213  224.054  106.883
  215.400    4.339    0.588    0.221  224.043  106.876
  215.650    4.001    0.599    0.250  224.033  106.577
  215.900    3.859    0.600    0.266  224.023  103.656
  216.150    3.687    0.586    0.272  223.517  100.443
  216.400    3.621    0.577    0.273  223.507   98.687
  216.650    3.752    0.581    0.273  223.496   97.221
  216.900    3.888    0.594    0.272  223.978   95.176
  217.150    4.176    0.588    0.263  224.460   93.418
  217.400    4.526    0.572    0.246  224.453   92.247
  217.650    4.994    0.551    0.238  223.946   89.617
  217.900    5.660    0.527    0.245  223.936   86.986
  218.150    6.416    0.543    0.258  223.925   83.481
  218.400    7.273    0.544    0.251  223.915   80.851
  218.650    8.025    0.545    0.252  223.904   83.176
  218.900    8.775    0.539    0.278  223.893   85.795
  219.150    9.510    0.529    0.279  223.884   85.205
  219.400    9.172    0.535    0.263  223.870   82.866
  219.650    9.335    0.525    0.256  223.862   79.361
  219.900   10.026    0.514    0.260  223.359   76.731
  220.150   10.577    0.507    0.265  223.346   74.975
  220.400   11.361    0.497    0.268  223.336   77.010
  220.650   11.879    0.476    0.270  222.833   78.753
  220.900   12.645    0.483    0.270  222.822   78.455
  221.150   12.986    0.500    0.270  222.811   77.282
  221.400   12.412    0.499    0.267  222.799   76.110
  221.650   11.652    0.499    0.256  222.789   76.103
  221.900   11.543    0.492    0.198  223.765   79.013
  222.150   11.436    0.483    0.195  223.756   83.672
  222.400   10.736    0.486    0.224  224.239   87.747
  222.650    9.637    0.499    0.248  225.215   91.823
  222.900    8.573    0.517    0.246  225.696   94.732
  223.150    6.972    0.518    0.252  225.687   95.017
  223.400    6.258    0.540    0.263  224.688   92.971
  223.650    6.090    0.546    0.262  224.677   87.132
  223.900    6.087    0.533    0.266  225.161   83.628
  224.150    6.365    0.520    0.283  225.152   80.413
  224.400    6.714    0.516    0.290  224.648   79.824
  224.650    6.958    0.520    0.305  224.634   80.110
  224.900    7.209    0.543    0.288  225.117   81.562
  225.150    7.538    0.550    0.281  225.110   83.013
