~VERSION INFORMATION
 VERS.                 2.0:   CWLS LOG ASCII STANDARD -VERSION 2.0
 WRAP.                  NO:   ONE LINE PER DEPTH STEP
~WELL INFORMATION BLOCK
#MNEM.UNIT           DATA                    DESCRIPTION OF MNEMONIC
#---------    -------------------            -------------------------------
# Generated from Intellog Unique Number	CS_67_68/WELL/2187
WELL.         08-29-067-07W4                 : Well_name    - WELL
LOC .         00/08-29-067-07W4/0            : Location     - LOCATION
UWI .         00/08-29-067-07W4/0            : Uwi          - UNIQUE WELL ID
ENTR.         SP                             : Entered      - ENTERED BY
SRVC.         SCHLUMBERGER                   : Scn          - SERVICE COMPANY
STRT.M        365                            : top_depth    - START DEPTH
STOP.M        595                            : bot_depth    - STOP DEPTH
STEP.M        0.25                           : increment    - STEP LENGTH
 NULL. -999.2500:NULL Value
~CURVE INFORMATION BLOCK
#MNEM UNIT       ERCB CURVE CODE    CURVE DESCRIPTION
#-----------   ------------------   ----------------------------------
DEPT.M        00 001 00 00         : DEPTH        - DEPTH
ILD .OHMM     00 120 00 00         : RESD         - DEEP RESISTIVITY (DIL)
DPHI.V/V      00 890 00 00         : PHID         - DENSITY POROSITY (LIMESTONE)
NPHI.V/V      00 330 00 00         : PHIN         - NEUTRON POROSITY (LIMESTONE)
GR  .API      00 310 00 00         : GR           - GAMMA RAY
CALI.MM       00 280 01 00         : CAL          - CALIPER
~PARAMETER INFORMATION
#MNEM.UNIT           DATA             DESCRIPTION OF MNEMONIC
#---------         -----------     ------------------------------
GL  .M        686.24               : gl           - GROUND LEVEL ELEVATION
EREF.M        690.14               : kb           - ELEVATION OF DEPTH REFERENCE
DATM.M        690.14               : datum        - DATUM ELEVATION
TDD .M        612                  : tdd          - TOTAL DEPTH DRILLER
RUN .         ONE                  : Run          - RUN NUMBER
ENG .         BILL                 : Engineer     - RECORDING ENGINEER
WIT .         JIM                  : Witness      - WITNESSED BY
MUD .         GEL                  : Mud_type     - MUD TYPE
MATR.         LIMESTONE            : Logunit      - NEUTRON MATRIX
TMAX.C        25                   : BHT          - MAXIMUM RECORDED TEMPERATURE
BHTD.M        612                  : BHTDEP       - MAXIMUM RECORDED TEMPERATURE
MATR.         1                    : LOGUNIT      - NEUTRON MATRIX
RMT .C        25                   : MDTP         - TEMPERATURE OF MUD
NEUT.         1                    : NEUTRON      - NEUTRON TYPE
RESI.         0                    : RESIST       - RESISTIVITY TYPE
RMC .OHMM     0.25                 : RMC          - RESISTIVITY OF MUD CAKE
RMF .OHMM     0.25                 : RMF          - RESISTIVITY OF MUD FILTRATE
SUFT.C        15                   : SUFT         - SURFACE TEMPERATURE
~A  DEPTH     RESD     PHID     PHIN       GR      CAL
# ...
  438.000    5.383    0.302    0.405   88.998  166.617
  438.250    5.559    0.298    0.396   86.540  167.047
  438.500    5.675    0.279    0.386   87.046  167.379
  438.750    5.815    0.257    0.377   91.261  167.710
  439.000    5.926    0.245    0.371   95.412  167.829
  439.250    6.027    0.239    0.377   96.538  168.165
  439.500    6.153    0.269    0.397   90.617  168.387
  439.750    6.164    0.280    0.408   85.005  168.613
  440.000    6.128    0.282    0.418   82.668  168.633
  440.250    5.945    0.278    0.420   84.476  168.452
  440.500    5.778    0.265    0.413   86.030  168.469
  440.750    5.810    0.251    0.407   90.740  168.489
  441.000    5.887    0.239    0.413   96.194  168.713
  441.250    5.987    0.232    0.415   99.665  168.838
  441.500    6.055    0.241    0.411  104.498  168.963
  441.750    6.066    0.252    0.410  106.982  169.188
  442.000    6.042    0.252    0.414   99.579  169.621
  442.250    6.041    0.249    0.424   96.252  170.052
  442.500    5.938    0.245    0.420   95.462  170.695
  442.750    5.794    0.244    0.421   93.930  170.816
  443.000    5.589    0.244    0.436   96.721  171.351
  443.250    5.380    0.238    0.441  100.629  171.683
  443.500    5.239    0.240    0.429  102.185  172.112
  443.750    5.082    0.246    0.438  101.641  172.959
  444.000    4.977    0.237    0.441  108.451  173.390
  444.250    4.792    0.230    0.461  113.163  174.027
  444.500    4.596    0.230    0.476  115.894  175.598
  444.750    4.375    0.229    0.484  113.558  176.334
  445.000    4.164    0.223    0.475  111.344  177.490
  445.250    4.109    0.216    0.475  118.031  178.128
  445.500    4.109    0.210    0.469  122.617  178.663
  445.750    4.116    0.215    0.462  118.860  178.995
  446.000    4.139    0.223    0.452  115.720  179.219
  446.250    4.115    0.226    0.479  114.001  179.033
  446.500    4.037    0.221    0.501  112.716  178.745
  446.750    4.007    0.222    0.490  115.076  178.559
  447.000    4.060    0.245    0.463  111.257  176.518
  447.250    4.059    0.256    0.445  104.903  173.037
  447.500    3.842    0.264    0.441  100.218  170.278
  447.750    3.568    0.262    0.436  100.911  170.503
  448.000    3.277    0.251    0.444  103.148  171.862
  448.250    2.919    0.241    0.489  107.919  173.536
  448.500    2.656    0.234    0.505  116.213  174.582
  448.750    2.411    0.228    0.521  123.270  175.529
  449.000    2.282    0.224    0.540  127.980  176.275
  449.250    2.156    0.229    0.562  129.476  176.909
  449.500    2.064    0.259    0.576  131.096  177.653
  449.750    1.995    0.259    0.533  127.091  178.601
  450.000    1.957    0.249    0.542  122.776  179.855
  450.250    2.002    0.250    0.542  113.581  182.142
  450.500    2.063    0.244    0.525  108.710  186.900
  450.750    2.250    0.252    0.492  106.373  194.544
  451.000    2.487    0.273    0.467  106.571  200.847
  451.250    2.754    0.268    0.450  108.254  206.533
  451.500    3.126    0.258    0.447  110.182  211.085
  451.750    3.469    0.275    0.442  108.648  206.367
  452.000    3.741    0.289    0.462  104.581  196.191
  452.250    4.034    0.284    0.480  100.266  186.940
  452.500    4.310    0.274    0.483   96.755  178.617
  452.750    4.604    0.265    0.459   99.672  171.221
  453.000    4.827    0.277    0.446  101.848  168.048
  453.250    5.098    0.268    0.444  104.085  167.450
  453.500    5.195    0.259    0.438  106.201  167.058
  453.750    5.194    0.253    0.434  106.334  167.079
  454.000    5.174    0.259    0.428  101.898  167.099
  454.250    5.125    0.272    0.425   98.758  166.811
  454.500    5.086    0.283    0.430   97.721  166.629
  454.750    5.009    0.283    0.429   97.051  166.647
  455.000    4.859    0.282    0.428   96.383  166.571
  455.250    4.660    0.282    0.444   95.778  166.585
  455.500    4.487    0.291    0.457   93.750  166.403
  455.750    4.361    0.304    0.470   92.466  166.319
  456.000    4.262    0.311    0.465   92.848  166.233
  456.250    4.198    0.313    0.457   92.552  166.153
  456.500    4.134    0.317    0.449   90.895  165.657
  456.750    4.064    0.309    0.440   89.672  164.754
  457.000    3.995    0.303    0.438   88.449  164.153
  457.250    3.964    0.314    0.447   88.831  163.148
  457.500    3.919    0.326    0.450   87.669  162.958
  457.750    3.874    0.327    0.438   86.260  162.773
  458.000    3.852    0.320    0.424   84.915  162.384
  458.250    3.859    0.320    0.442   84.245  162.300
  458.500    3.925    0.326    0.461   83.638  162.011
  458.750    4.388    0.319    0.477   82.726  161.827
  459.000    5.653    0.274    0.494   81.871  162.051
  459.250    7.535    0.099    0.204   79.781  162.588
  459.500   10.313    0.037    0.175   69.287  163.534
  459.750   12.625    0.007    0.149   59.596  164.068
  460.000   12.792    0.000    0.152   54.108  164.398
  460.250   11.225    0.256    0.355   63.081  164.625
  460.500    8.199    0.287    0.396   70.944  164.544
  460.750    6.423    0.314    0.431   77.568  164.665
  461.000    5.458    0.326    0.461   84.565  164.792
  461.250    4.799    0.331    0.456   84.516  164.911
  461.500    4.164    0.335    0.445   84.281  164.934
  461.750    3.971    0.339    0.432   84.849  165.056
  462.000    3.911    0.333    0.440   84.613  165.180
  462.250    3.940    0.330    0.448   82.094  165.303
  462.500    4.030    0.330    0.454   81.363  165.735
  462.750    4.114    0.334    0.446   81.746  166.476
  463.000    4.216    0.315    0.434   86.023  166.909
  463.250    4.345    0.295    0.424   90.611  167.754
  463.500    4.487    0.274    0.413   93.896  168.702
  463.750    4.538    0.242    0.419   98.173  169.857
  464.000    4.606    0.231    0.435  103.068  171.008
  464.250    4.738    0.229    0.427  109.631  172.062
  464.500    4.911    0.223    0.408  118.358  172.800
  464.750    5.071    0.216    0.435  113.488  173.747
  465.000    5.167    0.212    0.448  111.460  174.798
  465.250    5.128    0.224    0.455  111.782  176.674
  465.500    4.890    0.230    0.462  112.474  178.448
  465.750    4.585    0.225    0.463  112.796  180.009
  466.000    4.398    0.224    0.466  111.141  182.917
  466.250    4.364    0.225    0.488  111.275  187.364
  466.500    4.388    0.231    0.500  113.451  192.226
  466.750    4.413    0.230    0.491  112.103  197.088
  467.000    4.421    0.228    0.490  110.941  202.981
  467.250    4.403    0.245    0.495  110.459  208.357
  467.500    4.378    0.265    0.505  110.101  213.527
  467.750    4.353    0.289    0.510  109.865  218.080
  468.000    4.271    0.294    0.489  111.422  210.993
  468.250    4.088    0.244    0.477  112.485  196.286
  468.500    3.906    0.243    0.481  110.396  199.705
  468.750    3.782    0.247    0.485  104.661  204.359
  469.000    3.662    0.239    0.471  109.741  206.031
  469.250    3.506    0.234    0.461  111.670  205.229
  469.500    3.369    0.231    0.468  111.990  204.525
  469.750    3.225    0.233    0.489  113.918  203.720
  470.000    3.111    0.238    0.496  113.871  204.565
  470.250    3.041    0.264    0.494  111.780  205.409
  470.500    3.018    0.277    0.501  108.393  204.296
  470.750    3.134    0.291    0.484  106.242  190.826
  471.000    3.496    0.287    0.441  105.389  179.616
  471.250    3.857    0.275    0.425  104.910  166.863
  471.500    4.113    0.274    0.437  104.364  163.486
  471.750    4.320    0.293    0.446  103.264  163.402
  472.000    4.461    0.310    0.454  101.237  163.320
  472.250    4.554    0.231    0.460   96.180  163.346
  472.500    4.614    0.159    0.459   88.961  163.463
  472.750    4.746    0.132    0.383   80.507  163.793
  473.000    4.966    0.291    0.378   70.691  164.122
  473.250    5.013    0.319    0.409   76.451  164.657
  473.500    4.682    0.330    0.432   82.151  164.782
  473.750    4.349    0.334    0.455   81.546  165.215
  474.000    4.108    0.335    0.435   80.631  165.440
  474.250    3.955    0.335    0.429   80.272  165.669
