~VERSION INFORMATION
 VERS.                 2.0:   CWLS LOG ASCII STANDARD -VERSION 2.0
 WRAP.                  NO:   ONE LINE PER DEPTH STEP
~WELL INFORMATION BLOCK
#MNEM.UNIT           DATA                    DESCRIPTION OF MNEMONIC
#---------    -------------------            -------------------------------
# Generated from Intellog Unique Number	CW_76_78/WELL/222
WELL.         06-36-076-25W4                 : Well_name    - WELL
LOC .         00/06-36-076-25W4/0            : Location     - LOCATION
UWI .         00/06-36-076-25W4/0            : Uwi          - UNIQUE WELL ID
ENTR.         JJ                             : Entered      - ENTERED BY
SRVC.         SCHLUMBERGER                   : Scn          - SERVICE COMPANY
DATE.         9 MAR 71                       : Date         - LOG DATE
STRT.M        676.656                        : top_depth    - START DEPTH
STOP.M        804.656                        : bot_depth    - STOP DEPTH
STEP.M        0.25                           : increment    - STEP LENGTH
 NULL. -999.2500:NULL Value
~CURVE INFORMATION BLOCK
#MNEM UNIT       ERCB CURVE CODE    CURVE DESCRIPTION
#-----------   ------------------   ----------------------------------
DEPT.M        00 001 00 00         : DEPTH        - DEPTH
DELT.US/F     00 520 00 00         : DELT         - SONIC TRAVEL TIME
GR  .API      00 310 00 00         : GR           - GAMMA RAY
CALI.MM       00 280 01 00         : CAL          - CALIPER
ILD .OHMM     00 120 00 00         : RESD         - DEEP RESISTIVITY (DIL)
~PARAMETER INFORMATION
#MNEM.UNIT           DATA             DESCRIPTION OF MNEMONIC
#---------         -----------     ------------------------------
GL  .M        874.166              : gl           - GROUND LEVEL ELEVATION
EREF.M        878.19               : kb           - ELEVATION OF DEPTH REFERENCE
DATM.M        878.19               : datum        - DATUM ELEVATION
TDD .M        807.415              : tdd          - TOTAL DEPTH DRILLER
RUN .         ONE                  : Run          - RUN NUMBER
ENG .         BARBARICK            : Engineer     - RECORDING ENGINEER
WIT .         DEMOLINE & FISHER    : Witness      - WITNESSED BY
BASE.         D.C.                 : Branch       - HOME BASE OF LOGGING UNIT
MUD .         GEL                  : Mud_type     - MUD TYPE
MATR.         SANDSTONE            : Logunit      - NEUTRON MATRIX
TMAX.C        15.5556              : BHT          - MAXIMUM RECORDED TEMPERATURE
BHTD.M        806.501              : BHTDEP       - MAXIMUM RECORDED TEMPERATURE
RMT .C        15.5556              : MDTP         - TEMPERATURE OF MUD
MUDD.KG/M     1128                 : MWT          - MUD DENSITY
NEUT.         1                    : NEUTRON      - NEUTRON TYPE
RESI.         0                    : RESIST       - RESISTIVITY TYPE
RM  .OHMM     7.25                 : RM           - RESISTIVITY OF MUD
RMC .OHMM     0                    : RMC          - RESISTIVITY OF MUD CAKE
RMF .OHMM     7.54                 : RMF          - RESISTIVITY OF MUD FILTRATE
SUFT.C        5                    : SUFT         - SURFACE TEMPERATURE
~A  DEPTH     DELT       GR      CAL     RESD
# ...
  763.656  353.859   44.454  214.725   12.566
  763.906  338.301   45.596  214.719   13.933
  764.156  338.564   48.425  215.938   15.060
  764.406  335.572   49.748  218.383   16.170
  764.656  328.673   50.528  220.623   16.720
  764.906  326.462   50.706  220.107   17.291
  765.156  330.046   48.292  217.346   17.885
  765.406  331.611   44.191  215.809   18.058
  765.656  333.763   37.558  215.396   17.734
  765.906  335.523   28.817  215.390   16.857
  766.156  339.041   25.559  215.385   15.836
  766.406  343.146   26.099  215.175   14.342
  766.656  344.191   25.432  214.660   13.024
  766.906  343.933   24.645  214.043   11.190
  767.156  343.674   26.451  213.528    9.695
  767.406  344.328   28.315  212.502    8.520
  767.656  343.810   29.096  206.168    8.275
  767.906  343.358   29.454  203.001    8.329
  768.156  343.360   28.909  208.403    8.290
  768.406  342.060   28.061  220.236    8.322
  768.656  336.724   27.697  218.394    8.375
  768.906  342.065   28.718  217.572    7.973
  769.156  354.439   32.934  217.871    7.351
  769.406  350.535   29.073  217.153    6.630
  769.656  342.660   27.684  216.433    5.953
  769.906  340.318   30.273  216.019    5.568
  770.156  344.358   32.258  215.809    5.486
  770.406  344.557   28.940  216.110    5.481
  770.656  342.279   30.383  217.228    5.516
  770.906  338.180   32.851  218.753    5.750
  771.156  335.839   35.379  220.483    5.902
  771.406  332.131   36.220  219.660    6.396
  771.656  326.729   38.928  218.431    7.130
  771.906  316.965   40.191  215.160    7.801
  772.156  297.956   41.333  211.583    8.368
  772.406  268.400   40.486  211.271    9.594
  772.656  261.371   43.556  217.797   10.564
  772.906  249.588   46.566  223.201   11.413
  773.156  236.895   48.371  224.216   11.330
  773.406  249.919   49.272  217.475   11.247
  773.656  303.312   51.981  211.653   11.062
  773.906  310.280   53.846  212.974   10.725
  774.156  304.684   55.650  217.560   10.496
  774.406  310.156   62.518  222.963    9.835
  774.656  326.175   80.474  228.877    9.316
  774.906  335.619   96.019  232.954    9.193
  775.156  339.593   96.317  230.295    9.410
  775.406  337.187   80.885  225.290    9.499
  775.656  326.772   72.626  223.651    9.772
  775.906  321.436   67.922  225.075   10.302
  776.156  325.345   67.256  229.253   11.514
  776.406  333.226   67.856  228.329   12.541
  776.656  339.154   62.127  223.732   14.145
  776.906  335.705   53.807  219.542   16.624
  777.156  311.032   41.510  218.415   21.469
  777.406  277.698   43.133  214.123   28.500
  777.656  289.876   44.155  215.036   36.328
  777.906  313.318   45.538  215.643   38.726
  778.156  330.771   46.861  216.657   36.776
  778.406  333.443   44.086  217.061   33.808
  778.656  331.883   47.397  217.770   30.226
  778.906  329.020   55.288  220.214   28.492
  779.156  308.709   61.071  223.882   26.760
  779.406  288.463   62.453  226.224   25.302
  779.656  275.639   59.016  227.035   22.852
  779.906  280.915   60.277  226.826   21.061
  780.156  288.276   61.781  225.901   19.704
  780.406  295.441   62.502  224.978   17.831
  780.656  298.568   64.728  224.155   15.799
  780.906  307.035   68.823  223.538   13.886
  781.156  314.395   74.424  222.411   10.501
  781.406  337.186   72.251  220.670    8.309
  781.656  376.840   62.486  218.522   11.246
  781.906  385.241   56.636  218.006   13.805
  782.156  365.777   56.994  218.307   16.165
  782.406  355.948   59.341  219.424   18.447
  782.656  356.081   61.690  220.541   17.610
  782.906  366.175   66.930  221.557   15.696
  783.156  389.487   73.073  222.674   13.504
  783.406  398.150   69.816  223.790   11.551
  783.656  416.187   61.315  223.071    9.181
  783.906  426.607   61.854  221.433    7.645
  784.156  415.672   66.973  219.896    6.473
  784.406  403.955   71.972  219.279    5.966
  784.656  392.758   78.719  218.968    5.089
  784.906  407.606   82.151  220.799    4.823
  785.156  411.971   82.208  223.855    5.058
  785.406  394.264   80.336  224.258    5.370
  785.656  373.497   80.394  223.334    6.284
  785.906  342.963   79.727  222.715    7.093
  786.156  343.682   71.709  222.201    7.482
  786.406  352.605   70.441  221.480    7.679
  786.656  350.004   74.776  220.556    7.777
  786.906  357.233   81.885  219.633    7.887
  787.156  372.276   83.147  219.220    8.580
  787.406  369.479   60.725  219.010    9.787
  787.656  364.989   48.669  219.209   11.192
  787.906  354.835   43.302  222.061   13.711
  788.156  343.443   43.539  218.586   19.549
  788.406  343.641   45.585  215.621   22.864
  788.656  348.071   45.221  213.880   24.070
  788.906  350.027   45.519  213.466   23.569
  789.156  345.994   45.877  213.768   21.795
  789.406  341.048   43.343  214.171   21.892
  789.656  329.917   43.521  215.186   23.078
  789.906  332.068   47.796  218.140   22.618
  790.156  337.410   55.145  216.604   20.725
  790.406  339.430   60.626  214.864   18.475
  790.656  339.694   64.962  214.041   16.523
  790.906  342.171   66.767  214.139   15.441
  791.156  341.847   69.475  215.255   13.072
  791.406  335.730   70.738  216.067   12.035
  791.656  324.599   69.771  216.469   11.690
  791.906  320.369   68.623  216.158   12.482
  792.156  329.292   67.595  216.050   13.926
  792.406  335.350   66.447  215.841   15.930
  792.656  325.977   63.250  215.631   19.662
  792.906  297.657   57.280  215.932   23.017
  793.156  228.709   51.974  216.028   23.310
  793.406  211.523   53.296  215.922   21.361
  793.656  246.815   58.054  216.528   19.844
  793.906  265.829   61.727  217.542   17.312
  794.156  284.128   63.471  218.252   14.386
  794.406  280.680   67.747  219.064   12.614
  794.656  293.314   72.505  220.997   10.740
  794.906  309.334   79.915  222.930    9.721
  795.156  325.483   85.818  224.966    9.079
  795.406  349.771   94.914  227.205    8.816
  795.656  335.189   91.356  228.936    8.854
  795.906  321.324   84.723  219.848    8.830
  796.156  309.803   77.789  212.087    8.763
  796.406  317.227   74.170  214.632    8.405
  796.656  324.587   74.770  217.281    7.998
  796.906  334.031   79.407  219.622    7.435
  797.156  342.823   86.877  218.391    6.715
  797.406  360.470   87.596  217.365    5.502
  797.656  388.340   83.857  216.543    5.019
  797.906  374.800   76.622  215.926    5.251
  798.156  351.168   78.246  215.104    5.902
  798.406  335.154   64.502  214.691    6.850
  798.656  339.844   55.821  215.605    7.503
  798.906  338.349   68.594  218.558    7.816
  799.156  334.250   87.755  222.227    7.973
  799.406  348.056   85.040  223.548    7.909
  799.656  341.678   69.489  218.236    7.724
  799.906  329.701   53.575  215.068    7.578
  800.156  325.537   44.351  214.348    7.274
  800.406  344.030   34.706  215.464    7.014
  800.656  342.665   69.657  215.970    6.770
  800.906  334.334   93.278  217.086    6.644
  801.156  329.128  103.278  219.632    7.179
  801.406  328.870  100.201  221.872    7.690
  801.656  342.220   97.607  223.601    7.982
  801.906  321.974  104.354  223.698    8.297
  802.156  311.950  109.231  223.489    8.271
  802.406  309.153  109.831  223.790    8.050
  802.656  314.755  111.696  224.295    7.907
  802.906  326.022  113.682  223.574    7.800
  803.156  335.595  113.196  223.161    7.800
  803.406  341.457  109.396  221.013    7.812
  803.656  338.530  103.247  216.823    8.242
  803.906  312.750   86.610  211.001    8.811
  804.156  282.542   77.145  207.322   10.239
  804.406  240.028   72.442  203.030   11.328
  804.656  226.684   64.543  199.760   12.080
