~VERSION INFORMATION
 VERS.                 2.0:   CWLS LOG ASCII STANDARD -VERSION 2.0
 WRAP.                  NO:   ONE LINE PER DEPTH STEP
~WELL INFORMATION BLOCK
#MNEM.UNIT           DATA                    DESCRIPTION OF MNEMONIC
#---------    -------------------            -------------------------------
# Generated from Intellog Unique Number	CW_70_72/WELL/694
NULL.         -999.25                        : NULL_VALUE
WELL.         MAXUS CALLING LAKE 06-23       : Well_name    - WELL              
LOC .         06-23-072-19W4                 : Location     - LOCATION          
UWI .         00/06-23-072-19W4/0            : Uwi          - UNIQUE WELL ID    
ENTR.         JAYE                           : Entered      - ENTERED BY        
SRVC.         WESTERN ATLAS                  : Scn          - SERVICE COMPANY   
DATE.         7 MAR 88                       : Date         - LOG DATE          
STRT.M        335                            : top_depth    - START DEPTH       
STOP.M        565                            : bot_depth    - STOP DEPTH        
STEP.M        0.25                           : increment    - STEP LENGTH       
~CURVE INFORMATION BLOCK
#MNEM UNIT       ERCB CURVE CODE    CURVE DESCRIPTION
#-----------   ------------------   ----------------------------------
DEPT.M        00 001 00 00         : DEPTH        - DEPTH                       
DPHI.V/V      00 890 00 00         : PHID         - DENSITY POROSITY (SANDSTONE)
NPHI.V/V      00 330 00 00         : PHIN         - NEUTRON POROSITY (SANDSTONE)
GR  .API      00 310 00 00         : GR           - GAMMA RAY                   
CALI.MM       00 280 01 00         : CAL          - CALIPER                     
ILD .OHMM     00 120 00 00         : RESD         - DEEP RESISTIVITY (DIL)      
~PARAMETER INFORMATION       
#MNEM.UNIT           DATA             DESCRIPTION OF MNEMONIC
#---------         -----------     ------------------------------
GL  .M        628.2                : gl           - GROUND LEVEL ELEVATION      
EREF.M        631.8                : kb           - ELEVATION OF DEPTH REFERENCE
DATM.M        628.2                : datum        - DATUM ELEVATION             
TDD .M        620                  : tdd          - TOTAL DEPTH DRILLER         
RUN .         ONE                  : Run          - RUN NUMBER                  
ENG .         RORMOWSKI            : Engineer     - RECORDING ENGINEER          
WIT .         HERRON               : Witness      - WITNESSED BY                
BASE.         SLAVE LAKE           : Branch       - HOME BASE OF LOGGING UNIT   
MUD .         GEL CHEM MUDD        : Mud_type     - MUD TYPE                    
MATR.         SANDSTONE            : Logunit      - NEUTRON MATRIX              
TMAX.C        25                   : BHT          - MAXIMUM RECORDED TEMPERATURE
BHTD.M        618.8                : BHTDEP       - MAXIMUM RECORDED TEMPERATURE
RMT .C        16                   : MDTP         - TEMPERATURE OF MUD          
MUDD.KG/M     1140                 : MWT          - MUD DENSITY                 
NEUT.         1                    : NEUTRON      - NEUTRON TYPE                
RESI.         0                    : RESIST       - RESISTIVITY TYPE            
RM  .OHMM     4.1                  : RM           - RESISTIVITY OF MUD          
RMC .OHMM     4.8                  : RMC          - RESISTIVITY OF MUD CAKE     
RMF .OHMM     3.5                  : RMF          - RESISTIVITY OF MUD FILTRATE 
SUFT.C        32                   : SUFT         - SURFACE TEMPERATURE         
~A  DEPTH     PHID     PHIN       GR      CAL     RESD
# ...
  444.500    0.299    0.301   54.670  160.618    4.589
  444.750    0.224    0.210   49.849  160.627    4.131
  445.000    0.135    0.191   48.754  160.535    3.824
  445.250    0.100    0.217   56.458  160.644    3.686
  445.500    0.120    0.291   63.733  160.857    3.646
  445.750    0.222    0.373   70.032  160.967    3.626
  446.000    0.316    0.396   68.631  161.078    3.681
  446.250    0.299    0.407   66.498  160.780    3.730
  446.500    0.297    0.412   67.421  160.686    3.752
  446.750    0.292    0.413   69.564  160.593    3.794
  447.000    0.295    0.415   73.051  162.842    3.873
  447.250    0.308    0.412   77.028  164.989    3.975
  447.500    0.311    0.412   74.834  164.998    4.058
  447.750    0.295    0.417   70.500  165.312    4.021
  448.000    0.287    0.421   72.461  165.524    3.805
  448.250    0.300    0.418   76.254  165.838    3.614
  448.500    0.301    0.411   73.571  168.393    3.458
  448.750    0.298    0.390   70.949  169.317    3.327
  449.000    0.294    0.376   70.588  171.261    3.080
  449.250    0.287    0.389   72.059  172.695    2.925
  449.500    0.270    0.405   80.984  173.518    2.819
  449.750    0.251    0.425   90.094  174.036    2.820
  450.000    0.235    0.443   96.514  174.248    2.815
  450.250    0.233    0.456   92.487  174.868    2.847
  450.500    0.232    0.445   93.591  175.691    2.923
  450.750    0.224    0.451   95.613  175.700    3.101
  451.000    0.224    0.467   98.245  175.301    3.453
  451.250    0.238    0.475  100.145  175.003    3.753
  451.500    0.239    0.423  100.211  174.401    4.163
  451.750    0.238    0.429   99.178  174.002    4.484
  452.000    0.229    0.400   97.410  173.299    4.586
  452.250    0.214    0.375   91.794  172.798    4.561
  452.500    0.220    0.362   91.678  172.399    4.421
  452.750    0.221    0.382   94.004  172.407    4.333
  453.000    0.226    0.414   93.826  172.315    4.294
  453.250    0.233    0.435   94.992  172.119    4.303
  453.500    0.229    0.450   98.419  171.720    4.320
  453.750    0.230    0.441  103.312  171.321    4.361
  454.000    0.221    0.420  104.661  170.617    4.452
  454.250    0.215    0.402   98.618  169.913    4.519
  454.500    0.228    0.390   91.290  169.208    4.630
  454.750    0.233    0.381   92.640  168.911    4.717
  455.000    0.221    0.387   92.340  168.819    4.806
  455.250    0.204    0.396   90.451  168.829    4.870
  455.500    0.205    0.401   88.073  168.938    4.907
  455.750    0.216    0.394   89.666  169.150    4.963
  456.000    0.216    0.392   88.327  169.158    5.001
  456.250    0.202    0.398   88.211  169.167    5.021
  456.500    0.207    0.404   93.531  169.075    5.022
  456.750    0.210    0.408   93.537  168.981    5.023
  457.000    0.208    0.408   91.220  168.988    4.996
  457.250    0.204    0.399   90.064  168.692    4.997
  457.500    0.200    0.387   87.686  168.192    4.998
  457.750    0.196    0.375   88.302  167.997    4.990
  458.000    0.206    0.379   90.690  167.903    4.991
  458.250    0.217    0.387   91.184  167.911    4.956
  458.500    0.230    0.396   95.161  167.819    4.830
  458.750    0.241    0.403   95.777  167.623    4.699
  459.000    0.236    0.421   94.194  167.428    4.588
  459.250    0.228    0.422   97.926  167.539    4.448
  459.500    0.231    0.416   94.570  168.057    4.367
  459.750    0.229    0.404   93.598  168.370    4.264
  460.000    0.225    0.396   94.764  168.175    4.156
  460.250    0.219    0.404   94.769  167.573    4.051
  460.500    0.213    0.406   94.102  166.768    3.891
  460.750    0.212    0.403   90.563  166.163    3.841
  461.000    0.210    0.401   91.180  165.358    3.936
  461.250    0.213    0.400   87.885  164.348    4.107
  461.500    0.230    0.395   83.858  163.338    4.343
  461.750    0.246    0.382   82.213  162.532    4.515
  462.000    0.265    0.369   76.109  162.236    4.500
  462.250    0.244    0.364   66.582  161.836    4.313
  462.500    0.186    0.374   55.101  161.540    4.120
  462.750    0.252    0.373   61.643  161.548    3.942
  463.000    0.291    0.396   64.459  161.047    3.870
  463.250    0.304    0.419   65.320  160.852    3.995
  463.500    0.297    0.411   66.424  160.861    4.169
  463.750    0.291    0.337   68.996  161.582    4.240
  464.000    0.191    0.301   68.757  162.201    4.280
  464.250    0.139    0.311   59.475  162.312    4.258
  464.500    0.105    0.332   59.968  162.626    4.007
  464.750    0.161    0.375   64.984  162.329    3.567
  465.000    0.295    0.410   69.877  162.134    3.344
  465.250    0.307    0.421   66.400  162.346    3.302
  465.500    0.297    0.413   64.327  162.151    3.309
  465.750    0.296    0.402   64.638  161.956    3.316
  466.000    0.305    0.395   68.126  162.067    3.323
  466.250    0.309    0.394   68.253  163.704    3.354
  466.500    0.306    0.395   68.197  164.833    3.405
  466.750    0.304    0.394   69.668  164.842    3.613
  467.000    0.300    0.405   67.413  165.054    4.075
  467.250    0.294    0.404   64.241  165.063    4.537
  467.500    0.287    0.393   66.690  165.274    5.080
  467.750    0.269    0.369   65.901  165.181    5.666
  468.000    0.166    0.306   61.812  163.866    6.474
  468.250    0.073    0.237   58.151  162.143    7.063
  468.500    0.073    0.280   55.896  160.930    5.819
  468.750    0.214    0.312   60.850  160.124    4.715
  469.000    0.272    0.390   63.910  159.928    4.159
  469.250    0.296    0.390   67.459  159.835    3.928
  469.500    0.289    0.376   66.609  159.641    3.850
  469.750    0.295    0.375   66.981  159.547    3.752
  470.000    0.301    0.389   70.102  159.251    3.657
  470.250    0.300    0.393   71.206  159.259    3.578
  470.500    0.292    0.391   68.524  159.268    3.487
  470.750    0.289    0.389   66.879  159.277    3.437
  471.000    0.289    0.403   65.051  159.285    3.412
  471.250    0.311    0.419   64.200  159.090    3.375
  471.500    0.307    0.419   63.778  158.792    3.345
  471.750    0.294    0.412   66.471  158.801    3.309
  472.000    0.291    0.413   70.570  158.911    3.292
  472.250    0.281    0.404   68.559  159.327    3.298
  472.500    0.271    0.396   65.265  159.642    3.361
  472.750    0.276    0.408   66.431  160.160    3.449
  473.000    0.287    0.403   69.919  160.167    3.573
  473.250    0.284    0.393   73.406  160.074    3.785
  473.500    0.273    0.384   76.833  160.082    4.137
  473.750    0.257    0.374   80.565  160.397    4.310
  474.000    0.210    0.364   78.983  161.220    4.407
  474.250    0.162    0.348   75.382  163.265    4.240
  474.500    0.138    0.369   72.332  170.707    3.946
  474.750    0.181    0.389   72.032  180.491    3.566
  475.000    0.212    0.401   86.244  182.131    3.343
  475.250    0.215    0.434   97.001  184.157    3.249
  475.500    0.222    0.445  102.654  184.359    3.124
  475.750    0.230    0.442  102.106  184.359    3.026
  476.000    0.223    0.442  102.836  184.359    2.927
  476.250    0.219    0.447  102.349  184.054    2.887
  476.500    0.224    0.441   99.249  184.054    2.870
  476.750    0.220    0.441   93.415  184.662    2.879
  477.000    0.217    0.446   94.995  185.674    2.964
  477.250    0.229    0.450   98.702  186.484    3.040
  477.500    0.239    0.442  100.464  187.193    3.101
  477.750    0.238    0.430  101.497  187.699    3.170
  478.000    0.230    0.415  100.768  188.307    3.281
  478.250    0.226    0.412   99.978  188.813    3.371
  478.500    0.227    0.412  103.806  189.522    3.490
  478.750    0.227    0.412  102.712  189.420    3.633
  479.000    0.228    0.405  101.740  189.420    3.789
  479.250    0.232    0.406   97.728  189.420    3.973
  479.500    0.221    0.418   91.164  188.812    4.144
  479.750    0.216    0.426   85.147  185.975    4.226
  480.000    0.186    0.410   82.472  183.746    4.264
  480.250    0.198    0.382   84.539  182.936    4.254
  480.500    0.206    0.376   92.136  182.935    4.190
  480.750    0.210    0.397   96.025  183.239    4.141
