~VERSION INFORMATION
 VERS.                 2.0:   CWLS LOG ASCII STANDARD -VERSION 2.0
 WRAP.                  NO:   ONE LINE PER DEPTH STEP
~WELL INFORMATION BLOCK
#MNEM.UNIT           DATA                    DESCRIPTION OF MNEMONIC
#---------    -------------------            -------------------------------
# Generated from Intellog Unique Number	CW_82_90/WELL/3068
WELL.         07-36-086-22W4                 : Well_name    - WELL
LOC .         00/07-36-086-22W4/0            : Location     - LOCATION
UWI .         00/07-36-086-22W4/0            : Uwi          - UNIQUE WELL ID
ENTR.         MAX                            : Entered      - ENTERED BY
SRVC.         SCHLUMBERGER                   : Scn          - SERVICE COMPANY
STRT.M        152.4                          : top_depth    - START DEPTH
STOP.M        350.4                          : bot_depth    - STOP DEPTH
STEP.M        0.25                           : increment    - STEP LENGTH
 NULL. -999.2500:NULL Value
~CURVE INFORMATION BLOCK
#MNEM UNIT       ERCB CURVE CODE    CURVE DESCRIPTION
#-----------   ------------------   ----------------------------------
DEPT.M        00 001 00 00         : DEPTH        - DEPTH
ILD .OHMM     00 120 00 00         : RESD         - DEEP RESISTIVITY (DIL)
NPHI.V/V      00 330 00 00         : PHIN         - NEUTRON POROSITY (SANDSTONE)
DPHI.V/V      00 890 00 00         : PHID         - DENSITY POROSITY (SANDSTONE)
CALI.MM       00 280 01 00         : CAL          - CALIPER
GR  .API      00 310 00 00         : GR           - GAMMA RAY
~PARAMETER INFORMATION
#MNEM.UNIT           DATA             DESCRIPTION OF MNEMONIC
#---------         -----------     ------------------------------
GL  .M        567.842              : gl           - GROUND LEVEL ELEVATION
EREF.M        571.195              : kb           - ELEVATION OF DEPTH REFERENCE
DATM.M        567.842              : datum        - DATUM ELEVATION
TDD .M        350.215              : tdd          - TOTAL DEPTH DRILLER
RUN .         ONE                  : Run          - RUN NUMBER
ENG .         BILL                 : Engineer     - RECORDING ENGINEER
WIT .         JIM                  : Witness      - WITNESSED BY
MUD .         GEL                  : Mud_type     - MUD TYPE
MATR.         SANDSTONE            : Logunit      - NEUTRON MATRIX
TMAX.C        15.5556              : BHT          - MAXIMUM RECORDED TEMPERATURE
BHTD.M        350.215              : BHTDEP       - MAXIMUM RECORDED TEMPERATURE
MATR.         1                    : LOGUNIT      - NEUTRON MATRIX
RMT .C        9.44444              : MDTP         - TEMPERATURE OF MUD
NEUT.         1                    : NEUTRON      - NEUTRON TYPE
RESI.         0                    : RESIST       - RESISTIVITY TYPE
RMC .OHMM     7.05                 : RMC          - RESISTIVITY OF MUD CAKE
RMF .OHMM     7.05                 : RMF          - RESISTIVITY OF MUD FILTRATE
SUFT.C        -23.3333             : SUFT         - SURFACE TEMPERATURE
~A  DEPTH     RESD     PHIN     PHID      CAL       GR
# ...
  261.900   13.205    0.455    0.180  232.428   96.375
  262.150   13.440    0.464    0.174  232.418   95.785
  262.400   13.679    0.463    0.165  230.925   95.487
  262.650   14.048    0.452    0.206  228.444   96.646
  262.900   14.556    0.460    0.201  228.434   97.806
  263.150   14.948    0.453    0.198  227.931   94.885
  263.400   15.078    0.445    0.207  226.933   91.671
  263.650   15.073    0.445    0.202  225.935   88.167
  263.900   14.934    0.435    0.201  225.431   87.285
  264.150   14.662    0.425    0.226  224.927   88.154
  264.400   14.527    0.431    0.235  224.419   87.273
  264.650   14.263    0.445    0.250  224.412   83.183
  264.900   14.131    0.449    0.268  223.907   83.470
  265.150   14.000    0.445    0.255  223.895   87.837
  265.400   13.871    0.444    0.244  224.380   94.537
  265.650   13.618    0.447    0.234  225.356   98.904
  265.900   13.493    0.445    0.226  226.333   98.605
  266.150   13.249    0.443    0.220  227.803   96.850
  266.400   13.126    0.439    0.213  227.793   97.135
  266.650   13.121    0.430    0.210  227.781   99.754
  266.900   13.116    0.443    0.216  228.759  101.788
  267.150   13.231    0.443    0.211  228.747  102.364
  267.400   13.345    0.442    0.203  227.748  100.609
  267.650   13.460    0.437    0.192  227.738   95.647
  267.900   13.457    0.430    0.176  227.729   91.558
  268.150   13.451    0.425    0.160  228.210   90.094
  268.400   13.090    0.453    0.151  229.188   92.711
  268.650   12.289    0.468    0.197  229.671   97.954
  268.900   11.537    0.494    0.211  229.661   97.656
  269.150   10.355    0.477    0.228  229.651   93.567
  269.400    8.052    0.474    0.232  228.651   93.853
  269.650    5.232    0.515    0.215  228.145   95.303
  269.900    4.410    0.553    0.220  228.135   97.339
  270.150    4.177    0.568    0.236  228.125  100.540
  270.400    4.176    0.554    0.226  228.114  101.116
  270.650    4.445    0.539    0.214  228.105  100.819
  270.900    4.774    0.520    0.216  228.095   99.063
  271.150    5.268    0.514    0.222  228.083   95.558
  271.400    5.971    0.511    0.229  228.073   93.511
  271.650    6.413    0.521    0.227  228.063   92.921
  271.900    6.827    0.521    0.219  228.051   92.915
  272.150    7.739    0.523    0.210  229.029   91.742
  272.400    8.851    0.518    0.203  229.019   87.946
  272.650    9.766    0.469    0.154  229.006   83.274
  272.900   10.029    0.459    0.123  229.491   84.143
  273.150   10.581    0.504    0.111  230.468   86.178
  273.400   11.062    0.509    0.175  231.443   87.044
  273.650   11.259    0.477    0.195  232.421   87.622
  273.900   11.256    0.474    0.197  232.901   89.656
  274.150   11.052    0.471    0.199  232.891   91.691
  274.400   10.938    0.463    0.195  230.362   92.863
  274.650   10.934    0.466    0.167  231.346   92.865
  274.900   10.931    0.476    0.208  232.330   95.471
  275.150   11.124    0.472    0.203  231.355   99.813
  275.400   11.732    0.481    0.212  231.358  102.419
  275.650   12.484    0.453    0.218  230.383  101.264
  275.900   13.524    0.420    0.224  229.897   94.324
  276.150   14.783    0.417    0.222  229.411   91.144
  276.400   16.596    0.413    0.215  228.436   90.568
  276.650   19.138    0.421    0.207  228.439   86.231
  276.900   23.703    0.400    0.188  228.443   80.447
  277.150   26.374    0.349    0.114  226.488   74.664
  277.400   31.519    0.295    0.063  226.002   69.169
  277.650   38.690    0.272    0.042  224.537   63.386
  277.900   46.651    0.284    0.053  224.540   61.074
  278.150   52.374    0.300    0.082  225.035   58.473
  278.400   59.327    0.269    0.066  225.039   55.582
  278.650   70.268    0.238    0.040  224.553   56.163
  278.900   83.976    0.214    0.023  225.046   52.405
  279.150   90.973    0.205    0.025  225.051   52.697
  279.400   79.544    0.223    0.042  225.055   53.856
  279.650   67.115    0.248    0.048  225.549   56.173
  279.900   44.897    0.280    0.033  226.532   59.936
  280.150   30.849    0.309    0.048  225.558   66.592
  280.400   26.029    0.336    0.093  226.541   73.248
  280.650   21.381    0.380    0.125  226.545   80.483
  280.900   17.252    0.437    0.161  227.039   86.560
  281.150   14.817    0.473    0.196  227.533   87.720
  281.400   13.915    0.493    0.214  228.026   85.987
  281.650   13.788    0.471    0.228  228.030   87.725
  281.900   13.782    0.467    0.230  226.565   90.331
  282.150   13.903    0.471    0.220  225.590   89.755
  282.400   14.148    0.467    0.212  226.084   87.733
  282.650   14.267    0.461    0.217  226.580   87.445
  282.900   14.652    0.451    0.213  227.071   87.737
  283.150   15.046    0.452    0.167  227.564   87.740
  283.400   15.449    0.465    0.168  229.038   86.874
  283.650   16.294    0.463    0.195  230.022   83.115
  283.900   18.130    0.455    0.172  228.067   79.357
  284.150   21.094    0.433    0.135  227.581   75.599
  284.400   25.893    0.295    0.094  228.566   73.866
  284.650   27.799    0.308    0.074  228.570   73.867
  284.900   27.056    0.342    0.084  228.573   75.895
  285.150   24.085    0.398    0.108  228.577   84.287
  285.400   21.248    0.444    0.156  227.111   84.868
  285.650   19.601    0.470    0.177  227.606   85.449
  285.900   18.408    0.482    0.202  228.099   87.766
  286.150   16.681    0.466    0.209  229.083   88.057
  286.400   15.806    0.454    0.158  229.087   90.663
  286.650   15.246    0.469    0.189  228.602   93.848
  286.900   15.242    0.473    0.218  228.605   94.718
  287.150   15.236    0.465    0.216  227.630   92.406
  287.400   15.231    0.470    0.208  227.144   91.251
  287.650   15.500    0.470    0.198  227.147   92.121
  287.900   15.774    0.456    0.206  227.152   91.835
  288.150   15.911    0.465    0.200  227.156   91.837
  288.400   16.049    0.465    0.201  226.669   92.997
  288.650   16.043    0.449    0.174  226.674   91.552
  288.900   15.896    0.417    0.152  227.168   89.819
  289.150   15.470    0.426    0.128  227.172   90.111
  289.400   15.327    0.438    0.146  227.665   91.270
  289.650   15.052    0.463    0.205  228.160   91.562
  289.900   14.649    0.457    0.198  229.144   90.986
  290.150   14.514    0.452    0.180  229.147   91.856
  290.400   14.380    0.460    0.152  228.171   93.594
  290.650   14.375    0.498    0.171  228.176   98.225
  290.900   14.371    0.485    0.198  227.690   97.939
  291.150   14.367    0.470    0.186  227.694   97.073
  291.400   14.751    0.453    0.176  227.698   96.208
  291.650   15.147    0.445    0.182  229.172   96.210
  291.900   15.553    0.445    0.187  229.665   95.055
  292.150   15.686    0.442    0.187  229.670   91.876
  292.400   15.542    0.426    0.204  229.674   89.563
  292.650   15.262    0.426    0.181  228.208   88.119
  292.900   14.592    0.435    0.149  229.682   86.964
  293.150   13.703    0.447    0.097  231.646   88.413
  293.400   13.699    0.459    0.169  231.650   97.383
  293.650   13.694    0.471    0.200  231.164   98.544
  293.900   13.936    0.483    0.199  231.167   99.413
  294.150   14.056    0.488    0.201  232.152   96.523
  294.400   14.052    0.466    0.204  232.155   96.236
  294.650   13.799    0.457    0.206  232.160   97.106
  294.900   13.550    0.442    0.208  233.143   97.688
  295.150   14.164    0.442    0.205  233.637   99.425
  295.400   15.482    0.450    0.182  231.682  101.453
  295.650   16.772    0.440    0.177  229.726   96.248
  295.900   17.069    0.439    0.192  228.751   92.201
  296.150   17.369    0.440    0.209  228.264   91.335
  296.400   18.816    0.416    0.214  228.759   92.494
  296.650   20.023    0.405    0.197  229.253   93.364
  296.900   20.745    0.407    0.161  229.257   92.210
  297.150   21.300    0.412    0.143  229.260   89.898
  297.400   20.003    0.393    0.107  229.265   87.297
  297.650   19.125    0.389    0.052  228.289   88.167
  297.900   17.329    0.378    0.034  228.293   91.930
  298.150   16.131    0.389    0.087  228.297  102.347
