~VERSION INFORMATION
 VERS.                 2.0:   CWLS LOG ASCII STANDARD -VERSION 2.0
 WRAP.                  NO:   ONE LINE PER DEPTH STEP
~WELL INFORMATION BLOCK
#MNEM.UNIT           DATA                    DESCRIPTION OF MNEMONIC
#---------    -------------------            -------------------------------
# Generated from Intellog Unique Number	CS_67_68/WELL/2399
WELL.         CHIEFC0 DOME TWEEDIE           : Well_name    - WELL
LOC .         00/06-23-068-12W4/0            : Location     - LOCATION
UWI .         00/06-23-068-12W4/0            : Uwi          - UNIQUE WELL ID
ENTR.         TIM                            : Entered      - ENTERED BY
SRVC.         COMPUTALOG                     : Scn          - SERVICE COMPANY
STRT.M        275                            : top_depth    - START DEPTH
STOP.M        470                            : bot_depth    - STOP DEPTH
STEP.M        0.25                           : increment    - STEP LENGTH
 NULL. -999.2500:NULL Value
~CURVE INFORMATION BLOCK
#MNEM UNIT       ERCB CURVE CODE    CURVE DESCRIPTION
#-----------   ------------------   ----------------------------------
DEPT.M        00 001 00 00         : DEPTH        - DEPTH
GR  .API      00 310 00 00         : GR           - GAMMA RAY
CALI.MM       00 280 01 00         : CAL          - CALIPER
NPHI.V/V      00 330 00 00         : PHIN         - NEUTRON POROSITY (SANDSTONE)
DPHI.V/V      00 890 00 00         : PHID         - DENSITY POROSITY (SANDSTONE)
ILD .OHMM     00 120 00 00         : RESD         - DEEP RESISTIVITY (DIL)
~PARAMETER INFORMATION
#MNEM.UNIT           DATA             DESCRIPTION OF MNEMONIC
#---------         -----------     ------------------------------
GL  .M        591.38               : gl           - GROUND LEVEL ELEVATION
EREF.M        595.2                : kb           - ELEVATION OF DEPTH REFERENCE
DATM.M        595.2                : datum        - DATUM ELEVATION
TDD .M        471                  : tdd          - TOTAL DEPTH DRILLER
RUN .         ONE                  : Run          - RUN NUMBER
ENG .         BILL                 : Engineer     - RECORDING ENGINEER
WIT .         JIM                  : Witness      - WITNESSED BY
MUD .         GEL                  : Mud_type     - MUD TYPE
MATR.         SANDSTONE            : Logunit      - NEUTRON MATRIX
TMAX.C        26                   : BHT          - MAXIMUM RECORDED TEMPERATURE
BHTD.M        471                  : BHTDEP       - MAXIMUM RECORDED TEMPERATURE
MATR.         1                    : LOGUNIT      - NEUTRON MATRIX
RMT .C        20                   : MDTP         - TEMPERATURE OF MUD
NEUT.         1                    : NEUTRON      - NEUTRON TYPE
RESI.         0                    : RESIST       - RESISTIVITY TYPE
RMC .OHMM     1.6                  : RMC          - RESISTIVITY OF MUD CAKE
RMF .OHMM     1.1                  : RMF          - RESISTIVITY OF MUD FILTRATE
SUFT.C        5                    : SUFT         - SURFACE TEMPERATURE
~A  DEPTH       GR      CAL     PHIN     PHID     RESD
  275.000  103.874  171.295    0.512    0.260    2.153
  275.250  103.959  169.463    0.505    0.262    2.157
  275.500  104.647  169.569    0.496    0.259    2.125
  275.750  104.732  168.741    0.499    0.255    2.132
  276.000  105.419  168.918    0.498    0.256    2.100
  276.250  106.086  169.024    0.504    0.261    2.069
  276.500  106.795  169.201    0.514    0.265    2.076
  276.750  108.107  169.307    0.520    0.270    2.087
  277.000  108.171  169.484    0.521    0.274    2.091
  277.250  109.525  169.590    0.507    0.273    2.098
  277.500  110.192  170.771    0.491    0.264    2.106
  277.750  110.234  171.882    0.485    0.245    2.197
  278.000  110.965  172.024    0.503    0.244    2.244
  278.250  111.028  172.201    0.502    0.245    2.252
  278.500  111.092  172.413    0.492    0.245    2.260
  278.750  110.574  171.479    0.493    0.240    2.270
  279.000  108.247  170.651    0.502    0.227    2.278
  279.250  106.523  170.757    0.498    0.221    2.286
  279.500  105.402  169.929    0.496    0.213    2.294
  279.750  104.884  169.101    0.504    0.209    2.302
  280.000  103.763  168.167    0.508    0.207    2.311
  280.250  101.458  168.308    0.504    0.210    2.319
  280.500  100.939  169.525    0.501    0.218    2.327
  280.750  103.436  169.632    0.502    0.223    2.335
  281.000  107.160  169.738    0.503    0.219    2.343
  281.250  109.656  169.879    0.505    0.214    2.352
  281.500  110.344  169.086    0.515    0.215    2.360
  281.750  108.642  168.223    0.520    0.217    2.372
  282.000  108.102  167.324    0.511    0.220    2.381
  282.250  108.208  167.466    0.487    0.220    2.391
  282.500  108.917  167.607    0.466    0.211    2.441
  282.750  109.563  167.749    0.488    0.212    2.500
  283.000  107.839  167.890    0.518    0.212    2.551
  283.250  100.710  168.067    0.516    0.206    2.608
  283.500  101.440  169.178    0.500    0.203    2.720
  283.750  101.461  169.390    0.479    0.200    2.781
  284.000  103.979  169.497    0.466    0.202    2.845
  284.250  105.852  170.714    0.480    0.207    2.855
  284.500  108.348  170.820    0.481    0.210    2.919
  284.750  110.887  170.997    0.466    0.205    2.927
  285.000  110.369  171.067    0.442    0.204    2.883
  285.250  106.213  171.244    0.429    0.204    2.893
  285.500  105.694  171.386    0.449    0.211    2.800
  285.750  105.822  171.492    0.471    0.221    2.755
  286.000  106.467  172.674    0.475    0.234    2.617
  286.250  106.552  172.886    0.467    0.239    2.578
  286.500  106.637  172.992    0.458    0.240    2.537
  286.750  107.325  172.129    0.459    0.238    2.552
  287.000  108.013  170.260    0.480    0.226    2.557
  287.250  108.119  168.357    0.495    0.219    2.570
  287.500  107.601  166.488    0.494    0.215    2.577
  287.750  108.892  166.701    0.487    0.214    2.584
  288.000  110.806  166.842    0.484    0.218    2.545
  288.250  111.473  166.948    0.506    0.220    2.554
  288.500  110.955  167.090    0.510    0.225    2.516
  288.750  109.231  167.231    0.503    0.227    2.525
  289.000  108.110  167.408    0.491    0.225    2.536
  289.250  108.237  167.514    0.486    0.219    2.545
  289.500  108.280  167.691    0.493    0.214    2.554
  289.750  107.826  167.868    0.486    0.209    2.563
  290.000  107.265  166.934    0.483    0.210    2.572
  290.250  105.541  167.075    0.475    0.211    2.581
  290.500  107.435  167.252    0.470    0.218    2.641
  290.750  109.329  167.358    0.468    0.222    2.703
  291.000  107.605  166.530    0.470    0.225    2.761
  291.250  104.696  166.672    0.464    0.216    2.820
  291.500  101.766  166.813    0.453    0.207    2.940
  291.750   98.212  166.919    0.435    0.204    3.006
  292.000   93.474  167.167    0.425    0.198    3.131
  292.250   93.559  166.268    0.408    0.192    3.202
  292.500   99.673  165.369    0.407    0.193    3.335
  292.750  105.184  164.577    0.414    0.197    3.410
  293.000  109.532  163.678    0.411    0.198    3.495
  293.250  110.802  163.784    0.409    0.195    3.505
  293.500  112.092  163.961    0.411    0.192    3.580
  293.750  112.177  164.138    0.420    0.193    3.599
  294.000  112.283  164.209    0.428    0.198    3.609
  294.250  112.368  164.385    0.436    0.207    3.618
  294.500  111.290  164.562    0.440    0.222    3.501
  294.750  110.126  164.668    0.440    0.246    3.322
  295.000  106.572  163.840    0.421    0.264    3.094
  295.250  100.025  163.982    0.410    0.277    2.882
  295.500   82.604  163.119    0.399    0.298    2.786
  295.750   63.977  163.295    0.390    0.300    2.747
  296.000   71.921  163.402    0.382    0.269    2.703
  296.250   78.035  163.508    0.378    0.239    2.715
  296.500   82.362  162.715    0.377    0.252    2.720
  296.750   81.262  162.856    0.378    0.291    2.729
  297.000   80.723  162.963    0.384    0.300    2.902
  297.250   79.602  163.069    0.391    0.287    2.964
  297.500   79.084  163.246    0.397    0.273    3.031
  297.750   86.425  162.418    0.407    0.258    3.099
  298.000   90.730  162.524    0.411    0.244    3.228
  298.250   93.248  161.660    0.410    0.218    3.300
  298.500   93.333  160.797    0.395    0.205    3.441
  298.750   92.794  159.934    0.379    0.196    3.521
  299.000   92.900  158.065    0.369    0.203    3.600
  299.250   92.382  157.202    0.376    0.210    3.546
  299.500   91.843  156.338    0.379    0.220    3.428
  299.750   92.531  155.510    0.385    0.233    3.253
  300.000   97.460  154.647    0.397    0.248    3.032
  300.250  101.163  154.789    0.416    0.247    2.872
  300.500  104.262  154.895    0.440    0.236    2.678
  300.750  112.809  155.036    0.468    0.241    2.635
  301.000  123.165  155.213    0.501    0.244    2.501
  301.250  125.059  156.359    0.535    0.253    2.559
  301.500  122.129  156.572    0.527    0.255    2.716
  301.750  116.788  156.678    0.507    0.262    2.882
  302.000  109.013  156.819    0.489    0.266    3.122
  302.250   94.628  156.996    0.471    0.270    3.246
  302.500   89.286  156.062    0.448    0.269    3.381
  302.750   94.216  156.239    0.437    0.254    3.589
  303.000   97.315  156.416    0.432    0.227    3.738
  303.250  100.394  156.593    0.449    0.192    3.904
  303.500  101.082  156.699    0.470    0.177    3.914
  303.750   97.591  156.840    0.447    0.188    3.925
  304.000   95.264  156.982    0.430    0.219    3.942
  304.250   94.704  157.123    0.418    0.236    3.953
  304.500   94.186  157.265    0.403    0.235    3.828
  304.750   95.540  157.406    0.390    0.212    3.767
  305.000   96.186  157.548    0.400    0.182    3.714
  305.250   98.682  157.689    0.427    0.171    3.658
  305.500  103.009  157.795    0.446    0.168    3.600
  305.750  108.542  158.043    0.449    0.178    3.543
  306.000  111.620  158.149    0.452    0.188    3.490
  306.250  116.549  158.255    0.455    0.190    3.437
  306.500  121.500  158.397    0.460    0.197    3.265
  306.750  123.351  158.573    0.463    0.201    3.530
  307.000  126.451  157.710    0.472    0.205    3.746
  307.250  128.345  156.811    0.472    0.227    3.976
  307.500  126.621  154.943    0.446    0.275    3.773
  307.750  123.088  153.075    0.427    0.320    3.514
  308.000  116.541  151.206    0.385    0.394    3.334
  308.250  107.582  151.383    0.369    0.401    3.108
  308.500   96.190  150.555    0.289    0.404    3.002
  308.750   87.834  150.661    0.269    0.393    2.905
  309.000   83.074  150.874    0.280    0.383    2.806
  309.250   77.150  150.980    0.301    0.363    2.767
  309.500   80.229  151.086    0.335    0.337    2.779
  309.750   87.570  151.263    0.355    0.312    2.786
  310.000   91.876  151.440    0.376    0.293    2.846
  310.250   91.400  152.515    0.397    0.291    2.915
  310.500   90.237  153.768    0.416    0.293    2.923
  310.750   90.343  153.874    0.419    0.286    2.991
  311.000   91.655  154.985    0.421    0.277    3.115
  311.250   93.548  156.202    0.424    0.277    3.185
