~VERSION INFORMATION
 VERS.                 2.0:   CWLS LOG ASCII STANDARD -VERSION 2.0
 WRAP.                  NO:   ONE LINE PER DEPTH STEP
~WELL INFORMATION BLOCK
#MNEM.UNIT           DATA                    DESCRIPTION OF MNEMONIC
#---------    -------------------            -------------------------------
# Generated from Intellog Unique Number	CC_84_87/WELL/1074
NULL.         -999.25                        : NULL_VALUE
WELL.         PARA ET AL GRANOR              : Well_name    - WELL
LOC .         07-02-084-18W4                 : Location     - LOCATION          
UWI .         00/07-02-084-18W400            : Uwi          - UNIQUE WELL ID    
ENTR.         JHS                            : Entered      - ENTERED BY        
SRVC.         COMPUTALOG                     : Scn          - SERVICE COMPANY   
DATE.         25 FEB 82                      : Date         - LOG DATE
STRT.M        100                            : top_depth    - START DEPTH       
STOP.M        289.9                          : bot_depth    - STOP DEPTH        
STEP.M        0.3                            : increment    - STEP LENGTH       
~CURVE INFORMATION BLOCK
#MNEM UNIT       ERCB CURVE CODE    CURVE DESCRIPTION
#-----------   ------------------   ----------------------------------
DEPT.M        00 001 00 00         : DEPTH        - DEPTH                       
DPHI.V/V      00 890 00 00         : PHID         - DENSITY POROSITY (LIMESTONE)
NPHI.V/V      00 330 00 00         : PHIN         - NEUTRON POROSITY (LIMESTONE)
GR  .API      00 310 00 00         : GR           - GAMMA RAY                   
ILD .OHMM     00 120 00 00         : RESD         - DEEP RESISTIVITY (DIL)      
~PARAMETER INFORMATION       
#MNEM.UNIT           DATA             DESCRIPTION OF MNEMONIC
#---------         -----------     ------------------------------
GL  .M        547.8                : gl           - GROUND LEVEL ELEVATION      
EREF.M        550.3                : kb           - ELEVATION OF DEPTH REFERENCE
DATM.M        550.3                : datum        - DATUM ELEVATION             
TDD .M        293                  : tdd          - TOTAL DEPTH DRILLER         
RUN .         ONE                  : Run          - RUN NUMBER                  
ENG .         BILL                 : Engineer     - RECORDING ENGINEER          
WIT .         JIM                  : Witness      - WITNESSED BY                
MUD .         GEL                  : Mud_type     - MUD TYPE                    
MATR.         LIMESTONE            : Logunit      - NEUTRON MATRIX              
TMAX.C        21                   : BHT          - MAXIMUM RECORDED TEMPERATURE
BHTD.M        293                  : BHTDEP       - MAXIMUM RECORDED TEMPERATURE
MATR.         1                    : LOGUNIT      - NEUTRON MATRIX              
RMT .C        25                   : MDTP         - TEMPERATURE OF MUD          
NEUT.         1                    : NEUTRON      - NEUTRON TYPE                
RESI.         0                    : RESIST       - RESISTIVITY TYPE            
RMC .OHMM     0.25                 : RMC          - RESISTIVITY OF MUD CAKE     
RMF .OHMM     0.25                 : RMF          - RESISTIVITY OF MUD FILTRATE 
SUFT.C        15                   : SUFT         - SURFACE TEMPERATURE         
~A  DEPTH     PHID     PHIN       GR     RESD
  100.000    0.250    0.434  116.056    2.690
  100.300    0.234    0.459  120.385    2.851
  100.600    0.239    0.471  122.248    2.907
  100.900    0.246    0.457  123.491    3.080
  101.200    0.249    0.472  116.711    3.142
  101.500    0.236    0.490  120.425    3.204
  101.800    0.236    0.510  116.731    3.206
  102.100    0.236    0.459  115.506    3.208
  102.400    0.245    0.460  120.454    3.211
  102.700    0.253    0.470  119.229    3.213
  103.000    0.239    0.392  119.857    3.277
  103.300    0.245    0.358  119.865    3.342
  103.600    0.240    0.378  116.172    3.475
  103.900    0.234    0.389  111.860    3.544
  104.200    0.224    0.416  108.784    3.683
  104.500    0.229    0.389  112.497    3.903
  104.800    0.230    0.377  114.976    3.980
  105.100    0.225    0.409  111.282    3.908
  105.400    0.226    0.455  106.354    3.765
  105.700    0.230    0.506   99.572    3.840
  106.000    0.119    0.348   78.593    4.147
  106.300    0.135    0.326   82.307    4.563
  106.600    0.193    0.379   94.664    5.630
  106.900    0.275    0.402   82.326    7.353
  107.200    0.300    0.458   69.373    9.977
  107.500    0.313    0.408   68.148   12.787
  107.800    0.283    0.423   97.172   14.899
  108.100    0.286    0.448   86.069   17.035
  108.400    0.319    0.431   58.917   18.047
  108.700    0.321    0.440   56.459   18.762
  109.000    0.331    0.451   60.171   19.501
  109.300    0.341    0.466   60.183   21.877
  109.600    0.347    0.484   63.278   22.741
  109.900    0.345    0.434   62.054   23.640
  110.200    0.322    0.410   59.593   23.656
  110.500    0.314    0.430   54.664   24.125
  110.800    0.316    0.476   55.291   24.145
  111.100    0.321    0.428   54.684   24.624
  111.400    0.272    0.342   50.990   26.088
  111.700    0.266    0.304   52.851   26.609
  112.000    0.283    0.365   70.145   25.147
  112.300    0.325    0.416   73.859   23.321
  112.600    0.339    0.432   75.105   21.627
  112.900    0.114    0.314   66.471   20.443
  113.200    0.180    0.324   60.307   19.690
  113.500    0.269    0.368   68.960   18.969
  113.800    0.328    0.398   73.908   18.273
  114.100    0.248    0.391   72.066   17.603
  114.400    0.246    0.435   68.372   16.325
  114.700    0.298    0.401   72.085   14.852
  115.000    0.289    0.334   94.935   12.763
  115.300    0.253    0.364   99.267    9.785
  115.600    0.269    0.356   99.276    6.951
  115.900    0.284    0.391  100.520    5.229
  116.200    0.274    0.396  110.407    4.165
  116.500    0.255    0.431  114.737    3.579
  116.800    0.257    0.399  109.810    3.319
  117.100    0.248    0.430  108.585    3.137
  117.400    0.244    0.465  104.890    3.139
  117.700    0.237    0.506   98.727    3.201
  118.000    0.247    0.473   82.069    3.523
  118.300    0.264    0.463   66.028    4.781
  118.600    0.285    0.422   64.805    6.739
  118.900    0.330    0.376   72.221   10.249
  119.200    0.324    0.387   65.440   13.387
  119.500    0.325    0.388   59.278   15.601
  119.800    0.319    0.410   58.670   15.611
  120.100    0.325    0.402   59.297   14.754
  120.400    0.324    0.397   69.801   13.173
  120.700    0.315    0.423   85.243   11.759
  121.000    0.275    0.461   82.166   10.496
  121.300    0.278    0.401   77.237    9.194
  121.600    0.294    0.376   90.211    8.526
  121.900    0.283    0.390   88.368    8.371
  122.200    0.292    0.464   64.303    8.377
  122.500    0.320    0.376   51.966    8.708
  122.800    0.324    0.355   65.557    9.768
  123.100    0.305    0.419   84.087   11.601
  123.400    0.290    0.401   87.799   13.777
  123.700    0.300    0.417   87.810   14.877
  124.000    0.285    0.428   81.029   14.061
  124.300    0.294    0.434   79.186   13.290
  124.600    0.311    0.384   88.457   14.081
  124.900    0.316    0.374   96.492   15.206
  125.200    0.295    0.358  105.760   15.806
  125.500    0.244    0.377  117.499   14.656
  125.800    0.226    0.417  121.215   11.896
  126.100    0.234    0.428  117.518    7.685
  126.400    0.251    0.420  114.442    6.605
  126.700    0.241    0.444  110.748    6.484
  127.000    0.242    0.388  102.732    6.740
  127.300    0.251    0.328   94.716    7.418
  127.600    0.250    0.344   96.580    8.980
  127.900    0.224    0.381  115.725   10.665
  128.200    0.209    0.380  125.611   11.300
  128.500    0.211    0.354  120.684   10.680
  128.800    0.211    0.357  112.667   10.288
  129.100    0.221    0.363  105.269    9.911
  129.400    0.229    0.390  109.600    9.731
  129.700    0.221    0.394  106.524    9.738
  130.000    0.231    0.334   94.187    9.560
  130.300    0.216    0.302  101.604    9.566
  130.600    0.215    0.302  111.491    9.574
  130.900    0.197    0.307  109.032    9.400
  131.200    0.191    0.296  115.832    9.054
  131.500    0.204    0.339  126.953    8.396
  131.800    0.208    0.377  131.901    7.496
  132.100    0.123    0.487  131.293    6.320
  132.400    0.111    0.470  136.859    5.642
  132.700    0.150    0.414  133.782    5.133
  133.000    0.160    0.404  128.854    4.945
  133.300    0.131    0.381  131.333    5.044
  133.600    0.162    0.369  138.750    5.144
  133.900    0.193    0.426  145.550    5.050
  134.200    0.198    0.503  141.856    4.595
  134.500    0.197    0.485  141.250    3.730
  134.800    0.227    0.431  135.702    3.459
  135.100    0.259    0.379  125.835    3.462
  135.400    0.244    0.363  120.907    3.809
  135.700    0.256    0.346  118.447    4.882
  136.000    0.273    0.348  116.604    7.013
  136.300    0.248    0.380  120.937    9.516
  136.600    0.241    0.457  125.885   10.675
  136.900    0.223    0.424  130.833    9.899
  137.200    0.213    0.350  137.632    8.189
  137.500    0.211    0.348  139.495    7.174
  137.800    0.227    0.396  129.626    7.044
  138.100    0.284    0.362  100.623    7.463
  138.400    0.326    0.309   96.312    8.057
  138.700    0.364    0.329   95.088   10.132
  139.000    0.361    0.357   88.306   17.943
  139.300    0.345    0.403   83.377   23.889
  139.600    0.313    0.421   80.917   23.455
  139.900    0.314    0.442   80.927   21.753
  140.200    0.326    0.473   85.875   21.354
  140.500    0.323    0.432   72.304   21.370
  140.800    0.321    0.452   75.400   22.216
  141.100    0.325    0.464   80.966   23.095
  141.400    0.324    0.443   76.654   22.672
  141.700    0.331    0.431   74.814   22.262
  142.000    0.326    0.444   77.292   22.275
  142.300    0.322    0.444   77.918   21.869
  142.600    0.331    0.449   72.990   21.475
  142.900    0.339    0.418   75.469   21.489
  143.200    0.329    0.393   76.714   21.099
  143.500    0.326    0.424   79.809   20.323
  143.800    0.321    0.426   80.437   19.211
  144.100    0.331    0.397   76.742   18.505
  144.400    0.335    0.426   73.666   18.167
  144.700    0.326    0.416   73.058   18.532
  145.000    0.331    0.363   74.302   18.901
  145.300    0.336    0.381   70.608   19.276
  145.600    0.342    0.396   67.531   19.289
  145.900    0.340    0.392   68.159   18.938
  146.200    0.336    0.407   73.107   17.232
  146.500    0.301    0.398   75.585   15.678
  146.800    0.292    0.392   82.386   13.996
  147.100    0.301    0.453   82.397   13.227
  147.400    0.353    0.473   73.763   13.492
  147.700    0.363    0.393   73.156   14.024
  148.000    0.278    0.353  100.944   12.761
  148.300    0.251    0.371  112.066    9.417
  148.600    0.256    0.394  111.457    6.083
  148.900    0.268    0.377  105.911    5.032
  149.201    0.260    0.383  108.390    4.325
  149.501    0.266    0.404  104.079    3.788
  149.801    0.252    0.440  102.854    3.513
  150.101    0.263    0.474   99.777    3.449
  150.401    0.278    0.540   91.144    3.585
  150.701    0.069    0.272   80.042    4.022
  151.001    0.063    0.216   71.410    5.669
  151.301    0.221    0.275   76.975    7.839
  151.601    0.312    0.398   90.566   10.436
  151.901    0.312    0.474   94.897   13.632
