~VERSION INFORMATION
 VERS.                 2.0:   CWLS LOG ASCII STANDARD -VERSION 2.0
 WRAP.                  NO:   ONE LINE PER DEPTH STEP
~WELL INFORMATION BLOCK
#MNEM.UNIT           DATA                    DESCRIPTION OF MNEMONIC
#---------    -------------------            -------------------------------
# Generated from Intellog Unique Number	CX_WELLS/WELL/2884
WELL.         06-12-088-17W4                 : Well_name    - WELL
LOC .         00/06-11-082-02W4/0            : Location     - LOCATION
UWI .         00/06-11-082-02W400            : Uwi          - UNIQUE WELL ID
ENTR.         T                              : Entered      - ENTERED BY
SRVC.         SCHLUMBERGER                   : Scn          - SERVICE COMPANY
STRT.F        400                            : top_depth    - START DEPTH
STOP.F        1029.92                        : bot_depth    - STOP DEPTH
STEP.F        0.82                           : increment    - STEP LENGTH
 NULL. -999.2500:NULL Value
~CURVE INFORMATION BLOCK
#MNEM UNIT       ERCB CURVE CODE    CURVE DESCRIPTION
#-----------   ------------------   ----------------------------------
DEPT.F        00 001 00 00         : DEPTH        - DEPTH
GR  .API      00 310 00 00         : GR           - GAMMA RAY
NPHI.V/V      00 330 00 00         : PHIN         - NEUTRON POROSITY (SANDSTONE)
DPHI.V/V      00 890 00 00         : PHID         - DENSITY POROSITY (SANDSTONE)
ILD .OHMM     00 120 00 00         : RESD         - DEEP RESISTIVITY (OTHER)
~PARAMETER INFORMATION
#MNEM.UNIT           DATA             DESCRIPTION OF MNEMONIC
#---------         -----------     ------------------------------
GL  .F        1552                 : gl           - GROUND LEVEL ELEVATION
EREF.F        1562                 : kb           - ELEVATION OF DEPTH REFERENCE
DATM.F        1562                 : datum        - DATUM ELEVATION
TDD .F        1295                 : tdd          - TOTAL DEPTH DRILLER
RUN .         ONE                  : Run          - RUN NUMBER
ENG .         BILL                 : Engineer     - RECORDING ENGINEER
WIT .         JIM                  : Witness      - WITNESSED BY
MUD .         GEL                  : Mud_type     - MUD TYPE
MATR.         SANDSTONE            : Logunit      - NEUTRON MATRIX
TMAX.F        71.6                 : BHT          - MAXIMUM RECORDED TEMPERATURE
BHTD.F        1292                 : BHTDEP       - MAXIMUM RECORDED TEMPERATURE
MATR.         1                    : LOGUNIT      - NEUTRON MATRIX
RMT .F        77                   : MDTP         - TEMPERATURE OF MUD
NEUT.         1                    : NEUTRON      - NEUTRON TYPE
RESI.         1.35                 : RESIST       - RESISTIVITY TYPE
RMC .OHMM     1.35                 : RMC          - RESISTIVITY OF MUD CAKE
RMF .OHMM     1.35                 : RMF          - RESISTIVITY OF MUD FILTRATE
SUFT.F        32                   : SUFT         - SURFACE TEMPERATURE
~A  DEPTH       GR     PHIN     PHID     RESD
# ...
  828.150   37.487    0.312    0.216    4.169
  828.970   36.995    0.324    0.217    4.109
  829.790   36.537    0.333    0.221    3.979
  830.610   36.079    0.337    0.223    3.992
  831.430   35.058    0.337    0.224    3.930
  832.251   34.600    0.334    0.223    3.870
  833.071   34.705    0.317    0.218    3.822
  833.891   35.442    0.304    0.208    3.760
  834.711   36.215    0.297    0.200    3.784
  835.531   36.952    0.297    0.200    3.796
  836.352   37.689    0.303    0.203    3.808
  837.172   43.242    0.311    0.204    3.828
  837.992   45.175    0.320    0.209    3.917
  838.812   44.717    0.333    0.217    3.934
  839.633   43.662    0.330    0.222    3.955
  840.453   43.766    0.323    0.215    3.972
  841.273   45.101    0.312    0.193    4.064
  842.093   45.276    0.304    0.190    4.154
  842.913   45.381    0.298    0.185    4.331
  843.734   45.520    0.287    0.177    4.600
  844.554   48.086    0.283    0.174    4.897
  845.374   50.651    0.280    0.171    5.005
  846.194   52.548    0.282    0.171    5.116
  847.014   61.687    0.285    0.166    5.048
  847.835   71.424    0.308    0.155    5.064
  848.655   90.160    0.343    0.132    5.091
  849.475   93.885    0.380    0.124    5.210
  850.295   92.830    0.392    0.129    5.232
  851.115   90.579    0.400    0.138    5.454
  851.936   86.500    0.407    0.144    5.587
  852.756   77.043    0.401    0.145    5.717
  853.576   74.827    0.396    0.141    5.735
  854.396   73.772    0.393    0.136    5.772
  855.217   73.912    0.388    0.137    5.784
  856.037   75.844    0.378    0.163    5.809
  856.857   80.765    0.368    0.177    5.625
  857.677   83.330    0.363    0.167    5.442
  858.497   80.447    0.377    0.159    5.264
  859.318   75.770    0.384    0.165    4.998
  860.138   71.129    0.388    0.179    4.825
  860.958   67.085    0.389    0.209    4.581
  861.778   63.042    0.387    0.221    4.269
  862.598   58.998    0.382    0.227    4.057
  863.419   57.977    0.380    0.231    3.925
  864.239   58.047    0.380    0.240    3.797
  865.059   59.417    0.379    0.251    3.673
  865.879   60.120    0.376    0.245    3.620
  866.699   63.247    0.371    0.242    3.502
  867.520   67.043    0.368    0.234    3.452
  868.340   68.940    0.370    0.221    3.532
  869.160   70.873    0.374    0.195    3.547
  869.980   71.013    0.379    0.188    3.558
  870.801   69.359    0.389    0.174    3.641
  871.621   66.511    0.394    0.175    3.726
  872.441   61.237    0.412    0.206    3.742
  873.261   52.975    0.427    0.230    3.757
  874.081   39.335    0.417    0.243    3.773
  874.902   35.326    0.403    0.258    3.723
  875.722   39.051    0.399    0.267    3.735
  876.542   42.144    0.397    0.264    3.617
  877.362   44.112    0.396    0.252    3.434
  878.182   41.228    0.394    0.243    3.322
  879.003   36.024    0.392    0.235    3.207
  879.823   34.406    0.391    0.242    3.106
  880.643   33.878    0.390    0.245    3.061
  881.463   34.651    0.390    0.246    3.077
  882.283   35.986    0.388    0.242    3.027
  883.104   36.688    0.388    0.238    3.046
  883.924   38.620    0.387    0.232    2.999
  884.744   39.358    0.387    0.229    2.959
  885.564   37.107    0.386    0.230    2.966
  886.385   35.454    0.383    0.232    2.872
  887.205   34.996    0.382    0.232    2.881
  888.025   35.171    0.379    0.233    2.793
  888.845   35.310    0.375    0.232    2.802
  889.665   34.852    0.370    0.233    2.759
  890.486   34.360    0.365    0.234    2.719
  891.306   32.109    0.356    0.234    2.731
  892.126   29.295    0.351    0.225    2.695
  892.946   28.767    0.346    0.211    2.706
  893.766   28.907    0.342    0.190    2.715
  894.587   33.265    0.344    0.185    2.726
  895.407   40.611    0.351    0.179    2.790
  896.227   45.567    0.359    0.158    2.805
  897.047   49.292    0.370    0.134    2.979
  897.867   52.420    0.386    0.111    3.224
  898.688   57.939    0.398    0.106    3.493
  899.508  109.719    0.407    0.109    3.777
  900.328  108.593    0.438    0.113    4.248
  901.148  103.952    0.466    0.124    4.960
  901.969   99.311    0.485    0.137    5.269
  902.789   94.634    0.511    0.142    5.193
  903.609   88.165    0.536    0.144    5.113
  904.429   84.719    0.510    0.135    5.135
  905.249   83.698    0.454    0.104    5.157
  906.070   85.068    0.416    0.106    5.185
  906.890   86.334    0.395    0.106    5.212
  907.710   87.668    0.380    0.103    5.127
  908.530   89.073    0.403    0.101    5.148
  909.350   89.213    0.411    0.102    4.986
  910.171   88.088    0.424    0.104    4.828
  910.991   76.838    0.396    0.108    4.754
  911.811   66.818    0.362    0.116    4.599
  912.631   58.556    0.349    0.122    4.454
  913.451   45.513    0.343    0.137    4.463
  914.272   39.044    0.342    0.159    4.327
  915.092   36.195    0.342    0.181    4.255
  915.912   35.737    0.341    0.198    4.117
  916.732   34.682    0.341    0.208    4.058
  917.552   32.994    0.342    0.217    3.925
  918.373   31.340    0.342    0.221    3.731
  919.193   30.883    0.344    0.222    3.669
  920.013   28.632    0.345    0.221    3.488
  920.833   26.381    0.347    0.221    3.311
  921.654   24.728    0.348    0.221    3.260
  922.474   24.867    0.347    0.219    3.217
  923.294   24.410    0.346    0.218    3.115
  924.114   24.549    0.341    0.216    3.071
  924.934   24.091    0.333    0.216    3.023
  925.755   23.036    0.331    0.216    2.983
  926.575   22.578    0.323    0.215    2.937
  927.395   22.085    0.316    0.216    2.892
  928.215   21.627    0.315    0.216    2.850
  929.035   21.767    0.315    0.214    2.862
  929.856   21.941    0.314    0.214    2.878
  930.676   22.046    0.314    0.213    2.893
  931.496   22.186    0.314    0.210    2.905
  932.316   22.958    0.314    0.209    2.912
  933.136   23.695    0.315    0.207    2.986
  933.957   24.433    0.314    0.202    3.052
  934.777   25.768    0.314    0.196    3.119
  935.597   27.700    0.316    0.188    3.255
  936.417   30.863    0.317    0.175    3.458
  937.238   34.589    0.322    0.162    3.747
  938.058   41.900    0.329    0.154    4.055
  938.878   51.636    0.337    0.140    4.308
  939.698   64.994    0.352    0.134    4.576
  940.518   77.718    0.369    0.124    4.860
  941.339   84.467    0.381    0.114    5.067
  942.159   85.802    0.391    0.103    5.383
  942.979   84.746    0.399    0.099    5.612
  943.799   80.070    0.407    0.104    5.742
  944.619   72.441    0.410    0.117    5.767
  945.440   63.581    0.410    0.133    5.374
  946.260   54.721    0.401    0.140    5.007
  947.080   45.862    0.391    0.154    4.666
  947.900   29.198    0.361    0.165    4.272
  948.720   23.397    0.348    0.176    4.124
  949.541   21.744    0.343    0.188    3.843
  950.361   21.285    0.342    0.195    3.515
  951.181   21.425    0.341    0.197    3.275
  952.001   20.967    0.338    0.200    3.165
  952.822   21.142    0.335    0.199    3.008
  953.642   21.212    0.333    0.197    2.859
  954.462   21.352    0.332    0.192    2.815
  955.282   22.159    0.333    0.185    2.827
  956.102   22.229    0.335    0.171    2.836
  956.923   23.564    0.339    0.161    2.854
  957.743   24.301    0.346    0.160    2.863
  958.563   26.831    0.354    0.162    2.927
  959.383   29.396    0.358    0.180    2.939
  960.203   28.306    0.366    0.189    3.011
  961.024   26.055    0.362    0.193    2.967
  961.844   23.804    0.360    0.193    2.871
  962.664   23.381    0.350    0.193    2.725
  963.484   23.486    0.345    0.194    2.737
  964.304   23.695    0.342    0.193    2.695
  965.125   23.765    0.339    0.193    2.656
  965.945   24.538    0.337    0.192    2.621
  966.765   24.080    0.335    0.189    2.635
  967.585   23.587    0.335    0.186    2.597
  968.406   23.164    0.337    0.183    2.557
  969.226   23.303    0.339    0.186    2.565
  970.046   24.006    0.340    0.185    2.528
