~VERSION INFORMATION
 VERS.                 2.0:   CWLS LOG ASCII STANDARD -VERSION 2.0
 WRAP.                  NO:   ONE LINE PER DEPTH STEP
~WELL INFORMATION BLOCK
#MNEM.UNIT           DATA                    DESCRIPTION OF MNEMONIC
#---------    -------------------            -------------------------------
# Generated from Intellog Unique Number	CS_73_76/WELL/774
WELL.         BOW VALLEY INDUSTRIES LTD.     : Well_name    - WELL
LOC .         00/07-33-073-16W4/0            : Location     - LOCATION
UWI .         00/07-33-073-16W4/0            : Uwi          - UNIQUE WELL ID
ENTR.         SP                             : Entered      - ENTERED BY
SRVC.         SCHLUMBERGER                   : Scn          - SERVICE COMPANY
STRT.M        245                            : top_depth    - START DEPTH
STOP.M        461                            : bot_depth    - STOP DEPTH
STEP.M        0.25                           : increment    - STEP LENGTH
 NULL. -999.2500:NULL Value
~CURVE INFORMATION BLOCK
#MNEM UNIT       ERCB CURVE CODE    CURVE DESCRIPTION
#-----------   ------------------   ----------------------------------
DEPT.M        00 001 00 00         : DEPTH        - DEPTH
ILD .OHMM     00 120 00 00         : RESD         - DEEP RESISTIVITY (DIL)
DPHI.V/V      00 890 00 00         : PHID         - DENSITY POROSITY (LIMESTONE)
NPHI.V/V      00 330 00 00         : PHIN         - NEUTRON POROSITY (LIMESTONE)
GR  .API      00 310 00 00         : GR           - GAMMA RAY
~PARAMETER INFORMATION
#MNEM.UNIT           DATA             DESCRIPTION OF MNEMONIC
#---------         -----------     ------------------------------
GL  .M        586.26               : gl           - GROUND LEVEL ELEVATION
EREF.M        589.81               : kb           - ELEVATION OF DEPTH REFERENCE
DATM.M        586.26               : datum        - DATUM ELEVATION
TDD .M        463                  : tdd          - TOTAL DEPTH DRILLER
RUN .         ONE                  : Run          - RUN NUMBER
ENG .         BILL                 : Engineer     - RECORDING ENGINEER
WIT .         JIM                  : Witness      - WITNESSED BY
MUD .         GEL                  : Mud_type     - MUD TYPE
MATR.         LIMESTONE            : Logunit      - NEUTRON MATRIX
TMAX.C        23                   : BHT          - MAXIMUM RECORDED TEMPERATURE
BHTD.M        463                  : BHTDEP       - MAXIMUM RECORDED TEMPERATURE
MATR.         1                    : LOGUNIT      - NEUTRON MATRIX
RMT .C        25                   : MDTP         - TEMPERATURE OF MUD
NEUT.         1                    : NEUTRON      - NEUTRON TYPE
RESI.         0                    : RESIST       - RESISTIVITY TYPE
RMC .OHMM     0.25                 : RMC          - RESISTIVITY OF MUD CAKE
RMF .OHMM     0.25                 : RMF          - RESISTIVITY OF MUD FILTRATE
SUFT.C        15                   : SUFT         - SURFACE TEMPERATURE
~A  DEPTH     RESD     PHID     PHIN       GR
# ...
  288.500    8.097    0.238    0.446   92.447
  288.750    9.065    0.193    0.457  100.990
  289.000    9.413    0.194    0.450  105.263
  289.250    9.776    0.233    0.447  105.269
  289.500    9.243    0.238    0.444  101.616
  289.750    8.577    0.244    0.450   93.087
  290.000    8.419    0.254    0.441   87.603
  290.250    8.581    0.264    0.429   81.510
  290.500    8.913    0.287    0.406   74.200
  290.750    9.255    0.299    0.396   70.546
  291.000    9.258    0.313    0.413   79.701
  291.250    9.797    0.299    0.415   84.584
  291.500    9.985    0.287    0.419   88.246
  291.750   10.176    0.276    0.431   81.545
  292.000   10.372    0.163    0.418   73.623
  292.250   10.571    0.131    0.363   64.483
  292.500   10.774    0.184    0.355   65.097
  292.750   10.981    0.240    0.377   71.813
  293.000   10.984    0.268    0.385   74.866
  293.250   11.195    0.264    0.392   76.699
  293.500   11.411    0.265    0.402   69.389
  293.750   11.414    0.267    0.406   70.614
  294.000   11.416    0.273    0.392   73.058
  294.250   11.636    0.273    0.398   77.945
  294.500   11.640    0.273    0.412   74.288
  294.750   11.641    0.282    0.414   66.370
  295.000   11.644    0.279    0.412   65.153
  295.250   11.869    0.277    0.398   66.990
  295.500   11.872    0.284    0.392   69.435
  295.750   11.875    0.274    0.388   72.488
  296.000   11.657    0.271    0.388   73.103
  296.250   11.443    0.266    0.397   70.061
  296.500   11.026    0.263    0.402   67.628
  296.750   10.823    0.260    0.398   67.022
  297.000   10.825    0.265    0.400   62.761
  297.250   10.626    0.276    0.408   60.328
  297.500   10.431    0.293    0.411   59.115
  297.750   10.632    0.311    0.431   58.509
  298.000   11.042    0.337    0.462   57.907
  298.250   11.253    0.348    0.478   56.693
  298.500   11.687    0.354    0.382   55.477
  298.750   11.913    0.317    0.392   53.043
  299.000   12.140    0.316    0.397   50.000
  299.250   11.919    0.321    0.410   46.958
  299.500   11.921    0.326    0.422   46.962
  299.750   11.925    0.327    0.409   48.797
  300.000   11.927    0.333    0.409   51.851
  300.250   11.931    0.328    0.413   51.248
  300.500   11.934    0.317    0.414   49.423
  300.750   11.936    0.313    0.415   49.431
  301.000   12.166    0.306    0.417   50.044
  301.250   12.169    0.301    0.430   51.270
  301.500   12.403    0.302    0.432   53.718
  301.750   12.406    0.304    0.425   53.723
  302.000   12.409    0.304    0.424   53.727
  302.250   12.413    0.304    0.422   52.512
  302.500   12.416    0.302    0.412   49.469
  302.750   12.420    0.306    0.395   51.305
  303.000   12.422    0.303    0.392   54.968
  303.250   12.427    0.290    0.387   56.194
  303.500   12.429    0.286    0.397   54.371
  303.750   12.667    0.288    0.403   53.766
  304.000   12.672    0.291    0.405   54.992
  304.250   12.674    0.299    0.394   56.215
  304.500   12.679    0.300    0.410   56.831
  304.750   12.683    0.297    0.415   54.399
  305.000   12.450    0.297    0.417   54.404
  305.250   12.453    0.303    0.415   55.629
  305.500   12.455    0.311    0.405   55.634
  305.750   12.459    0.317    0.395   53.201
  306.000   12.462    0.317    0.399   50.767
  306.250   12.464    0.311    0.406   50.165
  306.500   12.236    0.313    0.409   50.169
  306.750   12.239    0.316    0.407   51.398
  307.000   12.016    0.318    0.401   52.012
  307.250   12.018    0.322    0.391   52.625
  307.500   11.797    0.318    0.394   53.240
  307.750   11.801    0.317    0.399   51.417
  308.000   11.585    0.329    0.399   51.422
  308.250   11.587    0.324    0.400   53.866
  308.500   11.591    0.311    0.400   57.533
  308.750   11.593    0.306    0.394   59.976
  309.000   11.596    0.317    0.391   58.761
  309.250   11.599    0.319    0.399   56.328
  309.500   11.604    0.323    0.412   58.774
  309.750   11.606    0.325    0.406   60.607
  310.000   11.608    0.326    0.397   58.175
  310.250   11.612    0.329    0.394   56.960
  310.500   11.835    0.334    0.386   60.017
  310.750   11.837    0.339    0.388   61.240
  311.000   11.842    0.340    0.401   59.416
  311.250   11.843    0.341    0.404   60.643
  311.500   11.847    0.337    0.391   62.477
  311.750   11.850    0.336    0.396   63.702
  312.000   11.852    0.334    0.397   62.489
  312.250   12.081    0.331    0.403   65.544
  312.500   12.083    0.329    0.410   66.158
  312.750   12.088    0.328    0.411   64.334
  313.000   12.090    0.329    0.412   64.952
  313.250   12.092    0.332    0.414   65.564
  313.500   11.871    0.342    0.414   66.180
  313.750   11.653    0.345    0.407   71.066
  314.000   11.441    0.347    0.406   74.119
  314.250   11.442    0.353    0.418   77.173
  314.500   11.446    0.354    0.429   74.131
  314.750   11.448    0.354    0.432   72.916
  315.000   11.452    0.354    0.432   71.093
  315.250   11.672    0.351    0.428   69.878
  315.500   11.896    0.343    0.430   68.055
  315.750   11.899    0.343    0.434   67.452
  316.000   11.903    0.343    0.446   68.067
  316.250   11.905    0.343    0.441   68.072
  316.500   12.135    0.342    0.441   68.078
  316.750   11.911    0.342    0.446   68.084
  317.000   11.914    0.341    0.435   68.090
  317.250   11.918    0.341    0.438   67.486
  317.500   11.921    0.341    0.455   66.271
  317.750   11.923    0.346    0.461   65.059
  318.000   11.926    0.347    0.451   64.453
  318.250   11.930    0.347    0.461   63.848
  318.500   11.934    0.349    0.440   64.467
  318.750   11.937    0.335    0.423   65.082
  319.000   11.939    0.330    0.417   64.475
  319.250   11.944    0.324    0.434   61.434
  319.500   11.724    0.325    0.445   59.609
  319.750   11.727    0.328    0.448   62.054
  320.000   11.731    0.337    0.451   63.278
  320.250   11.733    0.347    0.457   62.065
  320.500   11.735    0.358    0.457   59.631
  320.750   11.738    0.349    0.441   57.807
  321.000   11.742    0.338    0.437   56.594
  321.250   11.745    0.335    0.432   57.821
  321.500   11.749    0.338    0.440   58.434
  321.750   11.751    0.344    0.445   60.269
  322.000   11.755    0.343    0.456   61.495
  322.250   11.757    0.334    0.467   63.331
  322.500   11.761    0.334    0.470   63.945
  322.750   11.764    0.337    0.465   65.171
  323.000   11.766    0.339    0.436   65.175
  323.250   11.769    0.337    0.430   65.182
  323.500   11.773    0.336    0.425   63.968
  323.750   11.775    0.337    0.430   63.975
  324.000   11.559    0.328    0.434   63.979
  324.250   11.562    0.325    0.443   65.203
  324.500   11.566    0.331    0.464   68.259
  324.750   11.569    0.338    0.478   69.484
  325.000   11.357    0.342    0.481   70.098
  325.250   11.359    0.340    0.473   68.277
  325.500   11.151    0.344    0.458   68.891
  325.750   10.946    0.343    0.445   70.726
  326.000   10.545    0.337    0.447   73.170
  326.250    9.971    0.329    0.458   75.005
  326.500    9.606    0.321    0.455   75.620
  326.750    9.430    0.302    0.473   73.796
  327.000    9.257    0.247    0.478   65.874
  327.250    9.087    0.044    0.408   57.343
  327.500    9.089    0.062    0.246   62.229
  327.750    8.922    0.193    0.335   68.331
  328.000    8.759    0.230    0.392   73.216
  328.250    8.598    0.247    0.420   75.050
  328.500    8.129    0.253    0.421   77.496
  328.750    7.980    0.248    0.406   78.110
  329.000    7.983    0.255    0.405   75.067
  329.250    7.985    0.262    0.426   73.244
  329.500    7.986    0.270    0.442   72.640
  329.750    8.295    0.280    0.430   69.597
  330.000    8.453    0.281    0.422   67.162
  330.250    8.617    0.272    0.411   78.144
  330.500    8.458    0.242    0.430   86.076
  330.750    7.849    0.228    0.434   95.839
  331.000    7.283    0.218    0.438  101.943
  331.250    6.509    0.218    0.464  106.827
  331.500    6.270    0.230    0.496  103.785
  331.750    5.397    0.236    0.509  101.959
