~VERSION INFORMATION
 VERS.                 2.0:   CWLS LOG ASCII STANDARD -VERSION 2.0
 WRAP.                  NO:   ONE LINE PER DEPTH STEP
~WELL INFORMATION BLOCK
#MNEM.UNIT           DATA                    DESCRIPTION OF MNEMONIC
#---------    -------------------            -------------------------------
# Generated from Intellog Unique Number	CC_80_83/WELL/1183
NULL.         -999.25                        : NULL_VALUE
WELL.         PARA ET AL GRANOR              : Well_name    - WELL
LOC .         07-14-083-18W4                 : Location     - LOCATION          
UWI .         00/07-14-083-18W400            : Uwi          - UNIQUE WELL ID    
ENTR.         DW                             : Entered      - ENTERED BY        
SRVC.         COMPUTALOG                     : Scn          - SERVICE COMPANY   
DATE.         19 JAN 83                      : Date         - LOG DATE
STRT.M        105                            : top_depth    - START DEPTH       
STOP.M        294.9                          : bot_depth    - STOP DEPTH        
STEP.M        0.3                            : increment    - STEP LENGTH       
~CURVE INFORMATION BLOCK
#MNEM UNIT       ERCB CURVE CODE    CURVE DESCRIPTION
#-----------   ------------------   ----------------------------------
DEPT.M        00 001 00 00         : DEPTH        - DEPTH                       
DPHI.V/V      00 890 00 00         : PHID         - DENSITY POROSITY (LIMESTONE)
NPHI.V/V      00 330 00 00         : PHIN         - NEUTRON POROSITY (LIMESTONE)
GR  .API      00 310 00 00         : GR           - GAMMA RAY                   
ILD .OHMM     00 120 00 00         : RESD         - DEEP RESISTIVITY (DIL)      
~PARAMETER INFORMATION       
#MNEM.UNIT           DATA             DESCRIPTION OF MNEMONIC
#---------         -----------     ------------------------------
GL  .M        552.71               : gl           - GROUND LEVEL ELEVATION      
EREF.M        555.71               : kb           - ELEVATION OF DEPTH REFERENCE
DATM.M        555.71               : datum        - DATUM ELEVATION             
TDD .M        298                  : tdd          - TOTAL DEPTH DRILLER         
RUN .         ONE                  : Run          - RUN NUMBER                  
ENG .         BILL                 : Engineer     - RECORDING ENGINEER          
WIT .         JIM                  : Witness      - WITNESSED BY                
MUD .         GEL                  : Mud_type     - MUD TYPE                    
MATR.         LIMESTONE            : Logunit      - NEUTRON MATRIX              
TMAX.C        23                   : BHT          - MAXIMUM RECORDED TEMPERATURE
BHTD.M        298                  : BHTDEP       - MAXIMUM RECORDED TEMPERATURE
MATR.         1                    : LOGUNIT      - NEUTRON MATRIX              
RMT .C        25                   : MDTP         - TEMPERATURE OF MUD          
NEUT.         1                    : NEUTRON      - NEUTRON TYPE                
RESI.         0                    : RESIST       - RESISTIVITY TYPE            
RMC .OHMM     0.25                 : RMC          - RESISTIVITY OF MUD CAKE     
RMF .OHMM     0.25                 : RMF          - RESISTIVITY OF MUD FILTRATE 
SUFT.C        15                   : SUFT         - SURFACE TEMPERATURE         
~A  DEPTH     PHID     PHIN       GR     RESD
# ...
  157.201    0.403    0.395   76.711   11.415
  157.501    0.379    0.384   81.149   11.635
  157.801    0.355    0.414   79.258   12.323
  158.101    0.374    0.438   73.569   13.051
  158.401    0.381    0.439   69.781   13.303
  158.701    0.381    0.421   67.257   13.301
  159.001    0.379    0.389   65.997   13.300
  159.301    0.383    0.406   66.638   12.554
  159.601    0.383    0.420   65.382   12.080
  159.901    0.381    0.409   70.452   11.403
  160.201    0.380    0.396   74.892   11.402
  160.501    0.383    0.418   73.633   11.400
  160.801    0.371    0.410   69.210   11.182
  161.101    0.375    0.389   68.587   10.158
  161.401    0.390    0.435   70.495    8.712
  161.701    0.375    0.443   73.665    7.763
  162.001    0.331    0.441   86.966    7.762
  162.301    0.322    0.429   88.872    8.708
  162.601    0.334    0.407   85.083   10.348
  162.901    0.354    0.392   80.027   11.389
  163.201    0.375    0.392   74.339   11.833
  163.501    0.387    0.386   71.180   11.832
  163.801    0.394    0.379   68.024   11.385
  164.101    0.391    0.425   62.968   11.168
  164.401    0.394    0.420   59.179   10.954
  164.701    0.402    0.405   61.085   10.540
  165.001    0.435    0.412   64.892   10.539
  165.301    0.441    0.509   61.101   11.162
  165.601    0.382    0.474   51.615   12.051
  165.901    0.351    0.430   53.521   13.011
  166.201    0.372    0.402   66.190   13.518
  166.501    0.385    0.388   67.463   13.517
  166.801    0.375    0.398   66.206   13.515
  167.101    0.372    0.406   66.845   13.256
  167.401    0.372    0.400   73.184   13.255
  167.701    0.372    0.376   78.889   13.510
  168.001    0.376    0.362   80.794   13.509
  168.301    0.383    0.366   64.346   13.506
  168.601    0.385    0.362   72.583   13.248
  168.901    0.382    0.386   78.287   13.247
  169.201    0.381    0.388   70.068   13.245
  169.501    0.381    0.372   68.177   12.992
  169.801    0.382    0.362   71.985   12.991
  170.101    0.383    0.362   74.522   12.742
  170.401    0.383    0.367   75.795   12.498
  170.701    0.383    0.379   77.072   12.260
  171.001    0.384    0.393   77.077   11.796
  171.301    0.383    0.436   76.456   11.795
  171.601    0.382    0.434   76.460   11.793
  171.901    0.381    0.397   73.937   11.792
  172.201    0.382    0.368   66.981   11.791
  172.501    0.378    0.362   73.953   11.790
  172.801    0.379    0.377   77.124   12.016
  173.101    0.386    0.382   65.739   11.786
  173.401    0.364    0.389   72.710   11.785
  173.701    0.325    0.411   73.983   11.784
  174.001    0.347    0.426   70.826   11.783
  174.301    0.383    0.424   75.266   11.557
  174.601    0.390    0.402   76.539   12.240
  174.901    0.388    0.410   86.042   14.546
  175.201    0.337    0.436   93.012   16.957
  175.501    0.258    0.290   89.855   17.618
  175.801    0.313    0.300   72.139   15.701
  176.101    0.367    0.372   58.225   15.699
  176.401    0.395    0.409   56.965   14.261
  176.701    0.389    0.390   55.073   12.467
  177.001    0.418    0.417   57.614   11.544
  177.301    0.423    0.408   65.220   11.994
  177.601    0.388    0.383   67.757   12.226
  177.901    0.380    0.404   65.868   13.200
  178.201    0.361    0.407   63.342   13.980
  178.501    0.269    0.319   59.553   14.806
  178.801    0.240    0.309   50.699   15.091
  179.101    0.305    0.360   49.441   15.679
  179.401    0.376    0.385   54.513   15.981
  179.701    0.388    0.396   58.318   16.289
  180.001    0.400    0.410   60.859   16.924
  180.301    0.410    0.411   51.372   17.249
  180.601    0.405    0.389   47.583   17.581
  180.901    0.406    0.376   49.489   17.580
  181.201    0.410    0.396   53.294   17.577
  181.501    0.414    0.408   50.139   17.576
  181.801    0.409    0.405   50.778   17.574
  182.101    0.406    0.398   52.687   17.572
  182.401    0.411    0.399   52.693   17.570
  182.701    0.415    0.392   50.171   17.234
  183.001    0.415    0.384   48.913   17.231
  183.301    0.409    0.401   50.818   17.230
  183.601    0.401    0.415   51.460   17.227
  183.901    0.396    0.417   49.568   16.898
  184.201    0.402    0.416   45.779   16.896
  184.501    0.404    0.409   48.951   16.893
  184.801    0.402    0.400   53.390   16.570
  185.101    0.399    0.391   48.967   16.568
  185.401    0.399    0.407   45.179   16.888
  185.701    0.397    0.434   46.451   16.886
  186.001    0.392    0.439   44.561   16.562
  186.301    0.387    0.414   43.302   16.246
  186.601    0.388    0.404   47.108   16.244
  186.901    0.396    0.400   42.053   16.242
  187.201    0.401    0.398   40.796   16.875
  187.501    0.398    0.391   40.802   16.873
  187.801    0.396    0.376   41.444   16.871
  188.101    0.396    0.392   41.451   16.869
  188.401    0.391    0.402   44.625   16.867
  188.701    0.387    0.423   45.264   16.545
  189.001    0.392    0.411   40.842   16.863
  189.301    0.392    0.401   38.952   16.861
  189.601    0.390    0.406   41.490   17.185
  189.901    0.391    0.412   46.564   17.855
  190.201    0.392    0.415   48.469   18.911
  190.501    0.391    0.422   45.313   19.275
  190.801    0.383    0.425   45.956   19.646
  191.101    0.374    0.408   47.228   19.644
  191.401    0.369    0.404   45.338   19.268
  191.701    0.374    0.408   44.079   18.901
  192.001    0.379    0.414   44.722   18.539
  192.301    0.381    0.409   44.728   18.184
  192.601    0.382    0.388   45.368   18.182
  192.901    0.387    0.387   46.643   17.834
  193.201    0.386    0.398   46.017   17.161
  193.501    0.383    0.396   46.660   17.158
  193.801    0.377    0.401   48.566   17.157
  194.101    0.365    0.407   53.637   17.155
  194.401    0.353    0.407   58.078   16.827
  194.701    0.349    0.406   59.984   15.883
  195.001    0.369    0.404   59.990   14.708
  195.301    0.390    0.379   58.100   14.152
  195.601    0.384    0.374   58.740   13.882
  195.901    0.328    0.400   63.812   14.150
  196.201    0.335    0.392   63.189   13.615
  196.501    0.370    0.393   60.664   12.133
  196.801    0.374    0.393   60.038   10.607
  197.101    0.369    0.385   65.109    8.754
  197.401    0.347    0.377   76.512    7.225
  197.701    0.295    0.383   89.811    6.196
  198.001    0.207    0.398   93.617    5.962
  198.301    0.219    0.425  103.753    5.848
  198.601    0.236    0.453  121.485    5.961
  198.901    0.206    0.462  122.127    5.960
  199.201    0.211    0.450  120.869    5.735
  199.501    0.266    0.444  120.242    5.518
  199.801    0.274    0.442  118.351    5.310
  200.101    0.269    0.447  118.359    5.208
  200.401    0.259    0.495  124.697    5.109
  200.701    0.251    0.484  127.870    5.108
  201.001    0.257    0.473  129.143    5.107
  201.301    0.254    0.487  121.558    5.107
  201.601    0.249    0.484  119.665    5.009
  201.901    0.277    0.457  119.041    4.913
  202.201    0.284    0.475  123.481    4.913
  202.501    0.269    0.461  123.487    5.007
  202.801    0.258    0.459  121.595    5.303
  203.101    0.251    0.474  116.540    5.726
  203.401    0.320    0.486  113.384    6.804
  203.701    0.342    0.466  107.062    8.565
  204.001    0.314    0.453   97.575   10.376
  204.301    0.252    0.415   87.455   13.060
  204.601    0.198    0.334   74.171   14.100
  204.901    0.296    0.354   72.280   13.310
  205.201    0.317    0.420   76.086   11.415
  205.501    0.283    0.404   84.322   10.775
  205.801    0.286    0.422   98.256   10.170
  206.101    0.312    0.419   96.364   10.170
  206.401    0.288    0.387   92.575   10.168
  206.701    0.273    0.385   98.913   10.364
  207.001    0.280    0.397  102.086   10.768
  207.301    0.287    0.400   99.561   11.188
  207.601    0.291    0.402   96.406   11.187
  207.901    0.279    0.412   95.783   11.185
  208.201    0.252    0.435   95.155   10.972
  208.501    0.252    0.430   95.796   10.761
  208.801    0.268    0.405   97.070   10.760
  209.101    0.273    0.398  100.241   10.555
