~VERSION INFORMATION
 VERS.                 2.0:   CWLS LOG ASCII STANDARD -VERSION 2.0
 WRAP.                  NO:   ONE LINE PER DEPTH STEP
~WELL INFORMATION BLOCK
#MNEM.UNIT           DATA                    DESCRIPTION OF MNEMONIC
#---------    -------------------            -------------------------------
# Generated from Intellog Unique Number	CS_67_68/WELL/785
WELL.         CANADIAN HOMESTEAD OILS        : Well_name    - WELL
LOC .         00/07-36-068-10W4/0            : Location     - LOCATION
UWI .         00/07-36-068-10W4/0            : Uwi          - UNIQUE WELL ID
ENTR.         SP                             : Entered      - ENTERED BY
SRVC.         SCHLUMBERGER                   : Scn          - SERVICE COMPANY
STRT.M        445                            : top_depth    - START DEPTH
STOP.M        665                            : bot_depth    - STOP DEPTH
STEP.M        0.25                           : increment    - STEP LENGTH
 NULL. -999.2500:NULL Value
~CURVE INFORMATION BLOCK
#MNEM UNIT       ERCB CURVE CODE    CURVE DESCRIPTION
#-----------   ------------------   ----------------------------------
DEPT.M        00 001 00 00         : DEPTH        - DEPTH
ILD .OHMM     00 120 00 00         : RESD         - DEEP RESISTIVITY (DIL)
DPHI.V/V      00 890 00 00         : PHID         - DENSITY POROSITY (LIMESTONE)
NPHI.V/V      00 330 00 00         : PHIN         - NEUTRON POROSITY (LIMESTONE)
GR  .API      00 310 00 00         : GR           - GAMMA RAY
~PARAMETER INFORMATION
#MNEM.UNIT           DATA             DESCRIPTION OF MNEMONIC
#---------         -----------     ------------------------------
GL  .M        768.6                : gl           - GROUND LEVEL ELEVATION
EREF.M        761.69               : kb           - ELEVATION OF DEPTH REFERENCE
DATM.M        768.6                : datum        - DATUM ELEVATION
TDD .M        667                  : tdd          - TOTAL DEPTH DRILLER
RUN .         ONE                  : Run          - RUN NUMBER
ENG .         BILL                 : Engineer     - RECORDING ENGINEER
WIT .         JIM                  : Witness      - WITNESSED BY
MUD .         GEL                  : Mud_type     - MUD TYPE
MATR.         LIMESTONE            : Logunit      - NEUTRON MATRIX
TMAX.C        25                   : BHT          - MAXIMUM RECORDED TEMPERATURE
BHTD.M        667                  : BHTDEP       - MAXIMUM RECORDED TEMPERATURE
MATR.         1                    : LOGUNIT      - NEUTRON MATRIX
RMT .C        25                   : MDTP         - TEMPERATURE OF MUD
NEUT.         1                    : NEUTRON      - NEUTRON TYPE
RESI.         0                    : RESIST       - RESISTIVITY TYPE
RMC .OHMM     0.25                 : RMC          - RESISTIVITY OF MUD CAKE
RMF .OHMM     0.25                 : RMF          - RESISTIVITY OF MUD FILTRATE
SUFT.C        15                   : SUFT         - SURFACE TEMPERATURE
~A  DEPTH     RESD     PHID     PHIN       GR
# ...
  532.000    5.733    0.338    0.452   61.639
  532.250    5.864    0.325    0.451   60.308
  532.500    6.043    0.314    0.453   60.623
  532.750    6.135    0.319    0.456   64.290
  533.000    6.183    0.329    0.448   65.822
  533.250    6.219    0.334    0.442   67.172
  533.500    6.198    0.344    0.446   67.973
  533.750    6.098    0.346    0.458   68.288
  534.000    6.066    0.342    0.465   67.871
  534.250    6.102    0.331    0.469   66.967
  534.500    6.149    0.324    0.465   65.455
  534.750    6.175    0.322    0.464   64.733
  535.000    6.018    0.318    0.472   66.204
  535.250    5.599    0.320    0.470   69.078
  535.500    5.357    0.335    0.474   70.976
  535.750    5.241    0.349    0.482   72.205
  536.000    5.262    0.343    0.486   72.459
  536.250    5.293    0.344    0.490   70.335
  536.500    5.305    0.352    0.492   68.943
  536.750    5.306    0.347    0.495   71.453
  537.000    5.308    0.338    0.486   72.985
  537.250    5.319    0.333    0.476   74.152
  537.500    5.512    0.326    0.467   73.796
  537.750    6.051    0.318    0.460   69.906
  538.000    6.423    0.310    0.452   65.772
  538.250    7.291    0.298    0.337   61.883
  538.500    7.568    0.257    0.299   58.907
  538.750    7.799    0.054    0.265   58.064
  539.000    7.559    0.102    0.433   62.460
  539.250    6.840    0.283    0.433   67.588
  539.500    6.178    0.302    0.438   71.741
  539.750    5.889    0.308    0.444   76.567
  540.000    5.740    0.277    0.446   79.865
  540.250    5.720    0.244    0.449   81.823
  540.500    5.669    0.231    0.453   79.153
  540.750    5.640    0.226    0.458   76.909
  541.000    5.632    0.233    0.466   75.640
  541.250    5.654    0.241    0.466   75.222
  541.500    5.645    0.267    0.460   75.353
  541.750    5.626    0.285    0.461   76.034
  542.000    5.629    0.294    0.473   75.985
  542.250    5.651    0.264    0.490   76.055
  542.500    5.705    0.252    0.499   76.246
  542.750    5.771    0.256    0.504   76.683
  543.000    5.881    0.258    0.494   77.239
  543.250    5.818    0.274    0.484   78.408
  543.500    5.756    0.289    0.477   79.940
  543.750    5.822    0.308    0.459   81.290
  544.000    5.933    0.285    0.445   83.005
  544.250    6.125    0.251    0.441   83.992
  544.500    6.347    0.231    0.450   84.122
  544.750    6.492    0.215    0.458   81.146
  545.000    6.654    0.207    0.456   77.073
  545.250    6.755    0.196    0.458   77.449
  545.500    6.708    0.188    0.456   79.469
  545.750    6.734    0.197    0.449   80.639
  546.000    6.851    0.216    0.439   81.074
  546.250    6.903    0.214    0.433   80.961
  546.500    7.010    0.207    0.428   79.935
  546.750    7.077    0.212    0.423   78.363
  547.000    7.118    0.219    0.426   77.579
  547.250    7.107    0.217    0.428   76.918
  547.500    6.967    0.212    0.424   77.902
  547.750    6.740    0.233    0.423   79.618
  548.000    6.424    0.247    0.454   81.273
  548.250    5.978    0.254    0.474   82.866
  548.500    5.729    0.240    0.481   83.670
  548.750    5.431    0.230    0.483   83.983
  549.000    5.264    0.232    0.492   85.213
  549.250    5.149    0.239    0.484   86.257
  549.500    5.066    0.242    0.480   87.180
  549.750    5.002    0.230    0.481   88.411
  550.000    4.958    0.222    0.488   88.906
  550.250    4.859    0.217    0.492   87.819
  550.500    4.692    0.224    0.507   85.882
  550.750    4.448    0.224    0.506   85.038
  551.000    4.216    0.234    0.492   84.923
  551.250    3.872    0.262    0.487   86.335
  551.500    3.739    0.268    0.499   87.624
  551.750    3.525    0.251    0.521   88.243
  552.000    3.397    0.246    0.519   85.815
  552.250    3.299    0.242    0.516   86.129
  552.500    3.263    0.235    0.509   88.882
  552.750    3.216    0.230    0.507   89.806
  553.000    3.211    0.226    0.514   88.169
  553.250    3.315    0.241    0.519   86.351
  553.500    3.494    0.261    0.525   85.814
  553.750    3.736    0.275    0.519   86.249
  554.000    3.988    0.286    0.500   86.929
  554.250    4.469    0.276    0.480   87.122
  554.500    4.545    0.263    0.464   87.132
  554.750    4.727    0.248    0.461   86.716
  555.000    4.862    0.241    0.461   86.421
  555.250    4.973    0.233    0.464   85.882
  555.500    5.012    0.237    0.467   85.222
  555.750    5.023    0.249    0.470   84.561
  556.000    4.987    0.248    0.465   83.107
  556.250    4.843    0.249    0.465   80.681
  556.500    4.515    0.263    0.468   78.192
  556.750    4.232    0.284    0.474   74.731
  557.000    4.133    0.289    0.490   72.850
  557.250    4.494    0.288    0.495   71.275
  557.500    4.563    0.302    0.492   69.335
  557.750    4.641    0.313    0.486   66.604
  558.000    4.686    0.322    0.480   63.993
  558.250    4.732    0.329    0.474   61.323
  558.500    4.768    0.328    0.470   59.869
  558.750    4.779    0.324    0.465   58.356
  559.000    4.745    0.317    0.462   57.086
  559.250    4.668    0.321    0.473   55.999
  559.500    4.558    0.331    0.465   55.460
  559.750    4.501    0.334    0.449   56.201
  560.000    4.519    0.327    0.441   59.076
  560.250    4.579    0.284    0.436   60.668
  560.500    4.701    0.136    0.435   61.897
  560.750    5.267    0.096    0.444   60.139
  561.000    5.846    0.077    0.297   58.017
  561.250    6.405    0.196    0.260   62.901
  561.500    6.649    0.223    0.309   66.692
  561.750    6.005    0.254    0.422   68.465
  562.000    4.598    0.267    0.461   70.425
  562.250    4.024    0.203    0.457   70.860
  562.500    3.937    0.179    0.403   72.211
  562.750    4.049    0.182    0.394   73.744
  563.000    4.066    0.201    0.411   74.972
  563.250    4.030    0.218    0.434   74.738
  563.500    3.942    0.231    0.459   73.653
  563.750    3.857    0.243    0.480   74.697
  564.000    3.710    0.262    0.477   77.938
  564.250    3.543    0.272    0.482   79.897
  564.500    3.447    0.281    0.486   81.002
  564.750    3.519    0.280    0.492   80.889
  565.000    3.587    0.273    0.497   78.523
  565.250    3.628    0.266    0.489   77.742
  565.500    3.670    0.261    0.484   78.117
  565.750    3.719    0.263    0.483   78.310
  566.000    3.769    0.271    0.487   78.441
  566.250    3.834    0.267    0.509   78.328
  566.500    3.885    0.272    0.513   78.156
  566.750    3.893    0.281    0.502   77.983
  567.000    3.873    0.275    0.487   76.834
  567.250    3.867    0.268    0.479   75.198
  567.500    3.897    0.261    0.469   74.844
  567.750    3.942    0.253    0.474   77.231
  568.000    3.988    0.248    0.479   78.396
  568.250    4.034    0.244    0.475   79.382
  568.500    4.095    0.242    0.473   79.635
  568.750    4.150    0.245    0.477   79.401
  569.000    4.190    0.248    0.489   80.020
  569.250    4.200    0.256    0.494   81.310
  569.500    4.232    0.249    0.486   83.088
  569.750    4.265    0.241    0.483   84.496
  570.000    4.299    0.236    0.487   86.030
  570.250    4.292    0.233    0.480   87.197
  570.500    4.246    0.231    0.476   88.364
  570.750    4.146    0.231    0.477   90.141
  571.000    3.843    0.238    0.498   92.590
  571.250    3.302    0.250    0.516   93.572
  571.500    2.954    0.263    0.544   92.486
  571.750    2.673    0.276    0.558   92.496
  572.000    2.483    0.275    0.548   93.236
  572.250    2.328    0.273    0.543   94.038
  572.500    2.166    0.271    0.558   94.596
  572.750    2.095    0.291    0.576   95.277
  573.000    1.990    0.308    0.590   96.260
  573.250    1.968    0.312    0.597   97.184
  573.500    1.962    0.300    0.595   97.072
  573.750    1.973    0.284    0.587   94.827
  574.000    2.034    0.272    0.574   91.791
  574.250    2.155    0.263    0.560   89.363
  574.500    2.237    0.265    0.546   86.327
  574.750    2.327    0.271    0.535   84.936
  575.000    2.384    0.276    0.527   85.373
  575.250    2.430    0.288    0.523   86.785
