~VERSION INFORMATION
 VERS.                 2.0:   CWLS LOG ASCII STANDARD -VERSION 2.0
 WRAP.                  NO:   ONE LINE PER DEPTH STEP
~WELL INFORMATION BLOCK
#MNEM.UNIT           DATA                    DESCRIPTION OF MNEMONIC
#---------    -------------------            -------------------------------
# Generated from Intellog Unique Number	CS_69_70/WELL/637
WELL.         CANADA-CITIES SERVICES         : Well_name    - WELL
LOC .         00/05-15-069-11W4/0            : Location     - LOCATION
UWI .         00/05-15-069-11W4/0            : Uwi          - UNIQUE WELL ID
ENTR.         SP                             : Entered      - ENTERED BY
SRVC.         SCHLUMBERGER                   : Scn          - SERVICE COMPANY
STRT.M        300                            : top_depth    - START DEPTH
STOP.M        490                            : bot_depth    - STOP DEPTH
STEP.M        0.25                           : increment    - STEP LENGTH
 NULL. -999.2500:NULL Value
~CURVE INFORMATION BLOCK
#MNEM UNIT       ERCB CURVE CODE    CURVE DESCRIPTION
#-----------   ------------------   ----------------------------------
DEPT.M        00 001 00 00         : DEPTH        - DEPTH
ILD .OHMM     00 120 00 00         : RESD         - DEEP RESISTIVITY (DIL)
DPHI.V/V      00 890 00 00         : PHID         - DENSITY POROSITY (LIMESTONE)
NPHI.V/V      00 330 00 00         : PHIN         - NEUTRON POROSITY (LIMESTONE)
GR  .API      00 310 00 00         : GR           - GAMMA RAY
~PARAMETER INFORMATION
#MNEM.UNIT           DATA             DESCRIPTION OF MNEMONIC
#---------         -----------     ------------------------------
GL  .M        623.6                : gl           - GROUND LEVEL ELEVATION
EREF.M        627.05               : kb           - ELEVATION OF DEPTH REFERENCE
DATM.M        623.6                : datum        - DATUM ELEVATION
TDD .M        604.7                : tdd          - TOTAL DEPTH DRILLER
RUN .         ONE                  : Run          - RUN NUMBER
ENG .         BILL                 : Engineer     - RECORDING ENGINEER
WIT .         JIM                  : Witness      - WITNESSED BY
MUD .         GEL                  : Mud_type     - MUD TYPE
MATR.         LIMESTONE            : Logunit      - NEUTRON MATRIX
TMAX.C        21                   : BHT          - MAXIMUM RECORDED TEMPERATURE
BHTD.M        604.7                : BHTDEP       - MAXIMUM RECORDED TEMPERATURE
MATR.         1                    : LOGUNIT      - NEUTRON MATRIX
RMT .C        25                   : MDTP         - TEMPERATURE OF MUD
NEUT.         1                    : NEUTRON      - NEUTRON TYPE
RESI.         0                    : RESIST       - RESISTIVITY TYPE
RMC .OHMM     0.25                 : RMC          - RESISTIVITY OF MUD CAKE
RMF .OHMM     0.25                 : RMF          - RESISTIVITY OF MUD FILTRATE
SUFT.C        15                   : SUFT         - SURFACE TEMPERATURE
~A  DEPTH     RESD     PHID     PHIN       GR
# ...
  387.000    8.865    0.288    0.387   78.382
  387.250    8.639    0.290    0.383   80.297
  387.500    7.957    0.295    0.395   84.051
  387.750    7.467    0.299    0.397   87.683
  388.000    6.929    0.302    0.396   88.921
  388.250    6.418    0.304    0.406   87.037
  388.500    5.990    0.302    0.415   82.765
  388.750    5.728    0.300    0.418   83.701
  389.000    5.604    0.299    0.413   88.067
  389.250    5.524    0.299    0.410   91.451
  389.500    5.496    0.310    0.410   93.367
  389.750    5.478    0.316    0.414   93.139
  390.000    6.058    0.302    0.413   90.826
  390.250    7.305    0.266    0.400   89.615
  390.500    8.387    0.215    0.377   89.021
  390.750   10.326    0.159    0.313   88.298
  391.000   13.326    0.107    0.203   86.598
  391.250   15.681    0.083    0.169   80.179
  391.500   17.339    0.040    0.149   67.451
  391.750   15.177    0.019    0.141   63.546
  392.000   10.716    0.177    0.165   64.175
  392.250    7.495    0.231    0.326   69.827
  392.500    6.235    0.262    0.370   81.913
  392.750    5.678    0.285    0.398   87.444
  393.000    5.513    0.280    0.399   89.912
  393.250    5.632    0.278    0.390   88.455
  393.500    5.820    0.277    0.385   87.184
  393.750    5.890    0.265    0.415   89.773
  394.000    5.949    0.258    0.432   93.281
  394.250    6.008    0.248    0.429   96.731
  394.500    6.127    0.238    0.409   98.030
  394.750    6.330    0.229    0.388   98.292
  395.000    6.602    0.223    0.374   96.104
  395.250    6.822    0.219    0.358   93.972
  395.500    7.022    0.227    0.355   96.564
  395.750    7.159    0.243    0.365   99.766
  396.000    6.939    0.263    0.373  101.005
  396.250    6.610    0.280    0.382   98.388
  396.500    6.287    0.290    0.392   95.277
  396.750    6.103    0.294    0.389   90.637
  397.000    5.948    0.288    0.374   87.405
  397.250    5.853    0.293    0.378   86.624
  397.500    5.801    0.311    0.396   88.601
  397.750    5.838    0.336    0.413   90.577
  398.000    5.963    0.340    0.404   91.204
  398.250    6.024    0.337    0.396   89.443
  398.500    6.061    0.335    0.400   89.337
  398.750    6.099    0.331    0.412   88.923
  399.000    6.172    0.329    0.414   85.629
  399.250    6.294    0.327    0.405   83.624
  399.500    6.442    0.324    0.408   87.685
  399.750    6.531    0.312    0.401   90.701
  400.000    6.548    0.295    0.391   92.923
  400.250    6.515    0.279    0.380   92.328
  400.500    6.482    0.265    0.380   93.628
  400.750    6.378    0.255    0.387   96.709
  401.000    6.346    0.252    0.391   99.729
  401.250    6.374    0.252    0.390  101.581
  401.500    6.389    0.251    0.396  102.147
  401.750    6.443    0.248    0.400  101.183
  402.000    6.483    0.240    0.395  101.320
  402.250    6.499    0.232    0.387  102.378
  402.500    6.479    0.228    0.381  104.171
  402.750    6.458    0.224    0.376  105.844
  403.000    6.426    0.222    0.370  106.960
  403.250    6.381    0.220    0.368  107.527
  403.500    6.126    0.217    0.377  103.255
  403.750    6.016    0.214    0.393  101.001
  404.000    5.974    0.215    0.400   99.853
  404.250    6.024    0.216    0.407  101.831
  404.500    6.073    0.219    0.401  103.070
  404.750    6.111    0.221    0.393   96.349
  405.000    6.150    0.219    0.388   97.405
  405.250    6.176    0.218    0.382  101.771
  405.500    6.193    0.218    0.385  105.339
  405.750    6.049    0.220    0.396  106.032
  406.000    5.982    0.218    0.403  107.638
  406.250    5.775    0.214    0.400  109.246
  406.500    5.369    0.210    0.399  109.078
  406.750    4.852    0.211    0.400  108.481
  407.000    4.129    0.228    0.404  112.420
  407.250    3.493    0.243    0.445  111.577
  407.500    2.973    0.256    0.472  106.507
  407.750    2.637    0.258    0.505  109.954
  408.000    2.465    0.255    0.484  115.362
  408.250    2.434    0.254    0.484  118.379
  408.500    2.607    0.254    0.506  117.971
  408.750    2.921    0.249    0.462  117.986
  409.000    3.151    0.247    0.423  118.365
  409.250    3.465    0.246    0.401  117.034
  409.500    3.669    0.245    0.388  109.086
  409.750    3.907    0.236    0.370  105.851
  410.000    4.113    0.225    0.360  101.578
  410.250    4.339    0.214    0.376  101.777
  410.500    4.517    0.209    0.385  107.614
  410.750    4.641    0.205    0.389  112.225
  411.000    4.777    0.214    0.390  115.365
  411.250    4.843    0.224    0.395  110.112
  411.500    4.883    0.234    0.404   97.260
  411.750    4.868    0.240    0.414   92.803
  412.000    4.789    0.240    0.419   95.087
  412.250    4.684    0.235    0.410  101.229
  412.500    4.592    0.232    0.403  102.531
  412.750    4.568    0.235    0.400   95.500
  413.000    4.563    0.250    0.409   90.432
  413.250    4.591    0.264    0.403   86.096
  413.500    4.629    0.276    0.395   83.231
  413.750    4.650    0.291    0.397   82.881
  414.000    4.652    0.306    0.391   83.143
  414.250    4.621    0.318    0.384   84.874
  414.500    4.597    0.324    0.379   86.604
  414.750    4.505    0.326    0.377   81.351
  415.000    4.358    0.316    0.379   77.689
  415.250    4.263    0.302    0.376   79.972
  415.500    4.202    0.280    0.370   84.342
  415.750    4.220    0.265    0.367   86.498
  416.000    4.605    0.249    0.371   83.880
  416.250    5.533    0.200    0.365   81.015
  416.500    6.437    0.155    0.231   81.582
  416.750    7.575    0.104    0.205   77.309
  417.000    8.830    0.069    0.191   73.648
  417.250    9.708    0.068    0.187   71.519
  417.500   10.338    0.107    0.261   72.639
  417.750    8.488    0.133    0.305   76.702
  418.000    6.929    0.153    0.326   80.515
  418.250    5.677    0.163    0.319   83.040
  418.500    4.678    0.194    0.335   87.101
  418.750    4.019    0.225    0.367   90.363
  419.000    3.653    0.240    0.393   93.259
  419.250    3.461    0.246    0.412   91.927
  419.500    3.417    0.252    0.405   91.023
  419.750    3.388    0.254    0.395   93.612
  420.000    3.396    0.253    0.395   96.386
  420.250    3.464    0.251    0.409   98.239
  420.500    3.472    0.251    0.397   95.987
  420.750    3.507    0.253    0.392   95.451
  421.000    3.535    0.255    0.383   94.672
  421.250    3.564    0.252    0.391   89.664
  421.500    3.580    0.245    0.406   92.437
  421.750    3.609    0.237    0.398   94.902
  422.000    3.653    0.230    0.387   97.859
  422.250    3.704    0.226    0.376  100.877
  422.500    3.755    0.222    0.380  102.424
  422.750    3.814    0.219    0.384  102.626
  423.000    3.882    0.221    0.382   99.698
  423.250    3.921    0.226    0.394   97.325
  423.500    3.961    0.228    0.401   95.382
  423.750    3.986    0.221    0.400   95.028
  424.000    4.003    0.216    0.415   97.188
  424.250    4.036    0.214    0.410   98.674
  424.500    4.062    0.215    0.401   99.792
  424.750    4.095    0.214    0.393  101.402
  425.000    4.152    0.213    0.390  101.113
  425.250    4.210    0.205    0.384   99.474
  425.500    4.277    0.202    0.380   99.367
  425.750    4.328    0.208    0.383  101.285
  426.000    4.429    0.216    0.387  102.401
  426.250    4.517    0.221    0.387  103.640
  426.500    4.588    0.225    0.393  105.250
  426.750    4.625    0.218    0.400  106.369
  427.000    4.602    0.212    0.393  107.364
  427.250    4.468    0.208    0.388  104.869
  427.500    4.249    0.207    0.388  103.293
  427.750    4.011    0.216    0.409  103.000
  428.000    3.786    0.228    0.441  106.448
  428.250    3.627    0.237    0.451  110.322
  428.500    3.419    0.236    0.443  111.993
  428.750    3.355    0.227    0.434  115.503
  429.000    3.245    0.223    0.426  117.723
  429.250    3.134    0.219    0.430  120.312
  429.500    2.985    0.220    0.451  122.103
  429.750    2.786    0.228    0.455  121.509
  430.000    2.561    0.237    0.458  118.091
  430.250    2.417    0.245    0.471  117.678
