~VERSION INFORMATION
 VERS.                 2.0:   CWLS LOG ASCII STANDARD -VERSION 2.0
 WRAP.                  NO:   ONE LINE PER DEPTH STEP
~WELL INFORMATION BLOCK
#MNEM.UNIT           DATA                    DESCRIPTION OF MNEMONIC
#---------    -------------------            -------------------------------
# Generated from Intellog Unique Number	CS_73_76/WELL/4140
WELL.         J M HJBER CURPORATION          : Well_name    - WELL
LOC .         00/06-03-074-18W4/0            : Location     - LOCATION
UWI .         00/06-03-074-18W4/0            : Uwi          - UNIQUE WELL ID
ENTR.         T                              : Entered      - ENTERED BY
SRVC.         SCHLUMBERGER                   : Scn          - SERVICE COMPANY
STRT.M        274.32                         : top_depth    - START DEPTH
STOP.M        493.82                         : bot_depth    - STOP DEPTH
STEP.M        0.25                           : increment    - STEP LENGTH
 NULL. -999.2500:NULL Value
~CURVE INFORMATION BLOCK
#MNEM UNIT       ERCB CURVE CODE    CURVE DESCRIPTION
#-----------   ------------------   ----------------------------------
DEPT.M        00 001 00 00         : DEPTH        - DEPTH
DELT.US/F     00 520 00 00         : DELT         - SONIC TRAVEL TIME
ILD .OHMM     00 120 00 00         : RESD         - DEEP RESISTIVITY (DIL)
GR  .API      00 310 00 00         : GR           - GAMMA RAY
~PARAMETER INFORMATION
#MNEM.UNIT           DATA             DESCRIPTION OF MNEMONIC
#---------         -----------     ------------------------------
GL  .M        591.16               : gl           - GROUND LEVEL ELEVATION
EREF.M        594.208              : kb           - ELEVATION OF DEPTH REFERENCE
DATM.M        594.208              : datum        - DATUM ELEVATION
TDD .M        505.968              : tdd          - TOTAL DEPTH DRILLER
RUN .         ONE                  : Run          - RUN NUMBER
ENG .         BILL                 : Engineer     - RECORDING ENGINEER
WIT .         JIM                  : Witness      - WITNESSED BY
MUD .         GEL                  : Mud_type     - MUD TYPE
MATR.         SANDSTONE            : Logunit      - NEUTRON MATRIX
TMAX.C        16.6667              : BHT          - MAXIMUM RECORDED TEMPERATURE
BHTD.M        505.968              : BHTDEP       - MAXIMUM RECORDED TEMPERATURE
MATR.         1                    : LOGUNIT      - NEUTRON MATRIX
RMT .C        16.6667              : MDTP         - TEMPERATURE OF MUD
NEUT.         1                    : NEUTRON      - NEUTRON TYPE
RESI.         0                    : RESIST       - RESISTIVITY TYPE
RMC .OHMM     3.28                 : RMC          - RESISTIVITY OF MUD CAKE
RMF .OHMM     2.85                 : RMF          - RESISTIVITY OF MUD FILTRATE
SUFT.C        15                   : SUFT         - SURFACE TEMPERATURE
~A  DEPTH     DELT     RESD       GR
# ...
  437.070  382.382    7.775   84.442
  437.320  383.054    7.619   87.533
  437.570  383.731    7.612   88.768
  437.820  383.077    7.605   90.000
  438.070  381.756    7.449   91.231
  438.320  380.439    7.298   91.841
  438.570  379.121    7.293   91.828
  438.820  377.795    7.290   89.327
  439.070  371.811    7.139   86.826
  439.320  367.826    7.137   86.191
  439.570  365.173    7.127   88.670
  439.820  367.186    6.985   91.143
  440.070  368.527    6.978   92.374
  440.320  365.877    6.840   91.740
  440.570  363.224    6.573   89.858
  440.820  365.901    6.317   88.607
  441.070  367.242    6.193   86.725
  441.320  367.259    5.837   86.090
  441.570  366.602    5.505   85.459
  441.820  365.944    5.090   85.443
  442.070  365.290    4.442   85.430
  442.320  372.630    4.029   86.662
  442.570  385.301    3.515   87.896
  442.820  399.969    3.189   88.506
  443.070  406.642    2.892   88.490
  443.320  416.646    2.572   88.477
  443.570  443.304    2.473   88.468
  443.820  453.975    2.331   90.318
  444.070  462.650    2.330   90.928
  444.320  465.992    2.665   91.540
  444.570  464.008    3.294   91.522
  444.820  462.682    3.993   90.890
  445.070  460.695    4.656   88.389
  445.320  456.710    5.536   85.888
  445.570  448.728    5.320   81.521
  445.820  418.762    5.632   79.023
  446.070  376.805    5.738   77.766
  446.320  372.820    6.312   83.974
  446.570  378.164    6.558   88.316
  446.820  382.839    6.943   85.190
  447.070  385.513    6.936   82.692
  447.320  344.888    6.796   80.810
  447.570  327.577    6.790   84.530
  447.820  353.575    6.784   86.387
  448.070  366.907    6.908   89.481
  448.320  374.246    7.175   90.091
  448.570  378.921    7.599   88.209
  448.820  376.935    8.362   86.958
  449.070  370.951    9.942   83.835
  449.320  355.641   12.051   79.465
  449.570  320.346   13.521   76.345
  449.820  307.031   14.872   71.355
  450.070  299.715   14.028   66.366
  450.320  287.070   12.724   62.621
  450.570  278.422   11.539   65.712
  450.820  278.433   10.466   67.572
  451.070  278.445    9.678   69.426
  451.320  323.093    8.952   71.899
  451.570  327.768    7.963   74.999
  451.820  342.438    6.947   78.719
  452.070  354.440    6.300   83.061
  452.320  360.445    6.057   86.159
  452.570  371.781    5.712   87.391
  452.820  377.122    5.490   87.997
  453.070  375.135    5.276   87.984
  453.320  367.819    5.171   89.216
  453.570  364.503    4.874   89.207
  453.820  378.501    4.778   89.816
  454.070  388.506    4.591   89.803
  454.320  394.513    4.413   91.035
  454.570  397.858    4.410   92.266
  454.820  383.214    4.321   92.873
  455.070  378.560    4.318   92.860
  455.320  375.241    4.313   93.473
  455.570  377.254    4.310   93.457
  455.820  378.601    4.476   94.066
  456.070  379.273    4.648   94.057
  456.320  379.951    4.734   94.666
  456.570  382.628    4.820   95.276
  456.820  387.971    4.818   95.260
  457.070  390.648    4.812   95.870
  457.320  392.658    4.808   96.479
  457.570  396.664    4.804   96.469
  457.820  403.337    4.799   97.698
  458.070  406.014    5.080   98.307
  458.320  407.361    5.177   98.291
  458.570  407.372    5.806   98.285
  458.820  399.390    6.148   98.266
  459.070  393.403    6.896   97.635
  459.320  385.424    7.165   97.625
  459.570  372.110    7.732   96.990
  459.820  367.458    7.877   95.108
  460.070  352.814    7.867   91.979
  460.320  336.841    7.863   90.106
  460.570  339.518    7.702   87.605
  460.820  342.857    7.698   83.860
  461.070  351.532    7.400   76.382
  461.320  357.536    7.250   71.393
  461.570  369.539    6.968   75.113
  461.820  380.878    6.960   80.077
  462.070  387.552    6.953   84.419
  462.320  388.899    6.949   87.514
  462.570  376.250    7.217   85.635
  462.820  370.933    7.494   85.625
  463.070  365.612    7.783   85.613
  463.320  356.298    7.925   86.222
  463.570  349.651    8.071   88.698
  463.820  347.001    8.067   91.170
  464.070  345.674    8.058   91.780
  464.320  344.354    8.053   90.520
  464.570  345.032    8.040   89.888
  464.820  350.373    8.034   88.009
  465.070  351.717    8.029   86.753
  465.320  355.068    8.023   86.737
  465.570  356.409    7.862   86.727
  465.820  352.421    7.703   87.334
  466.070  345.105    7.550   88.572
  466.320  345.783    7.394   96.646
  466.570  353.125    7.249  104.721
  466.820  351.805    7.241   98.487
  467.070  349.152    7.238   89.765
  467.320  351.828    7.370   81.665
  467.570  355.171    7.508   79.164
  467.820  356.518    7.649   83.503
  468.070  355.863    7.941   86.604
  468.320  354.537    7.936   91.565
  468.570  352.550    7.927   95.288
  468.820  350.566    7.920   99.008
  469.070  349.243    7.610  102.725
  469.320  347.259    7.461  105.201
  469.570  345.272    6.900  103.944
  469.820  343.285    6.381  102.068
  470.070  339.966    5.674   98.320
  470.320  337.313    5.670   95.819
  470.570  334.658    5.665   93.318
  470.820  330.006    5.882   90.817
  471.070  334.015    6.109   90.804
  471.320  340.688    6.343   91.416
  471.570  346.695    6.588   92.648
  471.820  353.369    7.110   95.746
  472.070  357.377    7.385   98.844
  472.320  354.061    7.819  102.564
  472.570  350.742    8.278  104.414
  472.820  347.420    8.597   98.806
  473.070  343.438    9.102   91.950
  473.320  339.450    9.454   81.362
  473.570  334.798   10.009   70.774
  473.820  328.815   10.394   71.383
  474.070  330.825   11.002   70.745
  474.320  336.832   11.428   70.114
  474.570  342.839   11.415   67.609
  474.820  348.846   11.186   64.486
  475.070  352.189   10.752   61.363
  475.320  356.864    9.943   59.484
  475.570  362.205    9.557   57.602
  475.820  366.216    9.549   56.974
  476.070  363.561    9.536   54.470
  476.320  362.909    9.715   51.969
  476.570  362.252    9.708   51.334
  476.820  358.933    9.697   52.566
  477.070  350.950    9.689   60.018
  477.320  334.308    9.492   78.671
  477.570  323.661    9.128   85.502
  477.820  318.347    8.604   91.710
  478.070  321.020    8.270   88.584
  478.320  329.692    8.106   85.464
  478.570  331.036    7.942   82.338
  478.820  329.721    7.783   79.833
  479.070  329.061    7.625   78.583
  479.320  330.405    7.476   74.216
  479.570  335.746    7.469   63.002
  479.820  345.750    7.318   50.548
  480.070  349.093    7.173   42.448
  480.320  352.438    6.893   34.967
  480.570  337.125    6.625   35.579
  480.820  331.808    6.618   38.055
  481.070  325.827    6.615   40.531
  481.320  340.494    6.481   44.870
  481.570  347.165    6.730   47.971
  481.820  354.510    7.127   52.306
  482.070  355.851    7.544   52.300
  482.320  358.525    7.987   51.665
  482.570  362.533    8.623   54.763
  482.820  370.542    9.130   63.460
  483.070  381.212    9.481   77.755
  483.320  406.538    9.472   95.165
  483.570  420.539    9.463   96.396
  483.820  314.628    9.639   87.049
  484.070  355.942    8.741   77.080
  484.320  373.943    8.082   78.314
  484.570  397.271    7.770   90.121
  484.820  413.936    7.468   90.109
  485.070  410.617    7.179   86.979
  485.320  393.975    6.766   85.104
  485.570  377.999    6.628   81.984
  485.820  327.379    6.498   74.506
  486.070  324.060    6.369   67.028
  486.320  326.737    6.240   74.481
  486.570  374.049    6.236   82.555
  486.820  380.059    6.230  121.738
  487.070  378.735    6.223  131.678
  487.320  375.419    6.340  142.235
  487.570  372.766    6.458  140.362
  487.820  370.777    6.705  136.614
  488.070  368.124    6.965  133.494
  488.320  362.140    7.231  121.040
  488.570  345.501    7.655  116.669
  488.820  338.848    7.948  101.723
  489.070  332.198    7.945   89.894
  489.320  327.546    8.092   78.061
  489.570  322.898    8.083   69.340
  489.820  319.579    7.919   69.949
  490.070  316.260    7.916   79.268
  490.320  313.607    7.755   83.610
  490.570  317.616    7.600   64.934
  490.820  328.283    7.303   43.770
  491.070  336.289    7.021   39.403
