~VERSION INFORMATION
 VERS.                 2.0:   CWLS LOG ASCII STANDARD -VERSION 2.0
 WRAP.                  NO:   ONE LINE PER DEPTH STEP
~WELL INFORMATION BLOCK
#MNEM.UNIT           DATA                    DESCRIPTION OF MNEMONIC
#---------    -------------------            -------------------------------
# Generated from Intellog Unique Number	CW_73_75/WELL/3523
WELL.         08-16-075-05W5                 : Well_name    - WELL
LOC .         00/08-16-075-05W5/0            : Location     - LOCATION
UWI .         00/08-16-075-05W5/0            : Uwi          - UNIQUE WELL ID
ENTR.         JOETTE                         : Entered      - ENTERED BY
SRVC.         SCHLUMBERGER                   : Scn          - SERVICE COMPANY
DATE.         05/25/92                       : Date         - LOG DATE
STRT.M        675                            : top_depth    - START DEPTH
STOP.M        925                            : bot_depth    - STOP DEPTH
STEP.M        0.25                           : increment    - STEP LENGTH
 NULL. -999.2500:NULL Value
~CURVE INFORMATION BLOCK
#MNEM UNIT       ERCB CURVE CODE    CURVE DESCRIPTION
#-----------   ------------------   ----------------------------------
DEPT.M        00 001 00 00         : DEPTH        - DEPTH
NPHI.V/V      00 330 00 00         : PHIN         - NEUTRON POROSITY (SANDSTONE)
GR  .API      00 310 00 00         : GR           - GAMMA RAY
DPHI.V/V      00 890 00 00         : PHID         - DENSITY POROSITY (SANDSTONE)
ILD .OHMM     00 120 00 00         : RESD         - DEEP RESISTIVITY (DIL)
~PARAMETER INFORMATION
#MNEM.UNIT           DATA             DESCRIPTION OF MNEMONIC
#---------         -----------     ------------------------------
GL  .M        964.66               : gl           - GROUND LEVEL ELEVATION
EREF.M        968.35               : kb           - ELEVATION OF DEPTH REFERENCE
DATM.M        968.35               : datum        - DATUM ELEVATION
TDD .M        1221.6               : tdd          - TOTAL DEPTH DRILLER
RUN .         ONE                  : Run          - RUN NUMBER
ENG .         BILL                 : Engineer     - RECORDING ENGINEER
WIT .         JIM                  : Witness      - WITNESSED BY
MUD .         GEL                  : Mud_type     - MUD TYPE
MATR.         SANDSTONE            : Logunit      - NEUTRON MATRIX
TMAX.C        49                   : BHT          - MAXIMUM RECORDED TEMPERATURE
BHTD.M        1221.8               : BHTDEP       - MAXIMUM RECORDED TEMPERATURE
RMT .C        19                   : MDTP         - TEMPERATURE OF MUD
MUDD.KG/M     1080                 : MWT          - MUD DENSITY
NEUT.         1                    : NEUTRON      - NEUTRON TYPE
RESI.         0                    : RESIST       - RESISTIVITY TYPE
RM  .OHMM     1.9                  : RM           - RESISTIVITY OF MUD
RMC .OHMM     2.1                  : RMC          - RESISTIVITY OF MUD CAKE
RMF .OHMM     4.3                  : RMF          - RESISTIVITY OF MUD FILTRATE
SUFT.C        4                    : SUFT         - SURFACE TEMPERATURE
~A  DEPTH     PHIN       GR     PHID     RESD
  675.000    0.545   97.578    0.293    2.805
  675.250    0.537   96.353    0.293    2.799
  675.500    0.536   98.092    0.303    2.689
  675.750    0.539   96.293    0.308    2.683
  676.000    0.541   91.528    0.314    2.728
  676.250    0.540   88.529    0.305    2.826
  676.500    0.534   85.539    0.292    2.981
  676.750    0.523   86.096    0.291    3.032
  677.000    0.511   89.010    0.289    3.085
  677.250    0.507   89.576    0.280    3.194
  677.500    0.507   90.124    0.271    3.126
  677.750    0.510   90.682    0.259    3.063
  678.000    0.520   91.839    0.254    2.944
  678.250    0.529   94.761    0.253    2.939
  678.500    0.535   93.544    0.257    2.875
  678.750    0.540   92.328    0.248    2.871
  679.000    0.543   94.659    0.246    2.917
  679.250    0.549   95.207    0.247    2.967
  679.500    0.540   96.956    0.248    3.017
  679.750    0.515   94.556    0.248    3.067
  680.000    0.511   95.696    0.250    3.061
  680.250    0.524   92.714    0.257    3.054
  680.500    0.533   90.906    0.262    3.049
  680.750    0.533   88.499    0.276    3.096
  681.000    0.526   86.682    0.259    3.150
  681.250    0.512   89.013    0.248    3.145
  681.500    0.510   90.162    0.266    3.256
  681.750    0.514   90.728    0.277    3.310
  682.000    0.507   91.276    0.280    3.429
  682.250    0.497   91.842    0.285    3.484
  682.500    0.496   92.391    0.290    3.479
  682.750    0.505   92.356    0.283    3.407
  683.000    0.506   90.549    0.266    3.334
  683.250    0.499   89.323    0.252    3.267
  683.500    0.486   89.306    0.248    3.139
  683.750    0.486   89.864    0.259    3.134
  684.000    0.488   90.995    0.258    3.125
  684.250    0.491   90.978    0.277    3.237
  684.500    0.496   90.935    0.285    3.230
  684.750    0.500   88.528    0.279    2.935
  685.000    0.503   87.328    0.287    2.619
  685.250    0.508   83.738    0.280    2.248
  685.500    0.516   81.338    0.263    2.119
  685.750    0.538   80.122    0.274    2.078
  686.000    0.566   78.905    0.302    1.997
  686.250    0.589   78.280    0.311    1.883
  686.500    0.593   90.663    0.318    1.743
  686.750    0.600   99.506    0.314    1.675
  687.000    0.622   77.586    0.311    1.641
  687.250    0.608   69.274    0.329    1.832
  687.500    0.577   55.633    0.328    1.971
  687.750    0.543   43.773    0.304    2.370
  688.000    0.541   44.330    0.352    2.698
  688.250    0.550   51.983    0.424    2.901
  688.500    0.541   57.270    0.447    3.005
  688.750    0.541   60.192    0.411    2.999
  689.000    0.541   62.515    0.393    2.882
  689.250    0.537   64.254    0.363    2.769
  689.500    0.526   64.812    0.338    2.713
  689.750    0.516   65.377    0.316    2.656
  690.000    0.510   65.926    0.297    2.699
  690.250    0.500   64.709    0.292    2.797
  690.500    0.501   63.484    0.295    2.952
  690.750    0.499   63.467    0.275    3.116
  691.000    0.478   62.833    0.265    3.170
  691.250    0.452   61.608    0.239    3.344
  691.500    0.440   58.635    0.233    3.529
  691.750    0.430   55.636    0.235    3.519
  692.000    0.431   58.558    0.241    3.450
  692.250    0.446   59.706    0.288    3.377
  692.500    0.468   60.247    0.292    3.307
  692.750    0.493   60.821    0.321    3.298
  693.000    0.502   60.196    0.339    3.354
  693.250    0.499   58.979    0.327    3.408
  693.500    0.493   58.345    0.327    3.468
  693.750    0.459   58.319    0.327    3.661
  694.000    0.448   62.424    0.307    3.453
  694.250    0.456   66.529    0.253    2.858
  694.500    0.560   72.399    0.273    2.409
  694.750    0.613   77.104    0.313    2.146
  695.000    0.639   78.835    0.323    1.879
  695.250    0.649   79.992    0.323    1.614
  695.500    0.637   81.141    0.322    1.467
  695.750    0.622   84.646    0.322    1.307
  696.000    0.615   83.429    0.330    1.328
  696.250    0.616   81.030    0.330    1.351
  696.500    0.624   79.813    0.338    1.374
  696.750    0.646   78.005    0.345    1.397
  697.000    0.641   75.606    0.343    1.394
  697.250    0.633   77.337    0.335    1.391
  697.500    0.628   78.503    0.338    1.415
  697.750    0.622   77.278    0.337    1.411
  698.000    0.638   78.426    0.332    1.461
  698.250    0.644   76.618    0.330    1.487
  698.500    0.634   75.993    0.330    1.482
  698.750    0.629   78.324    0.319    1.478
  699.000    0.631   77.116    0.303    1.504
  699.250    0.648   74.716    0.293    1.557
  699.500    0.650   75.856    0.300    1.585
  699.750    0.638   77.005    0.292    1.672
  700.000    0.629   75.788    0.284    1.733
  700.250    0.625   75.746    0.292    1.762
  700.500    0.621   76.303    0.310    1.757
  700.750    0.610   77.451    0.314    1.690
  701.000    0.601   78.608    0.322    1.594
  701.250    0.598   82.713    0.319    1.620
  701.500    0.611   80.897    0.303    1.709
  701.750    0.615   78.506    0.290    1.804
  702.000    0.615   78.472    0.303    1.870
  702.250    0.611   79.612    0.318    2.010
  702.500    0.606   79.586    0.323    2.123
  702.750    0.600   81.909    0.313    2.325
  703.000    0.586   73.606    0.302    2.547
  703.250    0.562   70.615    0.289    2.896
  703.500    0.508   62.286    0.275    3.003
  703.750    0.477   57.530    0.253    3.226
  704.000    0.459   52.766    0.237    3.222
  704.250    0.446   52.723    0.245    3.531
  704.500    0.439   52.098    0.256    3.658
  704.750    0.441   49.099    0.276    3.719
  705.000    0.434   49.665    0.290    3.779
  705.250    0.423   51.404    0.296    3.773
  705.500    0.417   53.153    0.293    3.908
  705.750    0.426   56.658    0.296    4.125
  706.000    0.432   60.180    0.287    3.965
  706.250    0.443   65.467    0.272    3.601
  706.500    0.456   67.798    0.280    3.397
  706.750    0.480   59.486    0.270    3.326
  707.000    0.477   51.757    0.264    3.444
  707.250    0.466   47.584    0.278    3.571
  707.500    0.456   50.506    0.281    3.700
  707.750    0.446   57.568    0.284    3.832
  708.000    0.473   63.446    0.278    3.682
  708.250    0.505   68.742    0.316    3.345
  708.500    0.539   65.152    0.318    2.928
  708.750    0.557   60.979    0.292    2.814
  709.000    0.485   55.623    0.293    3.027
  709.250    0.465   50.268    0.288    3.375
  709.500    0.445   50.234    0.276    3.563
  709.750    0.474   53.747    0.268    3.424
  710.000    0.541   59.626    0.258    3.232
  710.250    0.555   65.505    0.259    3.108
  710.500    0.573   71.383    0.269    2.821
  710.750    0.538   71.932    0.292    2.764
  711.000    0.520   69.533    0.282    2.704
  711.250    0.514   68.316    0.274    2.700
  711.500    0.506   68.291    0.295    2.797
  711.750    0.503   70.022    0.310    2.954
  712.000    0.497   68.814    0.318    3.176
  712.250    0.490   62.867    0.320    3.418
  712.500    0.477   52.181    0.311    3.674
  712.750    0.451   43.869    0.304    3.879
  713.000    0.457   50.931    0.288    4.017
  713.250    0.468   55.035    0.311    4.084
  713.500    0.470   53.819    0.329    4.077
  713.750    0.455   54.967    0.296    3.842
  714.000    0.450   59.663    0.250    3.762
  714.250    0.466   64.359    0.260    3.756
  714.500    0.493   68.464    0.252    3.746
  714.750    0.508   68.422    0.251    3.738
  715.000    0.509   64.257    0.295    3.730
  715.250    0.503   59.493    0.306    3.724
  715.500    0.508   55.320    0.313    3.716
  715.750    0.520   57.642    0.309    3.706
  716.000    0.517   60.565    0.310    3.839
  716.250    0.496   62.304    0.252    4.052
  716.500    0.467   63.453    0.255    4.199
  716.750    0.448   65.193    0.259    4.350
  717.000    0.458   68.123    0.252    4.420
  717.250    0.491   67.498    0.251    4.411
  717.500    0.503   62.734    0.269    4.322
  717.750    0.493   60.318    0.290    4.310
  718.000    0.496   62.657    0.297    4.221
  718.250    0.513   67.953    0.302    3.984
