~VERSION INFORMATION
 VERS.                 2.0:   CWLS LOG ASCII STANDARD -VERSION 2.0
 WRAP.                  NO:   ONE LINE PER DEPTH STEP
~WELL INFORMATION BLOCK
#MNEM.UNIT           DATA                    DESCRIPTION OF MNEMONIC
#---------    -------------------            -------------------------------
# Generated from Intellog Unique Number	CS_77_79/WELL/909
WELL.         CDN-SUP CHRISTINA              : Well_name    - WELL
LOC .         00/07-26-079-10W4/0            : Location     - LOCATION
UWI .         00/07-26-079-10W4/0            : Uwi          - UNIQUE WELL ID
ENTR.         JHS                            : Entered      - ENTERED BY
SRVC.         SCHLUMBERGER                   : Scn          - SERVICE COMPANY
STRT.M        243.84                         : top_depth    - START DEPTH
STOP.M        478.34                         : bot_depth    - STOP DEPTH
STEP.M        0.25                           : increment    - STEP LENGTH
 NULL. -999.2500:NULL Value
~CURVE INFORMATION BLOCK
#MNEM UNIT       ERCB CURVE CODE    CURVE DESCRIPTION
#-----------   ------------------   ----------------------------------
DEPT.M        00 001 00 00         : DEPTH        - DEPTH
RHOB.KG/M3    00 350 00 00         : DENS         - BULK DENSITY
GR  .API      00 310 00 00         : GR           - GAMMA RAY
DPHI.V/V      00 890 00 00         : PHID         - DENSITY POROSITY (SANDSTONE)
NPHI.V/V      00 330 00 00         : PHIN         - NEUTRON POROSITY (SANDSTONE)
ILD .OHMM     00 120 00 00         : RESD         - DEEP RESISTIVITY (DIL)
~PARAMETER INFORMATION
#MNEM.UNIT           DATA             DESCRIPTION OF MNEMONIC
#---------         -----------     ------------------------------
GL  .M        679.094              : gl           - GROUND LEVEL ELEVATION
EREF.M        683.666              : kb           - ELEVATION OF DEPTH REFERENCE
DATM.M        683.666              : datum        - DATUM ELEVATION
TDD .M        487.68               : tdd          - TOTAL DEPTH DRILLER
RUN .         ONE                  : Run          - RUN NUMBER
ENG .         BILL                 : Engineer     - RECORDING ENGINEER
WIT .         JIM                  : Witness      - WITNESSED BY
MUD .         GEL                  : Mud_type     - MUD TYPE
MATR.         SANDSTONE            : Logunit      - NEUTRON MATRIX
TMAX.C        60                   : BHT          - MAXIMUM RECORDED TEMPERATURE
BHTD.M        487.68               : BHTDEP       - MAXIMUM RECORDED TEMPERATURE
MATR.         1                    : LOGUNIT      - NEUTRON MATRIX
RMT .C        25                   : MDTP         - TEMPERATURE OF MUD
NEUT.         1                    : NEUTRON      - NEUTRON TYPE
RESI.         0                    : RESIST       - RESISTIVITY TYPE
RMC .OHMM     0.25                 : RMC          - RESISTIVITY OF MUD CAKE
RMF .OHMM     0.25                 : RMF          - RESISTIVITY OF MUD FILTRATE
SUFT.C        15                   : SUFT         - SURFACE TEMPERATURE
~A  DEPTH     DENS       GR     PHID     PHIN     RESD
# ...
  389.840   -0.000   98.109    0.251    0.461    5.438
  390.090   -0.000   98.175    0.250    0.466    5.441
  390.340   -0.000   97.538    0.252    0.452    5.446
  390.590    0.000   96.466    0.249    0.438    5.442
  390.840    0.000   95.378    0.235    0.475    5.551
  391.090    0.000   95.053    0.241    0.471    5.666
  391.340   -0.000   94.758    0.260    0.450    5.743
  391.590   -0.000   90.770    0.269    0.436    5.889
  391.840   -0.000   89.751    0.253    0.429    5.885
  392.090    0.000   89.835    0.255    0.445    5.886
  392.340    0.000   85.962    0.260    0.473    5.862
  392.590    0.000   77.777    0.268    0.486    5.682
  392.840   -0.000   73.596    0.282    0.477    5.509
  393.090   -0.000   73.604    0.313    0.469    5.487
  393.340    0.000   73.049    0.303    0.481    5.582
  393.590    0.000   73.351    0.312    0.486    5.877
  393.840    0.000   74.355    0.304    0.474    6.044
  394.090   -0.000   75.890    0.285    0.451    6.442
  394.340   -0.000   78.421    0.283    0.454    6.753
  394.590   -0.000   80.922    0.289    0.467    6.736
  394.840    0.000   81.946    0.310    0.467    6.533
  395.090    0.000   80.558    0.294    0.478    6.352
  395.340    0.000   77.238    0.283    0.465    6.040
  395.590   -0.000   77.463    0.284    0.444    5.683
  395.840   -0.000   75.894    0.272    0.450    5.494
  396.090    0.000   77.218    0.268    0.465    5.435
  396.340    0.000   78.305    0.307    0.466    5.438
  396.590    0.000   76.032    0.313    0.465    5.441
  396.840   -0.000   77.597    0.303    0.467    5.452
  397.090   -0.000   84.832    0.305    0.454    5.352
  397.340   -0.000   88.932    0.298    0.462    5.248
  397.590    0.001   89.860    0.289    0.474    5.276
  397.840    0.022   86.950    0.292    0.489    5.029
  398.090    0.065   83.792    0.283    0.490    4.793
  398.340   -1.144   85.088    0.274    0.470    4.661
  398.590  -13.653   89.273    0.256    0.475    4.551
  398.840  -10.686   95.254    0.231    0.500    4.561
  399.090 1594.750   97.224    0.239    0.484    4.636
  399.340 2173.050   95.933    0.276    0.466    4.851
  399.590 2223.880   92.294    0.285    0.451    5.184
  399.840 2201.080   89.493    0.298    0.442    5.288
  400.090 2173.410   85.386    0.314    0.440    5.408
  400.340 2124.120   79.592    0.343    0.455    5.401
  400.590 2143.350   73.482    0.331    0.469    5.405
  400.840 2174.440   70.508    0.313    0.465    5.406
  401.090 2179.510   68.068    0.310    0.456    5.573
  401.340 2205.650   67.555    0.295    0.466    5.739
  401.590 2246.370   72.689    0.271    0.451    6.307
  401.840 2329.490   73.441    0.223    0.400    6.698
  402.090 2494.830   70.906    0.126    0.351    6.907
  402.340 2518.770   71.304    0.112    0.321    6.775
  402.590 2494.340   73.976    0.126    0.373    6.364
  402.840 2374.870   76.931    0.196    0.439    6.088
  403.090 2184.380   77.834    0.307    0.469    5.553
  403.340 2219.430   78.883    0.287    0.475    5.584
  403.590 2249.500   78.156    0.269    0.457    6.044
  403.840 2291.340   76.158    0.245    0.464    6.635
  404.090 2389.750   75.197    0.187    0.432    6.859
  404.340 2498.690   75.866    0.124    0.385    7.070
  404.590 2553.760   84.425    0.091    0.388    6.744
  404.840 2454.380   90.941    0.149    0.454    6.460
  405.090 2338.240   94.069    0.217    0.476    5.885
  405.340 2370.570   95.889    0.198    0.460    5.553
  405.590 2392.630   97.448    0.186    0.455    5.279
  405.840 2362.190  100.559    0.203    0.462    5.199
  406.090 2325.960  100.951    0.225    0.465    5.202
  406.340 2340.610   99.040    0.216    0.472    5.204
  406.590 2376.430   98.754    0.195    0.480    5.200
  406.840 2368.110   98.965    0.200    0.457    5.310
  407.090 2322.220   96.814    0.227    0.437    5.432
  407.340 2344.770   97.147    0.214    0.427    5.509
  407.590 2352.100  103.596    0.209    0.429    5.656
  407.840 2301.200  107.239    0.239    0.445    5.952
  408.090 2354.820  107.258    0.208    0.431    5.945
  408.340 2379.940  103.969    0.193    0.428    5.958
  408.590 2385.940  102.418    0.190    0.422    5.848
  408.840 2358.650  104.659    0.205    0.419    5.611
  409.090 2334.610  107.112    0.220    0.423    5.425
  409.340 2374.970  104.391    0.196    0.442    5.084
  409.590 2350.360  101.358    0.210    0.455    4.687
  409.840 2325.670  100.574    0.225    0.463    4.415
  410.090 2334.840  100.691    0.219    0.475    3.913
  410.340 2296.540   98.367    0.242    0.469    3.462
  410.590 2302.370   94.444    0.238    0.479    2.939
  410.840 2285.970   92.990    0.248    0.530    2.433
  411.090 2239.190   91.938    0.275    0.574    2.095
  411.340 2226.230   92.297    0.283    0.594    1.919
  411.590 2221.930   91.855    0.285    0.561    1.863
  411.840 2205.290   91.918    0.295    0.559    1.856
  412.090 2221.490   92.235    0.286    0.554    1.889
  412.340 2240.620   97.202    0.274    0.552    2.028
  412.590 2254.420  101.317    0.266    0.561    2.157
  412.840 2280.620  103.161    0.251    0.546    2.483
  413.090 2302.280  100.252    0.238    0.518    2.682
  413.340 2346.880   98.197    0.212    0.496    3.110
  413.590 2369.080   98.245    0.199    0.480    3.600
  413.840 2349.450   97.754    0.211    0.469    4.324
  414.090 2365.200   96.355    0.202    0.458    4.711
  414.340 2379.690   93.771    0.193    0.444    5.184
  414.590 2422.400   91.959    0.168    0.431    5.479
  414.840 2443.650   92.311    0.156    0.419    5.532
  415.090 2465.860   94.782    0.143    0.406    5.084
  415.340 2444.760   99.384    0.155    0.429    4.572
  415.590 2352.650  103.608    0.209    0.448    4.213
  415.840 2359.850  102.017    0.205    0.453    3.772
  416.090 2338.340   99.775    0.217    0.460    3.483
  416.340 2350.710  101.975    0.210    0.478    3.328
  416.590 2360.280  105.760    0.205    0.498    3.200
  416.840 2343.320  104.064    0.214    0.498    3.145
  417.090 2324.770  100.752    0.225    0.489    3.091
  417.340 2348.410   97.894    0.211    0.481    3.096
  417.590 2374.760   99.039    0.196    0.483    3.099
  417.840 2381.870  104.794    0.192    0.484    3.065
  418.090 2357.240  106.100    0.206    0.485    2.988
  418.340 2284.280  105.466    0.249    0.506    2.993
  418.590 2304.120  105.472    0.237    0.519    3.124
  418.840 2326.230  105.461    0.224    0.502    3.237
  419.090 2337.770  105.462    0.218    0.502    3.401
  419.340 2350.030  105.479    0.211    0.492    3.505
  419.590 2313.730  105.547    0.232    0.497    3.704
  419.840 2304.080  106.111    0.237    0.492    3.876
  420.090 2357.040  104.900    0.206    0.496    3.990
  420.340 2392.160  103.590    0.186    0.471    4.200
  420.590 2390.650  101.832    0.187    0.438    4.388
  420.840 2344.270  106.103    0.214    0.439    4.512
  421.090 2376.460  111.481    0.195    0.444    4.604
  421.340 2388.300  112.286    0.188    0.439    4.517
  421.590 2384.430  110.681    0.190    0.441    4.543
  421.840 2373.810  106.283    0.197    0.454    4.696
  422.090 2399.810   99.454    0.178    0.476    4.930
  422.340 2419.820   92.993    0.146    0.425    5.395
  422.590 2706.930   90.250    0.129    0.414    5.918
  422.840  959.882   92.002    0.144    0.434    6.758
  423.090 2328.890   88.137    0.188    0.432    7.528
  423.340 2387.060   81.306    0.195    0.395    8.752
  423.590 2348.220   72.500    0.213    0.383   10.930
  423.840 2194.500   65.205    0.301    0.391   14.700
  424.090 2187.870   61.736    0.305    0.417   20.641
  424.340 2225.070   59.498    0.284    0.426   26.973
  424.590 2143.380   57.091    0.331    0.394   31.404
  424.840 2177.720   57.304    0.311    0.382   33.603
  425.090 2188.320   59.729    0.305    0.388   32.411
  425.340 2191.720   64.882    0.303    0.392   30.611
  425.590 2204.400   75.134    0.296    0.375   26.438
  425.840 2221.180   83.196    0.286    0.371   21.525
  426.090 2223.900   91.135    0.284    0.374   15.169
