~VERSION INFORMATION
 VERS.                 2.0:   CWLS LOG ASCII STANDARD -VERSION 2.0
 WRAP.                  NO:   ONE LINE PER DEPTH STEP
~WELL INFORMATION BLOCK
#MNEM.UNIT           DATA                    DESCRIPTION OF MNEMONIC
#---------    -------------------            -------------------------------
# Generated from Intellog Unique Number	CW_76_78/WELL/2563
WELL.         SCURRY ET AL DOUCETTE          : Well_name    - WELL
LOC .         00/02-08-078-02W5/0            : Location     - LOCATION
UWI .         00/02-08-078-02W5/0            : Uwi          - UNIQUE WELL ID
ENTR.         MAX                            : Entered      - ENTERED BY
SRVC.         WESTERN ATLAS                  : Scn          - SERVICE COMPANY
STRT.M        355                            : top_depth    - START DEPTH
STOP.M        605                            : bot_depth    - STOP DEPTH
STEP.M        0.25                           : increment    - STEP LENGTH
 NULL. -999.2500:NULL Value
~CURVE INFORMATION BLOCK
#MNEM UNIT       ERCB CURVE CODE    CURVE DESCRIPTION
#-----------   ------------------   ----------------------------------
DEPT.M        00 001 00 00         : DEPTH        - DEPTH
ILD .OHMM     00 120 00 00         : RESD         - DEEP RESISTIVITY (DIL)
NPHI.V/V      00 330 00 00         : PHIN         - NEUTRON POROSITY (SANDSTONE)
DPHI.V/V      00 890 00 00         : PHID         - DENSITY POROSITY (SANDSTONE)
CALI.MM       00 280 01 00         : CAL          - CALIPER
GR  .API      00 310 00 00         : GR           - GAMMA RAY
~PARAMETER INFORMATION
#MNEM.UNIT           DATA             DESCRIPTION OF MNEMONIC
#---------         -----------     ------------------------------
GL  .M        647.79               : gl           - GROUND LEVEL ELEVATION
EREF.M        652.05               : kb           - ELEVATION OF DEPTH REFERENCE
DATM.M        647.79               : datum        - DATUM ELEVATION
TDD .M        628                  : tdd          - TOTAL DEPTH DRILLER
RUN .         ONE                  : Run          - RUN NUMBER
ENG .         BILL                 : Engineer     - RECORDING ENGINEER
WIT .         JIM                  : Witness      - WITNESSED BY
MUD .         GEL                  : Mud_type     - MUD TYPE
MATR.         SANDSTONE            : Logunit      - NEUTRON MATRIX
TMAX.C        30                   : BHT          - MAXIMUM RECORDED TEMPERATURE
BHTD.M        627.3                : BHTDEP       - MAXIMUM RECORDED TEMPERATURE
RMT .C        13                   : MDTP         - TEMPERATURE OF MUD
MUDD.KG/M     1190                 : MWT          - MUD DENSITY
NEUT.         1                    : NEUTRON      - NEUTRON TYPE
RESI.         0                    : RESIST       - RESISTIVITY TYPE
RM  .OHMM     3.5                  : RM           - RESISTIVITY OF MUD
RMC .OHMM     2.2                  : RMC          - RESISTIVITY OF MUD CAKE
RMF .OHMM     3.9                  : RMF          - RESISTIVITY OF MUD FILTRATE
SUFT.C        -10                  : SUFT         - SURFACE TEMPERATURE
~A  DEPTH     RESD     PHIN     PHID      CAL       GR
# ...
  428.000    4.684    0.402    0.235  202.084   98.271
  428.250    4.684    0.404    0.235  202.087  101.784
  428.500    4.649    0.405    0.236  202.089  105.591
  428.750    4.501    0.403    0.236  201.605  106.471
  429.000    4.358    0.402    0.239  201.120  102.082
  429.250    4.219    0.405    0.239  201.123   97.401
  429.500    4.052    0.411    0.233  201.614   93.306
  429.750    3.923    0.412    0.230  201.617   92.137
  430.000    3.829    0.409    0.234  201.619   88.627
  430.250    3.831    0.405    0.241  201.622   85.117
  430.500    3.992    0.401    0.224  201.626   84.826
  430.750    4.228    0.399    0.220  201.629   87.169
  431.000    4.405    0.396    0.205  202.607   90.683
  431.250    4.405    0.393    0.220  203.098   94.197
  431.500    5.191    0.388    0.220  203.101   96.540
  431.750    5.543    0.380    0.216  203.104   92.151
  432.000    6.115    0.314    0.199  203.107   77.520
  432.250    7.028    0.286    0.153  203.110   65.815
  432.500    7.754    0.304    0.121  202.625   66.987
  432.750    8.080    0.328    0.168  201.653   72.843
  433.000    7.887    0.359    0.242  200.192   79.576
  433.250    7.887    0.374    0.273  196.781   84.260
  433.500    7.516    0.383    0.260  196.784   85.140
  433.750    7.042    0.385    0.254  197.274   84.556
  434.000    6.387    0.383    0.250  198.740   84.851
  434.250    6.134    0.374    0.236  201.670   85.438
  434.500    6.037    0.364    0.210  202.161   85.732
  434.750    6.039    0.353    0.196  202.163   86.319
  435.000    6.041    0.383    0.192  202.167   91.590
  435.250    5.849    0.391    0.222  203.633   93.347
  435.500    5.571    0.391    0.214  205.099   93.056
  435.750    5.350    0.391    0.216  205.102   95.692
  436.000    5.265    0.394    0.221  204.617   97.157
  436.250    5.224    0.394    0.226  204.620   95.696
  436.500    5.488    0.388    0.230  206.086   94.234
  436.750    5.581    0.378    0.229  207.553   93.358
  437.000    5.584    0.375    0.224  209.019   90.140
  437.250    5.539    0.378    0.222  208.047   87.508
  437.500    5.406    0.382    0.219  207.562   86.339
  437.750    5.108    0.385    0.214  207.565   88.097
  438.000    4.986    0.382    0.209  209.520   93.367
  438.250    4.947    0.379    0.206  210.497   98.051
  438.500    4.949    0.382    0.202  210.501   97.760
  438.750    4.950    0.389    0.203  210.503   96.884
  439.000    4.994    0.391    0.204  210.506   99.520
  439.250    4.995    0.384    0.206  210.997   99.229
  439.500    4.995    0.381    0.210  210.512   98.353
  439.750    4.958    0.377    0.211  210.515   96.598
  440.000    4.959    0.375    0.214  210.030   95.137
  440.250    5.084    0.375    0.221  209.059   92.212
  440.500    5.211    0.376    0.228  208.573   93.092
  440.750    5.475    0.380    0.236  208.088   94.264
  441.000    5.659    0.393    0.243  207.116   94.266
  441.250    5.661    0.392    0.237  206.631   92.512
  441.500    5.571    0.391    0.223  208.585   93.099
  441.750    5.527    0.393    0.219  208.101   93.686
  442.000    5.440    0.397    0.229  207.615   92.517
  442.250    5.310    0.399    0.227  208.594   94.568
  442.500    5.183    0.402    0.223  211.523   97.496
  442.750    5.185    0.406    0.219  212.014   96.913
  443.000    5.492    0.410    0.217  212.017   93.695
  443.250    6.159    0.415    0.225  211.044   89.892
  443.500    7.078    0.419    0.227  209.097   85.504
  443.750    8.135    0.421    0.236  206.661   79.945
  444.000   10.396    0.422    0.257  204.712   79.069
  444.250   11.658    0.422    0.292  204.228   77.900
  444.500   13.620    0.416    0.298  205.207   75.268
  444.750   15.151    0.413    0.302  205.697   72.050
  445.000   15.530    0.412    0.306  206.675   72.052
  445.250   15.284    0.414    0.304  206.678   74.688
  445.500   12.165    0.417    0.290  206.682   76.153
  445.750    7.959    0.417    0.270  206.685   77.325
  446.000    6.930    0.401    0.261  207.175   74.108
  446.250    6.441    0.376    0.248  208.153   70.890
  446.500    6.441    0.355    0.235  208.156   70.014
  446.750    6.290    0.358    0.204  208.160   79.674
  447.000    5.991    0.388    0.217  208.650   85.529
  447.250    5.944    0.385    0.236  209.628   88.750
  447.500    6.194    0.371    0.220  209.144   79.972
  447.750    6.615    0.339    0.176  207.684   76.461
  448.000    6.781    0.309    0.139  207.686   72.659
  448.250    6.783    0.321    0.110  208.178   75.587
  448.500    6.304    0.347    0.135  208.180   80.857
  448.750    5.445    0.364    0.176  208.672   85.834
  449.000    4.819    0.384    0.204  209.162   90.226
  449.250    4.782    0.386    0.211  210.141   91.691
  449.500    4.783    0.385    0.206  211.119   93.449
  449.750    4.746    0.384    0.207  211.609   93.158
  450.000    4.786    0.383    0.227  211.612   91.403
  450.250    4.786    0.382    0.236  211.128   89.357
  450.500    5.241    0.384    0.241  211.131   86.724
  450.750    5.284    0.385    0.237  211.621   82.629
  451.000    5.373    0.384    0.230  211.625   87.313
  451.250    5.508    0.384    0.230  211.627   89.949
  451.500    5.555    0.385    0.235  211.142   87.609
  451.750    5.557    0.387    0.238  210.657   87.319
  452.000    5.559    0.392    0.235  210.657   90.832
  452.250    5.561    0.392    0.231  210.663   94.054
  452.500    5.608    0.391    0.223  210.179   93.762
  452.750    5.750    0.387    0.228  210.184   88.496
  453.000    5.942    0.387    0.231  210.185   86.450
  453.250    6.294    0.386    0.231  209.213   86.744
  453.500    7.116    0.383    0.231  208.727   84.404
  453.750    7.916    0.375    0.237  208.730   76.797
  454.000    8.385    0.354    0.237  208.245   68.019
  454.250    8.252    0.339    0.215  207.761   69.776
  454.500    7.859    0.341    0.201  208.252   80.021
  454.750    7.128    0.377    0.219  208.742   87.047
  455.000    6.465    0.386    0.237  208.745   87.049
  455.250    6.311    0.389    0.240  208.260   87.344
  455.500    6.211    0.389    0.228  208.263   88.223
  455.750    6.162    0.387    0.224  208.754   87.640
  456.000    6.215    0.373    0.210  208.757   82.666
  456.250    6.217    0.366    0.197  208.760   73.010
  456.500    6.322    0.353    0.183  208.275   61.012
  456.750    6.534    0.327    0.169  207.303   59.258
  457.000    6.483    0.340    0.122  205.843   84.137
  457.250    6.328    0.357    0.154  203.894   93.797
  457.500    6.177    0.369    0.180  202.922   90.579
  457.750    6.179    0.379    0.210  202.437   85.020
  458.000    6.492    0.380    0.225  201.952   81.510
  458.250    6.709    0.377    0.259  201.467   80.048
  458.500    6.878    0.376    0.264  201.470   78.879
  458.750    7.051    0.375    0.263  200.987   77.710
  459.000    7.408    0.372    0.257  200.988   76.249
  459.250    7.782    0.368    0.252  200.504   75.665
  459.500    8.175    0.366    0.246  199.532   74.496
  459.750    8.519    0.367    0.243  199.532   72.742
  460.000    8.523    0.370    0.259  199.536   71.866
  460.250    8.387    0.372    0.271  199.540   69.526
  460.500    8.187    0.372    0.268  200.030   67.480
  460.750    8.257    0.370    0.274  200.034   67.481
  461.000    8.396    0.370    0.277  200.037   68.069
  461.250    7.997    0.370    0.278  200.039   68.948
  461.500    7.494    0.370    0.278  200.043   71.877
  461.750    7.196    0.369    0.265  200.533   77.732
  462.000    6.911    0.367    0.259  200.536   83.002
  462.250    6.582    0.370    0.252  200.539   81.248
  462.500    6.270    0.373    0.248  200.054   80.957
  462.750    5.972    0.376    0.261  200.057   80.958
  463.000    5.830    0.377    0.272  200.548   79.497
  463.250    5.784    0.379    0.297  201.526   77.157
  463.500    5.555    0.383    0.295  202.017   81.256
  463.750    5.422    0.391    0.287  203.483   85.941
  464.000    5.336    0.442    0.284  205.925   86.821
  464.250    5.382    0.428    0.279  207.392   85.359
