~VERSION INFORMATION
 VERS.                 2.0:   CWLS LOG ASCII STANDARD -VERSION 2.0
 WRAP.                  NO:   ONE LINE PER DEPTH STEP
~WELL INFORMATION BLOCK
#MNEM.UNIT           DATA                    DESCRIPTION OF MNEMONIC
#---------    -------------------            -------------------------------
# Generated from Intellog Unique Number	CS_69_70/WELL/784
NULL.         -999.25                        : NULL_VALUE
WELL.         ET AL TWEEDIE                  : Well_name    - WELL              
LOC .         00/06-31-070-11W4/0            : Location     - LOCATION          
UWI .         00/06-31-070-11W4/0            : Uwi          - UNIQUE WELL ID    
ENTR.         SP                             : Entered      - ENTERED BY        
SRVC.         SCHLUMBERGER                   : Scn          - SERVICE COMPANY   
STRT.M        265                            : top_depth    - START DEPTH       
STOP.M        470                            : bot_depth    - STOP DEPTH        
STEP.M        0.25                           : increment    - STEP LENGTH       
~CURVE INFORMATION BLOCK
#MNEM UNIT       ERCB CURVE CODE    CURVE DESCRIPTION
#-----------   ------------------   ----------------------------------
DEPT.M        00 001 00 00         : DEPTH        - DEPTH                       
ILD .OHMM     00 120 00 00         : RESD         - DEEP RESISTIVITY (DIL)      
DPHI.V/V      00 890 00 00         : PHID         - DENSITY POROSITY (LIMESTONE)
NPHI.V/V      00 330 00 00         : PHIN         - NEUTRON POROSITY (LIMESTONE)
GR  .API      00 310 00 00         : GR           - GAMMA RAY                   
~PARAMETER INFORMATION       
#MNEM.UNIT           DATA             DESCRIPTION OF MNEMONIC
#---------         -----------     ------------------------------
GL  .M        601.69               : gl           - GROUND LEVEL ELEVATION      
EREF.M        605.66               : kb           - ELEVATION OF DEPTH REFERENCE
DATM.M        601.69               : datum        - DATUM ELEVATION             
TDD .M        488                  : tdd          - TOTAL DEPTH DRILLER         
RUN .         ONE                  : Run          - RUN NUMBER                  
ENG .         BILL                 : Engineer     - RECORDING ENGINEER          
WIT .         JIM                  : Witness      - WITNESSED BY                
MUD .         GEL                  : Mud_type     - MUD TYPE                    
MATR.         LIMESTONE            : Logunit      - NEUTRON MATRIX              
TMAX.C        18.5                 : BHT          - MAXIMUM RECORDED TEMPERATURE
BHTD.M        488                  : BHTDEP       - MAXIMUM RECORDED TEMPERATURE
MATR.         1                    : LOGUNIT      - NEUTRON MATRIX              
RMT .C        25                   : MDTP         - TEMPERATURE OF MUD          
NEUT.         1                    : NEUTRON      - NEUTRON TYPE                
RESI.         0                    : RESIST       - RESISTIVITY TYPE            
RMC .OHMM     0.25                 : RMC          - RESISTIVITY OF MUD CAKE     
RMF .OHMM     0.25                 : RMF          - RESISTIVITY OF MUD FILTRATE 
SUFT.C        15                   : SUFT         - SURFACE TEMPERATURE         
~A  DEPTH     RESD     PHID     PHIN       GR
# ...
  395.500    4.454    0.247    0.450   90.141
  395.750    4.448    0.248    0.442   89.420
  396.000    4.475    0.248    0.442   86.823
  396.250    4.469    0.248    0.450   86.343
  396.500    4.437    0.247    0.446   90.291
  396.750    4.390    0.246    0.445   93.632
  397.000    4.319    0.247    0.445   95.275
  397.250    4.281    0.248    0.435   96.192
  397.500    4.243    0.245    0.434   96.138
  397.750    4.213    0.245    0.444   94.326
  398.000    4.192    0.245    0.457   92.818
  398.250    4.124    0.238    0.462   92.887
  398.500    4.026    0.232    0.466   94.287
  398.750    3.939    0.232    0.477   95.507
  399.000    3.868    0.239    0.486   96.848
  399.250    3.841    0.230    0.494   97.703
  399.500    3.908    0.221    0.499   96.377
  399.750    3.991    0.217    0.485   93.233
  400.000    4.084    0.230    0.473   92.028
  400.250    4.117    0.245    0.459   94.035
  400.500    4.126    0.255    0.451   96.406
  400.750    4.097    0.247    0.484   96.838
  401.000    4.023    0.237    0.487   95.876
  401.250    3.914    0.230    0.485   95.579
  401.500    3.688    0.226    0.479   96.799
  401.750    3.380    0.223    0.461  100.383
  402.000    3.191    0.219    0.447  102.692
  402.250    2.967    0.227    0.481  104.154
  402.500    2.729    0.238    0.515  104.707
  402.750    2.520    0.249    0.535  105.260
  403.000    2.370    0.260    0.547  105.813
  403.250    2.340    0.253    0.536  106.245
  403.500    2.605    0.240    0.520  106.252
  403.750    2.808    0.245    0.500  106.017
  404.000    3.045    0.241    0.487  105.602
  404.250    3.314    0.232    0.477  105.666
  404.500    3.586    0.233    0.469   98.946
  404.750    3.992    0.245    0.474   88.286
  405.000    4.485    0.243    0.481   81.384
  405.250    5.048    0.132    0.454   75.997
  405.500    5.272    0.048    0.373   72.914
  405.750    4.895    0.122    0.270   78.315
  406.000    4.552    0.210    0.357   81.838
  406.250    4.164    0.255    0.416   85.058
  406.500    3.880    0.273    0.435   85.912
  406.750    3.663    0.278    0.430   89.375
  407.000    3.577    0.271    0.427   92.957
  407.250    3.625    0.262    0.428   93.389
  407.500    3.709    0.257    0.443   92.548
  407.750    3.867    0.256    0.463   92.070
  408.000    3.942    0.239    0.464   91.957
  408.250    3.974    0.220    0.442   90.812
  408.500    4.112    0.217    0.435   87.788
  408.750    4.326    0.221    0.462   88.584
  409.000    4.762    0.190    0.490   87.136
  409.250    4.992    0.107    0.370   71.446
  409.500    5.032    0.109    0.301   83.090
  409.750    4.760    0.161    0.345   90.855
  410.000    4.461    0.196    0.403   93.650
  410.250    4.315    0.228    0.429   90.748
  410.500    4.253    0.217    0.458   93.301
  410.750    4.295    0.219    0.453   96.096
  411.000    4.345    0.226    0.450   96.710
  411.250    4.299    0.230    0.448   93.202
  411.500    4.135    0.226    0.446   88.542
  411.750    3.941    0.211    0.439   85.155
  412.000    3.884    0.195    0.428   88.374
  412.250    3.879    0.241    0.420   94.202
  412.500    3.925    0.249    0.443   96.753
  412.750    4.024    0.248    0.449   99.368
  413.000    4.055    0.238    0.433  100.040
  413.250    4.141    0.233    0.425   99.381
  413.500    4.198    0.240    0.429   95.933
  413.750    4.240    0.238    0.437   92.728
  414.000    4.250    0.232    0.434   95.220
  414.250    4.283    0.229    0.425   97.834
  414.500    4.317    0.233    0.427   95.780
  414.750    4.352    0.236    0.428   93.787
  415.000    4.461    0.230    0.427   97.917
  415.250    4.565    0.235    0.434  100.954
  415.500    4.715    0.241    0.439  102.779
  415.750    4.752    0.242    0.422  100.120
  416.000    4.826    0.236    0.409   96.310
  416.250    4.846    0.227    0.403   94.862
  416.500    4.914    0.218    0.411   99.960
  416.750    4.942    0.211    0.391  104.454
  417.000    4.963    0.205    0.381  106.461
  417.250    4.928    0.203    0.381  106.648
  417.500    4.767    0.199    0.386  104.414
  417.750    4.418    0.198    0.393  103.754
  418.000    4.041    0.211    0.413  103.033
  418.250    3.654    0.227    0.398  101.040
  418.500    3.124    0.246    0.408   96.442
  418.750    2.622    0.261    0.427   91.116
  419.000    2.204    0.280    0.462   88.274
  419.250    1.960    0.268    0.512   91.978
  419.500    2.074    0.252    0.494   96.533
  419.750    2.331    0.247    0.508   98.055
  420.000    2.658    0.261    0.528   98.061
  420.250    2.920    0.273    0.527   95.341
  420.500    3.202    0.274    0.505   95.348
  420.750    3.407    0.255    0.477   96.871
  421.000    3.619    0.242    0.436   98.090
  421.250    3.696    0.229    0.439   93.188
  421.500    3.795    0.221    0.463   81.255
  421.750    3.876    0.196    0.478   71.625
  422.000    3.922    0.099    0.403   68.239
  422.250    3.844    0.157    0.311   79.519
  422.500    3.636    0.217    0.388   85.830
  422.750    3.570    0.230    0.442   88.867
  423.000    3.532    0.239    0.455   90.511
  423.250    3.620    0.250    0.468   88.216
  423.500    3.853    0.267    0.479   86.949
  423.750    4.054    0.278    0.469   89.018
  424.000    4.275    0.248    0.439   90.055
  424.250    4.382    0.209    0.425   85.456
  424.500    4.433    0.183    0.407   81.766
  424.750    4.494    0.137    0.367   83.228
  425.000    4.339    0.149    0.379   90.205
  425.250    3.998    0.188    0.404   94.092
  425.500    3.616    0.228    0.431   96.219
  425.750    3.401    0.233    0.429   98.045
  426.000    3.036    0.229    0.438  101.204
  426.250    2.787    0.221    0.451  104.303
  426.500    2.661    0.217    0.479  103.703
  426.750    2.598    0.212    0.508   99.589
  427.000    2.595    0.212    0.495  102.567
  427.250    2.596    0.225    0.471  106.089
  427.500    2.607    0.225    0.456  106.763
  427.750    2.637    0.220    0.456  106.285
  428.000    2.684    0.222    0.467  105.747
  428.250    2.720    0.206    0.479  105.390
  428.500    2.737    0.192    0.476  107.216
  428.750    2.723    0.195    0.474  108.740
  429.000    2.689    0.211    0.478  109.413
  429.250    2.601    0.215    0.474  109.541
  429.500    2.559    0.221    0.470  111.609
  429.750    2.555    0.228    0.482  114.101
  430.000    2.634    0.234    0.497  115.078
  430.250    2.685    0.225    0.482  108.539
  430.500    2.671    0.222    0.456  102.304
  430.750    2.594    0.227    0.444  103.463
  431.000    2.486    0.236    0.453  108.683
  431.250    2.360    0.240    0.463  112.933
  431.500    2.270    0.228    0.468  115.485
  431.750    2.259    0.232    0.477  116.219
  432.000    2.403    0.235    0.494  115.741
  432.250    3.095    0.234    0.502  108.961
  432.500    4.038    0.243    0.500  100.907
  432.750    5.369    0.253    0.430   87.884
  433.000    6.356    0.262    0.381   78.739
  433.250    7.385    0.209    0.360   72.927
  433.500    8.533    0.168    0.352   74.571
  433.750    9.097    0.187    0.351   77.671
  434.000    8.637    0.213    0.371   79.435
  434.250    7.739    0.237    0.399   82.049
  434.500    6.742    0.250    0.418   84.480
  434.750    6.097    0.230    0.415   86.790
  435.000    5.618    0.222    0.414   82.736
  435.250    5.304    0.238    0.386   74.259
  435.500    5.208    0.249    0.363   70.326
  435.750    5.471    0.262    0.350   69.304
  436.000    5.703    0.273    0.345   69.432
  436.250    6.002    0.280    0.345   69.742
  436.500    6.210    0.270    0.346   70.476
  436.750    6.366    0.256    0.345   71.757
  437.000    6.428    0.250    0.349   72.734
  437.250    6.420    0.251    0.377   73.832
  437.500    6.292    0.252    0.389   74.324
  437.750    6.166    0.249    0.399   74.209
  438.000    6.228    0.241    0.389   73.065
  438.250    6.396    0.232    0.385   71.618
  438.500    7.473    0.223    0.387   71.868
  438.750    8.634    0.017    0.392   68.966
