~VERSION INFORMATION
 VERS.                 2.0:   CWLS LOG ASCII STANDARD -VERSION 2.0
 WRAP.                  NO:   ONE LINE PER DEPTH STEP
~WELL INFORMATION BLOCK
#MNEM.UNIT           DATA                    DESCRIPTION OF MNEMONIC
#---------    -------------------            -------------------------------
# Generated from Intellog Unique Number	CS_69_70/WELL/842
WELL.         PENNANT-PUMA                   : Well_name    - WELL
LOC .         00/07-24-069-16W4/0            : Location     - LOCATION
UWI .         00/07-24-069-16W4/0            : Uwi          - UNIQUE WELL ID
ENTR.         SP                             : Entered      - ENTERED BY
SRVC.         SCHLUMBERGER                   : Scn          - SERVICE COMPANY
STRT.M        259.080                        : top_depth    - START DEPTH
STOP.M        466.080                        : bot_depth    - STOP DEPTH
STEP.M        0.25                           : increment    - STEP LENGTH
 NULL. -999.2500:NULL Value
~CURVE INFORMATION BLOCK
#MNEM UNIT       ERCB CURVE CODE    CURVE DESCRIPTION
#-----------   ------------------   ----------------------------------
DEPT.M        00 001 00 00         : DEPTH        - DEPTH
GR  .API      00 310 00 00         : GR           - GAMMA RAY
DPHI.V/V      00 890 00 00         : PHID         - DENSITY POROSITY (SANDSTONE)
NPHI.V/V      00 330 00 00         : PHIN         - NEUTRON POROSITY (SANDSTONE)
ILD .OHMM     00 120 00 00         : RESD         - DEEP RESISTIVITY (DIL)
~PARAMETER INFORMATION
#MNEM.UNIT           DATA             DESCRIPTION OF MNEMONIC
#---------         -----------     ------------------------------
GL  .M        552.572              : gl           - GROUND LEVEL ELEVATION
EREF.M        555.65               : kb           - ELEVATION OF DEPTH REFERENCE
DATM.M        552.572              : datum        - DATUM ELEVATION
TDD .M        467.563              : tdd          - TOTAL DEPTH DRILLER
RUN .         ONE                  : Run          - RUN NUMBER
ENG .         BILL                 : Engineer     - RECORDING ENGINEER
WIT .         JIM                  : Witness      - WITNESSED BY
MUD .         GEL                  : Mud_type     - MUD TYPE
MATR.         SANDSTONE            : Logunit      - NEUTRON MATRIX
TMAX.C        22.2222              : BHT          - MAXIMUM RECORDED TEMPERATURE
BHTD.M        467.563              : BHTDEP       - MAXIMUM RECORDED TEMPERATURE
MATR.         1                    : LOGUNIT      - NEUTRON MATRIX
RMT .C        25                   : MDTP         - TEMPERATURE OF MUD
NEUT.         1                    : NEUTRON      - NEUTRON TYPE
RESI.         0                    : RESIST       - RESISTIVITY TYPE
RMC .OHMM     0.25                 : RMC          - RESISTIVITY OF MUD CAKE
RMF .OHMM     0.25                 : RMF          - RESISTIVITY OF MUD FILTRATE
SUFT.C        15                   : SUFT         - SURFACE TEMPERATURE
~A  DEPTH       GR     PHID     PHIN     RESD
# ...
  433.080   94.461    0.099    0.418    3.219
  433.330  101.366    0.136    0.475    3.054
  433.580  108.171    0.176    0.513    3.054
  433.830  111.500    0.197    0.557    3.266
  434.080  110.152    0.195    0.562    3.910
  434.330  103.225    0.199    0.556    4.714
  434.580   91.158    0.206    0.574    5.744
  434.830   81.737    0.171    0.522    6.264
  435.080   75.089    0.108    0.384    6.666
  435.330   76.971    0.062    0.366    6.543
  435.580   81.115    0.051    0.381    6.223
  435.830   83.645    0.169    0.386    6.019
  436.080   84.525    0.175    0.389    5.934
  436.330   84.263    0.175    0.387    6.045
  436.580   80.593    0.169    0.377    6.594
  436.830   74.568    0.179    0.366    7.170
  437.080   70.341    0.191    0.359    8.199
  437.330   66.434    0.185    0.356    9.360
  437.580   62.933    0.198    0.358   10.410
  437.830   60.777    0.221    0.371   11.267
  438.080   59.844    0.239    0.381   12.038
  438.330   60.794    0.237    0.370   12.387
  438.580   61.547    0.228    0.360   12.194
  438.830   62.541    0.211    0.350   12.266
  439.080   63.096    0.195    0.351   12.641
  439.330   63.545    0.183    0.344   13.465
  439.580   63.707    0.153    0.332   13.260
  439.830   63.350    0.080    0.311   11.325
  440.080   60.083    0.039    0.297    9.402
  440.330   70.540    0.058    0.302    7.772
  440.580   80.279    0.171    0.427    6.691
  440.830   89.926    0.192    0.459    5.878
  441.080   96.836    0.187    0.425    5.423
  441.330  100.362    0.179    0.392    5.150
  441.580  103.003    0.179    0.396    5.552
  441.830  101.172    0.192    0.398    6.177
  442.080   99.263    0.198    0.408    6.620
  442.330   97.761    0.206    0.431    7.060
  442.580   93.521    0.221    0.456    7.595
  442.830   82.957    0.235    0.412    7.973
  443.080   81.125    0.224    0.373    7.947
  443.330   80.658    0.213    0.351    7.490
  443.580   79.089    0.213    0.358    7.060
  443.830   77.927    0.214    0.367    6.712
  444.080   77.630    0.214    0.373    6.431
  444.330   78.162    0.220    0.367    6.291
  444.580   79.882    0.206    0.356    6.232
  444.830   84.648    0.197    0.342    6.228
  445.080   87.489    0.184    0.335    6.366
  445.330   90.638    0.168    0.339    6.501
  445.580   92.331    0.163    0.342    6.645
  445.830   87.399    0.164    0.346    6.683
  446.080   82.105    0.158    0.363    6.510
  446.330   80.129    0.171    0.372    6.328
  446.580   85.797    0.171    0.374    6.195
  446.830   91.337    0.181    0.376    6.204
  447.080   94.380    0.170    0.379    6.285
  447.330   93.941    0.157    0.390    6.380
  447.580   90.932    0.154    0.374    6.491
  447.830   94.999    0.149    0.365    6.565
  448.080   98.213    0.148    0.366    6.623
  448.330   94.003    0.161    0.361    6.662
  448.580   88.423    0.171    0.351    6.578
  448.830   86.190    0.168    0.340    6.489
  449.080   84.686    0.154    0.332    6.516
  449.330   82.942    0.145    0.334    6.711
  449.580   80.035    0.137    0.342    6.978
  449.830   75.175    0.131    0.342    7.366
  450.080   71.301    0.146    0.349    7.772
  450.330   67.247    0.173    0.368    8.227
  450.580   70.130    0.195    0.363    8.701
  450.830   80.270    0.205    0.358    7.495
  451.080   86.009    0.205    0.385    6.262
  451.330   93.515    0.201    0.438    5.547
  451.580  102.376    0.172    0.507    5.140
  451.830  110.638    0.147    0.551    4.929
  452.080  113.943    0.129    0.535    4.986
  452.330  110.209    0.155    0.482    5.044
  452.580  105.761    0.165    0.407    5.368
  452.830  104.228    0.153    0.361    5.765
  453.080  104.047    0.154    0.352    6.267
  453.330  103.766    0.158    0.358    6.627
  453.580  104.141    0.161    0.360    6.766
  453.830  105.193    0.149    0.360    6.706
  454.080  105.466    0.132    0.360    6.596
  454.330  103.647    0.136    0.358    6.370
  454.580   98.079    0.149    0.348    6.287
  454.830   98.587    0.157    0.339    6.289
  455.080  100.368    0.160    0.343    6.387
  455.330  102.819    0.155    0.353    6.486
  455.580  103.025    0.155    0.364    6.578
  455.830   86.532    0.138    0.381    6.673
  456.080   76.309    0.113    0.387    6.682
  456.330   74.378    0.114    0.362    6.469
  456.580   74.279    0.185    0.342    6.267
  456.830   73.112    0.192    0.328    6.255
  457.080   70.642    0.200    0.331    6.086
  457.330   67.335    0.194    0.336    6.250
  457.580   65.140    0.188    0.334    6.402
  457.830   63.362    0.215    0.336    6.626
  458.080   66.240    0.234    0.335    6.752
  458.330   68.779    0.226    0.335    6.588
  458.580   67.775    0.221    0.341    6.227
  458.830   59.884    0.214    0.335    6.043
  459.080   50.190    0.235    0.338    5.836
  459.330   43.322    0.251    0.355    5.481
  459.580   46.237    0.264    0.373    5.359
  459.830   71.231    0.380    0.425    5.310
  460.080   86.314    0.418    0.584    5.254
  460.330   86.156    0.284    0.412    5.274
  460.580   85.964    0.257    0.392    5.371
  460.830   85.863    0.258    0.394    5.634
  461.080   83.223    0.274    0.403    5.956
  461.330   83.062    0.290    0.402    6.216
  461.580   82.726    0.289    0.358    6.488
  461.830   82.482    0.286    0.269    6.360
  462.080   82.369    0.266    0.172    5.512
  462.330   82.378    0.239    0.229    5.028
  462.580   82.307    0.238    0.307    4.443
  462.830   82.376    0.240    0.339    4.042
  463.080   82.387    0.248    0.340    3.782
  463.330   82.412    0.265    0.346    3.837
  463.580   82.618    0.203    0.350    3.936
  463.830   82.790    0.124    0.347    4.272
  464.080   82.811    0.075    0.343    4.905
  464.330   82.712    0.064    0.342    5.773
  464.580   82.597    0.101    0.343    6.293
  464.830   82.464    0.136    0.344    6.237
  465.080   82.167    0.099    0.344    5.964
  465.330   81.974    0.128    0.344    5.787
  465.580   81.886    0.052    0.344    5.687
  465.830   81.948    0.033    0.344    5.626
  466.080   82.282    0.032    0.343    5.646
