~VERSION INFORMATION
 VERS.                 2.0:   CWLS LOG ASCII STANDARD -VERSION 2.0
 WRAP.                  NO:   ONE LINE PER DEPTH STEP
~WELL INFORMATION BLOCK
#MNEM.UNIT           DATA                    DESCRIPTION OF MNEMONIC
#---------    -------------------            -------------------------------
# Generated from Intellog Unique Number	CW_79_81/WELL/2461
WELL.         07-23-081-22W4                 : Well_name    - WELL
LOC .         00/07-23-081-22W4/0            : Location     - LOCATION
UWI .         00/07-23-081-22W4/0            : Uwi          - UNIQUE WELL ID
ENTR.         MAX                            : Entered      - ENTERED BY
SRVC.         SCHLUMBERGER                   : Scn          - SERVICE COMPANY
STRT.M        225                            : top_depth    - START DEPTH
STOP.M        439.75                         : bot_depth    - STOP DEPTH
STEP.M        0.25                           : increment    - STEP LENGTH
 NULL. -999.2500:NULL Value
~CURVE INFORMATION BLOCK
#MNEM UNIT       ERCB CURVE CODE    CURVE DESCRIPTION
#-----------   ------------------   ----------------------------------
DEPT.M        00 001 00 00         : DEPTH        - DEPTH
ILD .OHMM     00 120 00 00         : RESD         - DEEP RESISTIVITY (DIL)
NPHI.V/V      00 330 00 00         : PHIN         - NEUTRON POROSITY (SANDSTONE)
DPHI.V/V      00 890 00 00         : PHID         - DENSITY POROSITY (SANDSTONE)
GR  .API      00 310 00 00         : GR           - GAMMA RAY
CALI.MM       00 280 01 00         : CAL          - CALIPER
~PARAMETER INFORMATION
#MNEM.UNIT           DATA             DESCRIPTION OF MNEMONIC
#---------         -----------     ------------------------------
GL  .M        610.7                : gl           - GROUND LEVEL ELEVATION
EREF.M        614                  : kb           - ELEVATION OF DEPTH REFERENCE
DATM.M        610.7                : datum        - DATUM ELEVATION
TDD .M        450                  : tdd          - TOTAL DEPTH DRILLER
RUN .         ONE                  : Run          - RUN NUMBER
ENG .         BILL                 : Engineer     - RECORDING ENGINEER
WIT .         JIM                  : Witness      - WITNESSED BY
MUD .         GEL                  : Mud_type     - MUD TYPE
MATR.         SANDSTONE            : Logunit      - NEUTRON MATRIX
TMAX.C        30                   : BHT          - MAXIMUM RECORDED TEMPERATURE
BHTD.M        450                  : BHTDEP       - MAXIMUM RECORDED TEMPERATURE
MATR.         1                    : LOGUNIT      - NEUTRON MATRIX
RMT .C        21                   : MDTP         - TEMPERATURE OF MUD
NEUT.         1                    : NEUTRON      - NEUTRON TYPE
RESI.         0                    : RESIST       - RESISTIVITY TYPE
RMC .OHMM     4.03                 : RMC          - RESISTIVITY OF MUD CAKE
RMF .OHMM     4.42                 : RMF          - RESISTIVITY OF MUD FILTRATE
SUFT.C        -20                  : SUFT         - SURFACE TEMPERATURE
~A  DEPTH     RESD     PHIN     PHID       GR      CAL
# ...
  298.000   11.951    0.458    0.336   62.088  210.962
  298.250   11.930    0.467    0.326   64.859  211.199
  298.500   11.837    0.470    0.318   64.363  210.374
  298.750   11.836    0.465    0.331   61.738  209.980
  299.000   11.769    0.464    0.348   60.188  209.885
  299.250   11.681    0.466    0.357   59.713  209.889
  299.500   11.594    0.468    0.359   59.894  209.893
  299.750   11.507    0.475    0.359   59.847  209.898
  300.000   11.505    0.477    0.353   59.601  209.902
  300.250   11.504    0.472    0.351   58.887  209.907
  300.500   11.376    0.466    0.350   58.531  209.911
  300.750   11.250    0.460    0.350   58.414  209.915
  301.000   11.166    0.459    0.350   58.536  209.819
  301.250   11.049    0.470    0.355   59.465  209.426
  301.500   10.880    0.480    0.353   61.707  209.430
  301.750   10.720    0.483    0.350   61.470  209.434
  302.000   10.562    0.479    0.349   60.517  209.438
  302.250   10.368    0.478    0.351   60.401  209.442
  302.500   10.141    0.481    0.354   61.956  209.447
  302.750    9.919    0.493    0.350   66.149  209.453
  303.000    9.918    0.503    0.346   70.382  209.457
  303.250    9.917    0.500    0.350   69.190  209.461
  303.500    9.969    0.486    0.353   67.460  209.763
  303.750   10.005    0.470    0.357   66.627  209.967
  304.000    9.966    0.460    0.361   66.809  210.071
  304.250    9.789    0.467    0.360   66.712  210.474
  304.500    9.640    0.470    0.358   66.217  210.477
  304.750    9.568    0.482    0.359   65.980  210.481
  305.000    9.496    0.497    0.361   65.744  210.486
  305.250    9.391    0.505    0.360   64.911  210.291
  305.500    9.253    0.503    0.359   64.197  209.997
  305.750    9.117    0.500    0.363   66.081  210.001
  306.000    9.116    0.504    0.351   68.323  210.006
  306.250    9.181    0.480    0.338   66.415  210.009
  306.500    9.348    0.487    0.331   65.402  209.715
  306.750    9.520    0.501    0.329   64.688  209.521
  307.000    9.624    0.503    0.334   63.854  209.525
  307.250    9.608    0.476    0.340   63.010  209.530
  307.500    9.533    0.481    0.337   64.755  209.533
  307.750    9.532    0.492    0.329   67.146  209.538
  308.000    9.530    0.498    0.334   69.717  209.542
  308.250    9.564    0.499    0.340   72.228  209.546
  308.500    9.615    0.494    0.341   73.544  209.550
  308.750    9.584    0.483    0.341   71.437  209.638
  309.000    9.437    0.470    0.343   70.444  210.058
  309.250    9.436    0.456    0.344   68.775  210.460
  309.500    9.590    0.459    0.340   66.925  210.563
  309.750    9.731    0.469    0.333   66.450  210.766
  310.000    9.783    0.478    0.328   68.244  211.169
  310.250    9.767    0.475    0.323   72.498  211.655
  310.500    9.691    0.479    0.316   72.251  212.075
  310.750    9.618    0.493    0.321   70.820  212.476
  311.000    9.494    0.495    0.334   69.390  212.878
  311.250    9.215    0.487    0.340   69.273  213.280
  311.500    8.750    0.476    0.337   70.887  213.683
  311.750    7.914    0.480    0.343   74.404  214.169
  312.000    6.962    0.503    0.341   77.642  214.588
  312.250    6.227    0.507    0.331   80.033  215.389
  312.500    5.638    0.506    0.318   80.633  215.592
  312.750    5.266    0.511    0.318   80.516  214.999
  313.000    5.020    0.525    0.327   80.279  214.008
  313.250    4.698    0.542    0.318   79.844  213.698
  313.500    4.522    0.562    0.316   78.852  214.117
  313.750    4.655    0.573    0.304   76.943  214.917
  314.000    4.976    0.579    0.296   74.138  214.523
  314.250    5.467    0.561    0.295   70.796  213.532
  314.500    6.203    0.527    0.300   67.574  212.839
  314.750    7.732    0.506    0.304   65.626  213.723
  315.000    9.315    0.478    0.292   66.624  214.142
  315.250    9.659    0.453    0.284   70.209  214.544
  315.500    9.642    0.437    0.252   74.870  215.245
  315.750    9.288    0.428    0.225   80.129  216.244
  316.000    8.759    0.430    0.217   85.088  217.343
  316.250    8.224    0.450    0.227   88.585  218.146
  316.500    8.037    0.449    0.232   89.334  218.150
  316.750    7.919    0.458    0.239   89.814  218.154
  317.000    7.716    0.464    0.244   90.295  218.158
  317.250    7.548    0.469    0.248   90.536  218.361
  317.500    7.519    0.471    0.251   90.299  218.464
  317.750    7.812    0.464    0.257   88.899  217.591
  318.000    8.178    0.464    0.263   86.662  217.180
  318.250    8.297    0.463    0.272   85.231  216.387
  318.500    8.235    0.468    0.278   85.234  215.894
  318.750    8.114    0.469    0.275   85.236  215.699
  319.000    8.024    0.464    0.267   84.582  215.703
  319.250    8.035    0.472    0.265   83.539  215.709
  319.500    8.095    0.492    0.266   84.289  215.713
  319.750    8.154    0.483    0.267   85.724  215.716
  320.000    8.168    0.469    0.267   85.906  215.721
  320.250    8.196    0.466    0.267   85.431  215.725
  320.500    8.255    0.474    0.264   84.777  215.729
  320.750    8.327    0.470    0.256   84.351  215.652
  321.000    8.389    0.464    0.250   84.603  215.241
  321.250    8.512    0.469    0.245   83.411  215.244
  321.500    8.683    0.467    0.247   83.114  215.846
  321.750    8.779    0.461    0.250   84.192  216.448
  322.000    8.729    0.453    0.249   86.106  216.750
  322.250    8.472    0.449    0.242   87.054  216.755
  322.500    8.154    0.467    0.247   85.813  216.760
  322.750    7.858    0.475    0.262   86.532  217.162
  323.000    7.574    0.479    0.269   88.147  217.564
  323.250    7.328    0.480    0.270   89.583  217.966
  323.500    7.168    0.481    0.265   90.183  218.269
  323.750    7.167    0.484    0.260   89.359  218.108
  324.000    7.166    0.492    0.257   87.620  217.283
  324.250    7.324    0.502    0.258   85.950  214.898
  324.500    7.607    0.489    0.277   81.593  212.812
  324.750    8.088    0.469    0.286   77.057  211.820
  325.000    8.784    0.451    0.280   73.954  211.626
  325.250    9.613    0.435    0.273   73.449  210.752
  325.500    9.686    0.429    0.276   75.691  210.341
  325.750    9.403    0.460    0.276   76.888  209.948
  326.000    9.385    0.474    0.281   75.756  209.852
  326.250    9.522    0.474    0.291   73.847  209.856
  326.500    9.715    0.464    0.302   72.296  209.959
  326.750    9.857    0.437    0.307   72.220  210.445
  327.000    9.855    0.431    0.300   74.213  210.865
  327.250    9.854    0.434    0.289   73.977  210.869
  327.500    9.906    0.450    0.281   73.024  211.171
  327.750    9.721    0.465    0.278   73.385  211.574
  328.000    9.249    0.471    0.279   75.537  211.877
  328.250    8.553    0.469    0.281   78.855  211.882
  328.500    8.049    0.475    0.273   81.097  211.885
  328.750    7.643    0.474    0.251   83.010  211.890
  329.000    7.258    0.475    0.251   84.745  211.895
  329.250    7.025    0.473    0.258   85.822  211.898
  329.500    6.985    0.468    0.267   86.064  211.803
  329.750    7.214    0.465    0.280   85.539  211.410
  330.000    7.611    0.462    0.275   85.293  211.414
  330.250    8.007    0.466    0.285   86.251  211.418
  330.500    8.023    0.471    0.291   87.746  211.124
  330.750    7.876    0.472    0.290   87.629  210.929
  331.000    7.803    0.474    0.279   84.228  210.833
  331.250    8.176    0.490    0.244   74.854  210.440
  331.500    8.966    0.496    0.163   67.391  210.446
  331.750   10.720    0.459    0.067   60.945  210.449
  332.000   12.656    0.317    0.056   56.109  210.453
  332.250   14.334    0.240    0.090   54.917  210.457
  332.500   15.072    0.270    0.142   58.502  210.361
  332.750   14.056    0.331    0.206   68.748  209.968
  333.000   12.457    0.389    0.246   76.963  209.972
  333.250   10.250    0.438    0.296   78.398  209.977
  333.500    9.333    0.463    0.309   78.759  209.980
  333.750    8.869    0.478    0.308   79.001  210.184
  334.000    8.598    0.489    0.305   79.183  210.587
  334.250    8.459    0.501    0.296   78.320  211.156
