~VERSION INFORMATION
 VERS.                 2.0:   CWLS LOG ASCII STANDARD -VERSION 2.0
 WRAP.                  NO:   ONE LINE PER DEPTH STEP
~WELL INFORMATION BLOCK
#MNEM.UNIT           DATA                    DESCRIPTION OF MNEMONIC
#---------    -------------------            -------------------------------
# Generated from Intellog Unique Number	CS_71_72/WELL/637
WELL.         AMOCO AEC IPIATIK              : Well_name    - WELL
LOC .         00/03-18-072-06W4/0            : Location     - LOCATION
UWI .         00/03-18-072-06W4/0            : Uwi          - UNIQUE WELL ID
ENTR.         SP                             : Entered      - ENTERED BY
SRVC.         SCHLUMBERGER                   : Scn          - SERVICE COMPANY
STRT.M        310                            : top_depth    - START DEPTH
STOP.M        535                            : bot_depth    - STOP DEPTH
STEP.M        0.25                           : increment    - STEP LENGTH
 NULL. -999.2500:NULL Value
~CURVE INFORMATION BLOCK
#MNEM UNIT       ERCB CURVE CODE    CURVE DESCRIPTION
#-----------   ------------------   ----------------------------------
DEPT.M        00 001 00 00         : DEPTH        - DEPTH
ILD .OHMM     00 120 00 00         : RESD         - DEEP RESISTIVITY (DIL)
DPHI.V/V      00 890 00 00         : PHID         - DENSITY POROSITY (LIMESTONE)
NPHI.V/V      00 330 00 00         : PHIN         - NEUTRON POROSITY (LIMESTONE)
GR  .API      00 310 00 00         : GR           - GAMMA RAY
~PARAMETER INFORMATION
#MNEM.UNIT           DATA             DESCRIPTION OF MNEMONIC
#---------         -----------     ------------------------------
GL  .M        684.4                : gl           - GROUND LEVEL ELEVATION
EREF.M        688.5                : kb           - ELEVATION OF DEPTH REFERENCE
DATM.M        684.4                : datum        - DATUM ELEVATION
TDD .M        550                  : tdd          - TOTAL DEPTH DRILLER
RUN .         ONE                  : Run          - RUN NUMBER
ENG .         BILL                 : Engineer     - RECORDING ENGINEER
WIT .         JIM                  : Witness      - WITNESSED BY
MUD .         GEL                  : Mud_type     - MUD TYPE
MATR.         LIMESTONE            : Logunit      - NEUTRON MATRIX
TMAX.C        19                   : BHT          - MAXIMUM RECORDED TEMPERATURE
BHTD.M        550                  : BHTDEP       - MAXIMUM RECORDED TEMPERATURE
MATR.         1                    : LOGUNIT      - NEUTRON MATRIX
RMT .C        25                   : MDTP         - TEMPERATURE OF MUD
NEUT.         1                    : NEUTRON      - NEUTRON TYPE
RESI.         0                    : RESIST       - RESISTIVITY TYPE
RMC .OHMM     0.25                 : RMC          - RESISTIVITY OF MUD CAKE
RMF .OHMM     0.25                 : RMF          - RESISTIVITY OF MUD FILTRATE
SUFT.C        15                   : SUFT         - SURFACE TEMPERATURE
~A  DEPTH     RESD     PHID     PHIN       GR
# ...
  353.500    8.431    0.223    0.452   85.858
  353.750    8.275    0.241    0.439   86.485
  354.000    8.591    0.254    0.431   95.627
  354.250    9.431    0.247    0.422   99.892
  354.500   10.354    0.213    0.415  108.420
  354.750   10.951    0.188    0.414  112.690
  355.000   11.368    0.179    0.437  115.746
  355.250   10.951    0.182    0.454  115.162
  355.500   10.355    0.184    0.448  111.548
  355.750    9.610    0.196    0.446  109.740
  356.000    8.754    0.213    0.475  105.523
  356.250    8.277    0.218    0.496  103.720
  356.500    7.540    0.217    0.503  102.523
  356.750    7.263    0.212    0.508  101.328
  357.000    6.741    0.209    0.496  100.743
  357.250    6.494    0.213    0.484  102.586
  357.500    6.374    0.220    0.478  103.219
  357.750    6.374    0.223    0.490  102.631
  358.000    6.617    0.231    0.481  100.840
  358.250    6.742    0.243    0.468   99.642
  358.500    7.541    0.249    0.445   97.841
  358.750    7.976    0.259    0.435   96.053
  359.000    8.279    0.260    0.441   95.464
  359.250    8.921    0.256    0.435   95.479
  359.500    9.613    0.248    0.425   94.901
  359.750   10.359    0.243    0.420   94.913
  360.000   10.753    0.234    0.429   94.337
  360.250   10.956    0.233    0.443   92.533
  360.500   10.956    0.240    0.461   85.272
  360.750   10.956    0.255    0.472   80.438
  361.000   10.754    0.268    0.477   75.598
  361.250   10.168    0.273    0.464   72.582
  361.500    9.981    0.279    0.451   70.177
  361.750   10.556    0.281    0.440   70.193
  362.000   11.374    0.265    0.429   77.507
  362.250   13.207    0.246    0.426   86.644
  362.500   13.968    0.230    0.433   90.908
  362.750   13.710    0.227    0.460   96.398
  363.000   12.724    0.237    0.486  101.289
  363.250   11.808    0.231    0.491  103.121
  363.500    9.798    0.215    0.485  105.576
  363.750    7.831    0.201    0.474  106.211
  364.000    6.745    0.214    0.475  104.409
  364.250    5.919    0.223    0.491   99.571
  364.500    5.391    0.242    0.482   89.267
  364.750    5.003    0.254    0.480   80.783
  365.000    4.820    0.270    0.480   72.915
  365.250    5.392    0.290    0.481   68.689
  365.500    7.134    0.299    0.485   68.713
  365.750    8.926    0.295    0.491   69.340
  366.000   10.961    0.295    0.498   71.185
  366.250   11.811    0.298    0.491   72.414
  366.500   12.492    0.295    0.486   74.272
  366.750   12.967    0.289    0.481   74.280
  367.000   12.492    0.288    0.478   74.307
  367.250   12.262    0.288    0.475   74.335
  367.500   12.035    0.289    0.477   74.352
  367.750   11.594    0.283    0.466   74.371
  368.000   10.963    0.284    0.458   73.797
  368.250   10.760    0.294    0.465   73.812
  368.500    9.986    0.286    0.482   73.835
  368.750    9.802    0.275    0.483   74.477
  369.000    9.621    0.283    0.467   74.492
  369.250    9.802    0.296    0.456   75.114
  369.500   10.367    0.304    0.443   75.136
  369.750   10.563    0.298    0.437   73.947
  370.000   10.965    0.286    0.460   73.360
  370.250   11.172    0.281    0.457   72.772
  370.500   11.383    0.276    0.475   72.185
  370.750   11.597    0.274    0.469   72.213
  371.000   11.383    0.269    0.452   73.451
  371.250   10.966    0.268    0.445   72.866
  371.500   10.763    0.265    0.445   70.459
  371.750   10.369    0.269    0.428   68.656
  372.000   10.178    0.276    0.414   71.715
  372.250   10.178    0.271    0.407   75.989
  372.500    9.990    0.259    0.426   81.484
  372.750    9.805    0.251    0.440   86.358
  373.000    9.624    0.238    0.447   93.061
  373.250    9.624    0.231    0.445   95.507
  373.500    9.446    0.220    0.441   96.139
  373.750    8.932    0.209    0.444   93.733
  374.000    8.446    0.216    0.454   85.259
  374.250    8.136    0.245    0.467   81.026
  374.500    7.838    0.269    0.481   75.585
  374.750    7.551    0.279    0.493   72.567
  375.000    7.274    0.274    0.504   68.948
  375.250    7.008    0.273    0.494   64.720
  375.500    6.879    0.284    0.481   61.708
  375.750    7.140    0.295    0.476   60.514
  376.000    7.694    0.301    0.462   61.136
  376.250    8.606    0.307    0.448   62.381
  376.500    9.274    0.309    0.446   63.611
  376.750    9.627    0.308    0.451   65.469
  377.000   10.182    0.314    0.460   66.089
  377.250   10.768    0.309    0.454   66.721
  377.500   10.972    0.299    0.447   65.531
  377.750   10.769    0.293    0.452   63.723
  378.000   10.374    0.282    0.436   58.288
  378.250   10.183    0.269    0.407   55.871
  378.500    9.995    0.235    0.393   50.430
  378.750   10.183    0.151    0.328   45.598
  379.000   11.390    0.120    0.284   43.184
  379.250   12.505    0.130    0.288   40.780
  379.500   13.988    0.171    0.346   44.454
  379.750   16.241    0.213    0.384   47.506
  380.000   17.501    0.241    0.422   52.399
  380.250   17.501    0.277    0.436   54.241
  380.500   15.942    0.294    0.445   55.466
  380.750   13.989    0.300    0.442   57.316
  381.000   12.507    0.304    0.459   57.336
  381.250   11.393    0.303    0.470   55.539
  381.500   10.772    0.299    0.475   54.944
  381.750    9.812    0.292    0.477   52.548
  382.000    9.453    0.289    0.458   51.347
  382.250    9.107    0.295    0.444   50.156
  382.500    9.107    0.286    0.427   49.569
  382.750    9.279    0.290    0.422   49.593
  383.000    9.454    0.297    0.415   50.221
  383.250    9.632    0.298    0.411   51.460
  383.500    9.632    0.296    0.417   53.306
  383.750    9.633    0.293    0.422   53.940
  384.000    9.454    0.292    0.422   54.566
  384.250    9.280    0.299    0.430   55.191
  384.500    8.775    0.304    0.455   57.052
  384.750    8.453    0.307    0.484   57.066
  385.000    7.993    0.310    0.468   57.690
  385.250    7.700    0.316    0.452   58.322
  385.500    7.700    0.321    0.438   59.555
  385.750    7.700    0.314    0.438   62.015
  386.000    7.846    0.322    0.442   62.636
  386.250    7.846    0.326    0.446   64.490
  386.500    7.701    0.327    0.448   65.112
  386.750    7.559    0.333    0.453   65.141
  387.000    7.419    0.326    0.463   65.762
  387.250    7.419    0.323    0.470   63.359
  387.500    7.282    0.322    0.470   60.948
  387.750    7.015    0.315    0.469   62.184
  388.000    7.015    0.310    0.463   64.028
  388.250    7.283    0.305    0.469   64.656
  388.500    7.560    0.312    0.459   68.321
  388.750    7.702    0.305    0.442   74.419
  389.000    7.702    0.286    0.437   81.125
  389.250    7.420    0.266    0.442   86.617
  389.500    6.634    0.247    0.445   89.067
  389.750    6.043    0.232    0.457   90.915
  390.000    5.822    0.227    0.464   90.930
  390.250    5.403    0.230    0.470   91.556
  390.500    5.014    0.236    0.479   91.583
  390.750    4.830    0.241    0.500   92.208
  391.000    4.654    0.257    0.510   92.247
  391.250    4.568    0.270    0.494   91.655
  391.500    4.483    0.281    0.475   89.849
  391.750    4.568    0.273    0.464   86.829
  392.000    4.654    0.266    0.462   83.212
  392.250    4.922    0.258    0.479   83.235
  392.500    5.110    0.264    0.506   83.252
  392.750    5.110    0.277    0.529   83.891
  393.000    5.110    0.286    0.520   83.300
  393.250    5.110    0.277    0.505   80.282
  393.500    5.015    0.286    0.485   73.632
  393.750    5.015    0.309    0.468   68.795
  394.000    5.506    0.321    0.464   64.559
  394.250    6.159    0.306    0.470   62.153
  394.500    6.514    0.298    0.474   62.791
  394.750    7.019    0.295    0.483   63.425
  395.000    7.286    0.296    0.498   63.443
  395.250    7.564    0.297    0.489   62.251
  395.500    7.707    0.306    0.478   61.657
  395.750    7.564    0.309    0.478   61.079
  396.000    7.564    0.300    0.486   63.536
  396.250    7.564    0.297    0.483   64.769
  396.500    7.707    0.296    0.477   66.004
  396.750    7.707    0.296    0.471   67.240
