~VERSION INFORMATION
 VERS.                 2.0:   CWLS LOG ASCII STANDARD -VERSION 2.0
 WRAP.                  NO:   ONE LINE PER DEPTH STEP
~WELL INFORMATION BLOCK
#MNEM.UNIT           DATA                    DESCRIPTION OF MNEMONIC
#---------    -------------------            -------------------------------
# Generated from Intellog Unique Number	CS_77_79/WELL/2969
WELL.         MESA PET                       : Well_name    - WELL
LOC .         00/06-31-078-10W4/0            : Location     - LOCATION
UWI .         00/06-31-078-10W4/0            : Uwi          - UNIQUE WELL ID
ENTR.         TIM                            : Entered      - ENTERED BY
SRVC.         SCHLUMBERGER                   : Scn          - SERVICE COMPANY
STRT.F        840                            : top_depth    - START DEPTH
STOP.F        1569.99                        : bot_depth    - STOP DEPTH
STEP.F        0.82                           : increment    - STEP LENGTH
 NULL. -999.2500:NULL Value
~CURVE INFORMATION BLOCK
#MNEM UNIT       ERCB CURVE CODE    CURVE DESCRIPTION
#-----------   ------------------   ----------------------------------
DEPT.F        00 001 00 00         : DEPTH        - DEPTH
GR  .API      00 310 00 00         : GR           - GAMMA RAY
NPHI.V/V      00 330 00 00         : PHIN         - NEUTRON POROSITY (SANDSTONE)
DPHI.V/V      00 890 00 00         : PHID         - DENSITY POROSITY (SANDSTONE)
ILD .OHMM     00 120 00 00         : RESD         - DEEP RESISTIVITY (DIL)
~PARAMETER INFORMATION
#MNEM.UNIT           DATA             DESCRIPTION OF MNEMONIC
#---------         -----------     ------------------------------
GL  .F        2128                 : gl           - GROUND LEVEL ELEVATION
EREF.F        2143                 : kb           - ELEVATION OF DEPTH REFERENCE
DATM.F        2143                 : datum        - DATUM ELEVATION
TDD .F        1610                 : tdd          - TOTAL DEPTH DRILLER
RUN .         ONE                  : Run          - RUN NUMBER
ENG .         BILL                 : Engineer     - RECORDING ENGINEER
WIT .         JIM                  : Witness      - WITNESSED BY
MUD .         GEL                  : Mud_type     - MUD TYPE
MATR.         SANDSTONE            : Logunit      - NEUTRON MATRIX
TMAX.F        71                   : BHT          - MAXIMUM RECORDED TEMPERATURE
BHTD.F        1610                 : BHTDEP       - MAXIMUM RECORDED TEMPERATURE
MATR.         1                    : LOGUNIT      - NEUTRON MATRIX
RMT .F        57                   : MDTP         - TEMPERATURE OF MUD
NEUT.         1                    : NEUTRON      - NEUTRON TYPE
RESI.         4.9                  : RESIST       - RESISTIVITY TYPE
RMC .OHMM     4.27                 : RMC          - RESISTIVITY OF MUD CAKE
RMF .OHMM     4.27                 : RMF          - RESISTIVITY OF MUD FILTRATE
SUFT.F        59                   : SUFT         - SURFACE TEMPERATURE
~A  DEPTH       GR     PHIN     PHID     RESD
# ...
 1125.430   70.438    0.445    0.318    5.412
 1126.250   74.528    0.444    0.325    4.490
 1127.070   83.895    0.444    0.293    4.014
 1127.890   93.263    0.456    0.275    3.790
 1128.710   90.292    0.470    0.238    4.469
 1129.530   87.336    0.486    0.222    5.571
 1130.350   82.604    0.489    0.220    6.812
 1131.170   79.640    0.485    0.219    7.884
 1131.990   74.328    0.459    0.227    9.125
 1132.810   70.777    0.432    0.238   10.565
 1133.640   64.870    0.418    0.270   11.779
 1134.460   63.081    0.417    0.284   12.203
 1135.280   64.808    0.412    0.302   12.642
 1136.100   65.955    0.407    0.307   11.941
 1136.920   67.696    0.399    0.302   11.073
 1137.740   71.765    0.400    0.303    8.857
 1138.560   74.680    0.400    0.309    6.339
 1139.380   81.699    0.398    0.309    4.137
 1140.200   88.130    0.408    0.295    3.131
 1141.020   93.975    0.435    0.286    2.850
 1141.840   98.058    0.474    0.281    2.591
 1142.660   98.016    0.486    0.276    2.494
 1143.480   97.408    0.506    0.263    2.446
 1144.300   95.612    0.518    0.254    2.351
 1145.120   94.417    0.536    0.256    2.350
 1145.940   92.614    0.552    0.267    2.389
 1146.760   92.013    0.536    0.272    2.429
 1147.580   91.385    0.536    0.273    2.563
 1148.400   91.364    0.544    0.273    2.756
 1149.220   91.329    0.571    0.276    2.962
 1150.040   91.302    0.592    0.276    3.183
 1150.860   91.274    0.561    0.270    3.421
 1151.680   91.834    0.535    0.246    3.612
 1152.500   92.400    0.521    0.241    3.810
 1153.320   93.533    0.503    0.252    4.019
 1154.140   94.093    0.479    0.234    4.239
 1154.960   93.492    0.489    0.226    4.395
 1155.780   89.927    0.497    0.238    4.723
 1156.600   87.544    0.500    0.241    5.266
 1157.420   86.356    0.508    0.248    5.460
 1158.240   85.734    0.529    0.260    5.976
 1159.060   85.706    0.526    0.272    6.188
 1159.880   85.665    0.507    0.267    6.183
 1160.700   85.651    0.482    0.261    6.171
 1161.520   85.624    0.477    0.256    5.937
 1162.340   87.351    0.478    0.247    5.819
 1163.160   87.323    0.473    0.245    5.597
 1163.980   86.715    0.465    0.240    5.388
 1164.800   85.506    0.459    0.247    4.904
 1165.620   86.066    0.455    0.250    3.778
 1166.440   89.554    0.453    0.257    3.314
 1167.260   93.050    0.446    0.264    3.189
 1168.080   95.378    0.454    0.232    3.243
 1168.900   96.518    0.469    0.214    3.486
 1169.720   95.910    0.490    0.225    3.887
 1170.540   94.701    0.482    0.238    4.027
 1171.360   92.912    0.473    0.235    4.172
 1172.190   91.123    0.475    0.241    4.165
 1173.010   89.921    0.481    0.254    4.007
 1173.830   91.068    0.487    0.254    3.787
 1174.650   92.795    0.497    0.252    3.444
 1175.470   92.767    0.505    0.245    3.375
 1176.290   92.733    0.517    0.252    3.371
 1177.110   92.712    0.524    0.261    3.490
 1177.930   93.258    0.529    0.272    3.488
 1178.750   93.237    0.534    0.286    3.545
 1179.570   93.202    0.539    0.284    3.472
 1180.390   93.182    0.541    0.277    3.469
 1181.210   93.734    0.537    0.284    3.400
 1182.030   93.714    0.534    0.293    3.272
 1182.850   94.861    0.537    0.303    3.147
 1183.670   95.413    0.543    0.308    3.028
 1184.490   95.973    0.557    0.300    2.912
 1185.310   96.532    0.556    0.291    2.801
 1186.130   96.505    0.555    0.278    2.745
 1186.950   96.470    0.555    0.271    2.692
 1187.770   96.436    0.545    0.278    2.687
 1188.590   96.422    0.535    0.283    2.733
 1189.410   96.394    0.522    0.287    2.883
 1190.230   96.360    0.515    0.280    3.042
 1191.050   98.674    0.537    0.270    3.095
 1191.870   99.234    0.545    0.273    3.517
 1192.690   96.263    0.547    0.282    4.070
 1193.510   95.075    0.536    0.291    4.540
 1194.330   93.286    0.509    0.279    5.158
 1195.150   91.483    0.515    0.264    5.754
 1195.970   90.274    0.528    0.265    6.418
 1196.790   89.086    0.522    0.284    6.649
 1197.610   86.695    0.492    0.277    6.638
 1198.430   84.326    0.448    0.264    6.379
 1199.250   83.704    0.450    0.264    6.257
 1200.070   83.677    0.444    0.263    6.133
 1200.890   84.229    0.433    0.261    6.118
 1201.710   84.803    0.432    0.260    6.113
 1202.530   85.362    0.459    0.261    6.103
 1203.350   86.502    0.481    0.255    6.202
 1204.170   87.062    0.486    0.245    6.192
 1204.990   87.614    0.492    0.240    6.300
 1205.810   88.174    0.491    0.239    6.405
 1206.630   88.153    0.478    0.240    6.397
 1207.450   88.119    0.467    0.247    6.384
 1208.270   87.504    0.473    0.247    6.376
 1209.090   86.302    0.473    0.241    6.361
 1209.910   85.100    0.464    0.240    6.348
 1210.730   84.485    0.470    0.246    6.343
 1211.560   83.864    0.474    0.248    6.210
 1212.380   83.843    0.461    0.247    6.207
 1213.200   84.990    0.465    0.242    6.195
 1214.020   90.240    0.461    0.237    6.180
 1214.840   91.974    0.456    0.235    6.172
 1215.660   92.520    0.468    0.235    6.165
 1216.480   92.506    0.468    0.234    6.040
 1217.300   91.891    0.473    0.229    6.033
 1218.120   90.682    0.477    0.228    6.020
 1218.940   89.480    0.472    0.235    6.123
 1219.760   88.278    0.466    0.242    6.113
 1220.580   87.663    0.465    0.248    5.989
 1221.400   87.636    0.464    0.233    5.868
 1222.220   89.957    0.460    0.230    5.753
 1223.040   91.097    0.463    0.230    5.746
 1223.860   91.656    0.464    0.230    5.630
 1224.680   91.629    0.463    0.229    5.518
 1225.500   91.594    0.455    0.231    5.117
 1226.320   91.567    0.458    0.236    4.573
 1227.140   92.713    0.473    0.242    3.863
 1227.960   93.853    0.482    0.250    3.328
 1228.780   94.413    0.487    0.256    2.867
 1229.600   94.385    0.499    0.256    2.334
 1230.420   95.532    0.545    0.258    2.462
 1231.240   98.440    0.561    0.267    2.599
 1232.060   99.007    0.577    0.290    2.846
 1232.880   99.567    0.574    0.303    3.235
 1233.700   96.596    0.562    0.303    3.744
 1234.520   92.451    0.540    0.302    4.333
 1235.340   90.075    0.529    0.301    5.015
 1236.160   90.047    0.495    0.299    5.391
 1236.980   90.026    0.476    0.272    5.792
 1237.800   90.586    0.472    0.261    6.115
 1238.620   90.552    0.488    0.259    6.335
 1239.440   89.343    0.483    0.260    6.440
 1240.260   88.141    0.474    0.262    6.547
 1241.080   87.526    0.476    0.268    6.539
 1241.900   86.918    0.476    0.275    6.526
 1242.720   86.883    0.474    0.278    6.637
 1243.540   88.023    0.473    0.281    6.624
 1244.360   88.002    0.478    0.275    6.616
 1245.180   87.968    0.479    0.271    6.725
 1246.000   84.998    0.478    0.264    6.715
 1246.820   83.809    0.472    0.244    6.704
 1247.640   84.355    0.473    0.239    6.693
 1248.460   87.851    0.472    0.229    6.682
 1249.280   90.179    0.461    0.237    6.674
 1250.100   91.326    0.469    0.251    6.536
 1250.930   90.704    0.468    0.257    6.526
 1251.750   90.683    0.460    0.246    6.515
 1252.570   90.061    0.452    0.227    6.505
 1253.390   90.027    0.450    0.236    6.497
 1254.210   90.006    0.450    0.241    6.487
 1255.030   89.972    0.445    0.245    6.474
 1255.850   88.763    0.466    0.240    6.461
 1256.670   88.162    0.473    0.236    6.453
 1257.490   88.134    0.466    0.230    6.437
 1258.310   88.673    0.444    0.227    6.432
 1259.130   89.240    0.440    0.223    6.417
 1259.950   89.806    0.440    0.218    6.409
 1260.770   90.939    0.443    0.217    6.276
 1261.590   90.918    0.448    0.219    6.271
 1262.410   90.303    0.478    0.229    6.147
 1263.230   88.501    0.496    0.264    6.024
 1264.050   86.711    0.492    0.276    5.905
 1264.870   85.523    0.488    0.274    5.780
 1265.690   83.727    0.483    0.259    5.773
 1266.510   81.344    0.482    0.251    5.766
 1267.330   80.149    0.480    0.260    5.757
