~VERSION INFORMATION
 VERS.                 2.0:   CWLS LOG ASCII STANDARD -VERSION 2.0
 WRAP.                  NO:   ONE LINE PER DEPTH STEP
~WELL INFORMATION BLOCK
#MNEM.UNIT           DATA                    DESCRIPTION OF MNEMONIC
#---------    -------------------            -------------------------------
# Generated from Intellog Unique Number	CW_76_78/WELL/528
WELL.         ASHLAND ET AL PELICAN 06-17    : Well_name    - WELL
LOC .         00/06-17-076-19W4/0            : Location     - LOCATION
UWI .         00/06-17-076-19W4/0            : Uwi          - UNIQUE WELL ID
ENTR.         JAYE                           : Entered      - ENTERED BY
SRVC.         SCHLUMBERGER                   : Scn          - SERVICE COMPANY
DATE.         18 FEB 73                      : Date         - LOG DATE
STRT.M        243.84                         : top_depth    - START DEPTH
STOP.M        417.59                         : bot_depth    - STOP DEPTH
STEP.M        0.25                           : increment    - STEP LENGTH
 NULL. -999.2500:NULL Value
~CURVE INFORMATION BLOCK
#MNEM UNIT       ERCB CURVE CODE    CURVE DESCRIPTION
#-----------   ------------------   ----------------------------------
DEPT.M        00 001 00 00         : DEPTH        - DEPTH
ILD .OHMM     00 120 00 00         : RESD         - DEEP RESISTIVITY (DIL)
NPHI.V/V      00 330 00 00         : PHIN         - NEUTRON POROSITY (SANDSTONE)
DPHI.V/V      00 890 00 00         : PHID         - DENSITY POROSITY (SANDSTONE)
GR  .API      00 310 00 00         : GR           - GAMMA RAY
CALI.MM       00 280 01 00         : CAL          - CALIPER
~PARAMETER INFORMATION
#MNEM.UNIT           DATA             DESCRIPTION OF MNEMONIC
#---------         -----------     ------------------------------
GL  .M        577.596              : gl           - GROUND LEVEL ELEVATION
EREF.M        581.558              : kb           - ELEVATION OF DEPTH REFERENCE
DATM.M        577.596              : datum        - DATUM ELEVATION
TDD .M        507.492              : tdd          - TOTAL DEPTH DRILLER
RUN .         ONE                  : Run          - RUN NUMBER
ENG .         KEITH                : Engineer     - RECORDING ENGINEER
BASE.         EDM                  : Branch       - HOME BASE OF LOGGING UNIT
MUD .         GEL CHEM             : Mud_type     - MUD TYPE
MATR.         SANDSTONE            : Logunit      - NEUTRON MATRIX
TMAX.C        21.1111              : BHT          - MAXIMUM RECORDED TEMPERATURE
BHTD.M        507.797              : BHTDEP       - MAXIMUM RECORDED TEMPERATURE
RMT .C        13.8889              : MDTP         - TEMPERATURE OF MUD
MUDD.KG/M     0                    : MWT          - MUD DENSITY
NEUT.         1                    : NEUTRON      - NEUTRON TYPE
RESI.         0                    : RESIST       - RESISTIVITY TYPE
RM  .OHMM     2.32                 : RM           - RESISTIVITY OF MUD
RMC .OHMM     0                    : RMC          - RESISTIVITY OF MUD CAKE
RMF .OHMM     2.38                 : RMF          - RESISTIVITY OF MUD FILTRATE
SUFT.C        -17.7778             : SUFT         - SURFACE TEMPERATURE
~A  DEPTH     RESD     PHIN     PHID       GR      CAL
# ...
  316.840    0.602    0.527    0.312   49.315  170.062
  317.090    0.545    0.448    0.282   47.037  168.981
  317.340    0.474    0.370    0.220   46.160  167.700
  317.590    0.417    0.338    0.148   42.303  164.052
  317.840    0.384    0.402    0.259   42.699  159.993
  318.090    0.354    0.434    0.322   46.013  157.988
  318.340    0.335    0.517    0.318   47.809  158.041
  318.590    0.326    0.508    0.301   47.353  158.721
  318.840    0.322    0.502    0.295   47.329  159.594
  319.090    0.319    0.505    0.294   47.667  161.097
  319.340    0.320    0.508    0.291   48.853  162.999
  319.590    0.316    0.511    0.276   49.860  163.673
  319.840    0.316    0.518    0.324   50.742  163.422
  320.090    0.315    0.535    0.299   50.288  162.862
  320.340    0.313    0.556    0.291   50.202  161.986
  320.590    0.311    0.554    0.296   49.991  161.423
  320.840    0.312    0.540    0.308   48.566  160.864
  321.090    0.314    0.510    0.311   47.931  160.097
  321.340    0.313    0.495    0.292   50.637  159.630
  321.590    0.314    0.503    0.290   51.704  159.181
  321.840    0.314    0.518    0.267   49.730  159.134
  322.090    0.315    0.479    0.287   50.007  159.081
  322.340    0.316    0.479    0.290   51.985  159.250
  322.590    0.317    0.493    0.285   49.526  159.505
  322.840    0.317    0.512    0.315   47.309  159.873
  323.090    0.318    0.512    0.316   48.435  160.022
  323.340    0.319    0.495    0.309   49.139  160.289
  323.590    0.318    0.486    0.312   50.505  159.936
  323.840    0.317    0.476    0.316   51.757  159.791
  324.090    0.317    0.469    0.296   52.094  159.429
  324.340    0.316    0.466    0.316   52.063  158.771
  324.590    0.317    0.469    0.310   49.242  158.303
  324.840    0.319    0.501    0.307   47.753  158.260
  325.090    0.319    0.499    0.300   48.701  158.109
  325.340    0.320    0.525    0.273   50.983  159.918
  325.590    0.319    0.520    0.269   54.539  163.165
  325.840    0.319    0.505    0.282   57.307  164.964
  326.090    0.319    0.506    0.303   57.764  164.606
  326.340    0.320    0.508    0.311   56.099  164.253
  326.590    0.318    0.503    0.288   56.677  164.105
  326.840    0.314    0.481    0.272   57.743  164.364
  327.090    0.304    0.459    0.265   56.502  164.414
  327.340    0.296    0.467    0.249   55.925  164.479
  327.590    0.287    0.477    0.272   55.291  164.740
  327.840    0.286    0.476    0.279   57.388  165.211
  328.090    0.291    0.516    0.251   62.891  167.840
  328.340    0.296    0.535    0.230   67.542  172.321
  328.590    0.306    0.568    0.196   71.222  177.111
  328.840    0.313    0.546    0.244   74.902  167.390
  329.090    0.315    0.515    0.273   75.727  161.887
  329.340    0.315    0.496    0.300   71.141  159.780
  329.590    0.316    0.507    0.271   68.925  162.924
  329.840    0.317    0.519    0.230   72.970  168.228
  330.090    0.316    0.534    0.217   76.892  172.096
  330.340    0.314    0.532    0.207   73.948  174.106
  330.590    0.312    0.495    0.226   78.296  174.057
  330.840    0.306    0.487    0.257   77.415  173.699
  331.090    0.299    0.504    0.239   76.113  174.065
  331.340    0.293    0.503    0.229   80.460  175.250
  331.590    0.285    0.492    0.215   84.744  176.338
  331.840    0.281    0.527    0.232   84.113  177.624
  332.090    0.280    0.546    0.221   82.685  178.712
  332.340    0.279    0.564    0.203   89.466  180.007
  332.590    0.279    0.575    0.201   87.310  180.985
  332.840    0.278    0.551    0.243   83.332  181.347
  333.090    0.282    0.525    0.242   81.114  181.406
  333.340    0.299    0.547    0.222   80.359  181.360
  333.590    0.311    0.571    0.211   81.242  180.797
  333.840    0.318    0.583    0.217   83.768  178.076
  334.090    0.322    0.573    0.238   86.415  173.401
  334.340    0.324    0.548    0.180   88.879  170.058
  334.590    0.324    0.536    0.170   91.158  165.484
  334.840    0.323    0.567    0.168   93.563  168.827
  335.090    0.322    0.566    0.203   88.977  170.019
  335.340    0.318    0.529    0.239   73.876  169.872
  335.590    0.311    0.482    0.286   68.804  168.275
  335.840    0.306    0.463    0.281   63.247  165.865
  336.090    0.301    0.481    0.284   62.914  164.889
  336.340    0.296    0.511    0.271   63.555  166.695
  336.590    0.293    0.518    0.299   65.107  168.192
  336.840    0.287    0.575    0.290   69.578  168.456
  337.090    0.282    0.570    0.260   67.179  166.968
  337.340    0.275    0.535    0.270   67.818  166.923
  337.590    0.265    0.512    0.296   71.317  169.447
  337.840    0.256    0.489    0.276   76.273  172.693
  338.090    0.246    0.498    0.248   80.803  181.082
  338.340    0.237    0.561    0.250   83.085  187.727
  338.590    0.231    0.587    0.225   82.690  193.958
  338.840    0.229    0.606    0.288   83.090  198.749
  339.090    0.228    0.619    0.268   85.433  199.319
  339.340    0.228    0.622    0.239   89.720  198.035
  339.590    0.232    0.616    0.221   91.388  201.076
  339.840    0.235    0.617    0.218   91.974  204.215
  340.090    0.232    0.573    0.230   91.581  205.613
  340.340    0.226    0.538    0.248   88.029  203.712
  340.590    0.230    0.541    0.256   88.731  192.961
  340.840    0.237    0.573    0.222   89.916  194.245
  341.090    0.246    0.562    0.200   90.434  195.232
  341.340    0.258    0.574    0.189   89.862  195.187
  341.590    0.272    0.583    0.208   87.160  192.672
  341.840    0.289    0.597    0.223   81.054  189.948
  342.090    0.301    0.620    0.230   80.540  186.815
  342.340    0.310    0.586    0.178   80.514  183.064
  342.590    0.318    0.530    0.175   78.356  179.105
  342.840    0.322    0.459    0.203   74.866  175.146
  343.090    0.323    0.469    0.226   68.032  171.700
  343.340    0.326    0.474    0.277   65.331  168.458
  343.590    0.331    0.478    0.274   64.148  166.459
  343.840    0.337    0.491    0.263   63.145  165.080
  344.090    0.341    0.518    0.277   62.752  162.868
  344.340    0.352    0.526    0.293   61.633  161.377
  344.590    0.380    0.490    0.288   59.903  160.206
  344.840    0.441    0.423    0.253   57.685  158.924
  345.090    0.484    0.323    0.214   55.591  160.316
  345.340    0.502    0.302    0.093   53.743  163.459
  345.590    0.488    0.324    0.068   52.194  164.846
  345.840    0.476    0.354    0.097   51.377  163.980
  346.090    0.458    0.373    0.129   52.078  163.011
  346.340    0.446    0.394    0.142   55.453  162.853
  346.590    0.435    0.419    0.147   57.919  163.424
  346.840    0.425    0.441    0.177   58.438  164.098
  347.090    0.416    0.459    0.181   57.981  164.469
  347.340    0.409    0.470    0.174   57.532  164.308
  347.590    0.405    0.482    0.227   60.177  163.953
  347.840    0.401    0.462    0.249   60.816  163.498
  348.090    0.395    0.425    0.203   59.454  163.250
  348.340    0.382    0.404    0.220   59.791  163.098
  348.590    0.373    0.426    0.205   63.712  162.744
  348.840    0.366    0.483    0.227   68.972  161.359
  349.090    0.352    0.502    0.254   72.653  158.532
  349.340    0.350    0.518    0.267   75.542  157.355
  349.590    0.389    0.523    0.263   77.275  158.231
  349.840    0.430    0.509    0.248   78.461  160.862
  350.090    0.478    0.514    0.210   77.950  163.698
  350.340    0.533    0.451    0.178   74.459  167.148
  350.590    0.576    0.305    0.119   68.110  168.853
  350.840    0.532    0.224    0.071   59.452  164.484
  351.090    0.484    0.243    0.031   52.921  163.403
  351.340    0.451    0.273    0.109   54.595  163.255
  351.590    0.430    0.374    0.099   60.828  165.266
  351.840    0.412    0.446    0.150   67.910  166.863
  352.090    0.402    0.439    0.194   76.573  167.947
  352.340    0.394    0.430    0.170   79.158  169.244
  352.590    0.388    0.427    0.145   80.163  171.664
  352.840    0.384    0.467    0.172   79.347  169.356
  353.090    0.381    0.490    0.209   79.011  164.366
