~VERSION INFORMATION
 VERS.                 2.0:   CWLS LOG ASCII STANDARD -VERSION 2.0
 WRAP.                  NO:   ONE LINE PER DEPTH STEP
~WELL INFORMATION BLOCK
#MNEM.UNIT           DATA                    DESCRIPTION OF MNEMONIC
#---------    -------------------            -------------------------------
# Generated from Intellog Unique Number	CN_91_93/WELL/3039
WELL.         PARAMOUNT RESOURCES LTD.       : Well_name    - WELL
LOC .         00/06-29-092-20W4/0            : Location     - LOCATION
UWI .         00/06-29-092-20W4/0            : Uwi          - UNIQUE WELL ID
ENTR.         JOETTE                         : Entered      - ENTERED BY
SRVC.         COMPUTALOG                     : Scn          - SERVICE COMPANY
DATE.         04/09/92                       : Date         - LOG DATE
STRT.F        100                            : top_depth    - START DEPTH
STOP.F        703.675                        : bot_depth    - STOP DEPTH
STEP.F        0.82                           : increment    - STEP LENGTH
 NULL. -999.2500:NULL Value
~CURVE INFORMATION BLOCK
#MNEM UNIT       ERCB CURVE CODE    CURVE DESCRIPTION
#-----------   ------------------   ----------------------------------
DEPT.F        00 001 00 00         : DEPTH        - DEPTH
GR  .API      00 310 00 00         : GR           - GAMMA RAY
NPHI.V/V      00 330 00 00         : PHIN         - NEUTRON POROSITY (SANDSTONE)
DPHI.V/V      00 890 00 00         : PHID         - DENSITY POROSITY (SANDSTONE)
ILD .OHMM     00 120 00 00         : RESD         - DEEP RESISTIVITY (DIL)
~PARAMETER INFORMATION
#MNEM.UNIT           DATA             DESCRIPTION OF MNEMONIC
#---------         -----------     ------------------------------
GL  .F        1698                 : gl           - GROUND LEVEL ELEVATION
EREF.F        1708                 : kb           - ELEVATION OF DEPTH REFERENCE
DATM.F        1708                 : datum        - DATUM ELEVATION
TDD .F        702                  : tdd          - TOTAL DEPTH DRILLER
RUN .         ONE                  : Run          - RUN NUMBER
ENG .         JO                   : Engineer     - RECORDING ENGINEER
WIT .         TIM                  : Witness      - WITNESSED BY
MUD .         GEL                  : Mud_type     - MUD TYPE
MATR.         SANDSTONE            : Logunit      - NEUTRON MATRIX
TMAX.F        58                   : BHT          - MAXIMUM RECORDED TEMPERATURE
BHTD.F        702                  : BHTDEP       - MAXIMUM RECORDED TEMPERATURE
RMT .F        58                   : MDTP         - TEMPERATURE OF MUD
MUDD.LB/G     9                    : MWT          - MUD DENSITY
NEUT.         1                    : NEUTRON      - NEUTRON TYPE
RESI.         0                    : RESIST       - RESISTIVITY TYPE
RM  .OHMM     3.6                  : RM           - RESISTIVITY OF MUD
RMC .OHMM     3.6                  : RMC          - RESISTIVITY OF MUD CAKE
RMF .OHMM     3.6                  : RMF          - RESISTIVITY OF MUD FILTRATE
SUFT.F        39.2                 : SUFT         - SURFACE TEMPERATURE
~A  DEPTH       GR     PHIN     PHID     RESD
# ...
  385.433   31.619    0.468    0.069    0.000
  386.253   26.939    0.469    0.072    0.000
  387.073   28.873    0.459    0.016    0.000
  387.894   31.330    0.461    0.014    0.000
  388.714   36.324    0.460    0.007    0.000
  389.534   33.369    0.442   -0.004    0.000
  390.354   28.637    0.436    0.046    0.000
  391.175   27.565    0.446    0.054    0.000
  391.995   28.898    0.464    0.053    0.000
  392.815   28.950    0.471    0.028    0.000
  393.635   29.081    0.467    0.015    0.000
  394.455   30.388    0.468    0.019    0.000
  395.276   32.897    0.467    0.028    0.000
  396.096   36.060    0.459    0.065    0.000
  396.916   35.511    0.433    0.127    0.000
  397.736   33.236    0.427    0.159    0.000
  398.556   32.714    0.454    0.189    0.000
  399.377   34.622    0.464    0.136    0.000
  400.197   41.367    0.477    0.092    0.000
  401.017   46.883    0.447    0.074    0.000
  401.837   43.379    0.377    0.050    0.000
  402.657   32.033    0.361    0.070    0.000
  403.478   29.131    0.409    0.159    0.000
  404.298   31.692    0.442    0.207    0.000
  405.118   30.019    0.417    0.249    0.000
  405.938   28.895    0.368    0.219    0.000
  406.759   28.973    0.356    0.196    0.000
  407.579   30.881    0.386    0.240    0.000
  408.399   32.816    0.391    0.220    0.000
  409.219   31.717    0.376    0.186    0.000
  410.039   30.018    0.313    0.159    0.000
  410.860   29.495    0.314    0.158    0.000
  411.680   29.625    0.333    0.205    0.000
  412.500   29.102    0.350    0.235    0.000
  413.320   29.233    0.342    0.230    0.000
  414.140   30.540    0.338    0.210    0.000
  414.961   33.075    0.337    0.182    0.000
  415.781   33.807    0.333    0.184    0.000
  416.601   33.258    0.331    0.156    0.000
  417.421   33.990    0.329    0.147    0.000
  418.241   35.297    0.329    0.142    0.000
  419.062   34.800    0.331    0.196    0.000
  419.882   34.277    0.342    0.191    0.000
  420.702   34.407    0.355    0.156    0.000
  421.522   35.715    0.345    0.179    0.000
  422.343   35.218    0.278    0.124    0.000
  423.163   32.342    0.293    0.055    0.000
  423.983   29.413    0.326    0.082    0.000
  424.803   25.884    0.327    0.090    0.000
  425.623   26.014    0.287    0.054    0.000
  426.444   27.949    0.289    0.076    0.000
  427.264   29.203    0.313    0.133    0.000
  428.084   29.935    0.318    0.135    0.000
  428.904   30.641    0.342    0.099    0.000
  429.724   34.954    0.339    0.090    0.000
  430.545   36.261    0.344    0.106    0.000
  431.365   33.961    0.336    0.121    0.000
  432.185   32.862    0.328    0.055    0.000
  433.005   34.169    0.329    0.071    0.000
  433.825   37.908    0.328    0.093    0.000
  434.646   41.019    0.328    0.129    0.000
  435.466   42.953    0.328    0.074    0.000
  436.286   41.253    0.331    0.063    0.000
  437.106   40.129    0.329    0.056    0.000
  437.927   36.626    0.327    0.085    0.000
  438.747   33.148    0.338    0.092    0.000
  439.567   35.031    0.343    0.014    0.000
  440.387   35.736    0.317   -0.000    0.000
  441.207   31.631    0.256   -0.010    0.000
  442.028   28.128    0.174   -0.056    0.000
  442.848   25.853    0.171   -0.064    0.000
  443.668   25.304    0.200   -0.057    0.000
  444.488   29.069    0.224   -0.030    0.000
  445.308   32.755    0.246    0.037    0.000
  446.129   40.101    0.283    0.080    0.000
  446.949   43.839    0.297    0.106    0.000
  447.769   43.944    0.315    0.145    0.000
  448.589   42.218    0.316    0.094    0.000
  449.409   41.120    0.303    0.093    0.000
  450.230   43.054    0.308    0.116    0.000
  451.050   43.786    0.299    0.076    0.000
  451.870   43.237    0.310    0.071    0.000
  452.690   42.191    0.305    0.062    0.000
  453.510   42.321    0.301    0.086    0.000
  454.331   41.772    0.305    0.105    0.000
  455.151   40.125    0.314    0.178    0.000
  455.971   39.602    0.324    0.226    0.000
  456.791   39.680    0.347    0.174    0.000
  457.612   39.837    0.371    0.171    0.000
  458.432   38.738    0.403    0.209    0.000
  459.252   37.614    0.402    0.187    0.000
  460.072   36.490    0.399    0.091    0.000
  460.892   35.993    0.412    0.050    0.000
  461.713   33.692    0.408    0.077    0.000
  462.533   32.594    0.353    0.091    0.000
  463.353   32.123    0.351    0.083    0.000
  464.173   31.600    0.368    0.051    0.000
  464.993   29.926    0.368    0.015    0.000
  465.814   28.227    0.344   -0.010    0.000
  466.634   27.129    0.287   -0.038    0.000
  467.454   26.632    0.293   -0.068    0.000
  468.274   25.534    0.313   -0.072    0.000
  469.094   24.461    0.319   -0.047    0.000
  469.915   24.514    0.287   -0.011    0.000
  470.735   24.017    0.270    0.032    0.000
  471.555   24.722    0.321    0.056    0.000
  472.375   26.029    0.348    0.088    0.000
  473.196   28.539    0.344    0.103    0.000
  474.016   29.872    0.343    0.036    0.000
  474.836   30.552    0.347    0.036    0.000
  475.656   31.885    0.355    0.045    0.000
  476.476   31.414    0.361    0.062    0.000
  477.297   30.891    0.366    0.083    0.000
  478.117   27.414    0.383    0.123    0.000
  478.937   29.923    0.412    0.170    0.000
  479.757   33.034    0.400    0.193    0.000
  480.577   34.341    0.346    0.017    0.000
  481.398   33.243    0.394   -0.028    0.000
  482.218   30.367    0.366   -0.103    0.000
  483.038   28.615    0.357   -0.108    0.000
  483.858   27.517    0.373   -0.070    0.000
  484.678   28.824    0.379    0.007    0.000
  485.499   28.379    0.343    0.058    0.000
  486.319   27.856    0.362    0.055    0.000
  487.139   27.333    0.389    0.071    0.000
  487.959   27.464    0.369    0.097    0.000
  488.780   27.542    0.308   -0.024    0.000
  489.600   27.071    0.256   -0.026    0.000
  490.420   27.175    0.312    0.019    0.000
  491.240   24.875    0.366    0.048    0.000
  492.060   26.182    0.409    0.099    0.000
  492.881   29.293    0.421    0.144    0.000
  493.701   28.822    0.414    0.083    0.000
  494.521   27.122    0.359    0.006    0.000
  495.341   24.194    0.355   -0.036    0.000
  496.161   23.122    0.386    0.023    0.000
  496.982   23.200    0.438    0.080    0.000
  497.802   24.533    0.447    0.144    0.000
  498.622   26.441    0.456    0.023    0.000
  499.442   27.722    0.467   -0.018    0.000
  500.262   31.487    0.478   -0.020    0.000
  501.083   32.794    0.481    0.013    0.000
  501.903   32.323    0.464    0.030    0.000
  502.723   31.172    0.435    0.058    0.000
  503.543   29.473    0.446    0.010    0.000
  504.364   30.179    0.457    0.033    0.000
  505.184   32.113    0.457    0.043    0.000
  506.004   33.995    0.438   -0.006    0.000
  506.824   34.727    0.383    0.044    0.000
  507.644   32.426    0.373    0.072    0.000
  508.465   29.524    0.428    0.082    0.000
  509.285   28.426    0.513    0.081    0.000
  510.105   28.504    0.528    0.066    0.000
  510.925   29.236    0.484    0.083    0.000
  511.745   30.543    0.343    0.103    0.000
  512.566   30.673    0.206    0.083    0.000
  513.386   33.157    0.223    0.049    0.000
  514.206   38.673    0.236    0.008    0.000
  515.026   41.235    0.267    0.030    0.000
  515.846   39.561    0.279    0.121    0.000
  516.667   40.215    0.309    0.154    0.000
  517.487   40.947    0.341    0.169    0.000
  518.307   40.450    0.400    0.186    0.000
  519.127   38.123    0.412    0.084    0.000
  519.948   32.815    0.298    0.011    0.000
  520.768   31.717    0.231    0.209    7.558
  521.588   43.246    0.407    0.202    6.994
  522.408   53.599    0.380    0.221    6.018
  523.228   52.501    0.399    0.231    5.865
  524.049   50.200    0.410    0.231    6.863
  524.869   51.507    0.424    0.224    8.023
  525.689   55.245    0.443    0.216   10.415
  526.509   52.944    0.350    0.247   13.054
  527.329   41.598    0.353    0.299   15.283
