~VERSION INFORMATION
 VERS.                 2.0:   CWLS LOG ASCII STANDARD -VERSION 2.0
 WRAP.                  NO:   ONE LINE PER DEPTH STEP
~WELL INFORMATION BLOCK
#MNEM.UNIT           DATA                    DESCRIPTION OF MNEMONIC
#---------    -------------------            -------------------------------
# Generated from Intellog Unique Number	CS_73_76/WELL/781
WELL.         MAYNARD ENERGY                 : Well_name    - WELL
LOC .         00/07-36-073-13W4/0            : Location     - LOCATION
UWI .         00/07-36-073-13W4/0            : Uwi          - UNIQUE WELL ID
ENTR.         SP                             : Entered      - ENTERED BY
SRVC.         SCHLUMBERGER                   : Scn          - SERVICE COMPANY
STRT.M        300                            : top_depth    - START DEPTH
STOP.M        525                            : bot_depth    - STOP DEPTH
STEP.M        0.25                           : increment    - STEP LENGTH
 NULL. -999.2500:NULL Value
~CURVE INFORMATION BLOCK
#MNEM UNIT       ERCB CURVE CODE    CURVE DESCRIPTION
#-----------   ------------------   ----------------------------------
DEPT.M        00 001 00 00         : DEPTH        - DEPTH
GR  .API      00 310 00 00         : GR           - GAMMA RAY
NPHI.V/V      00 330 00 00         : PHIN         - NEUTRON POROSITY (LIMESTONE)
DPHI.V/V      00 890 00 00         : PHID         - DENSITY POROSITY (LIMESTONE)
ILD .OHMM     00 120 00 00         : RESD         - DEEP RESISTIVITY (DIL)
~PARAMETER INFORMATION
#MNEM.UNIT           DATA             DESCRIPTION OF MNEMONIC
#---------         -----------     ------------------------------
GL  .M        662.29               : gl           - GROUND LEVEL ELEVATION
EREF.M        665.74               : kb           - ELEVATION OF DEPTH REFERENCE
DATM.M        662.29               : datum        - DATUM ELEVATION
TDD .M        540                  : tdd          - TOTAL DEPTH DRILLER
RUN .         ONE                  : Run          - RUN NUMBER
ENG .         BILL                 : Engineer     - RECORDING ENGINEER
WIT .         JIM                  : Witness      - WITNESSED BY
MUD .         GEL                  : Mud_type     - MUD TYPE
MATR.         LIMESTONE            : Logunit      - NEUTRON MATRIX
TMAX.C        21                   : BHT          - MAXIMUM RECORDED TEMPERATURE
BHTD.M        540                  : BHTDEP       - MAXIMUM RECORDED TEMPERATURE
MATR.         1                    : LOGUNIT      - NEUTRON MATRIX
RMT .C        25                   : MDTP         - TEMPERATURE OF MUD
NEUT.         1                    : NEUTRON      - NEUTRON TYPE
RESI.         0                    : RESIST       - RESISTIVITY TYPE
RMC .OHMM     0.25                 : RMC          - RESISTIVITY OF MUD CAKE
RMF .OHMM     0.25                 : RMF          - RESISTIVITY OF MUD FILTRATE
SUFT.C        15                   : SUFT         - SURFACE TEMPERATURE
~A  DEPTH       GR     PHIN     PHID     RESD
# ...
  430.500   92.551    0.420    0.233    5.551
  430.750   93.154    0.421    0.230    5.389
  431.000   92.539    0.441    0.226    5.229
  431.250   93.144    0.453    0.224    5.149
  431.500   96.186    0.468    0.220    5.069
  431.750   98.009    0.472    0.225    5.070
  432.000   98.002    0.451    0.219    5.072
  432.250   97.997    0.432    0.225    5.154
  432.500   96.769    0.423    0.222    5.237
  432.750   96.156    0.415    0.214    5.319
  433.000   97.978    0.415    0.215    5.565
  433.250   99.802    0.415    0.224    5.647
  433.500   99.795    0.428    0.236    5.812
  433.750   98.570    0.435    0.253    5.894
  434.000   96.735    0.435    0.270    6.059
  434.250   92.460    0.437    0.268    6.060
  434.500   90.624    0.431    0.254    6.143
  434.750   91.228    0.425    0.239    6.145
  435.000   91.222    0.431    0.237    6.146
  435.250   93.046    0.434    0.251    6.147
  435.500   91.820    0.423    0.251    6.149
  435.750   86.935    0.419    0.246    6.151
  436.000   85.099    0.422    0.243    6.152
  436.250   83.265    0.422    0.239    6.071
  436.500   81.429    0.414    0.240    6.073
  436.750   79.594    0.422    0.244    6.074
  437.000   77.759    0.431    0.255    5.994
  437.250   80.801    0.436    0.262    5.833
  437.500   82.624    0.441    0.272    5.754
  437.750   83.838    0.439    0.269    5.755
  438.000   86.272    0.431    0.266    5.594
  438.250   86.264    0.428    0.268    5.514
  438.500   88.088    0.427    0.271    5.515
  438.750   90.521    0.424    0.269    5.435
  439.000   91.125    0.424    0.264    5.355
  439.250   91.118    0.429    0.263    5.358
  439.500   90.502    0.441    0.257    5.359
  439.750   89.886    0.450    0.252    5.441
  440.000   89.882    0.452    0.257    5.443
  440.250   88.656    0.449    0.258    5.444
  440.500   84.990    0.440    0.258    5.527
  440.750   83.766    0.435    0.246    5.529
  441.000   83.760    0.440    0.242    5.448
  441.250   86.801    0.452    0.239    5.450
  441.500   89.844    0.462    0.239    5.370
  441.750   91.668    0.464    0.238    5.290
  442.000   92.271    0.457    0.251    5.210
  442.250   91.046    0.454    0.246    5.131
  442.500   89.210    0.450    0.252    5.213
  442.750   90.423    0.446    0.252    5.214
  443.000   94.076    0.443    0.244    5.379
  443.250   97.118    0.442    0.238    5.380
  443.500   98.333    0.443    0.238    5.381
  443.750   97.108    0.448    0.248    5.384
  444.000   96.490    0.453    0.261    5.303
  444.250   97.705    0.458    0.266    5.304
  444.500   94.649    0.459    0.260    5.143
  444.750   94.034    0.456    0.255    5.063
  445.000   94.638    0.451    0.249    5.065
  445.250  100.729    0.443    0.246    5.229
  445.500  103.772    0.433    0.248    5.881
  445.750   95.839    0.411    0.233    7.264
  446.000   87.296    0.380    0.206    9.298
  446.250   79.363    0.310    0.142    9.869
  446.500   71.430    0.278    0.105    9.870
  446.750   64.717    0.256    0.125    9.547
  447.000   61.662    0.282    0.159    9.141
  447.250   65.313    0.335    0.199    7.679
  447.500   68.966    0.393    0.240    6.868
  447.750   73.228    0.427    0.244    6.381
  448.000   76.881    0.436    0.229    6.139
  448.250   79.923    0.432    0.215    5.978
  448.500   79.308    0.427    0.199    5.898
  448.750   77.473    0.431    0.200    5.818
  449.000   78.686    0.432    0.210    5.738
  449.250   84.166    0.434    0.220    5.577
  449.500   89.039    0.436    0.209    5.497
  449.750   95.130    0.433    0.195    5.255
  450.000   99.394    0.426    0.189    5.175
  450.250  102.437    0.421    0.193    5.014
  450.500  102.429    0.428    0.212    4.935
  450.750  102.424    0.432    0.218    4.936
  451.000  104.858    0.437    0.223    4.856
  451.250  107.899    0.452    0.234    4.857
  451.500  108.503    0.462    0.221    4.858
  451.750  107.886    0.464    0.238    4.941
  452.000  107.272    0.471    0.230    5.105
  452.250  106.047    0.475    0.233    5.351
  452.500  105.429    0.474    0.236    5.515
  452.750  104.813    0.468    0.244    5.597
  453.000  104.809    0.455    0.252    5.761
  453.250  103.582    0.439    0.252    6.008
  453.500  101.747    0.425    0.239    6.009
  453.750   98.693    0.416    0.217    6.091
  454.000   95.637    0.419    0.152    6.092
  454.250   94.412    0.426    0.171    6.094
  454.500   98.063    0.431    0.193    6.014
  454.750  100.497    0.435    0.210    5.853
  455.000  102.321    0.433    0.215    5.692
  455.250  104.143    0.429    0.214    5.693
  455.500  105.966    0.422    0.210    5.695
  455.750  106.571    0.415    0.214    5.778
  456.000  106.564    0.414    0.221    5.698
  456.250  106.559    0.415    0.225    5.699
  456.500  108.990    0.413    0.217    5.782
  456.750  110.813    0.406    0.214    5.784
  457.000  111.418    0.402    0.198    5.785
  457.250  112.630    0.406    0.187    5.706
  457.500  112.625    0.418    0.177    5.544
  457.750  108.960    0.424    0.183    5.464
  458.000  108.345    0.430    0.191    5.302
  458.250  108.946    0.432    0.187    5.060
  458.500  108.942    0.427    0.192    4.493
  458.750  107.106    0.425    0.194    4.250
  459.000  104.052    0.441    0.202    3.845
  459.250  102.218    0.447    0.211    3.196
  459.500  103.428    0.458    0.223    2.872
  459.750  104.033    0.510    0.240    2.548
  460.000  104.028    0.532    0.256    2.388
  460.250  102.802    0.541    0.267    2.307
  460.500  100.358    0.541    0.268    2.227
  460.750   99.131    0.528    0.264    2.229
  461.000   98.516    0.522    0.264    2.149
  461.250   96.680    0.523    0.268    2.069
  461.500   97.894    0.537    0.269    1.990
  461.750  101.545    0.553    0.263    2.072
  462.000  102.760    0.546    0.252    2.155
  462.250  105.193    0.528    0.244    2.400
  462.500  107.625    0.515    0.231    2.809
  462.750  107.619    0.498    0.225    3.054
  463.000  105.174    0.490    0.242    3.299
  463.250  100.289    0.474    0.237    3.869
  463.500   95.406    0.462    0.226    4.277
  463.750   92.961    0.452    0.212    4.767
  464.000   95.392    0.442    0.219    4.849
  464.250   97.826    0.433    0.214    4.933
  464.500   95.991    0.430    0.199    5.015
  464.750   95.986    0.431    0.195    5.097
  465.000   97.809    0.431    0.190    5.343
  465.250  101.460    0.422    0.200    5.751
  465.500   97.796    0.398    0.180    6.077
  465.750   88.643    0.371    0.123    6.079
  466.000   81.321    0.360    0.104    5.755
  466.250   81.923    0.358    0.099    5.269
  466.500   84.968    0.384    0.120    4.782
  466.750   91.669    0.414    0.155    4.134
  467.000   99.589    0.435    0.185    3.972
  467.250  103.852    0.451    0.192    3.567
  467.500  105.065    0.465    0.196    3.325
  467.750  105.667    0.476    0.192    3.163
  468.000  107.491    0.484    0.181    3.165
  468.250  108.096    0.489    0.178    3.166
  468.500  110.527    0.495    0.175    3.250
  468.750  112.352    0.504    0.170    3.332
  469.000  115.394    0.497    0.165    3.415
  469.250  114.169    0.483    0.175    3.497
  469.500  112.943    0.468    0.183    3.743
  469.750  103.791    0.462    0.191    3.663
  470.000   98.297    0.459    0.208    3.421
  470.250   94.022    0.471    0.203    3.179
  470.500   95.843    0.483    0.197    3.098
  470.750   98.886    0.499    0.183    2.856
  471.000  102.539    0.509    0.174    2.857
  471.250  104.974    0.503    0.168    2.777
  471.500  108.015    0.497    0.178    2.698
  471.750  110.449    0.492    0.184    2.699
  472.000  111.053    0.489    0.178    2.619
  472.250  112.267    0.499    0.174    2.620
  472.500  106.771    0.514    0.168    2.622
  472.750  106.156    0.523    0.175    2.623
  473.000  107.368    0.535    0.189    2.706
  473.250  108.582    0.526    0.189    2.870
  473.500  109.187    0.507    0.201    2.953
  473.750  108.571    0.478    0.189    2.954
