~VERSION INFORMATION
 VERS.                 2.0:   CWLS LOG ASCII STANDARD -VERSION 2.0
 WRAP.                  NO:   ONE LINE PER DEPTH STEP
~WELL INFORMATION BLOCK
#MNEM.UNIT           DATA                    DESCRIPTION OF MNEMONIC
#---------    -------------------            -------------------------------
# Generated from Intellog Unique Number	CS_71_72/WELL/3324
WELL.         AEC FOSTER CREEK 7-12          : Well_name    - WELL
LOC .         07-12-071-03W4                 : Location     - LOCATION
UWI .         00/07-12-071-03W4/0            : Uwi          - UNIQUE WELL ID
ENTR.         ANDERSEN                       : Entered      - ENTERED BY
SRVC.         COMPUTALOG                     : Scn          - SERVICE COMPANY
STRT.M        345                            : top_depth    - START DEPTH
STOP.M        571.75                         : bot_depth    - STOP DEPTH
STEP.M        0.25                           : increment    - STEP LENGTH
 NULL. -999.2500:NULL Value
~CURVE INFORMATION BLOCK
#MNEM UNIT       ERCB CURVE CODE    CURVE DESCRIPTION
#-----------   ------------------   ----------------------------------
DEPT.M        00 001 00 00         : DEPTH        - DEPTH
ILD .OHMM     00 120 00 00         : RESD         - DEEP RESISTIVITY (DIL)
CALI.MM       00 280 01 00         : CAL          - CALIPER
DPHI.V/V      00 890 00 00         : PHID         - DENSITY POROSITY (SANDSTONE)
NPHI.V/V      00 330 00 00         : PHIN         - NEUTRON POROSITY (SANDSTONE)
GR  .API      00 310 00 00         : GR           - GAMMA RAY
~PARAMETER INFORMATION
#MNEM.UNIT           DATA             DESCRIPTION OF MNEMONIC
#---------         -----------     ------------------------------
GL  .M        697.61               : gl           - GROUND LEVEL ELEVATION
EREF.M        701.01               : kb           - ELEVATION OF DEPTH REFERENCE
DATM.M        701.01               : datum        - DATUM ELEVATION
TDD .M        585.5                : tdd          - TOTAL DEPTH DRILLER
RUN .         ONE                  : Run          - RUN NUMBER
ENG .         BILL                 : Engineer     - RECORDING ENGINEER
WIT .         JIM                  : Witness      - WITNESSED BY
MUD .         GEL                  : Mud_type     - MUD TYPE
MATR.         SANDSTONE            : Logunit      - NEUTRON MATRIX
TMAX.C        31                   : BHT          - MAXIMUM RECORDED TEMPERATURE
BHTD.M        585.5                : BHTDEP       - MAXIMUM RECORDED TEMPERATURE
RMT .C        15                   : MDTP         - TEMPERATURE OF MUD
MUDD.KG/M     1100                 : MWT          - MUD DENSITY
NEUT.         1                    : NEUTRON      - NEUTRON TYPE
RESI.         0                    : RESIST       - RESISTIVITY TYPE
RM  .OHMM     2.7                  : RM           - RESISTIVITY OF MUD
RMC .OHMM     2.1                  : RMC          - RESISTIVITY OF MUD CAKE
RMF .OHMM     3.5                  : RMF          - RESISTIVITY OF MUD FILTRATE
SUFT.C        15                   : SUFT         - SURFACE TEMPERATURE
~A  DEPTH     RESD      CAL     PHID     PHIN       GR
# ...
  454.500    2.699  166.130    0.195    0.513  102.416
  454.750    2.904  167.077    0.199    0.524  101.845
  455.000    3.124  167.040    0.196    0.536  104.180
  455.250    3.487  167.004    0.196    0.549  108.265
  455.500    3.752  166.989    0.201    0.568  110.021
  455.750    3.822  166.960    0.205    0.586  105.958
  456.000    3.686  166.924    0.205    0.600  107.714
  456.250    2.755  166.895    0.204    0.604  106.561
  456.500    2.060  166.866    0.207    0.589  103.079
  456.750    1.951  166.837    0.212    0.571  101.344
  457.000    1.951  166.815    0.215    0.536  101.354
  457.250    2.100  166.779    0.213    0.527  101.365
  457.500    2.343  166.749    0.212    0.529  103.121
  457.750    3.254  166.728    0.208    0.546  104.298
  458.000    3.905  166.691    0.210    0.567  104.308
  458.250    3.978  166.662    0.222    0.572  103.155
  458.500    3.981  166.640    0.227    0.583  100.835
  458.750    3.981  166.597    0.228    0.596  103.176
  459.000    3.983  166.582    0.228    0.609  106.096
  459.250    4.058  166.546    0.228    0.620  101.451
  459.500    4.287  166.510    0.228    0.610  100.297
  459.750    4.448  166.495    0.240    0.595   97.980
  460.000    4.786  166.459    0.255    0.579   92.171
  460.250    5.340  166.437    0.262    0.557   87.525
  460.500    6.181  166.393    0.269    0.529   87.536
  460.750    6.898  166.372    0.270    0.504   87.549
  461.000    7.155  166.335    0.275    0.506   84.068
  461.250    7.029  166.292    0.283    0.516   83.496
  461.500    6.538  166.270    0.281    0.530   85.252
  461.750    5.971  166.255    0.276    0.564   88.752
  462.000    5.355  166.226    0.268    0.576   90.511
  462.250    5.072  166.197    0.268    0.589   87.027
  462.500    5.074  165.193    0.267    0.578   82.382
  462.750    5.169  165.163    0.268    0.567   81.810
  463.000    5.265  165.134    0.278    0.557   81.239
  463.250    5.563  165.098    0.281    0.559   78.342
  463.500    6.322  165.069    0.279    0.548   75.440
  463.750    7.055  165.040    0.280    0.513   71.379
  464.000    7.873  165.018    0.291    0.487   69.644
  464.250    8.785  164.989    0.301    0.473   70.236
  464.500    9.453  164.953    0.295    0.476   72.572
  464.750    9.456  164.931    0.289    0.521   78.989
  465.000    8.957  164.880    0.280    0.533   80.743
  465.250    8.640  164.858    0.272    0.540   85.409
  465.500    8.334  164.836    0.261    0.534   87.165
  465.750    8.038  165.783    0.269    0.534   79.028
  466.000    7.896  165.739    0.293    0.543   74.386
  466.250    7.898  165.717    0.306    0.542   78.467
  466.500    8.347  165.688    0.302    0.525   79.642
  466.750    8.659  165.659    0.293    0.502   76.160
  467.000    9.149  165.630    0.294    0.480   71.515
  467.250    9.667  165.594    0.277    0.463   67.452
  467.500   10.029  165.572    0.249    0.428   63.970
  467.750   10.033  165.543    0.190    0.416   58.161
  468.000    9.854  166.489    0.281    0.452   59.336
  468.250    8.838  166.468    0.293    0.473   68.076
  468.500    7.925  166.439    0.283    0.522   75.070
  468.750    7.506  167.385    0.267    0.499   82.646
  469.000    7.241  167.356    0.252    0.488   86.730
  469.250    7.113  167.327    0.245    0.503   94.308
  469.500    6.736  168.273    0.246    0.521   95.483
  469.750    6.265  168.244    0.250    0.545   93.748
  470.000    5.619  168.215    0.257    0.560   93.176
  470.250    5.226  169.162    0.260    0.569   90.859
  470.500    4.686  169.133    0.259    0.579   89.705
  470.750    3.767  170.072    0.254    0.600   92.043
  471.000    3.258  170.035    0.253    0.632   96.715
  471.250    2.869  170.014    0.254    0.655   96.723
  471.500    2.717  169.977    0.256    0.619   99.058
  471.750    2.718  169.955    0.259    0.601   97.905
  472.000    2.820  168.936    0.254    0.570  100.828
  472.250    2.980  168.914    0.239    0.577   98.508
  472.500    3.091  168.878    0.230    0.572   97.936
  472.750    3.092  168.864    0.230    0.576  100.275
  473.000    3.094  168.835    0.233    0.590  103.197
  473.250    3.095  168.798    0.236    0.606  104.372
  473.500    3.153  168.776    0.236    0.602  104.967
  473.750    3.212  168.740    0.239    0.601  103.813
  474.000    3.394  168.718    0.242    0.606  101.493
  474.250    3.586  168.667    0.247    0.596   98.594
  474.500    3.858  168.660    0.256    0.569   92.785
  474.750    4.076  168.616    0.268    0.535   81.738
  475.000    4.386  168.602    0.282    0.498   76.510
  475.250    4.719  168.566    0.288    0.491   79.433
  475.500    5.266  168.537    0.290    0.514   76.531
  475.750    5.876  168.515    0.298    0.539   68.979
  476.000    6.557  168.471    0.309    0.550   67.823
  476.250    7.452  168.457    0.315    0.530   68.997
  476.500    8.470  168.413    0.310    0.508   69.590
  476.750    9.451  168.391    0.303    0.456   65.526
  477.000   11.981  168.362    0.293    0.414   60.299
  477.250   15.752  168.326    0.273    0.352   54.490
  477.500   21.090  168.304    0.226    0.239   46.934
  477.750   24.857  168.253    0.126    0.168   47.527
  478.000   21.106  168.231   -0.009    0.194   53.357
  478.250   16.065  168.209    0.022    0.274   58.023
  478.500   11.578  168.188    0.124    0.315   65.599
  478.750    9.654  168.144    0.254    0.402   71.430
  479.000    8.978  168.130    0.283    0.459   76.680
  479.250    8.351  168.100    0.279    0.463   73.199
  479.500    8.055  168.071    0.276    0.454   72.630
  479.750    8.058  168.042    0.271    0.445   77.294
  480.000    8.061  167.999    0.267    0.438   81.960
  480.250    8.063  167.977    0.264    0.448   81.388
  480.500    8.066  168.923    0.263    0.477   76.743
  480.750    8.069  168.887    0.263    0.484   76.174
  481.000    8.072  168.872    0.263    0.490   79.674
  481.250    8.075  168.836    0.264    0.504   75.610
  481.500    8.078  168.814    0.264    0.523   73.293
  481.750    8.081  168.785    0.264    0.535   75.049
  482.000    7.938  168.749    0.264    0.520   80.297
  482.250    7.798  168.713    0.265    0.514   82.638
  482.500    7.386  168.691    0.264    0.479   80.900
  482.750    6.996  168.662    0.262    0.490   82.075
  483.000    6.747  168.625    0.259    0.502   87.323
  483.250    6.750  169.572    0.255    0.507   88.500
  483.500    6.752  169.550    0.249    0.504   81.527
  483.750    6.633  170.489    0.242    0.497   78.630
  484.000    6.635  170.467    0.239    0.501   79.220
  484.250    6.518  170.431    0.240    0.492   80.976
  484.500    6.403  170.409    0.239    0.483   82.150
  484.750    6.065  170.366    0.233    0.481   79.836
  485.000    5.641  170.344    0.231    0.492   78.098
  485.250    5.342  170.322    0.231    0.503   78.690
  485.500    5.153  170.293    0.253    0.517   79.864
  485.750    5.249  170.264    0.267    0.521   81.039
  486.000    5.648  169.245    0.269    0.509   75.230
  486.250    6.303  169.230    0.277    0.509   70.584
  486.500    7.033  169.194    0.278    0.517   68.851
  486.750    8.290  169.172    0.271    0.521   70.605
  487.000   11.100  169.143    0.238    0.471   74.107
  487.250   12.846  169.107    0.195    0.431   72.372
  487.500   13.087  168.102    0.077    0.393   61.325
  487.750   12.173  168.066    0.251    0.320   57.846
  488.000   10.915  168.037    0.286    0.426   59.603
  488.250    9.613  168.015    0.304    0.437   61.938
  488.500    8.940  167.971    0.296    0.442   66.023
  488.750    8.164  167.949    0.289    0.442   75.347
  489.000    7.456  167.928    0.278    0.446   82.923
  489.250    6.810  167.884    0.269    0.455   88.753
  489.500    6.333  167.862    0.253    0.464   83.526
  489.750    5.890  167.840    0.238    0.489   79.463
  490.000    5.478  167.804    0.244    0.520   80.637
  490.250    5.003  167.775    0.253    0.538   78.902
  490.500    4.653  167.753    0.261    0.550   80.658
  490.750    4.250  167.710    0.270    0.562   84.163
