~VERSION INFORMATION
 VERS.                 2.0:   CWLS LOG ASCII STANDARD -VERSION 2.0
 WRAP.                  NO:   ONE LINE PER DEPTH STEP
~WELL INFORMATION BLOCK
#MNEM.UNIT           DATA                    DESCRIPTION OF MNEMONIC
#---------    -------------------            -------------------------------
# Generated from Intellog Unique Number	CW_73_75/WELL/3522
WELL.         ALLIED ROXANA MINERALS LTD.    : Well_name    - WELL
LOC .         00/08-14-073-26W4/0            : Location     - LOCATION
UWI .         00/08-14-073-26W4/0            : Uwi          - UNIQUE WELL ID
ENTR.         JOETTE                         : Entered      - ENTERED BY
SRVC.         SCHLUMBERGER                   : Scn          - SERVICE COMPANY
DATE.         08-27-92                       : Date         - LOG DATE
STRT.M        381                            : top_depth    - START DEPTH
STOP.M        640                            : bot_depth    - STOP DEPTH
STEP.M        0.25                           : increment    - STEP LENGTH
 NULL. -999.2500:NULL Value
~CURVE INFORMATION BLOCK
#MNEM UNIT       ERCB CURVE CODE    CURVE DESCRIPTION
#-----------   ------------------   ----------------------------------
DEPT.M        00 001 00 00         : DEPTH        - DEPTH
GR  .API      00 310 00 00         : GR           - GAMMA RAY
DELT.US/F     00 520 00 00         : DELT         - SONIC TRAVEL TIME
ILD .OHMM     00 120 00 00         : RESD         - DEEP RESISTIVITY (DIL)
~PARAMETER INFORMATION
#MNEM.UNIT           DATA             DESCRIPTION OF MNEMONIC
#---------         -----------     ------------------------------
GL  .M        624.84               : gl           - GROUND LEVEL ELEVATION
EREF.M        628.498              : kb           - ELEVATION OF DEPTH REFERENCE
DATM.M        628.498              : datum        - DATUM ELEVATION
TDD .M        655.625              : tdd          - TOTAL DEPTH DRILLER
RUN .         ONE                  : Run          - RUN NUMBER
ENG .         BILL                 : Engineer     - RECORDING ENGINEER
WIT .         JIM                  : Witness      - WITNESSED BY
MUD .         GEL                  : Mud_type     - MUD TYPE
MATR.         SANDSTONE            : Logunit      - NEUTRON MATRIX
TMAX.C        26.6667              : BHT          - MAXIMUM RECORDED TEMPERATURE
BHTD.M        655.625              : BHTDEP       - MAXIMUM RECORDED TEMPERATURE
RMT .C        15.5556              : MDTP         - TEMPERATURE OF MUD
MUDD.KG/M     10300                : MWT          - MUD DENSITY
NEUT.         1                    : NEUTRON      - NEUTRON TYPE
RESI.         0                    : RESIST       - RESISTIVITY TYPE
RM  .OHMM     2.96                 : RM           - RESISTIVITY OF MUD
RMC .OHMM     2.96                 : RMC          - RESISTIVITY OF MUD CAKE
RMF .OHMM     2.96                 : RMF          - RESISTIVITY OF MUD FILTRATE
SUFT.C        15                   : SUFT         - SURFACE TEMPERATURE
~A  DEPTH       GR     DELT     RESD
# ...
  598.000   63.949  314.810    4.730
  598.250   62.785  232.388    4.733
  598.500   60.453  261.623    4.738
  598.750   62.229  320.766    4.945
  599.000   64.585  312.780    4.947
  599.250   67.537  312.772    4.953
  599.500   65.783  310.765    4.956
  599.750   64.035  309.432    4.958
  600.000   62.291  308.759    4.964
  600.250   61.719  309.413    4.967
  600.500   63.489  312.727    5.175
  600.750   69.368  314.048    5.178
  601.000   66.447  312.711    5.385
  601.250   64.112  312.702    5.797
  601.500   69.995  428.337    6.819
  601.750   78.221  257.520    6.823
  602.000   91.727  269.475    6.012
  602.250  100.539  279.435    5.609
  602.500   89.408  303.353    5.408
  602.750   78.857  325.277    5.209
  603.000   73.005  318.623    5.008
  603.250   63.634  307.314    4.809
  603.500   60.126  301.990    5.016
  603.750   61.315  294.004    5.223
  604.000   64.841  296.655    5.840
  604.250   76.587  353.137    6.047
  604.500   88.923  358.447    6.254
  604.750   94.219  372.392    6.462
  605.000   96.578  375.046    6.465
  605.250   83.683  378.358    6.265
  605.500   80.759  363.066    5.250
  605.750   69.624  343.117    4.846
  606.000   63.183  344.438    4.241
  606.250   58.502  385.633    4.244
  606.500   55.587  371.666    4.247
  606.750   56.773  360.363    4.252
  607.000   59.135  331.109    4.255
  607.250   61.488  317.140    4.461
  607.500   76.170  318.465    4.671
  607.750   89.676  317.792    5.082
  608.000  104.949  320.442    5.902
  608.250  106.128  334.388    6.312
  608.500  109.077  347.674    7.539
  608.750  103.220  400.171    7.949
  609.000   85.634  388.860   11.826
  609.250   71.563  374.232   12.646
  609.500   53.392  281.841   14.280
  609.750   57.511  299.113   17.952
  610.000   58.696  305.749   19.382
  610.250   51.082  289.790   21.015
  610.500   44.641  275.824   26.114
  610.750   42.893  259.200   25.508
  611.000   42.908  253.875   23.677
  611.250   42.918  244.560   20.623
  611.500   43.520  227.934   19.608
  611.750   45.292  222.610   15.129
  612.000   49.411  216.620   14.113
  612.250   59.397  221.264   12.690
  612.500   72.910  314.303   11.063
  612.750   77.612  329.580    8.419
  613.000   86.425  344.194   12.293
  613.250   71.770  358.807   20.857
  613.500   57.702  379.402   23.714
  613.750   53.021  364.769   29.018
  614.000   49.516  236.490   33.911
  614.250   47.182  223.851   40.030
  614.500   44.264  215.203   34.531
  614.750   41.926  203.231   25.568
  615.000   39.592  219.838   22.107
  615.250   36.090  250.402   20.480
  615.500   35.510  260.363   18.446
  615.750   36.699  263.013   16.208
  616.000   40.228  255.692   11.116
  616.250   54.327  250.367    7.859
  616.500   66.070  251.688    5.621
  616.750   71.949  343.396    3.995
  617.000   84.872  353.357    3.183
  617.250   70.810  371.294    2.372
  617.500   60.256  370.618    1.563
  617.750   57.921  367.952    0.545
  618.000   48.547  363.958    0.959
  618.250   45.632  350.653    1.165
  618.500   48.571  338.018    1.577
  618.750   59.144  332.029    1.987
  619.000   71.480  327.368    2.604
  619.250   90.266  324.036    3.626
  619.500   91.452  325.355    4.445
  619.750  107.891  360.571    5.467
  620.000   93.237  390.471    6.287
  620.250   80.929  431.671    5.272
  620.500   68.621  440.963    4.054
  620.750   53.969  428.993    3.242
  621.000   52.221  424.333    2.837
  621.250   54.580  399.069    2.230
  621.500   56.359  371.809    2.029
  621.750   55.778  321.287    2.034
  622.000   55.204  322.610    2.037
  622.250   47.589  321.270    2.450
  622.500   41.738  318.606    2.451
  622.750   39.407  313.278    2.863
  623.000   42.936  307.288    3.886
  623.250   54.099  305.948    4.502
  623.500   64.082  306.605    4.710
  623.750   77.004  306.594    4.510
  624.000   75.256  305.925    4.514
  624.250   63.535  302.592    4.312
  624.500   61.204  301.917    4.318
  624.750   59.456  299.914    4.524
  625.000   57.118  298.577    4.732
  625.250   58.891  297.906    4.939
  625.500   71.227  392.936    5.352
  625.750   91.186  388.277    5.355
  626.000  103.522  372.982    4.748
  626.250  134.045  355.692    3.936
  626.500  125.254  293.872    3.532
  626.750  121.163  293.863    3.127
  627.000  121.762  291.863    2.724
  627.250  124.708  293.180    2.524
  627.500  128.824  327.069    2.324
  627.750  127.666  335.032    2.331
  628.000  115.358  333.032    2.333
  628.250  111.266  329.700    2.335
  628.500  108.342  326.371    2.543
  628.750  103.661  321.710    2.547
  629.000   97.220  317.710    2.553
  629.250   96.646  316.372    2.555
  629.500   96.658  315.032    2.355
  629.750   94.913  314.363    2.358
  630.000   90.822  311.032    1.955
  630.250   92.005  324.316    1.958
  630.500   94.364  326.964    1.758
  630.750   91.446  316.322    1.763
  631.000   89.114  312.325    2.380
  631.250   90.884  314.309    2.585
  631.500   96.763  318.290    3.404
  631.750  102.059  319.611    5.039
  632.000   97.961  287.699    6.672
  632.250   85.066  265.758    8.306
  632.500   53.398  250.463   12.591
  632.750   41.676  215.230   15.855
  633.000   36.998  212.561   18.712
  633.250   35.251  231.162   20.346
  633.500   27.633  239.129   21.980
  633.750   25.885  228.487   42.568
  634.000   31.767  214.521   43.184
  634.250   41.167  208.531   41.149
  634.500   43.526  200.545   38.911
  634.750   40.605  183.257   38.507
  635.000   36.510  174.608   37.493
  635.250   27.722  157.320   31.179
  635.500   25.978  201.841   23.438
  635.750   24.233  210.473   20.181
  636.000   24.245  188.530   18.350
  636.250   27.775  215.106   18.151
  636.500   32.484  259.627   18.561
  636.750   36.013  256.296   25.087
  637.000   41.895  254.958   26.110
  637.250   40.734  238.999   25.502
  637.500   27.840  229.021   23.468
  637.750   20.225  224.358   19.600
  638.000   15.547  211.053   17.973
  638.250   13.800  207.726   16.143
  638.500   13.809  184.454   15.333
  638.750   15.581  184.445   15.335
  639.000   20.293  185.097   15.339
  639.250   23.236  185.758   15.750
  639.500   27.355  186.412   13.511
  639.750   30.304  199.698   13.313
  640.000   32.073  214.973   14.336
