~VERSION INFORMATION
 VERS.                 2.0:   CWLS LOG ASCII STANDARD -VERSION 2.0
 WRAP.                  NO:   ONE LINE PER DEPTH STEP
~WELL INFORMATION BLOCK
#MNEM.UNIT           DATA                    DESCRIPTION OF MNEMONIC
#---------    -------------------            -------------------------------
# Generated from Intellog Unique Number	CS_69_70/WELL/771
NULL.         -999.25                        : NULL_VALUE
WELL.         SULPETRO LIMITED               : Well_name    - WELL              
LOC .         00/06-16-070-09W4/0            : Location     - LOCATION          
UWI .         00/06-16-070-09W4/0            : Uwi          - UNIQUE WELL ID    
ENTR.         SP                             : Entered      - ENTERED BY        
SRVC.         SCHLUMBERGER                   : Scn          - SERVICE COMPANY   
STRT.M        260                            : top_depth    - START DEPTH       
STOP.M        480                            : bot_depth    - STOP DEPTH        
STEP.M        0.25                           : increment    - STEP LENGTH       
~CURVE INFORMATION BLOCK
#MNEM UNIT       ERCB CURVE CODE    CURVE DESCRIPTION
#-----------   ------------------   ----------------------------------
DEPT.M        00 001 00 00         : DEPTH        - DEPTH                       
ILD .OHMM     00 120 00 00         : RESD         - DEEP RESISTIVITY (DIL)      
DPHI.V/V      00 890 00 00         : PHID         - DENSITY POROSITY (LIMESTONE)
NPHI.V/V      00 330 00 00         : PHIN         - NEUTRON POROSITY (LIMESTONE)
GR  .API      00 310 00 00         : GR           - GAMMA RAY                   
~PARAMETER INFORMATION       
#MNEM.UNIT           DATA             DESCRIPTION OF MNEMONIC
#---------         -----------     ------------------------------
GL  .M        600.87               : gl           - GROUND LEVEL ELEVATION      
EREF.M        603.87               : kb           - ELEVATION OF DEPTH REFERENCE
DATM.M        600.87               : datum        - DATUM ELEVATION             
TDD .M        489                  : tdd          - TOTAL DEPTH DRILLER         
RUN .         ONE                  : Run          - RUN NUMBER                  
ENG .         BILL                 : Engineer     - RECORDING ENGINEER          
WIT .         JIM                  : Witness      - WITNESSED BY                
MUD .         GEL                  : Mud_type     - MUD TYPE                    
MATR.         LIMESTONE            : Logunit      - NEUTRON MATRIX              
TMAX.C        22                   : BHT          - MAXIMUM RECORDED TEMPERATURE
BHTD.M        489                  : BHTDEP       - MAXIMUM RECORDED TEMPERATURE
MATR.         1                    : LOGUNIT      - NEUTRON MATRIX              
RMT .C        25                   : MDTP         - TEMPERATURE OF MUD          
NEUT.         1                    : NEUTRON      - NEUTRON TYPE                
RESI.         0                    : RESIST       - RESISTIVITY TYPE            
RMC .OHMM     0.25                 : RMC          - RESISTIVITY OF MUD CAKE     
RMF .OHMM     0.25                 : RMF          - RESISTIVITY OF MUD FILTRATE 
SUFT.C        15                   : SUFT         - SURFACE TEMPERATURE         
~A  DEPTH     RESD     PHID     PHIN       GR
  260.000    3.158    0.191    0.437  116.277
  260.250    2.990    0.196    0.452  114.992
  260.500    3.019    0.200    0.467  115.066
  260.750    3.003    0.196    0.478  115.881
  261.000    3.021    0.197    0.451  116.513
  261.250    3.120    0.201    0.425  117.328
  261.500    3.284    0.197    0.436  119.752
  261.750    3.444    0.190    0.447  120.318
  262.000    3.612    0.173    0.460  117.737
  262.250    3.773    0.154    0.405  113.424
  262.500    3.839    0.127    0.375  107.505
  262.750    3.775    0.113    0.360  104.739
  263.000    3.575    0.147    0.384  110.867
  263.250    3.430    0.184    0.410  116.379
  263.500    3.255    0.193    0.408  116.205
  263.750    3.100    0.200    0.395  115.971
  264.000    2.986    0.202    0.433  116.293
  264.250    2.970    0.196    0.474  116.306
  264.500    2.987    0.190    0.475  115.207
  264.750    3.028    0.187    0.483  115.280
  265.000    3.052    0.195    0.507  119.000
  265.250    3.123    0.196    0.526  122.288
  265.500    3.183    0.198    0.537  124.276
  265.750    3.238    0.206    0.540  123.980
  266.000    3.333    0.212    0.500  119.483
  266.250    3.390    0.216    0.513  115.482
  266.500    3.463    0.215    0.516  115.431
  266.750    3.490    0.216    0.470  115.442
  267.000    3.477    0.220    0.427  115.332
  267.250    3.401    0.222    0.406  114.789
  267.500    3.294    0.218    0.397  113.442
  267.750    3.277    0.203    0.388  111.725
  268.000    3.309    0.206    0.471  110.192
  268.250    3.463    0.209    0.504  107.177
  268.500    3.729    0.213    0.521  101.198
  268.750    3.844    0.179    0.336   91.820
  269.000    4.347    0.136    0.314   77.498
  269.250    4.725    0.152    0.327   56.689
  269.500    5.184    0.250    0.354   61.274
  269.750    5.635    0.283    0.379   54.553
  270.000    5.931    0.289    0.348   49.129
  270.250    6.138    0.290    0.347   44.878
  270.500    6.163    0.280    0.370   51.378
  270.750    6.176    0.270    0.355   55.839
  271.000    6.308    0.262    0.313   59.620
  271.250    6.393    0.258    0.299   63.401
  271.500    6.529    0.269    0.316   69.594
  271.750    6.757    0.273    0.301   76.154
  272.000    6.926    0.238    0.283   89.017
  272.250    7.141    0.204    0.316   99.842
  272.500    7.433    0.194    0.334  106.218
  272.750    7.577    0.197    0.350  108.455
  273.000    7.621    0.200    0.362  109.395
  273.250    7.695    0.200    0.375  111.570
  273.500    7.726    0.195    0.350  114.611
  273.750    7.700    0.189    0.321  116.661
  274.000    7.600    0.185    0.306  118.528
  274.250    7.349    0.192    0.346  120.146
  274.500    7.012    0.197    0.369  121.826
  274.750    6.831    0.201    0.378  122.457
  275.000    6.807    0.200    0.356  122.469
  275.250    6.874    0.191    0.345  122.483
  275.500    7.060    0.186    0.351  121.692
  275.750    7.264    0.185    0.375  118.059
  276.000    7.504    0.200    0.369  113.192
  276.250    7.664    0.219    0.350  103.813
  276.500    7.871    0.238    0.365   92.087
  276.750    7.994    0.252    0.376   79.311
  277.000    7.995    0.266    0.340   69.808
  277.250    8.012    0.172    0.290   80.447
  277.500    7.850    0.148    0.293   89.233
  277.750    7.633    0.138    0.318   97.401
  278.000    7.408    0.130    0.334  100.132
  278.250    7.396    0.155    0.345   85.255
  278.500    7.426    0.204    0.358   71.367
  278.750    7.386    0.242    0.372   61.061
  279.000    7.264    0.251    0.351   61.321
  279.250    7.063    0.248    0.302   76.780
  279.500    6.726    0.235    0.282   87.235
  279.750    6.298    0.204    0.297   95.341
  280.000    5.754    0.178    0.316  103.878
  280.250    5.563    0.189    0.336  110.563
  280.500    5.268    0.173    0.351  116.322
  280.750    4.905    0.144    0.371  121.153
  281.000    4.680    0.123    0.390  123.884
  281.250    4.390    0.133    0.414  126.739
  281.500    4.095    0.173    0.466  133.178
  281.750    3.864    0.197    0.391  137.516
  282.000    3.625    0.206    0.377  137.653
  282.250    3.381    0.203    0.379  136.552
  282.500    3.118    0.201    0.403  135.946
  282.750    2.903    0.209    0.428  136.084
  283.000    2.850    0.243    0.451  134.921
  283.250    3.508    0.274    0.469  127.396
  283.500    4.756    0.291    0.386  116.412
  283.750    5.670    0.276    0.366   97.333
  284.000    6.684    0.224    0.355   87.275
  284.250    7.474    0.197    0.367   85.620
  284.500    7.956    0.258    0.415   80.381
  284.750    7.693    0.298    0.433   72.301
  285.000    7.326    0.328    0.417   63.354
  285.250    6.938    0.338    0.435   56.755
  285.500    6.683    0.329    0.448   53.805
  285.750    6.474    0.324    0.396   52.704
  286.000    6.439    0.319    0.374   54.631
  286.250    6.416    0.318    0.376   59.463
  286.500    6.418    0.320    0.378   62.812
  286.750    6.469    0.321    0.362   63.258
  287.000    6.483    0.321    0.351   66.606
  287.250    6.497    0.321    0.354   72.799
  287.500    6.523    0.320    0.368   78.184
  287.750    6.575    0.317    0.376   84.066
  288.000    6.639    0.312    0.360   87.910
  288.250    6.679    0.309    0.356   87.181
  288.500    6.744    0.306    0.354   82.622
  288.750    6.797    0.307    0.361   79.483
  289.000    6.837    0.304    0.353   81.225
  289.250    6.852    0.300    0.353   81.361
  289.500    6.854    0.298    0.365   75.631
  289.750    6.817    0.301    0.383   69.588
  290.000    6.794    0.303    0.397   62.308
  290.250    6.757    0.300    0.411   53.177
  290.500    6.671    0.301    0.409   47.815
  290.750    6.635    0.308    0.392   48.447
  291.000    6.636    0.312    0.383   49.324
  291.250    6.552    0.317    0.371   50.326
  291.500    6.529    0.322    0.390   53.056
  291.750    6.506    0.326    0.397   55.786
  292.000    6.471    0.316    0.407   61.241
  292.250    6.485    0.311    0.412   63.102
  292.500    6.511    0.318    0.419   64.227
  292.750    6.563    0.325    0.427   64.239
  293.000    6.627    0.331    0.370   65.118
  293.250    6.653    0.291    0.346   70.195
  293.500    6.692    0.284    0.324   74.843
  293.750    6.707    0.283    0.354   78.068
  294.000    6.798    0.283    0.362   76.784
  294.250    6.839    0.281    0.376   79.513
  294.500    6.866    0.289    0.382   83.913
  294.750    6.973    0.289    0.367   88.250
  295.000    6.975    0.279    0.359   94.875
  295.250    6.706    0.263    0.358   99.521
  295.500    6.255    0.255    0.357  102.437
  295.750    5.868    0.247    0.370  103.869
  296.000    6.072    0.238    0.391  103.821
  296.250    6.489    0.234    0.421   99.388
  296.500    6.715    0.254    0.444   95.876
  296.750    6.819    0.267    0.406   92.675
  297.000    6.719    0.277    0.399   98.435
  297.250    6.256    0.266    0.406  108.211
  297.500    5.759    0.256    0.413  118.354
  297.750    5.341    0.247    0.425  125.162
  298.000    5.001    0.241    0.427  130.735
  298.250    4.745    0.238    0.377  125.990
  298.500    5.437    0.258    0.355  114.203
  298.750    6.373    0.278    0.362  104.271
  299.000    7.046    0.292    0.395  100.265
  299.250    7.292    0.298    0.430   96.508
  299.500    6.738    0.305    0.415  100.168
  299.750    6.238    0.285    0.389  103.701
  300.000    5.885    0.254    0.377  106.617
  300.250    5.820    0.242    0.411  109.595
  300.500    5.899    0.231    0.436  108.805
  300.750    6.047    0.227    0.448  110.609
  301.000    6.329    0.229    0.420  111.486
  301.250    6.662    0.249    0.383  107.175
  301.500    6.934    0.258    0.370  103.789
  301.750    7.082    0.254    0.381  105.037
  302.000    7.288    0.245    0.405  106.904
  302.250    7.331    0.243    0.426  107.842
  302.500    7.402    0.244    0.447  105.323
  302.750    7.573    0.238    0.459  102.060
  303.000    8.077    0.222    0.473   98.057
  303.250    8.551    0.151    0.344   92.077
