~VERSION INFORMATION
 VERS.                 2.0:   CWLS LOG ASCII STANDARD -VERSION 2.0
 WRAP.                  NO:   ONE LINE PER DEPTH STEP
~WELL INFORMATION BLOCK
#MNEM.UNIT           DATA                    DESCRIPTION OF MNEMONIC
#---------    -------------------            -------------------------------
# Generated from Intellog Unique Number	CC_80_83/WELL/2492
WELL.         GULF PONY                      : Well_name    - WELL
LOC .         00/06-25-081-09W4/0            : Location     - LOCATION
UWI .         00/06-25-081-09W4/0            : Uwi          - UNIQUE WELL ID
ENTR.         JHS                            : Entered      - ENTERED BY
SRVC.         SCHLUMBERGER                   : Scn          - SERVICE COMPANY
STRT.M        274.32                         : top_depth    - START DEPTH
STOP.M        477.07                         : bot_depth    - STOP DEPTH
STEP.M        0.25                           : increment    - STEP LENGTH
 NULL. -999.2500:NULL Value
~CURVE INFORMATION BLOCK
#MNEM UNIT       ERCB CURVE CODE    CURVE DESCRIPTION
#-----------   ------------------   ----------------------------------
DEPT.M        00 001 00 00         : DEPTH        - DEPTH
GR  .API      00 310 00 00         : GR           - GAMMA RAY
DPHI.V/V      00 890 00 00         : PHID         - DENSITY POROSITY (SANDSTONE)
NPHI.V/V      00 330 00 00         : PHIN         - NEUTRON POROSITY (SANDSTONE)
ILD .OHMM     00 120 00 00         : RESD         - DEEP RESISTIVITY (DIL)
~PARAMETER INFORMATION
#MNEM.UNIT           DATA             DESCRIPTION OF MNEMONIC
#---------         -----------     ------------------------------
GL  .M        706.344              : gl           - GROUND LEVEL ELEVATION
EREF.M        709.879              : kb           - ELEVATION OF DEPTH REFERENCE
DATM.M        709.879              : datum        - DATUM ELEVATION
TDD .M        484.632              : tdd          - TOTAL DEPTH DRILLER
RUN .         ONE                  : Run          - RUN NUMBER
ENG .         BILL                 : Engineer     - RECORDING ENGINEER
WIT .         JIM                  : Witness      - WITNESSED BY
MUD .         GEL                  : Mud_type     - MUD TYPE
MATR.         SANDSTONE            : Logunit      - NEUTRON MATRIX
TMAX.C        60                   : BHT          - MAXIMUM RECORDED TEMPERATURE
BHTD.M        484.632              : BHTDEP       - MAXIMUM RECORDED TEMPERATURE
MATR.         1                    : LOGUNIT      - NEUTRON MATRIX
RMT .C        25                   : MDTP         - TEMPERATURE OF MUD
NEUT.         1                    : NEUTRON      - NEUTRON TYPE
RESI.         0                    : RESIST       - RESISTIVITY TYPE
RMC .OHMM     0.25                 : RMC          - RESISTIVITY OF MUD CAKE
RMF .OHMM     0.25                 : RMF          - RESISTIVITY OF MUD FILTRATE
SUFT.C        15                   : SUFT         - SURFACE TEMPERATURE
~A  DEPTH       GR     PHID     PHIN     RESD
  274.320   93.453    0.282    0.458    7.914
  274.570   92.992    0.301    0.428    8.403
  274.820   92.410    0.264    0.415    9.082
  275.070   92.190    0.255    0.432   10.280
  275.320   82.996    0.300    0.479   12.217
  275.570   62.614    0.381    0.532   14.604
  275.820   49.056    0.455    0.558   17.224
  276.070   46.323    0.399    0.532   21.100
  276.320   44.176    0.344    0.454   24.450
  276.570   43.595    0.340    0.400   27.096
  276.820   46.981    0.330    0.393   29.421
  277.070   49.776    0.307    0.389   30.585
  277.320   51.690    0.325    0.407   30.188
  277.570   54.843    0.335    0.427   29.333
  277.820   60.693    0.335    0.435   28.315
  278.070   66.462    0.336    0.428   26.708
  278.320   68.277    0.335    0.419   24.724
  278.570   68.165    0.338    0.427   23.296
  278.820   72.766    0.324    0.431   22.274
  279.070   73.226    0.312    0.432   21.196
  279.320   71.414    0.307    0.421   20.684
  279.570   71.433    0.303    0.413   20.869
  279.820   70.099    0.300    0.425   21.230
  280.070   66.076    0.304    0.438   21.908
  280.320   64.307    0.299    0.426   22.337
  280.570   64.905    0.288    0.427   22.521
  280.820   66.025    0.287    0.441   22.222
  281.070   66.987    0.294    0.436   21.520
  281.320   67.471    0.294    0.420   21.236
  281.570   66.539    0.298    0.428   21.544
  281.820   65.601    0.284    0.437   21.867
  282.070   60.390    0.292    0.431   22.379
  282.320   55.944    0.310    0.423   23.096
  282.570   58.926    0.301    0.427   23.837
  282.820   61.771    0.315    0.437   24.953
  283.070   65.916    0.323    0.427   26.180
  283.320   67.634    0.319    0.415   27.142
  283.570   66.508    0.311    0.419   27.871
  283.820   65.080    0.305    0.422   28.038
  284.070   64.194    0.308    0.410   27.111
  284.320   64.189    0.309    0.426   25.867
  284.570   64.253    0.312    0.445   25.244
  284.820   64.316    0.309    0.442   25.184
  285.070   64.175    0.302    0.435   25.160
  285.320   63.675    0.303    0.439   25.239
  285.570   64.127    0.314    0.437   25.676
  285.820   66.869    0.317    0.440   25.112
  286.070   66.734    0.312    0.436   24.016
  286.320   66.911    0.289    0.420   22.982
  286.570   71.879    0.275    0.407   21.893
  286.820   77.626    0.296    0.410   20.588
  287.070   78.449    0.305    0.423   19.586
  287.320   77.110    0.316    0.439   19.538
  287.570   75.758    0.316    0.445   19.112
  287.820   76.677    0.299    0.446   18.158
  288.070   80.735    0.280    0.446   17.346
  288.320   85.656    0.269    0.438   16.315
  288.570   90.457    0.277    0.427   15.528
  288.820   92.449    0.273    0.431   15.126
  289.070   91.153    0.265    0.436   15.164
  289.320   87.404    0.270    0.435   15.440
  289.570   82.465    0.275    0.438   15.361
  289.820   78.902    0.273    0.433   14.172
  290.070   78.376    0.285    0.429   11.270
  290.320   84.088    0.257    0.433    7.954
  290.570   96.261    0.218    0.462    5.911
  290.820  107.912    0.214    0.507    5.177
  291.070  110.844    0.200    0.527    4.581
  291.320  108.021    0.188    0.543    4.285
  291.570  102.775    0.180    0.526    4.078
  291.820   99.895    0.166    0.504    3.984
  292.070  100.534    0.177    0.502    4.014
  292.320  102.811    0.220    0.515    4.092
  292.570  105.995    0.236    0.541    4.400
  292.820  105.291    0.287    0.546    5.231
  293.070  102.481    0.328    0.508    7.850
  293.320   87.540    0.327    0.459   13.709
  293.570   67.822    0.317    0.438   20.792
  293.820   66.425    0.321    0.444   24.482
  294.070   66.686    0.331    0.452   24.413
  294.320   70.399    0.336    0.451   23.037
  294.570   75.990    0.337    0.439   21.721
  294.820   86.504    0.332    0.431   21.116
  295.070  102.305    0.326    0.430   21.192
  295.320  112.257    0.331    0.423   21.163
  295.570  120.380    0.328    0.436   21.766
  295.820   92.245    0.328    0.436   22.267
  296.070   62.046    0.339    0.427   22.584
  296.320   60.191    0.349    0.439   22.887
  296.570   59.029    0.344    0.452   22.858
  296.820   59.693    0.328    0.422   22.591
  297.070   63.449    0.302    0.405   21.684
  297.320   70.609    0.294    0.409   20.830
  297.570   77.844    0.285    0.408   19.475
  297.820   80.647    0.257    0.401   17.067
  298.070   80.929    0.257    0.403   14.909
  298.320   86.832    0.242    0.411   12.921
  298.570   91.950    0.241    0.430   11.841
  298.820   93.985    0.245    0.447   10.696
  299.070   96.370    0.232    0.451    8.811
  299.320  101.139    0.214    0.459    7.271
  299.570  107.575    0.197    0.483    6.714
  299.820  112.561    0.203    0.495    6.399
  300.070  113.641    0.212    0.479    6.275
  300.320  111.309    0.209    0.463    6.883
  300.570  106.915    0.216    0.463    8.644
  300.820  100.499    0.256    0.455   11.566
  301.070   93.063    0.294    0.443   15.066
  301.320   87.770    0.299    0.437   17.066
  301.570   91.330    0.300    0.439   17.569
  301.820   97.052    0.313    0.438   17.266
  302.070   92.597    0.316    0.425   16.125
  302.320   85.273    0.311    0.421   14.492
  302.570   85.850    0.301    0.424   13.196
  302.820   90.617    0.257    0.446   12.012
  303.070   94.278    0.226    0.464   11.194
  303.320   97.284    0.239    0.458   10.983
  303.570  100.763    0.251    0.447   10.997
  303.820  101.021    0.266    0.433   11.598
  304.070   97.242    0.254    0.436   12.696
  304.320   95.090    0.241    0.434   13.736
  304.570   93.417    0.247    0.408   13.942
  304.820   89.564    0.256    0.387   13.195
  305.070   90.984    0.255    0.398   12.106
  305.320   95.287    0.210    0.420   10.160
  305.570   99.306    0.192    0.442    8.880
  305.820  100.613    0.212    0.456    8.644
  306.070   98.864    0.217    0.456    8.705
  306.320   95.322    0.207    0.440    9.162
  306.570   90.027    0.218    0.427   10.654
  306.820   85.203    0.199    0.421   12.091
  307.070   83.774    0.184    0.420   13.002
  307.320   85.175    0.204    0.427   12.816
  307.570   88.065    0.227    0.430   11.848
  307.820   93.526    0.220    0.417   11.550
  308.070   98.882    0.209    0.439   10.418
  308.320  101.736    0.209    0.451    8.996
  308.570  101.722    0.212    0.444    8.044
  308.820  101.722    0.212    0.443    7.580
  309.070  103.891    0.208    0.450    7.380
  309.320  104.635    0.204    0.453    7.359
  309.570  103.212    0.217    0.438    7.598
  309.820  100.577    0.242    0.425    8.185
  310.070   97.509    0.253    0.424    9.048
  310.320   93.171    0.248    0.428   10.325
  310.570   86.731    0.256    0.437   12.050
  310.820   81.953    0.255    0.446   12.988
  311.070   82.326    0.262    0.438   13.221
  311.320   85.184    0.264    0.425   12.868
  311.570   88.463    0.244    0.422   11.888
  311.820   93.653    0.218    0.426   10.469
  312.070   99.722    0.205    0.440    9.087
  312.320  103.202    0.215    0.448    8.517
  312.570  103.543    0.226    0.447    8.288
  312.820  102.945    0.235    0.445    8.055
  313.070  103.212    0.250    0.444    7.990
  313.320  103.243    0.262    0.452    8.125
  313.570  100.540    0.254    0.490    8.267
  313.820   97.574    0.249    0.503    8.372
  314.070   94.225    0.257    0.495    9.091
  314.320   90.314    0.281    0.484   10.298
  314.570   87.037    0.312    0.460   11.440
  314.820   84.101    0.311    0.432   12.937
  315.070   81.875    0.304    0.431   14.196
  315.320   80.689    0.302    0.430   14.521
  315.570   78.136    0.308    0.420   13.801
  315.820   72.453    0.313    0.411   12.806
  316.070   66.140    0.304    0.409   12.482
  316.320   63.732    0.284    0.414   12.660
  316.570   67.718    0.276    0.427   12.903
  316.820   69.400    0.287    0.440   13.844
  317.070   61.312    0.303    0.442   15.607
  317.320   48.479    0.320    0.434   17.222
  317.570   41.632    0.351    0.439   18.024
