~VERSION INFORMATION
 VERS.                 2.0:   CWLS LOG ASCII STANDARD -VERSION 2.0
 WRAP.                  NO:   ONE LINE PER DEPTH STEP
~WELL INFORMATION BLOCK
#MNEM.UNIT           DATA                    DESCRIPTION OF MNEMONIC
#---------    -------------------            -------------------------------
# Generated from Intellog Unique Number	CC_84_87/WELL/1049
NULL.         -999.25                        : NULL_VALUE
WELL.         NOVALTA GRANOR                 : Well_name    - WELL              
LOC .         03-02-084-17W4                 : Location     - LOCATION          
UWI .         00/03-02-084-17W400            : Uwi          - UNIQUE WELL ID    
ENTR.         JHS                            : Entered      - ENTERED BY        
SRVC.         DRESSER ATLAS                  : Scn          - SERVICE COMPANY   
DATE.         13 FEB 83                      : Date         - LOG DATE
STRT.M        85                             : top_depth    - START DEPTH       
STOP.M        280.001                        : bot_depth    - STOP DEPTH        
STEP.M        0.3                            : increment    - STEP LENGTH       
~CURVE INFORMATION BLOCK
#MNEM UNIT       ERCB CURVE CODE    CURVE DESCRIPTION
#-----------   ------------------   ----------------------------------
DEPT.M        00 001 00 00         : DEPTH        - DEPTH                       
DPHI.V/V      00 890 00 00         : PHID         - DENSITY POROSITY (LIMESTONE)
NPHI.V/V      00 330 00 00         : PHIN         - NEUTRON POROSITY (LIMESTONE)
GR  .API      00 310 00 00         : GR           - GAMMA RAY                   
ILD .OHMM     00 120 00 00         : RESD         - DEEP RESISTIVITY (DIL)      
~PARAMETER INFORMATION       
#MNEM.UNIT           DATA             DESCRIPTION OF MNEMONIC
#---------         -----------     ------------------------------
GL  .M        542.48               : gl           - GROUND LEVEL ELEVATION      
EREF.M        545.48               : kb           - ELEVATION OF DEPTH REFERENCE
DATM.M        545.48               : datum        - DATUM ELEVATION             
TDD .M        285                  : tdd          - TOTAL DEPTH DRILLER         
RUN .         ONE                  : Run          - RUN NUMBER                  
ENG .         BILL                 : Engineer     - RECORDING ENGINEER          
WIT .         JIM                  : Witness      - WITNESSED BY                
MUD .         GEL                  : Mud_type     - MUD TYPE                    
MATR.         LIMESTONE            : Logunit      - NEUTRON MATRIX              
TMAX.C        24                   : BHT          - MAXIMUM RECORDED TEMPERATURE
BHTD.M        285                  : BHTDEP       - MAXIMUM RECORDED TEMPERATURE
MATR.         1                    : LOGUNIT      - NEUTRON MATRIX              
RMT .C        25                   : MDTP         - TEMPERATURE OF MUD          
NEUT.         1                    : NEUTRON      - NEUTRON TYPE                
RESI.         0                    : RESIST       - RESISTIVITY TYPE            
RMC .OHMM     0.25                 : RMC          - RESISTIVITY OF MUD CAKE     
RMF .OHMM     0.25                 : RMF          - RESISTIVITY OF MUD FILTRATE 
SUFT.C        15                   : SUFT         - SURFACE TEMPERATURE         
~A  DEPTH     PHID     PHIN       GR     RESD
# ...
  137.201    0.440    0.194   68.332   52.759
  137.501    0.450    0.193   63.461   49.891
  137.801    0.450    0.184   62.235   39.823
  138.101    0.440    0.216   65.260   31.786
  138.401    0.430    0.247   70.712   37.674
  138.701    0.427    0.253   71.308   47.246
  139.001    0.429    0.243   66.438   50.973
  139.301    0.435    0.220   67.031   50.999
  139.601    0.442    0.203   66.411   49.137
  139.901    0.443    0.198   67.009   48.240
  140.201    0.444    0.198   68.210   54.038
  140.501    0.448    0.194   67.591   62.844
  140.801    0.448    0.179   63.937   71.750
  141.101    0.444    0.136   59.066   71.781
  141.401    0.439    0.142   53.589   70.468
  141.701    0.439    0.157   53.574   66.632
  142.001    0.444    0.167   58.422   65.421
  142.301    0.455    0.169   60.838   63.038
  142.601    0.460    0.168   59.006   53.242
  142.901    0.453    0.176   61.423   43.305
  143.201    0.439    0.190   65.054   34.567
  143.501    0.422    0.206   66.256   27.593
  143.801    0.406    0.232   61.386   19.306
  144.101    0.372    0.339   54.088   16.933
  144.401    0.356    0.399   54.075   16.941
  144.701    0.357    0.436   54.670   17.934
  145.001    0.358    0.427   50.406   18.284
  145.301    0.355    0.404   46.752   17.289
  145.601    0.347    0.390   45.523   16.976
  145.901    0.339    0.387   46.726   17.307
  146.201    0.331    0.394   49.144   19.025
  146.501    0.324    0.425   52.167   20.521
  146.801    0.312    0.422   54.586   21.725
  147.101    0.281    0.375   57.001   20.543
  147.401    0.179    0.318   53.953   16.709
  147.701    0.151    0.303   50.299    8.815
  148.001    0.193    0.308   52.107    7.170
  148.301    0.237    0.337   58.776    7.735
  148.601    0.258    0.376   67.871    8.036
  148.901    0.273    0.411   72.716    7.890
  149.201    0.276    0.428   71.491    8.354
  149.501    0.284    0.425   72.087    8.843
  149.801    0.297    0.402   72.074    9.720
  150.101    0.304    0.370   74.491   10.887
  150.401    0.315    0.371   73.264   11.311
  150.701    0.329    0.402   66.573   11.974
  151.001    0.344    0.416   65.953   12.676
  151.301    0.348    0.420   68.371   13.419
  151.601    0.352    0.416   73.824   14.207
  151.901    0.355    0.411   71.382   14.758
  152.201    0.364    0.411   67.725   15.332
  152.501    0.376    0.422   62.855   15.928
  152.801    0.371    0.427   54.951   17.184
  153.101    0.354    0.415   47.044   17.851
  153.401    0.344    0.383   44.603   18.201
  153.701    0.349    0.346   46.412   17.870
  154.001    0.357    0.340   48.223   17.219
  154.301    0.357    0.346   44.566   16.590
  154.601    0.351    0.359   46.376   16.289
  154.901    0.347    0.385   48.793   16.609
  155.201    0.345    0.412   46.351   16.932
  155.501    0.341    0.401   45.733   17.264
  155.801    0.343    0.383   47.542   17.598
  156.101    0.342    0.380   46.315   18.284
  156.401    0.339    0.401   48.732   18.294
  156.701    0.340    0.404   50.543   18.300
  157.001    0.339    0.402   46.887   18.313
  157.301    0.332    0.390   47.482   17.981
  157.601    0.331    0.380   46.863   18.331
  157.901    0.344    0.386   42.600   18.689
  158.201    0.357    0.391   39.551   19.054
  158.501    0.353    0.388   41.359   18.706
  158.801    0.351    0.384   46.814   18.366
  159.101    0.360    0.398   48.017   18.377
  159.401    0.368    0.413   49.217   18.734
  159.701    0.367    0.409   51.635   18.743
  160.001    0.363    0.400   50.409   18.404
  160.301    0.365    0.382   47.359   17.402
  160.601    0.364    0.391   47.349   16.454
  160.901    0.359    0.406   44.908   16.156
  161.201    0.356    0.401   41.253   16.784
  161.501    0.364    0.383   41.240   18.107
  161.801    0.365    0.367   44.265   18.812
  162.101    0.362    0.373   46.075   18.469
  162.401    0.359    0.418   44.846   17.797
  162.701    0.356    0.422   44.834   17.806
  163.001    0.354    0.412   41.786   19.207
  163.301    0.354    0.392   42.989   20.334
  163.601    0.350    0.379   44.799   20.730
  163.901    0.344    0.374   44.787   20.740
  164.201    0.342    0.368   44.166   21.144
  164.501    0.342    0.381   44.156   21.562
  164.801    0.345    0.390   42.929   21.568
  165.101    0.344    0.382   42.914   21.989
  165.401    0.342    0.359   44.727   21.592
  165.701    0.346    0.355   45.321   21.198
  166.001    0.352    0.371   44.701   20.426
  166.301    0.357    0.399   45.902   20.055
  166.601    0.362    0.397   45.285   19.693
  166.901    0.367    0.404   43.448   19.334
  167.201    0.369    0.432   42.225   18.983
  167.501    0.369    0.426   39.175   18.639
  167.801    0.367    0.400   38.555   18.651
  168.101    0.370    0.404   37.938   19.016
  168.401    0.369    0.408   35.497   19.021
  168.701    0.365    0.407   37.304   19.031
  169.001    0.356    0.411   38.507   19.402
  169.301    0.359    0.406   37.283   19.413
  169.601    0.364    0.407   36.055   19.792
  169.901    0.366    0.418   37.255   19.804
  170.201    0.366    0.440   38.461   19.444
  170.501    0.366    0.450   38.448   19.452
  170.801    0.368    0.444   37.827   19.463
  171.101    0.368    0.444   37.815   19.474
  171.401    0.368    0.457   37.805   19.123
  171.701    0.365    0.463   38.397   19.128
  172.001    0.360    0.447   38.994   19.141
  172.301    0.356    0.409   40.197   19.149
  172.601    0.354    0.403   42.006   19.160
  172.901    0.355    0.405   45.030   19.169
  173.201    0.357    0.440   45.626   19.177
  173.501    0.360    0.425   45.007   18.830
  173.801    0.359    0.404   46.207   18.841
  174.101    0.354    0.411   46.197   18.850
  174.401    0.346    0.418   44.971   18.861
  174.701    0.340    0.421   43.744   18.866
  175.001    0.332    0.429   43.124   18.879
  175.301    0.333    0.433   43.720   18.886
  175.601    0.337    0.435   44.315   18.901
  175.901    0.337    0.424   46.123   18.907
  176.201    0.338    0.413   46.111   18.914
  176.501    0.345    0.439   42.456   18.573
  176.801    0.348    0.435   41.230   18.580
  177.101    0.347    0.416   42.431   18.593
  177.401    0.344    0.427   43.632   18.599
  177.701    0.345    0.434   43.014   18.264
  178.001    0.344    0.444   44.217   17.933
  178.301    0.349    0.442   46.634   17.939
  178.601    0.347    0.409   47.837   17.613
  178.901    0.342    0.407   48.432   17.623
  179.201    0.334    0.419   49.634   17.631
  179.501    0.327    0.408   50.834   17.642
  179.801    0.323    0.399   50.822   17.649
  180.101    0.324    0.398   50.812   17.328
  180.401    0.319    0.404   50.801   15.781
  180.701    0.313    0.438   51.396   13.080
  181.001    0.305    0.436   55.634    9.867
  181.301    0.287    0.430   58.050    7.169
  181.601    0.247    0.438   64.112    5.408
  181.901    0.212    0.433   73.814    4.833
  182.201    0.204    0.432   84.734    4.571
  182.501    0.195    0.435   94.436    4.488
  182.801    0.148    0.432   95.639    4.490
  183.101    0.150    0.427   90.768    4.664
  183.401    0.173    0.467   90.756    4.667
  183.701    0.214    0.473   93.778    4.669
  184.001    0.221    0.460   97.412    4.671
  184.301    0.217    0.485  102.864    4.587
  184.601    0.205    0.504  105.890    4.503
  184.901    0.180    0.501  103.448    4.421
  185.201    0.169    0.475  100.398    4.341
  185.501    0.168    0.453  100.996    4.263
  185.801    0.177    0.506  106.447    4.265
  186.101    0.191    0.542  108.864    4.267
  186.401    0.204    0.544  103.386    4.269
  186.701    0.197    0.537  101.553    4.271
  187.001    0.198    0.502   99.719    4.194
  187.301    0.196    0.479   99.102    4.196
  187.601    0.196    0.476  102.733    4.198
  187.901    0.206    0.495  101.504    4.122
  188.201    0.219    0.499  100.274    4.124
  188.501    0.232    0.487  101.481    4.204
  188.801    0.249    0.490  102.075    4.451
  189.101    0.252    0.492  100.242    4.892
