~VERSION INFORMATION
 VERS.                 2.0:   CWLS LOG ASCII STANDARD -VERSION 2.0
 WRAP.                  NO:   ONE LINE PER DEPTH STEP
~WELL INFORMATION BLOCK
#MNEM.UNIT           DATA                    DESCRIPTION OF MNEMONIC
#---------    -------------------            -------------------------------
# Generated from Intellog Unique Number	CS_77_79/WELL/3269
WELL.         AMOCO CANADA PETROLEUM CO.LTD. : Well_name    - WELL
LOC .         00/02-30-078-08W4/0            : Location     - LOCATION
UWI .         00/02-30-078-08W4/0            : Uwi          - UNIQUE WELL ID
ENTR.         JOETTE                         : Entered      - ENTERED BY
SRVC.         WESTERN ATLAS                  : Scn          - SERVICE COMPANY
DATE.         08-14-92                       : Date         - LOG DATE
STRT.M        165                            : top_depth    - START DEPTH
STOP.M        345                            : bot_depth    - STOP DEPTH
STEP.M        0.25                           : increment    - STEP LENGTH
 NULL. -999.2500:NULL Value
~CURVE INFORMATION BLOCK
#MNEM UNIT       ERCB CURVE CODE    CURVE DESCRIPTION
#-----------   ------------------   ----------------------------------
DEPT.M        00 001 00 00         : DEPTH        - DEPTH
ILD .OHMM     00 120 00 00         : RESD         - DEEP RESISTIVITY (DIL)
DPHI.V/V      00 890 00 00         : PHID         - DENSITY POROSITY (SANDSTONE)
NPHI.V/V      00 330 00 00         : PHIN         - NEUTRON POROSITY (SANDSTONE)
GR  .API      00 310 00 00         : GR           - GAMMA RAY
~PARAMETER INFORMATION
#MNEM.UNIT           DATA             DESCRIPTION OF MNEMONIC
#---------         -----------     ------------------------------
GL  .M        588.9                : gl           - GROUND LEVEL ELEVATION
EREF.M        592.4                : kb           - ELEVATION OF DEPTH REFERENCE
DATM.M        592.4                : datum        - DATUM ELEVATION
TDD .M        349.7                : tdd          - TOTAL DEPTH DRILLER
RUN .         ONE                  : Run          - RUN NUMBER
ENG .         BILL                 : Engineer     - RECORDING ENGINEER
WIT .         JIM                  : Witness      - WITNESSED BY
MUD .         GEL                  : Mud_type     - MUD TYPE
MATR.         SANDSTONE            : Logunit      - NEUTRON MATRIX
TMAX.C        29                   : BHT          - MAXIMUM RECORDED TEMPERATURE
BHTD.M        349.7                : BHTDEP       - MAXIMUM RECORDED TEMPERATURE
RMT .C        17                   : MDTP         - TEMPERATURE OF MUD
MUDD.KG/M     1100                 : MWT          - MUD DENSITY
NEUT.         1                    : NEUTRON      - NEUTRON TYPE
RESI.         0                    : RESIST       - RESISTIVITY TYPE
RM  .OHMM     4                    : RM           - RESISTIVITY OF MUD
RMC .OHMM     4.6                  : RMC          - RESISTIVITY OF MUD CAKE
RMF .OHMM     3.8                  : RMF          - RESISTIVITY OF MUD FILTRATE
SUFT.C        4                    : SUFT         - SURFACE TEMPERATURE
~A  DEPTH     RESD     PHID     PHIN       GR
# ...
  208.500   10.605    0.274    0.421  100.751
  208.750   11.683    0.267    0.432   90.946
  209.000   12.630    0.268    0.426   94.081
  209.250   13.138    0.267    0.421   97.876
  209.500   13.153    0.244    0.459   95.457
  209.750   12.448    0.224    0.439   97.962
  210.000   11.997    0.244    0.437  104.175
  210.250   11.354    0.271    0.428  109.157
  210.500   11.375    0.282    0.432  104.906
  210.750   11.602    0.284    0.452  101.285
  211.000   12.306    0.287    0.397  105.637
  211.250   13.042    0.297    0.390  106.311
  211.500   13.833    0.304    0.399  101.444
  211.750   14.390    0.293    0.401  102.118
  212.000   14.418    0.279    0.409  101.560
  212.250   14.157    0.276    0.455  101.618
  212.500   13.650    0.276    0.444  104.767
  212.750   12.679    0.275    0.435   97.424
  213.000   12.689    0.273    0.433   90.096
  213.250   12.474    0.282    0.438   79.074
  213.500   12.981    0.302    0.428   84.671
  213.750   13.494    0.351    0.424   85.344
  214.000   15.152    0.367    0.457   71.861
  214.250   17.013    0.361    0.424   62.070
  214.500   18.736    0.358    0.416   62.743
  214.750   20.626    0.364    0.455   60.339
  215.000   24.518    0.417    0.502   52.380
  215.250   26.484    0.502    0.510   46.282
  215.500   31.493    0.513    0.480   53.111
  215.750   31.541    0.462    0.404   58.107
  216.000   31.588    0.323    0.384   56.963
  216.250   33.504    0.300    0.376   58.223
  216.500   34.172    0.300    0.377   63.219
  216.750   36.231    0.312    0.405   58.954
  217.000   38.413    0.319    0.400   55.319
  217.250   40.743    0.317    0.390   61.532
  217.500   42.384    0.324    0.391   60.974
  217.750   43.246    0.323    0.386   56.737
  218.000   44.158    0.319    0.397   59.858
  218.250   45.056    0.322    0.399   66.701
  218.500   46.906    0.325    0.392   65.528
  218.750   46.959    0.333    0.397   64.355
  219.000   47.950    0.341    0.411   64.413
  219.250   48.004    0.348    0.425   64.485
  219.500   48.076    0.349    0.440   63.913
  219.750   47.243    0.358    0.444   61.508
  220.000   47.314    0.369    0.416   57.257
  220.250   45.636    0.359    0.392   61.624
  220.500   43.984    0.361    0.395   64.774
  220.750   43.254    0.374    0.385   62.970
  221.000   44.133    0.386    0.393   66.120
  221.250   45.047    0.376    0.398   71.703
  221.500   46.862    0.373    0.377   73.021
  221.750   48.750    0.371    0.402   69.357
  222.000   48.805    0.374    0.426   64.490
  222.250   47.959    0.380    0.410   65.779
  222.500   44.516    0.386    0.390   67.097
  222.750   40.543    0.379    0.390   64.678
  223.000   36.939    0.365    0.387   64.750
  223.250   36.312    0.359    0.391   64.192
  223.500   36.339    0.362    0.386   63.005
  223.750   38.543    0.359    0.378   61.846
  224.000   40.081    0.347    0.387   61.273
  224.250   42.511    0.346    0.407   58.268
  224.500   43.376    0.351    0.406   63.851
  224.750   43.490    0.352    0.383   70.079
  225.000   42.720    0.353    0.393   69.507
  225.250   41.963    0.352    0.418   66.515
  225.500   41.235    0.347    0.408   65.328
  225.750   39.773    0.342    0.381   66.001
  226.000   39.848    0.341    0.390   64.828
  226.250   39.892    0.343    0.398   65.487
  226.500   41.515    0.339    0.387   72.330
  226.750   43.188    0.334    0.398   75.480
  227.000   44.049    0.329    0.421   72.445
  227.250   44.979    0.342    0.447   74.965
  227.500   43.383    0.356    0.399   79.332
  227.750   38.753    0.359    0.415   76.312
  228.000   35.958    0.357    0.416   72.075
  228.250   33.377    0.356    0.429   70.887
  228.500   32.193    0.369    0.405   69.714
  228.750   32.242    0.378    0.429   67.940
  229.000   32.290    0.377    0.464   68.613
  229.250   32.959    0.362    0.446   68.041
  229.500   34.287    0.348    0.431   67.497
  229.750   34.984    0.353    0.418   71.234
  230.000   35.736    0.349    0.390   68.829
  230.250   36.448    0.348    0.405   65.194
  230.500   36.503    0.359    0.430   64.651
  230.750   36.558    0.358    0.455   66.555
  231.000   36.641    0.356    0.427   66.627
  231.250   36.668    0.360    0.403   66.700
  231.500   36.060    0.368    0.397   67.960
  231.750   36.114    0.370    0.402   69.864
  232.000   35.501    0.366    0.414   72.384
  232.250   35.541    0.362    0.400   71.210
  232.500   34.912    0.366    0.401   68.806
  232.750   33.686    0.374    0.425   73.173
  233.000   33.077    0.383    0.430   80.016
  233.250   32.503    0.378    0.408   76.981
  233.500   31.350    0.363    0.415   73.961
  233.750   30.795    0.351    0.409   69.095
  234.000   30.261    0.346    0.378   64.228
  234.250   29.210    0.354    0.373   67.979
  234.500   28.682    0.371    0.399   69.268
  234.750   28.184    0.369    0.423   62.569
  235.000   27.695    0.363    0.400   62.642
  235.250   26.703    0.359    0.440   63.286
  235.500   26.250    0.364    0.406   67.667
  235.750   25.775    0.368    0.426   68.970
  236.000   24.861    0.369    0.453   69.658
  236.250   24.430    0.371    0.454   69.687
  236.500   24.467    0.365    0.424   67.898
  236.750   24.052    0.359    0.417   66.109
  237.000   24.070    0.360    0.442   64.335
  237.250   24.115    0.365    0.479   64.378
  237.500   24.142    0.368    0.499   63.835
  237.750   24.178    0.369    0.498   63.277
  238.000   24.224    0.367    0.442   63.335
  238.250   24.251    0.363    0.428   67.086
  238.500   24.288    0.366    0.466   68.990
  238.750   24.800    0.377    0.473   67.187
  239.000   24.847    0.381    0.449   63.551
  239.250   24.866    0.375    0.440   61.777
  239.500   24.922    0.368    0.448   64.898
  239.750   24.490    0.365    0.450   66.817
  240.000   24.074    0.364    0.420   71.799
  240.250   23.639    0.368    0.411   71.241
  240.500   22.800    0.370    0.415   68.837
  240.750   22.405    0.368    0.414   71.357
  241.000   22.016    0.362    0.431   70.183
  241.250   24.702    0.358    0.378   68.394
  241.500   31.074    0.324    0.281   64.158
  241.750   39.089    0.269    0.227   56.199
  242.000   44.733    0.047    0.200   50.717
  242.250   46.535    0.084    0.225   50.775
  242.500   43.227    0.284    0.256   52.064
  242.750   39.355    0.325    0.340   61.970
  243.000   35.141    0.340    0.425   71.275
  243.250   25.490    0.353    0.432   68.241
  243.500   24.105    0.360    0.442   65.837
  243.750   21.954    0.364    0.438   65.909
  244.000   21.183    0.364    0.431   65.981
  244.250   21.606    0.363    0.424   64.192
  244.500   22.476    0.361    0.420   64.865
  244.750   23.839    0.357    0.428   67.400
  245.000   23.426    0.352    0.442   67.429
  245.250   20.532    0.343    0.465   69.333
  245.500   12.548    0.332    0.479   74.931
  245.750    8.759    0.317    0.500   90.391
  246.000    6.349    0.325    0.519   92.911
  246.250    4.971    0.317    0.500   88.660
  246.500    4.881    0.343    0.481   94.888
  246.750    5.078    0.349    0.451   80.158
  247.000    5.808    0.340    0.425   72.214
  247.250    8.352    0.312    0.415   71.656
  247.500    8.525    0.302    0.420   77.254
  247.750    8.068    0.283    0.416   99.485
  248.000    7.343    0.269    0.429  114.330
  248.250    6.317    0.256    0.420  114.388
  248.500    5.645    0.242    0.421  113.830
  248.750    5.242    0.276    0.437  109.565
  249.000    5.054    0.266    0.462  110.238
  249.250    4.874    0.240    0.475  115.249
  249.500    4.788    0.233    0.444  112.845
  249.750    4.707    0.227    0.435  112.273
  250.000    4.710    0.229    0.434  113.561
  250.250    4.718    0.240    0.434  114.235
  250.500    4.636    0.245    0.434  117.370
  250.750    4.557    0.246    0.432  122.367
  251.000    4.394    0.253    0.457  117.486
  251.250    4.236    0.264    0.475  112.004
  251.500    4.008    0.276    0.488  110.830
  251.750    3.793    0.270    0.481  110.888
