~VERSION INFORMATION
 VERS.                 2.0:   CWLS LOG ASCII STANDARD -VERSION 2.0
 WRAP.                  NO:   ONE LINE PER DEPTH STEP
~WELL INFORMATION BLOCK
#MNEM.UNIT           DATA                    DESCRIPTION OF MNEMONIC
#---------    -------------------            -------------------------------
# Generated from Intellog Unique Number	CW_70_72/WELL/901
NULL.         -999.25                        : NULL_VALUE
WELL.         HOME ALMX MITSUE 07-15         : Well_name    - WELL              
LOC .         07-15-071-04W5                 : Location     - LOCATION          
UWI .         00/07-15-071-04W5/0            : Uwi          - UNIQUE WELL ID    
ENTR.         JAYE                           : Entered      - ENTERED BY        
SRVC.         SCHLUMBERGER                   : Scn          - SERVICE COMPANY   
DATE.         4 MAR 74                       : Date         - LOG DATE          
STRT.M        502.92                         : top_depth    - START DEPTH       
STOP.M        716.17                         : bot_depth    - STOP DEPTH        
STEP.M        0.25                           : increment    - STEP LENGTH       
~CURVE INFORMATION BLOCK
#MNEM UNIT       ERCB CURVE CODE    CURVE DESCRIPTION
#-----------   ------------------   ----------------------------------
DEPT.M        00 001 00 00         : DEPTH        - DEPTH                       
DPHI.V/V      00 890 00 00         : PHID         - DENSITY POROSITY (SANDSTONE)
NPHI.V/V      00 330 00 00         : PHIN         - NEUTRON POROSITY (SANDSTONE)
GR  .API      00 310 00 00         : GR           - GAMMA RAY                   
CALI.MM       00 280 01 00         : CAL          - CALIPER                     
ILD .OHMM     00 120 00 00         : RESD         - DEEP RESISTIVITY (DIL)      
~PARAMETER INFORMATION       
#MNEM.UNIT           DATA             DESCRIPTION OF MNEMONIC
#---------         -----------     ------------------------------
GL  .M        667.36               : gl           - GROUND LEVEL ELEVATION      
EREF.M        671.474              : kb           - ELEVATION OF DEPTH REFERENCE
DATM.M        667.36               : datum        - DATUM ELEVATION             
TDD .M        759.866              : tdd          - TOTAL DEPTH DRILLER         
RUN .         ONE                  : Run          - RUN NUMBER                  
ENG .         SIROIS               : Engineer     - RECORDING ENGINEER          
WIT .         HOLAN                : Witness      - WITNESSED BY                
BASE.         EDM                  : Branch       - HOME BASE OF LOGGING UNIT   
MUD .         GEL CHEM             : Mud_type     - MUD TYPE                    
MATR.         SANDSTONE            : Logunit      - NEUTRON MATRIX              
TMAX.C        28.3333              : BHT          - MAXIMUM RECORDED TEMPERATURE
BHTD.M        758.952              : BHTDEP       - MAXIMUM RECORDED TEMPERATURE
RMT .C        13.8889              : MDTP         - TEMPERATURE OF MUD          
MUDD.KG/M     1080                 : MWT          - MUD DENSITY                 
NEUT.         1                    : NEUTRON      - NEUTRON TYPE                
RESI.         0                    : RESIST       - RESISTIVITY TYPE            
RM  .OHMM     6.28                 : RM           - RESISTIVITY OF MUD          
RMC .OHMM     3.8                  : RMC          - RESISTIVITY OF MUD CAKE     
RMF .OHMM     7.5                  : RMF          - RESISTIVITY OF MUD FILTRATE 
SUFT.C        -17.7778             : SUFT         - SURFACE TEMPERATURE         
~A  DEPTH     PHID     PHIN       GR      CAL     RESD
# ...
  575.920    0.166    0.422   96.575  170.834    5.577
  576.170    0.157    0.436  101.898  171.356    5.739
  576.420    0.164    0.446   97.742  172.085    5.498
  576.670    0.156    0.488   95.177  173.125    5.087
  576.920    0.163    0.516   93.222  173.958    4.673
  577.170    0.189    0.492   93.470  174.480    4.324
  577.420    0.168    0.468   97.814  176.451    4.001
  577.670    0.153    0.459  104.726  173.660    3.806
  577.920    0.142    0.510   99.592  172.733    3.762
  578.170    0.123    0.569   91.645  182.367    3.814
  578.420    0.179    0.555   90.853  179.369    3.946
  578.670    0.195    0.555   93.669  176.059    4.181
  578.920    0.179    0.549   95.873  174.304    4.470
  579.170    0.168    0.510   98.688  172.961    4.710
  579.420    0.164    0.521  101.992  172.241    4.855
  579.670    0.154    0.522   98.143  171.832    4.887
  579.920    0.139    0.508   93.315  171.629    4.867
  580.170    0.122    0.536   93.195  171.530    4.862
  580.420    0.137    0.530   95.338  171.327    4.857
  580.670    0.142    0.493   97.970  171.124    4.863
  580.920    0.147    0.475  100.540  171.232    4.886
  581.170    0.177    0.467   92.165  171.133    4.891
  581.420    0.166    0.472   90.395  170.930    4.860
  581.670    0.156    0.491   89.969  169.692    4.821
  581.920    0.158    0.500   84.285  166.694    4.782
  582.170    0.190    0.472   78.478  164.109    4.735
  582.420    0.224    0.449   77.319  162.871    4.663
  582.670    0.203    0.446   71.879  162.254    4.534
  582.920    0.208    0.431   72.861  162.362    4.432
  583.170    0.216    0.402   75.126  162.159    4.332
  583.420    0.210    0.410   76.901  161.957    4.150
  583.670    0.179    0.453   77.393  161.961    3.962
  583.920    0.197    0.468   77.763  162.897    3.580
  584.170    0.215    0.470   79.294  165.594    2.979
  584.420    0.218    0.582   80.275  183.408    2.492
  584.670    0.253    0.687   80.400  195.113    2.086
  584.920    0.301    0.629   80.586  213.342    1.966
  585.170    0.281    0.583   80.589  230.121    1.957
  585.420    0.248    0.568   80.041  220.703    2.014
  585.670    0.253    0.592   79.065  219.154    2.114
  585.920    0.293    0.616   76.621  228.374    2.260
  586.170    0.350    0.634   74.423  247.431    2.390
  586.420    0.338    0.564   72.163  229.521    2.505
  586.670    0.268    0.573   69.597  197.737    2.549
  586.920    0.285    0.443   65.380  175.168    2.547
  587.170    0.266    0.440   63.426  164.610    2.494
  587.420    0.275    0.450   63.428  161.716    2.381
  587.670    0.279    0.470   66.855  161.928    2.260
  587.920    0.281    0.508   69.671  162.345    2.186
  588.170    0.256    0.523   68.573  162.661    2.152
  588.420    0.257    0.433   69.310  162.975    2.178
  588.670    0.267    0.409   68.517  164.430    2.291
  588.920    0.254    0.400   66.073  165.574    2.432
  589.170    0.236    0.416   64.119  166.407    2.581
  589.420    0.213    0.429   66.690  167.135    2.700
  589.670    0.225    0.410   69.139  167.760    2.798
  589.920    0.202    0.418   68.774  167.454    2.853
  590.170    0.209    0.419   69.878  165.595    2.784
  590.420    0.217    0.402   72.388  164.978    2.547
  590.670    0.229    0.448   74.347  166.018    2.264
  590.920    0.240    0.497   77.590  175.963    2.050
  591.170    0.273    0.570   80.650  183.526    1.883
  591.420    0.256    0.585   83.038  193.989    1.878
  591.670    0.278    0.569   81.267  201.759    1.957
  591.920    0.266    0.571   78.457  190.787    2.077
  592.170    0.235    0.496   76.135  184.579    2.205
  592.420    0.223    0.466   74.793  179.717    2.281
  592.670    0.193    0.471   78.036  169.056    2.267
  592.920    0.177    0.518   81.830  170.820    2.125
  593.170    0.187    0.517   83.790  171.757    1.906
  593.420    0.191    0.572   84.648  170.104    1.732
  593.670    0.213    0.608   84.406  170.626    1.500
  593.920    0.280    0.709   83.675  175.705    1.300
  594.170    0.319    0.769   83.066  184.614    1.158
  594.420    0.345    0.789   81.173  196.526    1.115
  594.670    0.341    0.617   79.280  210.509    1.302
  594.920    0.278    0.516   77.326  207.925    1.714
  595.170    0.191    0.443   75.616  164.957    2.416
  595.420    0.149    0.400   76.353  161.959    3.424
  595.670    0.137    0.400   78.801  162.585    3.968
  595.920    0.157    0.416   79.966  163.521    4.158
  596.170    0.149    0.422   80.396  165.079    4.147
  596.420    0.156    0.426   80.827  166.326    3.981
  596.670    0.174    0.432   81.808  166.848    3.800
  596.920    0.189    0.453   83.156  166.852    3.415
  597.170    0.204    0.475   83.892  165.303    3.040
  597.420    0.242    0.488   73.988  163.029    2.644
  597.670    0.277    0.471   65.980  161.688    2.376
  597.920    0.295    0.446   58.461  160.760    2.154
  598.170    0.292    0.426   56.324  160.454    1.997
  598.420    0.281    0.432   57.977  160.562    1.911
  598.670    0.269    0.443   61.099  160.773    1.854
  598.920    0.274    0.453   65.260  161.088    1.786
  599.170    0.291    0.461   68.686  161.508    1.739
  599.420    0.311    0.446   70.646  161.511    1.706
  599.670    0.306    0.435   57.868  161.827    1.696
  599.920    0.290    0.424   57.381  161.935    1.745
  600.170    0.296    0.411   60.075  161.938    1.802
  600.420    0.291    0.409   61.789  161.943    1.885
  600.670    0.290    0.423   62.098  161.948    1.982
  600.920    0.272    0.441   63.323  162.159    2.088
  601.170    0.274    0.446   65.283  162.267    2.233
  601.420    0.290    0.441   64.062  162.272    2.349
  601.670    0.293    0.441   62.230  162.483    2.355
  601.920    0.301    0.428   59.909  162.695    2.337
  602.170    0.290    0.437   57.894  163.112    2.369
  602.420    0.296    0.446   58.019  163.531    2.469
  602.670    0.282    0.434   57.226  164.054    2.602
  602.920    0.265    0.413   54.294  164.368    2.726
  603.170    0.269    0.405   54.541  164.787    2.920
  603.420    0.276    0.398   57.601  164.998    3.151
  603.670    0.262    0.401   58.766  165.314    3.412
  603.920    0.242    0.407   60.541  165.421    3.662
  604.170    0.249    0.428   67.393  165.426    3.838
  604.420    0.240    0.436   69.658  165.534    3.956
  604.670    0.249    0.412   66.358  165.538    4.025
  604.920    0.248    0.393   66.361  165.542    4.030
  605.170    0.231    0.398   69.665  165.547    3.932
  605.420    0.236    0.391   77.618  165.551    3.740
  605.670    0.229    0.398   72.361  165.348    3.544
  605.920    0.239    0.410   65.576  165.249    3.389
  606.170    0.244    0.397   60.748  165.150    3.270
  606.420    0.250    0.383   59.222  165.361    3.186
  606.670    0.258    0.395   61.242  165.469    3.143
  606.920    0.268    0.420   61.184  165.370    3.123
  607.170    0.257    0.437   61.003  165.271    3.115
  607.420    0.260    0.428   61.189  164.861    3.051
  607.670    0.285    0.435   61.986  164.452    2.923
  607.920    0.266    0.434   63.579  163.835    2.739
  608.170    0.264    0.414   64.438  163.218    2.586
  608.420    0.270    0.446   61.811  162.704    2.455
  608.670    0.286    0.463   62.303  162.191    2.322
  608.920    0.276    0.475   63.283  161.885    2.189
  609.170    0.277    0.473   62.797  161.889    2.120
  609.420    0.281    0.482   63.228  161.996    2.068
  609.670    0.274    0.507   64.392  162.209    2.018
  609.920    0.295    0.508   65.679  162.212    1.991
  610.170    0.298    0.475   67.516  162.217    2.045
  610.420    0.276    0.436   67.457  162.014    2.112
  610.670    0.264    0.453   64.158  162.123    2.197
  610.920    0.259    0.470   60.369  162.230    2.357
  611.170    0.266    0.428   56.703  162.235    2.619
  611.420    0.261    0.407   54.932  162.135    2.847
  611.670    0.277    0.390   57.197  161.932    2.972
  611.920    0.269    0.406   59.523  161.523    3.093
  612.170    0.255    0.427   61.605  161.216    3.158
