~VERSION INFORMATION
 VERS.                 2.0:   CWLS LOG ASCII STANDARD -VERSION 2.0
 WRAP.                  NO:   ONE LINE PER DEPTH STEP
~WELL INFORMATION BLOCK
#MNEM.UNIT           DATA                    DESCRIPTION OF MNEMONIC
#---------    -------------------            -------------------------------
# Generated from Intellog Unique Number	CW_70_72/WELL/3011
NULL.         -999.25                        : NULL_VALUE
WELL.         PEX CANAL 06-31                : Well_name    - WELL              
LOC .         06-31-070-23W4                 : Location     - LOCATION          
UWI .         00/06-31-070-23W4/0            : Uwi          - UNIQUE WELL ID    
ENTR.         jj                             : Entered      - ENTERED BY        
SRVC.         SCHLUMBERGER                   : Scn          - SERVICE COMPANY   
DATE.         13 MAR 83                      : Date         - LOG DATE          
STRT.M        405                            : top_depth    - START DEPTH       
STOP.M        610                            : bot_depth    - STOP DEPTH        
STEP.M        0.25                           : increment    - STEP LENGTH       
~CURVE INFORMATION BLOCK
#MNEM UNIT       ERCB CURVE CODE    CURVE DESCRIPTION
#-----------   ------------------   ----------------------------------
DEPT.M        00 001 00 00         : DEPTH        - DEPTH                       
ILD .OHMM     00 120 00 00         : RESD         - DEEP RESISTIVITY (DIL)      
CALI.MM       00 280 01 00         : CAL          - CALIPER                     
GR  .API      00 310 00 00         : GR           - GAMMA RAY                   
NPHI.V/V      00 330 00 00         : PHIN         - NEUTRON POROSITY (SANDSTONE)
DPHI.V/V      00 890 00 00         : PHID         - DENSITY POROSITY (SANDSTONE)
~PARAMETER INFORMATION       
#MNEM.UNIT           DATA             DESCRIPTION OF MNEMONIC
#---------         -----------     ------------------------------
GL  .M        627.8                : gl           - GROUND LEVEL ELEVATION      
EREF.M        631                  : kb           - ELEVATION OF DEPTH REFERENCE
DATM.M        627.8                : datum        - DATUM ELEVATION             
TDD .M        611                  : tdd          - TOTAL DEPTH DRILLER         
RUN .         ONE                  : Run          - RUN NUMBER                  
ENG .         BRADSHAW             : Engineer     - RECORDING ENGINEER          
WIT .         DENYAR               : Witness      - WITNESSED BY                
BASE.         EDM                  : Branch       - HOME BASE OF LOGGING UNIT   
MUD .         GEL CHEM             : Mud_type     - MUD TYPE                    
MATR.         SANDSTONE            : Logunit      - NEUTRON MATRIX              
TMAX.C        28.9                 : BHT          - MAXIMUM RECORDED TEMPERATURE
BHTD.M        612.1                : BHTDEP       - MAXIMUM RECORDED TEMPERATURE
RMT .C        26.1                 : MDTP         - TEMPERATURE OF MUD          
MUDD.KG/M     1130                 : MWT          - MUD DENSITY                 
NEUT.         1                    : NEUTRON      - NEUTRON TYPE                
RESI.         0                    : RESIST       - RESISTIVITY TYPE            
RM  .OHMM     4.08                 : RM           - RESISTIVITY OF MUD          
RMC .OHMM     0.25                 : RMC          - RESISTIVITY OF MUD CAKE     
RMF .OHMM     3.17                 : RMF          - RESISTIVITY OF MUD FILTRATE 
SUFT.C        0                    : SUFT         - SURFACE TEMPERATURE         
~A  DEPTH     RESD      CAL       GR     PHIN     PHID
# ...
  514.500    4.396  192.302   73.890    0.426    0.194
  514.750    4.416  191.873   74.449    0.430    0.210
  515.000    4.436  191.444   75.762    0.415    0.212
  515.250    4.558  190.911   75.631    0.416    0.207
  515.500    4.763  189.642   71.980    0.410    0.199
  515.750    4.912  189.006   70.213    0.405    0.193
  516.000    4.916  188.052   74.545    0.402    0.179
  516.250    4.839  187.415   79.882    0.399    0.183
  516.500    4.753  187.404   75.099    0.396    0.197
  516.750    4.651  188.547   68.932    0.395    0.193
  517.000    4.621  189.898   76.030    0.394    0.179
  517.250    4.765  191.669   83.567    0.394    0.169
  517.500    4.988  192.917   90.226    0.395    0.186
  517.750    5.058  194.161   78.527    0.402    0.191
  518.000    4.969  194.260   81.853    0.424    0.172
  518.250    4.737  193.831   87.567    0.442    0.165
  518.500    4.707  193.298   90.705    0.429    0.170
  518.750    4.746  192.657   78.692    0.427    0.180
  519.000    4.867  192.228   66.174    0.418    0.188
  519.250    5.308  191.591   66.044    0.410    0.193
  519.500    5.988  190.635   65.911    0.399    0.196
  519.750    7.197  189.789   65.780    0.369    0.183
  520.000    9.497  188.836   63.825    0.351    0.145
  520.250   12.393  188.198   50.429    0.240    0.065
  520.500   15.435  188.605   45.457    0.215    0.025
  520.750   18.278  188.596   48.594    0.204    0.011
  521.000   19.528  188.587   49.217    0.197    0.008
  521.250   16.094  188.368   47.450    0.193    0.004
  521.500   12.355  188.148   43.044    0.188    0.001
  521.750    9.611  188.347   43.038    0.184    0.004
  522.000    7.744  188.650   45.860    0.187    0.014
  522.250    6.012  188.327   49.061    0.207    0.046
  522.500    5.096  187.898   55.719    0.218    0.095
  522.750    4.255  187.994   66.651    0.263    0.174
  523.000    3.915  188.507   73.120    0.363    0.206
  523.250    3.861  188.496   72.171    0.407    0.204
  523.500    3.886  188.907   72.606    0.407    0.194
  523.750    3.911  189.629   73.983    0.400    0.186
  524.000    3.959  190.459   70.330    0.388    0.193
  524.250    3.992  191.077   65.421    0.407    0.203
  524.500    3.988  190.020   69.250    0.426    0.211
  524.750    3.969  187.705   74.021    0.437    0.218
  525.000    3.899  185.495   80.678    0.437    0.206
  525.250    3.816  184.960   82.496    0.415    0.195
  525.500    3.812  186.416   78.466    0.394    0.193
  525.750    3.851  188.817   75.757    0.392    0.191
  526.000    4.025  191.216   74.431    0.405    0.188
  526.250    4.096  192.255   72.351    0.427    0.192
  526.500    4.193  190.149   69.202    0.512    0.207
  526.750    4.228  185.005   66.178    0.534    0.240
  527.000    4.192  179.336   65.984    0.481    0.255
  527.250    4.181  174.822   69.184    0.420    0.228
  527.500    4.145  172.192   74.019    0.398    0.214
  527.750    4.087  178.260   78.350    0.404    0.200
  528.000    4.037  183.803   75.893    0.429    0.193
  528.250    3.989  186.202   72.240    0.445    0.202
  528.500    4.022  184.935   71.983    0.443    0.208
  528.750    4.117  184.715   71.851    0.449    0.202
  529.000    4.190  185.856   73.040    0.450    0.192
  529.250    4.226  187.837   73.222    0.433    0.182
  529.500    4.213  189.295   68.941    0.420    0.172
  529.750    4.170  191.172   63.655    0.436    0.169
  530.000    4.113  192.733   61.386    0.443    0.169
  530.250    4.069  192.932   68.169    0.413    0.177
  530.500    4.005  192.922   75.393    0.396    0.187
  530.750    3.942  192.494   72.998    0.412    0.184
  531.000    3.880  192.589   68.780    0.436    0.188
  531.250    3.883  192.579   71.100    0.425    0.198
  531.500    3.887  192.254   71.660    0.408    0.197
  531.750    3.920  192.244   72.533    0.425    0.189
  532.000    3.937  192.024   74.414    0.418    0.190
  532.250    3.963  192.120   75.163    0.403    0.191
  532.500    3.967  191.796   72.830    0.403    0.187
  532.750    3.992  191.158   70.499    0.413    0.176
  533.000    4.063  188.841   68.606    0.430    0.182
  533.250    4.144  187.366   66.839    0.429    0.197
  533.500    4.179  186.517   66.142    0.429    0.204
  533.750    4.190  187.346   65.949    0.440    0.197
  534.000    4.225  189.535   65.565    0.455    0.201
  534.250    4.358  190.050   63.108    0.476    0.217
  534.500    4.656  188.571   60.335    0.491    0.239
  534.750    5.116  187.516   60.014    0.468    0.254
  535.000    6.058  185.619   58.750    0.445    0.253
  535.250    7.460  184.982   57.237    0.424    0.257
  535.500    8.752  185.284   53.962    0.405    0.265
  535.750    8.891  186.217   49.430    0.389    0.272
  536.000    8.045  187.256   49.990    0.379    0.272
  536.250    7.335  188.083   51.617    0.416    0.271
  536.500    6.749  188.180   49.600    0.447    0.268
  536.750    6.399  187.434   49.217    0.437    0.266
  537.000    6.550  185.958   51.663    0.438    0.278
  537.250    6.959  184.690   52.285    0.433    0.290
  537.500    7.191  184.158   51.903    0.419    0.295
  537.750    7.264  183.519   49.632    0.434    0.295
  538.000    7.096  182.986   48.307    0.415    0.298
  538.250    6.591  182.241   47.924    0.406    0.288
  538.500    5.997  181.812   50.747    0.404    0.290
  538.750    5.740  181.384   54.010    0.382    0.292
  539.000    5.853  180.849   57.022    0.380    0.283
  539.250    6.150  180.522   57.393    0.432    0.275
  539.500    6.437  179.991   56.821    0.428    0.271
  539.750    6.789  179.770   58.826    0.395    0.260
  540.000    6.923  179.656   55.112    0.384    0.255
  540.250    6.725  179.647   55.419    0.404    0.243
  540.500    6.188  179.951   59.438    0.424    0.221
  540.750    5.803  180.675   60.626    0.410    0.218
  541.000    5.667  181.397   59.928    0.423    0.224
  541.250    5.496  182.122   57.534    0.421    0.218
  541.500    5.378  182.741   54.447    0.387    0.211
  541.750    5.205  183.359   52.304    0.386    0.214
  542.000    5.085  183.559   52.173    0.391    0.228
  542.250    4.994  183.549   54.304    0.385    0.237
  542.500    4.834  183.539   57.756    0.387    0.239
  542.750    4.731  183.530   58.504    0.417    0.232
  543.000    4.735  182.786   59.440    0.430    0.235
  543.250    4.695  178.376   60.441    0.416    0.252
  543.500    4.468  174.174   63.201    0.415    0.250
  543.750    4.150  171.965   65.835    0.444    0.237
  544.000    3.942  170.698   67.903    0.439    0.227
  544.250    3.745  170.372   70.161    0.394    0.211
  544.500    3.692  171.515   73.674    0.413    0.215
  544.750    3.654  172.553   76.875    0.443    0.232
  545.000    3.630  170.030   80.641    0.437    0.244
  545.250    3.654  156.923   85.036    0.457    0.238
  545.500    3.747  159.426   83.584    0.466    0.232
  545.750    3.864  172.095   74.965    0.441    0.221
  546.000    3.962  179.210   71.628    0.438    0.208
  546.250    4.056  182.027   77.468    0.450    0.197
  546.500    4.128  183.902   79.662    0.431    0.186
  546.750    4.179  184.942   77.707    0.405    0.178
  547.000    4.206  185.874   74.118    0.433    0.173
  547.250    4.249  186.386   69.648    0.436    0.167
  547.500    4.333  186.481   66.437    0.406    0.160
  547.750    4.690  186.789   61.275    0.398    0.170
  548.000    5.173  187.093   58.693    0.399    0.160
  548.250    5.518  187.292   57.240    0.377    0.142
  548.500    5.523  187.386   63.773    0.363    0.135
  548.750    5.395  187.269   67.665    0.355    0.151
  549.000    4.946  186.737   62.000    0.352    0.137
  549.250    4.636  186.728   63.378    0.370    0.129
  549.500    4.446  186.925   67.520    0.384    0.158
  549.750    4.400  186.706   71.475    0.404    0.175
  550.000    4.445  187.013   74.110    0.418    0.174
  550.250    4.517  186.895   74.795    0.429    0.169
  550.500    4.597  186.679   74.726    0.434    0.166
  550.750    4.626  186.355   72.771    0.438    0.172
