~VERSION INFORMATION
 VERS.                 2.0:   CWLS LOG ASCII STANDARD -VERSION 2.0
 WRAP.                  NO:   ONE LINE PER DEPTH STEP
~WELL INFORMATION BLOCK
#MNEM.UNIT           DATA                    DESCRIPTION OF MNEMONIC
#---------    -------------------            -------------------------------
# Generated from Intellog Unique Number	CX_WELLS/WELL/3239
WELL.         CHEVRON ALGAR                  : Well_name    - WELL
LOC .         00/06-24-083-16W4/0            : Location     - LOCATION
UWI .         00/06-24-083-16W400            : Uwi          - UNIQUE WELL ID
ENTR.         T                              : Entered      - ENTERED BY
SRVC.         SCHLUMBERGER                   : Scn          - SERVICE COMPANY
DATE.         03/04/92                       : Date         - LOG DATE
STRT.F        300                            : top_depth    - START DEPTH
STOP.F        920.079                        : bot_depth    - STOP DEPTH
STEP.F        0.82                           : increment    - STEP LENGTH
 NULL. -999.2500:NULL Value
~CURVE INFORMATION BLOCK
#MNEM UNIT       ERCB CURVE CODE    CURVE DESCRIPTION
#-----------   ------------------   ----------------------------------
DEPT.F        00 001 00 00         : DEPTH        - DEPTH
GR  .API      00 310 00 00         : GR           - GAMMA RAY
NPHI.V/V      00 330 00 00         : PHIN         - NEUTRON POROSITY (SANDSTONE)
DPHI.V/V      00 890 00 00         : PHID         - DENSITY POROSITY (SANDSTONE)
ILD .OHMM     00 120 00 00         : RESD         - DEEP RESISTIVITY (DIL)
~PARAMETER INFORMATION
#MNEM.UNIT           DATA             DESCRIPTION OF MNEMONIC
#---------         -----------     ------------------------------
GL  .F        1713.5               : gl           - GROUND LEVEL ELEVATION
EREF.F        1724.5               : kb           - ELEVATION OF DEPTH REFERENCE
DATM.F        1724.5               : datum        - DATUM ELEVATION
TDD .F        920                  : tdd          - TOTAL DEPTH DRILLER
RUN .         ONE                  : Run          - RUN NUMBER
ENG .         JO                   : Engineer     - RECORDING ENGINEER
WIT .         TIM                  : Witness      - WITNESSED BY
MUD .         GEL                  : Mud_type     - MUD TYPE
MATR.         SANDSTONE            : Logunit      - NEUTRON MATRIX
TMAX.F        85                   : BHT          - MAXIMUM RECORDED TEMPERATURE
BHTD.F        920                  : BHTDEP       - MAXIMUM RECORDED TEMPERATURE
RMT .F        60                   : MDTP         - TEMPERATURE OF MUD
MUDD.LB/G     1                    : MWT          - MUD DENSITY
NEUT.         1                    : NEUTRON      - NEUTRON TYPE
RESI.         4.27                 : RESIST       - RESISTIVITY TYPE
RM  .OHMM     4.27                 : RM           - RESISTIVITY OF MUD
RMC .OHMM     3.86                 : RMC          - RESISTIVITY OF MUD CAKE
RMF .OHMM     3                    : RMF          - RESISTIVITY OF MUD FILTRATE
SUFT.F        32.2                 : SUFT         - SURFACE TEMPERATURE
~A  DEPTH       GR     PHIN     PHID     RESD
  300.000   56.143    0.548    0.312   16.141
  300.820   51.937    0.519    0.332   15.834
  301.640   48.327    0.498    0.336   15.248
  302.461   47.107    0.455    0.339   14.154
  303.281   47.678    0.435    0.340   12.427
  304.101   49.444    0.441    0.337   11.326
  304.921   51.807    0.453    0.327   10.321
  305.741   55.352    0.466    0.318    9.064
  306.562   56.521    0.477    0.307    8.258
  307.382   57.696    0.493    0.298    7.806
  308.202   60.060    0.500    0.288    7.803
  309.022   63.617    0.492    0.282    8.239
  309.843   63.592    0.500    0.280    9.897
  310.663   60.579    0.518    0.287   11.889
  311.483   55.165    0.517    0.295   13.268
  312.303   54.549    0.494    0.304   14.530
  313.123   53.919    0.484    0.310   14.250
  313.944   54.497    0.478    0.313   13.984
  314.764   55.659    0.484    0.315   13.465
  315.584   58.023    0.491    0.315   13.454
  316.404   60.392    0.496    0.312   13.440
  317.224   63.944    0.496    0.309   12.707
  318.045   66.300    0.501    0.302   11.582
  318.865   68.664    0.515    0.298    9.985
  319.685   71.631    0.530    0.292    9.270
  320.505   77.578    0.527    0.283    7.843
  321.325   84.122    0.515    0.271    7.556
  322.146   81.700    0.499    0.257    7.833
  322.966   77.500    0.493    0.224    9.238
  323.786   72.093    0.491    0.187   11.097
  324.606   67.886    0.481    0.294   12.384
  325.427   64.867    0.474    0.300   14.602
  326.247   67.231    0.479    0.299   13.551
  327.067   70.795    0.480    0.291   12.126
  327.887   76.742    0.486    0.273   10.848
  328.707   81.481    0.492    0.261    9.886
  329.528   82.663    0.502    0.251    9.520
  330.348   82.027    0.513    0.261   11.021
  331.168   77.826    0.512    0.278   13.236
  331.988   73.022    0.503    0.281   13.973
  332.808   68.809    0.495    0.280   13.968
  333.629   66.998    0.484    0.270   14.216
  334.449   64.577    0.470    0.265   14.204
  335.269   62.753    0.462    0.270   14.193
  336.089   62.136    0.463    0.282   14.442
  336.909   60.916    0.463    0.294   14.692
  337.730   63.870    0.463    0.301   14.683
  338.550   68.031    0.464    0.298   14.947
  339.370   72.186    0.464    0.295   15.206
  340.190   77.536    0.461    0.294   15.197
  341.010   81.094    0.458    0.298   15.754
  341.831   83.451    0.455    0.299   15.738
  342.651   84.619    0.456    0.301   15.728
  343.471   85.191    0.466    0.304   15.716
  344.291   86.950    0.475    0.308   15.132
  345.112   88.126    0.478    0.308   14.840
  345.932   91.677    0.480    0.303   14.031
  346.752   92.255    0.480    0.292   13.515
  347.572   92.229    0.482    0.284   12.543
  348.392   90.405    0.482    0.265   11.859
  349.213   89.185    0.483    0.242   11.212
  350.033   90.353    0.481    0.236   10.798
  350.853   92.704    0.477    0.234   10.787
  351.673   93.282    0.474    0.233   10.581
  352.493   93.256    0.473    0.229   10.006
  353.314   93.834    0.471    0.226    9.637
  354.134   95.587    0.472    0.222    9.277
  354.954   97.359    0.474    0.220    9.102
  355.774  100.307    0.475    0.219    8.445
  356.594  102.079    0.480    0.215    7.986
  357.415  103.852    0.486    0.213    7.411
  358.235  106.215    0.498    0.209    6.879
  359.055  107.981    0.515    0.202    6.748
  359.875  109.747    0.526    0.195    6.744
  360.696  112.104    0.528    0.193    6.739
  361.516  113.870    0.533    0.204    6.733
  362.336  115.032    0.575    0.212    6.726
  363.156  115.610    0.578    0.218    6.973
  363.976  116.766    0.567    0.217    6.591
  364.797  117.344    0.554    0.215    6.007
  365.617  117.922    0.561    0.210    5.473
  366.437  117.896    0.570    0.206    5.468
  367.257  117.266    0.569    0.216    6.450
  368.077  116.046    0.561    0.227    7.748
  368.898  114.826    0.553    0.239    8.805
  369.718  110.613    0.541    0.245   10.009
  370.538  106.412    0.522    0.247   10.765
  371.358  100.407    0.479    0.255   11.160
  372.178   96.791    0.433    0.258   11.358
  372.999   96.772    0.428    0.261   11.349
  373.819   98.538    0.454    0.254   10.930
  374.639  101.499    0.462    0.244   10.719
  375.459  103.862    0.478    0.236   10.710
  376.280  106.219    0.484    0.235   10.702
  377.100  106.790    0.489    0.236   11.092
  377.920  107.362    0.491    0.240   11.499
  378.740  107.933    0.494    0.245   11.920
  379.560  108.505    0.499    0.255   13.060
  380.381  106.681    0.506    0.265   14.845
  381.201  102.480    0.501    0.275   15.966
  382.021   97.073    0.487    0.282   16.856
  382.841   97.644    0.486    0.288   17.159
  383.661   98.800    0.491    0.295   17.145
  384.482   99.384    0.492    0.304   17.131
  385.302   96.372    0.498    0.315   17.114
  386.122   84.992    0.501    0.326   17.096
  386.942   77.201    0.513    0.329   17.407
  387.762   63.438    0.534    0.327   18.041
  388.583   61.621    0.561    0.329   19.043
  389.403   60.978    0.569    0.332   19.750
  390.223   61.556    0.573    0.341   20.474
  391.043   62.128    0.586    0.346   20.457
  391.864   62.706    0.607    0.342   20.436
  392.684   62.076    0.608    0.327   20.047
  393.504   62.057    0.601    0.319   20.027
  394.324   61.421    0.590    0.317   20.006
  395.144   60.791    0.574    0.321   19.994
  395.965   60.778    0.553    0.332   19.977
  396.785   60.746    0.522    0.349   19.965
  397.605   60.714    0.494    0.350   19.945
  398.425   60.701    0.480    0.353   19.925
  399.245   60.669    0.485    0.354   19.545
  400.066   60.643    0.492    0.352   19.533
  400.886   60.617    0.496    0.345   19.876
  401.706   60.591    0.497    0.339   19.864
  402.526   58.170    0.496    0.330   20.208
  403.346   58.735    0.490    0.316   20.571
  404.167   59.916    0.484    0.305   21.718
  404.987   62.280    0.477    0.298   21.700
  405.807   60.456    0.470    0.291   20.517
  406.627   59.229    0.462    0.264   19.402
  407.448   59.800    0.430    0.235   16.727
  408.268   60.378    0.404    0.207   14.423
  409.088   62.735    0.399    0.198   12.898
  409.908   63.904    0.405    0.173   12.195
  410.728   65.073    0.416    0.167   11.744
  411.549   67.423    0.445    0.217   11.106
  412.369   68.007    0.481    0.273   10.694
  413.189   69.773    0.502    0.276   10.490
  414.009   72.137    0.504    0.278   10.479
  414.829   73.890    0.505    0.279   10.473
  415.650   74.468    0.503    0.280   10.460
  416.470   75.033    0.502    0.296   10.456
  417.290   75.611    0.501    0.296   10.637
  418.110   74.987    0.500    0.296   10.630
  418.930   72.573    0.495    0.295   10.819
  419.751   70.151    0.489    0.294   10.613
  420.571   70.119    0.484    0.290   10.034
  421.391   70.697    0.481    0.284    9.487
  422.211   71.866    0.483    0.283    9.137
  423.031   71.833    0.489    0.283    8.797
  423.852   73.008    0.495    0.284    8.630
  424.672   75.365    0.491    0.287    8.623
  425.492   77.735    0.488    0.289    8.616
  426.312   80.098    0.486    0.283    8.146
  427.133   83.650    0.485    0.276    7.702
  427.953   86.019    0.485    0.274    7.552
  428.773   88.980    0.497    0.275    8.124
  429.593   91.343    0.522    0.272    9.235
  430.413   95.485    0.539    0.269   11.093
  431.234   97.849    0.558    0.269   12.151
  432.054   97.225    0.534    0.275   12.596
  432.874   91.831    0.527    0.286   12.820
  433.694   84.638    0.508    0.289   12.576
  434.514   79.230    0.487    0.285   12.563
  435.335   75.621    0.481    0.280   12.324
  436.155   75.575    0.478    0.282   12.316
  436.975   76.160    0.476    0.282   12.303
  437.795   77.335    0.475    0.282   12.296
  438.615   79.685    0.471    0.281   12.283
  439.436   80.270    0.468    0.278   12.499
  440.256   81.432    0.464    0.281   12.261
  441.076   82.594    0.466    0.286   11.381
  441.896   83.172    0.469    0.283   10.184
