~VERSION INFORMATION
 VERS.                 2.0:   CWLS LOG ASCII STANDARD -VERSION 2.0
 WRAP.                  NO:   ONE LINE PER DEPTH STEP
~WELL INFORMATION BLOCK
#MNEM.UNIT           DATA                    DESCRIPTION OF MNEMONIC
#---------    -------------------            -------------------------------
# Generated from Intellog Unique Number	CS_71_72/WELL/774
WELL.         SUN OIL COMPANY                : Well_name    - WELL
LOC .         00/06-22-072-16W4/0            : Location     - LOCATION
UWI .         00/06-22-072-16W4/0            : Uwi          - UNIQUE WELL ID
ENTR.         SP                             : Entered      - ENTERED BY
SRVC.         SCHLUMBERGER                   : Scn          - SERVICE COMPANY
STRT.M        256.032                        : top_depth    - START DEPTH
STOP.M        435.532                        : bot_depth    - STOP DEPTH
STEP.M        0.25                           : increment    - STEP LENGTH
 NULL. -999.2500:NULL Value
~CURVE INFORMATION BLOCK
#MNEM UNIT       ERCB CURVE CODE    CURVE DESCRIPTION
#-----------   ------------------   ----------------------------------
DEPT.M        00 001 00 00         : DEPTH        - DEPTH
GR  .API      00 310 00 00         : GR           - GAMMA RAY
DPHI.V/V      00 890 00 00         : PHID         - DENSITY POROSITY (SANDSTONE)
NPHI.V/V      00 330 00 00         : PHIN         - NEUTRON POROSITY (SANDSTONE)
ILD .OHMM     00 120 00 00         : RESD         - DEEP RESISTIVITY (DIL)
~PARAMETER INFORMATION
#MNEM.UNIT           DATA             DESCRIPTION OF MNEMONIC
#---------         -----------     ------------------------------
GL  .M        579.577              : gl           - GROUND LEVEL ELEVATION
EREF.M        582.473              : kb           - ELEVATION OF DEPTH REFERENCE
DATM.M        579.577              : datum        - DATUM ELEVATION
TDD .M        437.388              : tdd          - TOTAL DEPTH DRILLER
RUN .         ONE                  : Run          - RUN NUMBER
ENG .         BILL                 : Engineer     - RECORDING ENGINEER
WIT .         JIM                  : Witness      - WITNESSED BY
MUD .         GEL                  : Mud_type     - MUD TYPE
MATR.         SANDSTONE            : Logunit      - NEUTRON MATRIX
TMAX.C        18.3333              : BHT          - MAXIMUM RECORDED TEMPERATURE
BHTD.M        437.388              : BHTDEP       - MAXIMUM RECORDED TEMPERATURE
MATR.         1                    : LOGUNIT      - NEUTRON MATRIX
RMT .C        25                   : MDTP         - TEMPERATURE OF MUD
NEUT.         1                    : NEUTRON      - NEUTRON TYPE
RESI.         0                    : RESIST       - RESISTIVITY TYPE
RMC .OHMM     0.25                 : RMC          - RESISTIVITY OF MUD CAKE
RMF .OHMM     0.25                 : RMF          - RESISTIVITY OF MUD FILTRATE
SUFT.C        15                   : SUFT         - SURFACE TEMPERATURE
~A  DEPTH       GR     PHID     PHIN     RESD
# ...
  386.532   63.147    0.302    0.473    5.219
  386.782   64.689    0.302    0.465    5.214
  387.032   66.740    0.303    0.457    5.217
  387.282   67.958    0.306    0.458    5.220
  387.532   69.027    0.302    0.471    5.297
  387.782   68.887    0.294    0.455    5.542
  388.032   67.914    0.277    0.427    5.650
  388.282   68.482    0.263    0.416    5.926
  388.532   68.795    0.235    0.414    5.973
  388.782   69.887    0.239    0.440    5.863
  389.032   71.403    0.307    0.458    5.501
  389.282   70.436    0.316    0.482    5.442
  389.532   67.551    0.313    0.478    5.268
  389.782   67.189    0.308    0.467    5.214
  390.032   66.853    0.308    0.474    5.186
  390.282   66.952    0.313    0.480    5.097
  390.532   67.108    0.317    0.491    5.097
  390.782   65.556    0.317    0.484    5.098
  391.032   64.034    0.317    0.478    5.104
  391.282   64.328    0.316    0.460    5.108
  391.532   65.413    0.321    0.447    5.113
  391.782   66.089    0.330    0.448    5.116
  392.032   65.319    0.336    0.464    5.094
  392.282   66.672    0.340    0.463    4.940
  392.532   70.029    0.320    0.466    4.701
  392.782   76.743    0.292    0.477    4.567
  393.032   82.117    0.266    0.485    4.516
  393.282   91.679    0.252    0.496    4.519
  393.532  101.091    0.242    0.503    4.520
  393.782  102.244    0.239    0.498    4.602
  394.032  101.683    0.235    0.492    4.616
  394.282  102.730    0.231    0.484    4.624
  394.532  101.752    0.245    0.474    4.557
  394.782   99.946    0.242    0.490    4.522
  395.032   97.332    0.237    0.500    4.384
  395.282   96.712    0.234    0.501    4.390
  395.532   98.650    0.244    0.494    4.401
  395.782  101.099    0.237    0.492    4.726
  396.032  101.764    0.226    0.493    5.319
  396.282  101.523    0.207    0.487    5.795
  396.532  100.221    0.190    0.462    6.472
  396.782   95.476    0.186    0.433    7.259
  397.032   89.793    0.164    0.358    7.731
  397.282   85.843    0.128    0.346    8.132
  397.532   87.075    0.134    0.388    8.098
  397.782   88.747    0.202    0.433    7.854
  398.032   91.127    0.251    0.469    7.532
  398.282   90.606    0.259    0.452    7.163
  398.532   88.098    0.249    0.432    7.190
  398.782   85.590    0.237    0.432    7.848
  399.032   81.634    0.220    0.395    8.728
  399.282   76.941    0.187    0.336    9.841
  399.532   70.557    0.122    0.304   10.781
  399.782   66.868    0.055    0.280   11.768
  400.032   65.494    0.087    0.318   11.946
  400.282   69.717    0.129    0.365   10.693
  400.532   78.495    0.154    0.397    9.302
  400.782   85.600    0.165    0.430    8.217
  401.032   92.570    0.171    0.452    7.737
  401.282   95.806    0.179    0.470    7.676
  401.532   97.245    0.183    0.472    7.791
  401.782   98.414    0.186    0.463    7.877
  402.032   99.492    0.179    0.457    7.987
  402.282   98.282    0.173    0.449    8.262
  402.532   95.713    0.173    0.431    8.337
  402.782   93.716    0.162    0.408    8.470
  403.032   91.875    0.152    0.398    8.423
  403.282   93.421    0.143    0.400    7.994
  403.532   95.944    0.168    0.418    7.647
  403.782   97.572    0.182    0.429    7.411
  404.032   99.207    0.180    0.441    7.197
  404.282   99.635    0.194    0.441    7.213
  404.532   99.802    0.182    0.432    7.258
  404.782   99.848    0.178    0.426    7.498
  405.032   99.525    0.177    0.432    7.875
  405.282   98.624    0.180    0.451    8.306
  405.532   99.298    0.179    0.456    8.403
  405.782  100.061    0.168    0.449    8.255
  406.032  100.305    0.155    0.431    8.093
  406.282  103.347    0.167    0.412    8.126
  406.532  107.400    0.194    0.406    7.956
  406.782  110.646    0.206    0.409    7.966
  407.032  111.554    0.201    0.414    7.835
  407.282  111.507    0.204    0.413    7.846
  407.532  110.526    0.209    0.405    7.850
  407.782  109.746    0.197    0.408    7.699
  408.032  107.422    0.189    0.409    7.937
  408.282  103.959    0.189    0.411    8.023
  408.532   99.048    0.184    0.408    8.464
  408.782   95.082    0.158    0.418    8.503
  409.032   92.619    0.134    0.408    8.376
  409.282   89.593    0.116    0.399    7.960
  409.532   89.181    0.140    0.409    7.731
  409.782   92.223    0.160    0.418    7.147
  410.032   97.037    0.177    0.421    6.590
  410.282   98.821    0.185    0.423    5.514
  410.532  100.490    0.194    0.431    4.382
  410.782  100.199    0.205    0.451    3.618
  411.032   98.822    0.221    0.469    3.268
  411.282  100.469    0.242    0.488    3.026
  411.532  102.880    0.229    0.517    2.717
  411.782  104.928    0.223    0.529    2.577
  412.032  106.398    0.221    0.538    2.742
  412.282  105.597    0.215    0.550    2.925
  412.532  106.269    0.212    0.541    3.423
  412.782  106.536    0.200    0.517    4.267
  413.032  108.352    0.174    0.442    5.299
  413.282  111.347    0.161    0.410    6.280
  413.532  114.095    0.162    0.417    6.993
  413.782  114.312    0.162    0.431    7.925
  414.032  109.390    0.127    0.406    8.303
  414.282  101.556    0.091    0.384    8.492
  414.532   99.880    0.121    0.378    8.214
  414.782  105.995    0.173    0.388    7.707
  415.032  112.823    0.196    0.397    7.183
  415.282  116.970    0.187    0.405    7.099
  415.532  110.195    0.106    0.375    8.003
  415.782   99.825    0.047    0.329   10.492
  416.032   94.661    0.038    0.314   12.220
  416.282   89.205    0.041    0.315   13.572
  416.532   94.041    0.067    0.338   12.984
  416.782  100.467    0.110    0.361   11.013
  417.032  105.866    0.126    0.382    8.820
  417.282  108.717    0.156    0.410    7.399
  417.532  105.425    0.186    0.429    6.503
  417.782  103.917    0.183    0.438    5.440
  418.032  105.800    0.177    0.438    4.965
  418.282  106.947    0.179    0.453    4.389
  418.532  107.704    0.188    0.459    4.245
  418.782  106.605    0.189    0.464    4.061
  419.032  108.131    0.181    0.481    3.977
  419.282  109.622    0.185    0.494    3.988
  419.532  109.587    0.189    0.511    3.874
  419.782  110.351    0.185    0.521    3.591
  420.032  110.339    0.188    0.530    3.312
  420.282  111.004    0.193    0.512    3.199
  420.532  111.218    0.190    0.498    3.239
  420.782  107.372    0.173    0.478    3.455
  421.032  106.282    0.144    0.464    3.836
  421.282  107.612    0.131    0.458    4.208
  421.532  108.075    0.131    0.476    4.562
  421.782  107.745    0.186    0.493    4.759
  422.032  107.465    0.177    0.481    4.939
  422.282  106.417    0.174    0.470    5.002
  422.532  106.695    0.173    0.440    5.426
  422.782  107.036    0.179    0.427    5.893
  423.032  106.224    0.148    0.416    6.284
  423.282  101.777    0.120    0.436    6.183
  423.532   97.466    0.146    0.430    5.739
  423.782  101.404    0.173    0.445    5.296
  424.032  109.645    0.184    0.469    4.674
  424.282  112.624    0.187    0.494    4.377
  424.532  116.508    0.188    0.490    4.153
  424.782  116.031    0.184    0.469    5.470
  425.032  105.385    0.150    0.437    8.224
  425.282   97.558    0.123    0.405   10.974
  425.532   90.576    0.103    0.361   13.865
  425.782   71.654    0.175    0.334   16.387
  426.032   56.928    0.241    0.306   18.973
  426.282   56.485    0.252    0.324   20.926
  426.532   58.588    0.241    0.350   21.904
  426.782   61.523    0.226    0.362   22.087
  427.032   63.873    0.232    0.388   22.124
  427.282   65.054    0.234    0.395   22.819
  427.532   66.658    0.224    0.387   22.435
  427.782   70.361    0.213    0.386   18.907
  428.032   77.195    0.214    0.403   15.738
  428.282   84.502    0.225    0.418   15.778
  428.532   86.810    0.236    0.420   25.271
  428.782   78.430    0.260    0.399   33.725
  429.032   73.102    0.280    0.380   39.180
  429.282   78.872    0.276    0.383   40.536
  429.532   85.772    0.262    0.383   37.158
  429.782   93.002    0.238    0.381   27.560
