~VERSION INFORMATION
 VERS.                 2.0:   CWLS LOG ASCII STANDARD -VERSION 2.0
 WRAP.                  NO:   ONE LINE PER DEPTH STEP
~WELL INFORMATION BLOCK
#MNEM.UNIT           DATA                    DESCRIPTION OF MNEMONIC
#---------    -------------------            -------------------------------
# Generated from Intellog Unique Number	CC_84_87/WELL/1163
NULL.         -999.25                        : NULL_VALUE
WELL.         PCI PCEJ HANGST                : Well_name    - WELL              
LOC .         07-21-084-10W4                 : Location     - LOCATION          
UWI .         00/07-21-084-10W400            : Uwi          - UNIQUE WELL ID    
ENTR.         JHS                            : Entered      - ENTERED BY        
SRVC.         SCHLUMBERGER                   : Scn          - SERVICE COMPANY   
DATE.         21 FEB 86                      : Date         - LOG DATE
STRT.M        150                            : top_depth    - START DEPTH       
STOP.M        389.996                        : bot_depth    - STOP DEPTH        
STEP.M        0.3                            : increment    - STEP LENGTH       
~CURVE INFORMATION BLOCK
#MNEM UNIT       ERCB CURVE CODE    CURVE DESCRIPTION
#-----------   ------------------   ----------------------------------
DEPT.M        00 001 00 00         : DEPTH        - DEPTH                       
DPHI.V/V      00 890 00 00         : PHID         - DENSITY POROSITY (LIMESTONE)
NPHI.V/V      00 330 00 00         : PHIN         - NEUTRON POROSITY (LIMESTONE)
GR  .API      00 310 00 00         : GR           - GAMMA RAY                   
ILD .OHMM     00 120 00 00         : RESD         - DEEP RESISTIVITY (DIL)      
~PARAMETER INFORMATION       
#MNEM.UNIT           DATA             DESCRIPTION OF MNEMONIC
#---------         -----------     ------------------------------
GL  .M        633.5                : gl           - GROUND LEVEL ELEVATION      
EREF.M        637                  : kb           - ELEVATION OF DEPTH REFERENCE
DATM.M        637                  : datum        - DATUM ELEVATION             
TDD .M        399                  : tdd          - TOTAL DEPTH DRILLER         
RUN .         ONE                  : Run          - RUN NUMBER                  
ENG .         BILL                 : Engineer     - RECORDING ENGINEER          
WIT .         JIM                  : Witness      - WITNESSED BY                
MUD .         GEL                  : Mud_type     - MUD TYPE                    
MATR.         LIMESTONE            : Logunit      - NEUTRON MATRIX              
TMAX.C        15                   : BHT          - MAXIMUM RECORDED TEMPERATURE
BHTD.M        399                  : BHTDEP       - MAXIMUM RECORDED TEMPERATURE
MATR.         1                    : LOGUNIT      - NEUTRON MATRIX              
RMT .C        25                   : MDTP         - TEMPERATURE OF MUD          
NEUT.         1                    : NEUTRON      - NEUTRON TYPE                
RESI.         0                    : RESIST       - RESISTIVITY TYPE            
RMC .OHMM     0.25                 : RMC          - RESISTIVITY OF MUD CAKE     
RMF .OHMM     0.25                 : RMF          - RESISTIVITY OF MUD FILTRATE 
SUFT.C        15                   : SUFT         - SURFACE TEMPERATURE         
~A  DEPTH     PHID     PHIN       GR     RESD
# ...
  254.401    0.301    0.436   58.982   15.370
  254.701    0.337    0.414   66.244   10.588
  255.001    0.332    0.415   74.707    8.156
  255.301    0.290    0.473   90.408    7.157
  255.601    0.287    0.475   94.052    6.398
  255.901    0.284    0.475   94.677    5.937
  256.201    0.284    0.514   91.092    5.718
  256.501    0.283    0.488   91.117    5.716
  256.801    0.291    0.461   91.747    6.042
  257.101    0.308    0.477   90.570    6.269
  257.401    0.300    0.492   86.981    6.506
  257.701    0.291    0.465   84.603    6.877
  258.001    0.297    0.469   77.400    7.406
  258.301    0.301    0.487   75.013    7.976
  258.601    0.276    0.466   75.040    9.428
  258.901    0.257    0.432   80.491    9.783
  259.201    0.264    0.441   82.928    9.962
  259.501    0.308    0.452   78.135    9.776
  259.801    0.310    0.439   78.765    9.242
  260.101    0.286    0.451   90.850    8.110
  260.401    0.268    0.454   87.863    7.250
  260.701    0.257    0.459   88.493    6.481
  261.001    0.249    0.470   90.937    6.127
  261.301    0.255    0.476   90.359    6.012
  261.601    0.255    0.467   90.385    6.123
  261.901    0.264    0.467   88.603    6.354
  262.201    0.278    0.438   86.828    6.717
  262.501    0.282    0.431   89.260    6.349
  262.801    0.276    0.442   97.726    5.368
  263.101    0.261    0.460  101.976    3.768
  263.401    0.256    0.518  100.800    3.185
  263.701    0.255    0.524   96.604    3.560
  264.001    0.280    0.506   92.415    4.976
  264.301    0.319    0.471   93.647    5.992
  264.601    0.324    0.474   96.085    6.335
  264.901    0.313    0.495  102.137    5.257
  265.201    0.274    0.525  116.630    3.179
  265.501    0.263    0.537  114.252    3.062
  265.801    0.258    0.549  109.454    3.060
  266.101    0.257    0.543  107.674    3.117
  266.401    0.263    0.544  113.729    3.174
  266.701    0.268    0.557  113.153    3.115
  267.001    0.265    0.551  104.142    2.890
  267.301    0.270    0.545  102.966    2.784
  267.601    0.276    0.559  109.018    2.583
  267.901    0.281    0.560  106.636    2.309
  268.201    0.284    0.540  109.674    2.309
  268.501    0.294    0.523  100.666    2.533
  268.801    0.298    0.510   99.488    3.411
  269.101    0.307    0.472   97.708    4.593
  269.401    0.309    0.436   94.721    5.849
  269.701    0.288    0.467   91.733    5.427
  270.001    0.216    0.441   89.356    6.297
  270.301    0.230    0.402   88.174    8.323
  270.600    0.318    0.369   83.981   11.000
  270.900    0.383    0.331   80.997   12.762
  271.200    0.391    0.329   81.632   13.745
  271.500    0.368    0.353   80.449   11.838
  271.800    0.309    0.391   73.847   11.192
  272.100    0.263    0.432   60.614   12.511
  272.400    0.326    0.464   61.846   13.727
  272.700    0.349    0.463   64.287   12.977
  273.000    0.345    0.458   64.316   12.268
  273.300    0.348    0.478   62.535   12.729
  273.600    0.351    0.487   58.947   12.259
  273.900    0.336    0.457   58.975   11.807
  274.200    0.319    0.439   59.002   11.371
  274.500    0.316    0.451   57.827   11.158
  274.800    0.333    0.452   59.657   11.155
  275.100    0.347    0.470   64.512   11.151
  275.400    0.347    0.460   65.746   10.941
  275.700    0.343    0.446   65.168   10.735
  276.000    0.335    0.438   64.593   10.533
  276.300    0.335    0.439   65.220   10.531
  276.600    0.330    0.438   66.461   10.332
  276.900    0.333    0.448   67.086   10.330
  277.200    0.346    0.449   66.509   10.326
  277.500    0.345    0.454   65.330   10.323
  277.800    0.334    0.439   66.567   10.128
  278.100    0.337    0.439   63.583    9.939
  278.400    0.347    0.446   63.003    9.752
  278.700    0.352    0.461   62.428    9.932
  279.000    0.352    0.463   61.251    9.929
  279.300    0.336    0.450   63.089    9.925
  279.600    0.337    0.432   64.922    9.923
  279.900    0.347    0.475   66.757    9.919
  280.200    0.343    0.480   64.377    9.916
  280.500    0.337    0.469   62.597    9.729
  280.800    0.342    0.480   61.421    9.725
  281.100    0.340    0.475   64.462    9.724
  281.400    0.332    0.451   66.296    9.719
  281.700    0.341    0.443   63.910    9.536
  282.000    0.343    0.471   66.350    9.533
  282.300    0.349    0.446   69.391    9.531
  282.600    0.352    0.443   73.038    9.527
  282.900    0.346    0.482   73.060    9.525
  283.200    0.344    0.478   67.666    9.701
  283.500    0.340    0.461   67.695    9.697
  283.800    0.342    0.471   69.529    9.876
  284.100    0.341    0.467   71.367   10.058
  284.400    0.325    0.454   68.985   10.055
  284.700    0.325    0.478   69.009   10.052
  285.000    0.337    0.488   69.639   10.047
  285.300    0.343    0.463   68.466   10.045
  285.600    0.341    0.457   66.691   10.042
  285.900    0.341    0.452   66.708    9.852
  286.200    0.342    0.453   66.140    9.668
  286.500    0.341    0.450   66.763    9.486
  286.800    0.336    0.450   68.601    9.483
  287.100    0.339    0.451   69.838    9.480
  287.400    0.345    0.436   72.271    9.478
  287.700    0.342    0.430   72.901    9.126
  288.000    0.328    0.448   70.522    9.125
  288.300    0.323    0.474   70.548    8.953
  288.600    0.322    0.459   72.381    8.951
  288.900    0.329    0.442   79.641    8.782
  289.200    0.337    0.438   79.671    8.458
  289.500    0.335    0.443   79.701    7.996
  289.800    0.324    0.469   81.540    7.283
  290.100    0.316    0.475   81.561    6.758
  290.400    0.313    0.470   83.397    6.388
  290.700    0.294    0.460   83.428    6.386
  291.000    0.272    0.450   84.656    6.627
  291.300    0.268    0.446   85.289    6.876
  291.600    0.273    0.485   79.892    7.269
  291.900    0.272    0.481   77.511    7.542
  292.200    0.258    0.458   81.753    7.130
  292.500    0.250    0.430   92.631    6.374
  292.800    0.261    0.491   90.851    6.139
  293.100    0.272    0.485   95.703    6.489
  293.400    0.288    0.435   98.136    6.989
  293.700    0.285    0.452   93.947    6.366
  294.000    0.244    0.484   96.994    4.996
  294.300    0.245    0.479   98.225    3.506
  294.600    0.264    0.475   95.837    3.440
  294.900    0.282    0.483   94.058    4.221
  295.199    0.280    0.489   91.678    4.545
  295.499    0.281    0.481   93.508    4.716
  295.799    0.294    0.474  103.180    5.472
  296.099    0.299    0.476  102.002    6.004
  296.399    0.295    0.466   95.399    6.229
  296.699    0.284    0.443   90.612    6.709
  296.999    0.253    0.447   89.430    7.092
  297.299    0.256    0.481   82.223    6.704
  297.599    0.231    0.480   71.407    7.356
  297.899    0.271    0.482   74.448    8.223
  298.199    0.285    0.474   87.128    7.630
  298.499    0.261    0.465   99.213    7.080
  298.799    0.262    0.467  100.443    6.448
  299.099    0.256    0.456  102.279    6.096
  299.399    0.203    0.463   96.881    5.981
  299.699    0.152    0.419   89.076    6.323
  299.999    0.255    0.518   99.734    4.938
  300.299    0.255    0.506  100.311    4.502
  300.599    0.268    0.490   99.676    4.260
  300.899    0.261    0.454  101.465    4.183
  301.199    0.268    0.452  107.486    3.607
  301.499    0.280    0.505  114.722    3.110
  301.799    0.285    0.563  124.986    2.311
  302.099    0.283    0.562  123.143    2.356
  302.399    0.283    0.535  111.006    2.837
  302.699    0.259    0.519  102.502    2.735
  302.999    0.210    0.528   95.822    3.548
  303.299    0.214    0.482   95.789    4.958
  303.599    0.231    0.478  105.448    5.245
  303.899    0.214    0.488  105.422    3.971
  304.199    0.215    0.487  111.446    3.424
  304.499    0.230    0.482  109.603    4.874
  304.799    0.232    0.475  104.124    6.563
  305.099    0.251    0.449  110.149    7.339
  305.399    0.259    0.434  115.571    8.057
  305.699    0.231    0.441  116.148    8.060
  305.999    0.244    0.447  111.882    8.684
  306.299    0.251    0.419  109.433    9.533
