~VERSION INFORMATION
 VERS.                 2.0:   CWLS LOG ASCII STANDARD -VERSION 2.0
 WRAP.                  NO:   ONE LINE PER DEPTH STEP
~WELL INFORMATION BLOCK
#MNEM.UNIT           DATA                    DESCRIPTION OF MNEMONIC
#---------    -------------------            -------------------------------
# Generated from Intellog Unique Number	CN_91_93/WELL/3031
WELL.         PARAMOUNT RESOURCES LTD.       : Well_name    - WELL
LOC .         00/04-24-092-20W4/0            : Location     - LOCATION
UWI .         00/04-24-092-20W4/0            : Uwi          - UNIQUE WELL ID
ENTR.         JOETTE                         : Entered      - ENTERED BY
SRVC.         COMPUTALOG                     : Scn          - SERVICE COMPANY
DATE.         04/09/92                       : Date         - LOG DATE
STRT.M        110                            : top_depth    - START DEPTH
STOP.M        243                            : bot_depth    - STOP DEPTH
STEP.M        0.25                           : increment    - STEP LENGTH
 NULL. -999.2500:NULL Value
~CURVE INFORMATION BLOCK
#MNEM UNIT       ERCB CURVE CODE    CURVE DESCRIPTION
#-----------   ------------------   ----------------------------------
DEPT.M        00 001 00 00         : DEPTH        - DEPTH
CALI.MM       00 280 01 00         : CAL          - CALIPER
GR  .API      00 310 00 00         : GR           - GAMMA RAY
NPHI.V/V      00 330 00 00         : PHIN         - NEUTRON POROSITY (SANDSTONE)
DPHI.V/V      00 890 00 00         : PHID         - DENSITY POROSITY (SANDSTONE)
ILD .OHMM     00 120 00 00         : RESD         - DEEP RESISTIVITY (DIL)
~PARAMETER INFORMATION
#MNEM.UNIT           DATA             DESCRIPTION OF MNEMONIC
#---------         -----------     ------------------------------
GL  .M        520.2                : gl           - GROUND LEVEL ELEVATION
EREF.M        523.6                : kb           - ELEVATION OF DEPTH REFERENCE
DATM.M        523.6                : datum        - DATUM ELEVATION
TDD .M        241.3                : tdd          - TOTAL DEPTH DRILLER
RUN .         ONE                  : Run          - RUN NUMBER
ENG .         JO                   : Engineer     - RECORDING ENGINEER
WIT .         TIM                  : Witness      - WITNESSED BY
MUD .         GEL                  : Mud_type     - MUD TYPE
MATR.         SANDSTONE            : Logunit      - NEUTRON MATRIX
TMAX.C        17                   : BHT          - MAXIMUM RECORDED TEMPERATURE
BHTD.M        241.3                : BHTDEP       - MAXIMUM RECORDED TEMPERATURE
RMT .C        17.8                 : MDTP         - TEMPERATURE OF MUD
MUDD.KG/M     1080                 : MWT          - MUD DENSITY
NEUT.         1                    : NEUTRON      - NEUTRON TYPE
RESI.         0                    : RESIST       - RESISTIVITY TYPE
RM  .OHMM     1.9                  : RM           - RESISTIVITY OF MUD
RMC .OHMM     1.9                  : RMC          - RESISTIVITY OF MUD CAKE
RMF .OHMM     1.4                  : RMF          - RESISTIVITY OF MUD FILTRATE
SUFT.C        4                    : SUFT         - SURFACE TEMPERATURE
~A  DEPTH      CAL       GR     PHIN     PHID     RESD
# ...
  146.500  169.183  124.190    0.502    0.260    4.076
  146.750  168.257  122.355    0.511    0.261    4.001
  147.000  167.284  118.031    0.516    0.249    4.325
  147.250  166.359  114.959    0.504    0.231    5.560
  147.500  166.476  111.289    0.452    0.216    6.877
  147.750  165.480  110.691    0.419    0.209    8.185
  148.000  165.597  106.993    0.407    0.200    9.741
  148.250  165.738  105.798    0.383    0.184   11.374
  148.500  165.784  103.977    0.367    0.182   12.292
  148.750  165.902   99.668    0.354    0.187   13.550
  149.000  166.019  100.350    0.328    0.188   14.364
  149.250  166.066   96.623    0.317    0.158   14.940
  149.500  165.163   86.668    0.316    0.122   15.242
  149.750  164.191   86.099    0.332    0.136   15.257
  150.000  164.261   90.535    0.344    0.169   14.689
  150.250  164.378   98.114    0.351    0.196   13.610
  150.500  165.515  103.176    0.370    0.182   12.135
  150.750  167.694  107.612    0.382    0.181   10.819
  151.000  167.788  111.436    0.400    0.191   10.224
  151.250  165.796  106.473    0.401    0.201   10.426
  151.500  164.870   99.021    0.389    0.193   10.844
  151.750  164.987   98.451    0.391    0.194   11.281
  152.000  165.034  106.656    0.401    0.199   10.656
  152.250  166.171  114.220    0.415    0.208    9.875
  152.500  166.264  121.159    0.423    0.221    9.879
  152.750  164.296  116.836    0.438    0.233   10.681
  153.000  163.370  109.383    0.424    0.217   11.998
  153.250  163.441   97.551    0.378    0.177   14.279
  153.500  164.601   84.454    0.362    0.162   16.352
  153.750  164.671   77.627    0.333    0.258   19.094
  154.000  164.788   82.063    0.311    0.295   20.643
  154.250  164.858   83.385    0.316    0.308   21.056
  154.500  163.886   82.190    0.327    0.288   21.068
  154.750  162.937   85.374    0.351    0.273   19.525
  155.000  163.054   92.953    0.382    0.268   17.744
  155.250  164.190   95.498    0.390    0.262   14.647
  155.500  166.393   94.331    0.392    0.253   12.091
  155.750  167.553   95.611    0.405    0.232    9.065
  156.000  168.666   99.435    0.428    0.185    7.483
  156.250  168.736  103.246    0.435    0.182    6.544
  156.500  168.877  104.553    0.434    0.201    6.677
  156.750  167.904   95.850    0.426    0.153    7.360
  157.000  166.932   90.900    0.426    0.122    7.653
  157.250  164.940   96.588    0.425    0.074    8.116
  157.500  162.971  102.901    0.408    0.101    8.279
  157.750  163.042  111.717    0.393    0.194    8.446
  158.000  162.116  113.665    0.401    0.187    8.787
  158.250  163.253  114.986    0.419    0.177    9.137
  158.500  165.432  118.783    0.426    0.176    9.691
  158.750  166.545  114.459    0.416    0.178   10.272
  159.000  166.686  103.238    0.387    0.156   12.227
  159.250  165.713   94.549    0.362    0.136   13.471
  159.500  163.745   93.354    0.345    0.117   15.135
  159.750  161.753   91.519    0.337    0.121   15.444
  160.000  161.823   87.209    0.340    0.133   14.591
  160.250  161.940   92.883    0.355    0.152   14.319
  160.500  162.010  101.087    0.370    0.189   14.330
  160.750  164.237  104.898    0.375    0.182   14.904
  161.000  165.326  100.574    0.386    0.161   15.507
  161.250  166.463   96.264    0.395    0.149   15.818
  161.500  166.580   91.301    0.387    0.140   16.138
  161.750  165.607   86.337    0.378    0.125   16.461
  162.000  164.682   82.653    0.378    0.099   16.480
  162.250  163.733   87.090    0.381    0.125   16.489
  162.500  163.826   95.280    0.385    0.167   16.505
  162.750  163.897   96.602    0.382    0.219   16.200
  163.000  164.037   92.889    0.371    0.246   15.900
  163.250  164.131   87.954    0.362    0.261   15.022
  163.500  164.248   86.133    0.355    0.203   14.466
  163.750  163.276   87.441    0.355    0.170   13.406
  164.000  163.346   93.740    0.362    0.187   12.664
  164.250  164.529  101.945    0.380    0.201   12.192
  164.500  164.600  103.892    0.399    0.214   11.519
  164.750  165.713  104.574    0.409    0.220   10.674
  165.000  165.853  106.507    0.410    0.236    9.514
  165.250  165.924  110.304    0.428    0.221    8.162
  165.500  165.994  116.645    0.442    0.210    7.140
  165.750  165.068  117.939    0.443    0.213    6.744
  166.000  164.119  121.123    0.456    0.220    7.015
  166.250  163.170  119.303    0.456    0.224    7.728
  166.500  162.197  108.096    0.398    0.212    9.022
  166.750  161.272   96.876    0.378    0.182   10.332
  167.000  161.365   82.541    0.341    0.155   11.606
  167.250  162.549   71.946    0.311    0.132   14.087
  167.500  162.596   77.022    0.333    0.131   14.649
  167.750  163.732   83.335    0.359    0.210   15.236
  168.000  164.892   87.785    0.375    0.238   14.392
  168.250  166.052   90.344    0.377    0.246   12.586
  168.500  166.099   93.529    0.376    0.234   10.798
  168.750  166.193  100.468    0.381    0.210    9.814
  169.000  166.286  105.530    0.389    0.195    9.635
  169.250  166.380  110.592    0.398    0.188   10.217
  169.500  165.431  113.791    0.406    0.184   11.044
  169.750  164.482  108.827    0.411    0.178   12.404
  170.000  163.556  101.375    0.416    0.166   14.481
  170.250  162.607   95.800    0.394    0.123   24.383
  170.500  162.724   90.225    0.364    0.118   25.848
  170.750  162.841   87.778    0.349    0.128   30.762
  171.000  163.931   86.583    0.321    0.115   35.228
  171.250  164.025   80.382    0.305    0.068   38.078
  171.500  165.161   69.787    0.294    0.036   33.309
  171.750  167.364   64.212    0.287    0.004   28.031
  172.000  168.501   64.894    0.295    0.016   23.584
  172.250  169.637   78.730    0.326    0.040   18.733
  172.500  169.731   96.945    0.353    0.087   16.383
  172.750  170.868  105.762    0.380    0.142   12.768
  173.000  169.942  112.075    0.388    0.152   12.777
  173.250  169.989  114.648    0.376    0.159   12.785
  173.500  169.040  109.699    0.353    0.190   12.800
  173.750  165.032  106.001    0.340    0.226   12.807
  174.000  163.017  106.683    0.332    0.254   12.819
  174.250  161.001  109.242    0.336    0.229   12.824
  174.500  160.099  106.795    0.347    0.176   12.834
  174.750  161.212  101.206    0.360    0.158   12.847
  175.000  162.325   95.005    0.371    0.145   12.859
  175.250  164.552   89.444    0.376    0.116   12.624
  175.500  165.688   95.743    0.385    0.064   11.695
  175.750  165.758  110.205    0.390    0.140   10.228
  176.000  165.852  117.769    0.385    0.171    9.121
  176.250  164.880  122.234    0.389    0.181    9.305
  176.500  164.973  124.167    0.404    0.176    9.493
  176.750  165.067  126.712    0.397    0.176   10.662
  177.000  165.161  128.020    0.382    0.183   12.210
  177.250  165.278  118.065    0.365    0.199   14.535
  177.500  166.438  111.238    0.360    0.211   15.120
  177.750  167.551  115.049    0.365    0.204   15.420
  178.000  166.649  115.730    0.361    0.214   15.741
  178.250  166.696  108.904    0.349    0.224   16.369
  178.500  165.770  105.220    0.349    0.187   17.355
  178.750  164.797  105.888    0.320    0.143   17.369
  179.000  164.891  100.938    0.293    0.052   17.051
  179.250  166.075   92.847    0.311   -0.004   15.799
  179.500  166.168   91.651    0.343    0.084   14.924
  179.750  167.281  100.481    0.352    0.137   14.094
  180.000  168.395  111.175    0.371    0.158   13.062
  180.250  168.512  113.748    0.382    0.182   13.069
  180.500  168.605  113.178    0.384    0.189   12.830
  180.750  168.699  115.751    0.381    0.184   12.842
  181.000  167.750  115.168    0.376    0.158   12.610
  181.250  165.735  112.735    0.373    0.140   12.615
  181.500  164.856  113.403    0.373    0.150   11.918
  181.750  165.969  117.853    0.381    0.165   11.477
  182.000  168.148  118.535    0.404    0.178   11.490
  182.250  168.219  119.203    0.417    0.178   11.720
  182.500  168.312  122.388    0.389    0.189   11.955
  182.750  165.301  110.556    0.360    0.156   13.176
