~VERSION INFORMATION
 VERS.                 2.0:   CWLS LOG ASCII STANDARD -VERSION 2.0
 WRAP.                  NO:   ONE LINE PER DEPTH STEP
~WELL INFORMATION BLOCK
#MNEM.UNIT           DATA                    DESCRIPTION OF MNEMONIC
#---------    -------------------            -------------------------------
# Generated from Intellog Unique Number	CW_82_90/WELL/3057
WELL.         TOTAL ET AL LIVOCK             : Well_name    - WELL
LOC .         00/06-34-086-23W4/0            : Location     - LOCATION
UWI .         00/06-34-086-23W4/0            : Uwi          - UNIQUE WELL ID
ENTR.         MAX                            : Entered      - ENTERED BY
SRVC.         SCHLUMBERGER                   : Scn          - SERVICE COMPANY
STRT.M        155.448                        : top_depth    - START DEPTH
STOP.M        332.198                        : bot_depth    - STOP DEPTH
STEP.M        0.25                           : increment    - STEP LENGTH
 NULL. -999.2500:NULL Value
~CURVE INFORMATION BLOCK
#MNEM UNIT       ERCB CURVE CODE    CURVE DESCRIPTION
#-----------   ------------------   ----------------------------------
DEPT.M        00 001 00 00         : DEPTH        - DEPTH
ILD .OHMM     00 120 00 00         : RESD         - DEEP RESISTIVITY (DIL)
NPHI.V/V      00 330 00 00         : PHIN         - NEUTRON POROSITY (SANDSTONE)
DPHI.V/V      00 890 00 00         : PHID         - DENSITY POROSITY (SANDSTONE)
CALI.MM       00 280 01 00         : CAL          - CALIPER
GR  .API      00 310 00 00         : GR           - GAMMA RAY
~PARAMETER INFORMATION
#MNEM.UNIT           DATA             DESCRIPTION OF MNEMONIC
#---------         -----------     ------------------------------
GL  .M        530.962              : gl           - GROUND LEVEL ELEVATION
EREF.M        534.01               : kb           - ELEVATION OF DEPTH REFERENCE
DATM.M        530.962              : datum        - DATUM ELEVATION
TDD .M        335.89               : tdd          - TOTAL DEPTH DRILLER
RUN .         ONE                  : Run          - RUN NUMBER
ENG .         BILL                 : Engineer     - RECORDING ENGINEER
WIT .         JIM                  : Witness      - WITNESSED BY
MUD .         GEL                  : Mud_type     - MUD TYPE
MATR.         SANDSTONE            : Logunit      - NEUTRON MATRIX
TMAX.C        24.4444              : BHT          - MAXIMUM RECORDED TEMPERATURE
BHTD.M        335.89               : BHTDEP       - MAXIMUM RECORDED TEMPERATURE
MATR.         1                    : LOGUNIT      - NEUTRON MATRIX
RMT .C        15.5556              : MDTP         - TEMPERATURE OF MUD
NEUT.         1                    : NEUTRON      - NEUTRON TYPE
RESI.         0                    : RESIST       - RESISTIVITY TYPE
RMC .OHMM     3.5                  : RMC          - RESISTIVITY OF MUD CAKE
RMF .OHMM     3.5                  : RMF          - RESISTIVITY OF MUD FILTRATE
SUFT.C        -20.5556             : SUFT         - SURFACE TEMPERATURE
~A  DEPTH     RESD     PHIN     PHID      CAL       GR
  155.448    9.295    0.488    0.235  220.240   78.752
  155.698   10.862    0.478    0.249  219.192   77.241
  155.948   11.371    0.507    0.247  218.633   75.139
  156.198   11.264    0.511    0.243  218.588   76.588
  156.448   10.758    0.508    0.230  219.533   72.998
  156.698    9.635    0.485    0.218  217.971   70.900
  156.948    9.286    0.490    0.252  219.424   72.349
  157.198    9.285    0.501    0.266  220.375   76.160
  157.448    9.114    0.486    0.225  218.312   74.361
  157.698    8.785    0.458    0.229  219.269   72.847
  157.948    8.467    0.466    0.251  222.232   75.480
  158.198    8.312    0.493    0.258  228.195   78.114
  158.448    8.310    0.499    0.217  239.673   77.192
  158.698    8.541    0.496    0.211  242.623   75.985
  158.948    9.023    0.481    0.213  235.560   74.475
  159.198    9.445    0.479    0.209  224.982   73.256
  159.448    9.978    0.478    0.210  222.919   72.038
  159.698   10.255    0.485    0.219  222.861   71.716
  159.948   10.348    0.482    0.244  222.302   74.641
  160.198    9.973    0.456    0.228  221.756   75.499
  160.448    9.351    0.458    0.211  222.206   75.177
  160.698    8.452    0.520    0.194  224.661   78.995
  160.948    7.710    0.536    0.210  225.612   83.700
  161.198    6.476    0.567    0.244  227.565   87.518
  161.448    5.489    0.573    0.248  232.032   90.448
  161.698    5.147    0.567    0.242  239.499   90.706
  161.948    5.388    0.540    0.299  244.962   89.203
  162.198    5.850    0.521    0.339  245.900   85.917
  162.448    6.590    0.536    0.348  246.857   80.854
  162.698    6.899    0.550    0.375  248.310   75.195
  162.948    6.649    0.550    0.389  249.762   72.205
  163.198    6.235    0.535    0.394  249.717   72.767
  163.448    5.687    0.557    0.429  250.662   74.213
  163.698    5.236    0.564    0.281  250.109   74.478
  163.948    5.187    0.531    0.229  248.059   73.860
  164.198    5.430    0.550    0.202  245.501   72.641
  164.448    6.287    0.539    0.156  237.417   71.427
  164.698    9.074    0.473    0.231  237.873   66.660
  164.948   13.709    0.417    0.202  237.815   59.526
  165.198   17.886    0.382    0.173  235.759   44.986
  165.448   22.084    0.383    0.199  237.218   35.484
  165.698   26.046    0.409    0.252  238.162   33.670
  165.948   27.769    0.444    0.281  239.120   35.415
  166.198   27.260    0.458    0.307  241.568   35.977
  166.448   27.006    0.455    0.308  244.524   35.950
  166.698   27.250    0.431    0.321  246.986   36.804
  166.948   27.752    0.422    0.323  249.942   36.770
  167.198   28.003    0.420    0.304  252.396   37.032
  167.448   28.517    0.426    0.306  254.350   37.009
  167.698   28.250    0.431    0.321  257.306   36.687
  167.948   29.574    0.432    0.333  258.752   36.353
  168.198   29.568    0.414    0.332  261.213   36.030
  168.448   29.564    0.411    0.326  265.165   35.408
  168.698   29.556    0.415    0.321  267.620   35.377
  168.948   29.555    0.425    0.314  270.075   36.231
  169.198   29.823    0.433    0.318  270.519   36.501
  169.448   30.370    0.429    0.326  271.971   36.466
  169.698   30.646    0.414    0.316  273.925   36.432
  169.948   30.641    0.408    0.312  276.379   36.110
  170.198   30.635    0.399    0.323  277.832   36.375
  170.448   30.631    0.390    0.314  278.288   36.645
  170.698   30.627    0.392    0.311  279.740   37.499
  170.948   30.622    0.400    0.309  280.691   37.472
  171.198   30.617    0.412    0.310  280.640   36.554
  171.448   30.895    0.411    0.318  282.079   35.631
  171.698   31.174    0.411    0.315  282.542   35.005
  171.948   31.456    0.426    0.305  283.988   33.495
  172.198   31.451    0.439    0.308  285.440   32.280
  172.448   31.446    0.448    0.314  285.884   32.546
  172.698   31.442    0.451    0.324  286.841   33.407
  172.948   31.149    0.443    0.328  287.799   35.153
  173.198   30.860    0.430    0.308  289.251   36.007
  173.448   30.294    0.427    0.288  291.192   36.273
  173.698   29.740    0.432    0.293  292.156   35.946
  173.948   29.733    0.432    0.313  294.097   35.920
  174.198   29.730    0.431    0.321  295.048   36.185
  174.448   29.725    0.447    0.316  297.502   36.155
  174.698   29.720    0.456    0.313  301.461   36.417
  174.948   29.445    0.450    0.303  303.922   36.383
  175.198   28.904    0.447    0.311  307.380   36.356
  175.448   28.375    0.440    0.313  310.837   37.210
  175.698   27.854    0.428    0.307  315.290   38.364
  175.948   27.094    0.429    0.305  318.253   39.813
  176.198   25.875    0.437    0.314  321.710   40.971
  176.448   25.169    0.450    0.323  325.669   42.421
  176.698   24.481    0.462    0.333  329.120   44.163
  176.948   24.032    0.475    0.329  331.581   43.544
  177.198   23.809    0.494    0.317  337.044   42.918
  177.448   23.372    0.484    0.329  342.506   43.772
  177.698   23.369    0.464    0.323  344.954   46.113
  177.948   22.941    0.461    0.314  341.902   50.231
  178.198   22.315    0.482    0.324  248.103   56.417
  178.448   21.310    0.501    0.344  230.501   62.307
  178.698   19.262    0.510    0.340  226.935   67.309
  178.948   16.783    0.517    0.324  228.380   70.831
  179.198   11.733    0.528    0.291  228.342   74.060
  179.448    8.746    0.541    0.261  232.294   79.358
  179.698    7.081    0.539    0.227  241.265   89.392
  179.948    4.728    0.532    0.204  233.701   94.098
  180.198    4.353    0.527    0.248  218.606  108.280
  180.448    4.273    0.532    0.154  217.552  112.982
  180.698    4.195    0.541    0.181  220.508  112.364
  180.948    4.194    0.544    0.214  227.474  109.965
  181.198    4.193    0.546    0.207  231.928  107.267
  181.448    4.193    0.556    0.214  232.885  106.645
  181.698    4.192    0.566    0.218  239.851  108.982
  181.948    4.192    0.550    0.234  248.829  110.432
  182.198    4.230    0.538    0.238  224.203  108.326
  182.448    4.268    0.537    0.193  237.686  105.043
  182.698    4.267    0.536    0.178  254.683  104.417
  182.948    4.266    0.533    0.210  253.122  106.462
  183.198    4.345    0.537    0.232  236.034  108.500
  183.448    4.548    0.543    0.231  231.973  105.514
  183.698    4.894    0.549    0.235  234.427  101.631
  183.948    5.217    0.552    0.266  238.386   98.049
  184.198    5.313    0.535    0.322  250.365   94.466
  184.448    5.361    0.525    0.334  261.341   87.028
  184.698    5.215    0.521    0.363  239.729   87.589
  184.948    5.072    0.528    0.288  228.650   91.115
  185.198    5.072    0.538    0.282  225.591   95.821
  185.448    5.261    0.561    0.310  234.061   97.867
  185.698    5.557    0.577    0.328  248.045   93.688
  185.948    6.035    0.566    0.290  257.517   81.521
  186.198    6.861    0.517    0.325  214.853   73.787
  186.448    7.872    0.491    0.274  205.766   74.352
  186.698    9.284    0.505    0.188  206.228   75.802
  186.948    9.283    0.476    0.178  208.182   77.840
  187.198    8.314    0.458    0.278  208.632   79.290
  187.448    7.446    0.451    0.282  209.075   80.443
  187.698    6.792    0.466    0.283  210.026   81.601
  187.948    6.253    0.484    0.296  211.485   83.931
  188.198    5.549    0.552    0.285  214.435   85.381
  188.448    5.251    0.573    0.291  220.405   87.726
  188.698    5.155    0.528    0.292  208.317   89.468
  188.948    5.154    0.514    0.203  209.268   92.401
  189.198    5.200    0.530    0.174  210.219   94.739
  189.448    5.296    0.528    0.213  212.674   91.449
  189.698    5.443    0.516    0.233  217.134   88.462
  189.948    5.803    0.504    0.247  221.092   84.876
  190.198    6.130    0.486    0.274  219.029   81.589
  190.448    6.536    0.486    0.280  213.471   75.339
  190.698    7.097    0.492    0.253  216.928   76.496
  190.948    7.429    0.502    0.231  233.418   80.610
  191.198    7.921    0.514    0.263  239.382   84.428
  191.448    8.523    0.498    0.250  210.251   82.914
  191.698    9.171    0.487    0.265  203.677   79.631
