~VERSION INFORMATION
 VERS.                 2.0:   CWLS LOG ASCII STANDARD -VERSION 2.0
 WRAP.                  NO:   ONE LINE PER DEPTH STEP
~WELL INFORMATION BLOCK
#MNEM.UNIT           DATA                    DESCRIPTION OF MNEMONIC
#---------    -------------------            -------------------------------
# Generated from Intellog Unique Number	CS_73_76/WELL/2171
WELL.         UNIVERSAL EXPLORATIONS LT      : Well_name    - WELL
LOC .         00/06-33-074-13W4/0            : Location     - LOCATION
UWI .         00/06-33-074-13W4/0            : Uwi          - UNIQUE WELL ID
ENTR.         SP                             : Entered      - ENTERED BY
SRVC.         SCHLUMBERGER                   : Scn          - SERVICE COMPANY
STRT.M        371.856                        : top_depth    - START DEPTH
STOP.M        600.106                        : bot_depth    - STOP DEPTH
STEP.M        0.25                           : increment    - STEP LENGTH
 NULL. -999.2500:NULL Value
~CURVE INFORMATION BLOCK
#MNEM UNIT       ERCB CURVE CODE    CURVE DESCRIPTION
#-----------   ------------------   ----------------------------------
DEPT.M        00 001 00 00         : DEPTH        - DEPTH
GR  .API      00 310 00 00         : GR           - GAMMA RAY
DPHI.V/V      00 890 00 00         : PHID         - DENSITY POROSITY (SANDSTONE)
NPHI.V/V      00 330 00 00         : PHIN         - NEUTRON POROSITY (SANDSTONE)
ILD .OHMM     00 120 00 00         : RESD         - DEEP RESISTIVITY (DIL)
~PARAMETER INFORMATION
#MNEM.UNIT           DATA             DESCRIPTION OF MNEMONIC
#---------         -----------     ------------------------------
GL  .M        731.672              : gl           - GROUND LEVEL ELEVATION
EREF.M        734.873              : kb           - ELEVATION OF DEPTH REFERENCE
DATM.M        731.672              : datum        - DATUM ELEVATION
TDD .M        614.172              : tdd          - TOTAL DEPTH DRILLER
RUN .         ONE                  : Run          - RUN NUMBER
ENG .         BILL                 : Engineer     - RECORDING ENGINEER
WIT .         JIM                  : Witness      - WITNESSED BY
MUD .         GEL                  : Mud_type     - MUD TYPE
MATR.         SANDSTONE            : Logunit      - NEUTRON MATRIX
TMAX.C        25.5556              : BHT          - MAXIMUM RECORDED TEMPERATURE
BHTD.M        611.124              : BHTDEP       - MAXIMUM RECORDED TEMPERATURE
MATR.         1                    : LOGUNIT      - NEUTRON MATRIX
RMT .C        25                   : MDTP         - TEMPERATURE OF MUD
NEUT.         1                    : NEUTRON      - NEUTRON TYPE
RESI.         0                    : RESIST       - RESISTIVITY TYPE
RMC .OHMM     0.25                 : RMC          - RESISTIVITY OF MUD CAKE
RMF .OHMM     0.25                 : RMF          - RESISTIVITY OF MUD FILTRATE
SUFT.C        15                   : SUFT         - SURFACE TEMPERATURE
~A  DEPTH       GR     PHID     PHIN     RESD
# ...
  415.356   70.475    0.268    0.463    9.944
  415.606   64.859    0.284    0.440   10.481
  415.856   59.475    0.275    0.413   10.590
  416.106   56.417    0.260    0.399   10.887
  416.356   60.155    0.260    0.382   10.875
  416.606   61.256    0.268    0.378   11.008
  416.856   58.728    0.269    0.386   11.067
  417.106   60.072    0.298    0.398   11.278
  417.356   61.331    0.302    0.404   11.140
  417.606   64.207    0.293    0.401   10.882
  417.856   66.054    0.283    0.406   10.888
  418.106   68.185    0.289    0.417   10.890
  418.356   64.057    0.287    0.427   10.893
  418.606   61.066    0.300    0.425   10.872
  418.856   58.260    0.314    0.429   11.104
  419.106   59.006    0.308    0.432   11.316
  419.356   61.724    0.297    0.432   11.459
  419.606   62.601    0.312    0.438   11.523
  419.856   57.761    0.311    0.439   11.532
  420.106   56.689    0.315    0.425   11.511
  420.356   56.384    0.323    0.425   11.774
  420.606   55.820    0.316    0.410   11.755
  420.856   56.747    0.316    0.397   11.758
  421.106   58.495    0.320    0.388   11.761
  421.356   67.628    0.328    0.379   11.763
  421.606   63.054    0.338    0.388   11.765
  421.856   60.084    0.329    0.399   11.767
  422.106   59.615    0.310    0.406   11.770
  422.356   57.157    0.303    0.401   11.772
  422.606   55.243    0.304    0.390   11.774
  422.856   55.652    0.306    0.392   11.770
  423.106   55.796    0.320    0.389   11.725
  423.356   56.387    0.318    0.385   11.560
  423.606   57.438    0.324    0.385   11.587
  423.856   57.666    0.327    0.393   11.335
  424.106   57.120    0.320    0.400   11.358
  424.356   57.040    0.315    0.408   11.379
  424.606   56.983    0.319    0.412   11.137
  424.856   56.389    0.305    0.398   11.160
  425.106   56.376    0.300    0.397   11.235
  425.356   57.053    0.315    0.390   11.365
  425.606   58.045    0.328    0.390   11.370
  425.856   59.081    0.331    0.391   11.371
  426.106   59.436    0.323    0.390   11.373
  426.356   60.105    0.317    0.392   11.375
  426.606   60.052    0.325    0.379   11.377
  426.856   60.042    0.323    0.381   11.380
  427.106   59.991    0.326    0.390   11.380
  427.356   60.753    0.327    0.386   11.377
  427.606   61.432    0.341    0.395   11.565
  427.856   59.428    0.334    0.395   11.595
  428.106   61.391    0.324    0.382   11.602
  428.356   63.535    0.323    0.396   11.775
  428.606   64.115    0.334    0.402   11.840
  428.856   63.662    0.326    0.409   11.611
  429.106   63.004    0.326    0.405   11.618
  429.356   63.056    0.332    0.408   11.616
  429.606   62.533    0.330    0.396   11.619
  429.856   59.855    0.340    0.393   11.646
  430.106   57.888    0.323    0.403   11.405
  430.356   56.948    0.313    0.410   11.054
  430.606   57.355    0.318    0.396   10.680
  430.856   62.632    0.319    0.401   10.576
  431.106   72.517    0.322    0.407   10.406
  431.356   82.303    0.326    0.424   10.173
  431.606   89.285    0.336    0.435   10.413
  431.856   93.710    0.336    0.446   10.669
  432.106   91.342    0.332    0.471   10.356
  432.356   96.811    0.318    0.488   10.804
  432.606  102.883    0.309    0.482   11.008
  432.856   99.178    0.301    0.461   11.233
  433.106   94.403    0.291    0.451   11.405
  433.356   92.442    0.296    0.453   11.765
  433.606   98.298    0.303    0.466   12.134
  433.856  103.380    0.298    0.476   12.535
  434.106  101.932    0.285    0.495   12.638
  434.356   94.318    0.291    0.499   13.052
  434.606   88.773    0.299    0.497   13.043
  434.856   84.382    0.283    0.489   13.057
  435.106   76.279    0.277    0.465   12.803
  435.356   71.704    0.279    0.440   12.199
  435.606   70.120    0.286    0.449   11.581
  435.856   70.371    0.299    0.463   11.266
  436.106   68.328    0.303    0.447   10.593
  436.356   67.228    0.307    0.445   10.254
  436.606   66.195    0.318    0.448    9.918
  436.856   63.946    0.336    0.456    9.905
  437.106   60.945    0.350    0.461    9.683
  437.356   61.413    0.347    0.452    9.699
  437.606   63.520    0.348    0.448    9.698
  437.856   64.132    0.347    0.437    9.698
  438.106   63.072    0.349    0.428    9.835
  438.356   62.962    0.343    0.433    9.882
  438.606   62.927    0.340    0.431    9.889
  438.856   63.572    0.341    0.426    9.891
  439.106   63.418    0.343    0.432    9.893
  439.356   62.857    0.354    0.440    9.895
  439.606   64.524    0.354    0.442    9.896
  439.856   65.429    0.352    0.444    9.898
  440.106   64.345    0.347    0.444    9.900
  440.356   63.445    0.356    0.444    9.902
  440.606   64.189    0.355    0.451    9.905
  440.856   65.189    0.346    0.445    9.900
  441.106   64.841    0.340    0.440    9.827
  441.356   64.739    0.338    0.435    9.913
  441.606   65.953    0.337    0.454    9.908
  441.856   69.369    0.333    0.430    9.916
  442.106   71.990    0.329    0.420    9.909
  442.356   69.502    0.335    0.429   10.121
  442.606   65.204    0.332    0.430   10.107
  442.856   60.240    0.325    0.411   10.108
  443.106   58.231    0.326    0.408   10.109
  443.356   57.790    0.332    0.414   10.106
  443.606   55.100    0.326    0.419   10.270
  443.856   54.635    0.328    0.421   10.301
  444.106   56.360    0.331    0.412   10.309
  444.356   59.533    0.336    0.421   10.310
  444.606   61.520    0.327    0.432   10.313
  444.856   62.844    0.322    0.441   10.314
  445.106   64.158    0.319    0.456   10.188
  445.356   64.071    0.306    0.441   10.096
  445.606   64.068    0.317    0.437    9.775
  445.856   64.244    0.324    0.432    9.563
  446.106   62.040    0.305    0.417    9.569
  446.356   63.232    0.304    0.409    9.872
  446.606   63.665    0.253    0.402   10.444
  446.856   60.824    0.222    0.407   10.781
  447.106   56.984    0.156    0.254   11.509
  447.356   52.315    0.040    0.208   11.634
  447.606   53.816    0.049    0.204   10.120
  447.856   64.296    0.130    0.219    9.124
  448.106   74.879    0.204    0.296    8.228
  448.356   83.221    0.242    0.383    7.541
  448.606   89.301    0.265    0.441    7.170
  448.856   88.909    0.230    0.450    7.000
  449.106   83.222    0.240    0.467    7.242
  449.356   79.316    0.246    0.467    7.467
  449.606   84.281    0.258    0.449    7.700
  449.856   91.938    0.259    0.435    7.956
  450.106   95.568    0.249    0.422    8.038
  450.356   96.691    0.233    0.432    8.132
  450.606   91.043    0.237    0.437    8.287
  450.856   87.024    0.251    0.426    8.242
  451.106   84.034    0.257    0.429    7.980
  451.356   83.748    0.260    0.426    7.662
  451.606   85.944    0.265    0.410    7.230
  451.856   91.079    0.245    0.416    6.900
  452.106   93.962    0.235    0.437    6.549
  452.356   93.059    0.235    0.446    6.361
  452.606   93.672    0.225    0.455    6.168
  452.856   94.055    0.225    0.454    5.930
  453.106   93.657    0.225    0.438    5.693
  453.356   97.125    0.219    0.431    5.348
  453.606  100.460    0.223    0.431    5.032
  453.856   99.076    0.204    0.440    4.734
  454.106   95.889    0.196    0.449    4.447
  454.356   94.246    0.203    0.459    4.123
  454.606   97.258    0.205    0.463    3.726
  454.856  100.252    0.202    0.466    3.323
  455.106  103.286    0.192    0.454    2.989
  455.356  105.673    0.195    0.462    2.821
  455.606  106.361    0.208    0.488    2.680
  455.856  103.211    0.209    0.511    2.610
  456.106  100.956    0.203    0.535    2.610
  456.356  104.311    0.196    0.522    2.687
  456.606  107.119    0.191    0.513    2.772
  456.856  106.636    0.202    0.509    2.952
  457.106  104.525    0.201    0.496    3.167
  457.356   99.120    0.212    0.493    3.594
  457.606   95.829    0.216    0.490    3.897
  457.856   90.659    0.243    0.499    4.527
  458.106   88.159    0.272    0.473    5.382
  458.356   88.236    0.289    0.447    6.019
  458.606   87.506    0.292    0.432    5.257
