~VERSION INFORMATION
 VERS.                 2.0:   CWLS LOG ASCII STANDARD -VERSION 2.0
 WRAP.                  NO:   ONE LINE PER DEPTH STEP
~WELL INFORMATION BLOCK
#MNEM.UNIT           DATA                    DESCRIPTION OF MNEMONIC
#---------    -------------------            -------------------------------
# Generated from Intellog Unique Number	CX_WELLS/WELL/3141
WELL.         PARA ET AL RESDELEN            : Well_name    - WELL
LOC .         00/08-02-083-06W4/0            : Location     - LOCATION
UWI .         00/08-02-083-06W4/0            : Uwi          - UNIQUE WELL ID
ENTR.         TIM                            : Entered      - ENTERED BY
SRVC.         SCHLUMBERGER                   : Scn          - SERVICE COMPANY
STRT.M        80                             : top_depth    - START DEPTH
STOP.M        295                            : bot_depth    - STOP DEPTH
STEP.M        0.25                           : increment    - STEP LENGTH
 NULL. -999.2500:NULL Value
~CURVE INFORMATION BLOCK
#MNEM UNIT       ERCB CURVE CODE    CURVE DESCRIPTION
#-----------   ------------------   ----------------------------------
DEPT.M        00 001 00 00         : DEPTH        - DEPTH
GR  .API      00 310 00 00         : GR           - GAMMA RAY
NPHI.V/V      00 330 00 00         : PHIN         - NEUTRON POROSITY (SANDSTONE)
DPHI.V/V      00 890 00 00         : PHID         - DENSITY POROSITY (SANDSTONE)
ILD .OHMM     00 120 00 00         : RESD         - DEEP RESISTIVITY (OTHER)
~PARAMETER INFORMATION
#MNEM.UNIT           DATA             DESCRIPTION OF MNEMONIC
#---------         -----------     ------------------------------
GL  .M        494                  : gl           - GROUND LEVEL ELEVATION
EREF.M        497.7                : kb           - ELEVATION OF DEPTH REFERENCE
DATM.M        497.7                : datum        - DATUM ELEVATION
TDD .M        294                  : tdd          - TOTAL DEPTH DRILLER
RUN .         ONE                  : Run          - RUN NUMBER
ENG .         BILL                 : Engineer     - RECORDING ENGINEER
WIT .         JIM                  : Witness      - WITNESSED BY
MUD .         GEL                  : Mud_type     - MUD TYPE
MATR.         SANDSTONE            : Logunit      - NEUTRON MATRIX
TMAX.C        25                   : BHT          - MAXIMUM RECORDED TEMPERATURE
BHTD.M        294                  : BHTDEP       - MAXIMUM RECORDED TEMPERATURE
MATR.         1                    : LOGUNIT      - NEUTRON MATRIX
RMT .C        18                   : MDTP         - TEMPERATURE OF MUD
NEUT.         1                    : NEUTRON      - NEUTRON TYPE
RESI.         4.2                  : RESIST       - RESISTIVITY TYPE
RMC .OHMM     3.1                  : RMC          - RESISTIVITY OF MUD CAKE
RMF .OHMM     4.2                  : RMF          - RESISTIVITY OF MUD FILTRATE
SUFT.C        4                    : SUFT         - SURFACE TEMPERATURE
~A  DEPTH       GR     PHIN     PHID     RESD
# ...
  254.000   62.743    0.409    0.299   40.140
  254.250   57.575    0.412    0.300   43.344
  254.500   48.941    0.418    0.309   48.581
  254.750   41.469    0.416    0.319   58.694
  255.000   42.708    0.403    0.333   63.343
  255.250   45.128    0.393    0.341   67.176
  255.500   44.644    0.382    0.349   68.715
  255.750   44.102    0.371    0.342   68.754
  256.000   43.037    0.370    0.338   70.208
  256.250   43.695    0.369    0.340   70.369
  256.500   44.334    0.368    0.342   70.572
  256.750   44.992    0.371    0.347   70.734
  257.000   46.831    0.392    0.351   67.044
  257.250   48.651    0.406    0.353   55.779
  257.500   52.793    0.406    0.350   38.499
  257.750   57.516    0.410    0.319   37.156
  258.000   62.239    0.416    0.303   32.689
  258.250   69.886    0.414    0.285   28.229
  258.500   78.093    0.403    0.260   23.486
  258.750   82.236    0.399    0.241   19.895
  259.000   87.559    0.400    0.244   16.864
  259.250   92.882    0.403    0.240   15.124
  259.500   94.102    0.407    0.231   14.596
  259.750   91.856    0.405    0.233   14.095
  260.000   85.546    0.401    0.234   13.611
  260.250   80.977    0.393    0.235   13.390
  260.500   83.377    0.399    0.234   13.421
  260.750   88.681    0.404    0.228   13.452
  261.000   96.908    0.411    0.218   14.003
  261.250  105.116    0.417    0.207   14.568
  261.500  101.709    0.422    0.200   15.731
  261.750   90.153    0.425    0.201   17.962
  262.000   76.292    0.427    0.227   19.396
  262.250   75.228    0.425    0.260   20.558
  262.500   77.028    0.418    0.266   22.224
  262.750   82.332    0.405    0.250   23.108
  263.000   81.248    0.406    0.257   24.520
  263.250   66.787    0.404    0.274   25.494
  263.500   57.573    0.395    0.285   26.018
  263.750   57.651    0.386    0.289   26.569
  264.000   53.663    0.401    0.295   22.944
  264.250   50.856    0.401    0.301   19.099
  264.500   54.979    0.389    0.297   18.422
  264.750   64.948    0.390    0.266   17.790
  265.000   75.498    0.398    0.248   16.881
  265.250   78.479    0.400    0.216   16.282
  265.500   82.622    0.397    0.201   15.148
  265.750   90.829    0.395    0.188   13.833
  266.000   99.056    0.394    0.180   13.111
  266.250  104.360    0.398    0.183   12.661
  266.500   94.565    0.405    0.208   12.463
  266.750   92.920    0.413    0.231   12.261
  267.000   95.320    0.409    0.229   12.056
  267.250   97.701    0.396    0.200   11.861
  267.500   99.520    0.380    0.191   12.118
  267.750  101.921    0.380    0.185   12.375
  268.000   99.094    0.387    0.207   13.123
  268.250   94.526    0.392    0.223   13.393
  268.500   89.958    0.396    0.236   13.950
  268.750   85.389    0.396    0.237   13.966
  269.000   80.801    0.387    0.233   13.998
  269.250   78.556    0.382    0.231   14.030
  269.500   80.375    0.383    0.224   14.326
  269.750   86.279    0.388    0.216   14.629
  270.000   91.022    0.391    0.209   15.220
  270.250   93.984    0.399    0.213   15.843
  270.500   95.242    0.407    0.237   17.439
  270.750   91.235    0.411    0.265   19.174
  271.000   76.213    0.413    0.287   24.045
  271.250   67.560    0.417    0.304   26.437
  271.500   61.830    0.414    0.316   31.369
  271.750   54.920    0.410    0.321   30.879
  272.000   46.867    0.408    0.328   30.344
  272.250   45.802    0.406    0.333   28.761
  272.500   47.022    0.406    0.334   27.789
  272.750   50.603    0.407    0.334   27.324
  273.000   55.345    0.407    0.333   26.912
  273.250   58.888    0.407    0.331   26.943
  273.500   60.727    0.406    0.326   27.036
  273.750   59.042    0.404    0.313   27.067
  274.000   54.474    0.401    0.298   27.161
  274.250   49.925    0.398    0.294   27.192
  274.500   47.699    0.396    0.298   27.255
  274.750   47.157    0.392    0.299   27.847
  275.000   47.815    0.378    0.299   28.419
  275.250   51.957    0.375    0.291   28.501
  275.500   53.196    0.376    0.286   28.567
  275.750   53.273    0.377    0.293   27.601
  276.000   49.867    0.379    0.304   27.665
  276.250   41.233    0.380    0.309   28.781
  276.500   35.484    0.381    0.313   29.406
  276.750   33.819    0.378    0.315   29.440
  277.000   39.723    0.367    0.316   29.508
  277.250   46.188    0.350    0.315   26.449
  277.500   81.148    0.361    0.249   22.005
  277.750   95.763    0.372    0.203   17.959
  278.000   98.163    0.384    0.185   14.950
  278.250   99.402    0.391    0.186   13.645
  278.500   98.899    0.394    0.187   13.183
  278.750   98.415    0.397    0.193   13.462
  279.000   98.473    0.402    0.199   14.810
  279.250   96.808    0.409    0.219   16.901
  279.500   70.733    0.413    0.225   21.195
  279.750   62.700    0.416    0.287   26.579
  280.000   60.435    0.415    0.307   28.685
  280.250   57.609    0.409    0.313   30.438
  280.500   57.086    0.400    0.318   30.490
  280.750   56.002    0.399    0.325   31.153
  281.000   54.937    0.401    0.324   31.224
  281.250   54.414    0.404    0.318   31.278
  281.500   53.369    0.408    0.313   31.958
  281.750   52.846    0.409    0.313   32.050
  282.000   52.904    0.411    0.315   30.914
  282.250   52.420    0.412    0.317   25.720
  282.500   52.498    0.413    0.314   20.991
  282.750   53.756    0.415    0.307   12.964
  283.000   55.595    0.417    0.302   11.838
  283.250   56.795    0.420    0.290   10.817
  283.500   60.938    0.422    0.257   10.439
  283.750   84.263    0.429    0.211   10.081
  284.000   96.575    0.426    0.149   10.294
  284.250   94.930    0.391    0.144   11.122
  284.500   93.807    0.359    0.139   11.350
  284.750   93.903    0.336    0.136   11.383
  285.000   93.419    0.330    0.136   11.416
  285.250   92.297    0.329    0.138   11.429
  285.500   88.890    0.348    0.148   11.455
  285.750   75.630    0.361    0.173   10.274
  286.000   72.184    0.365    0.185    9.738
  286.250   61.227    0.366    0.213    9.230
  286.500   56.059    0.355    0.227    9.075
  286.750   52.071    0.348    0.239    8.928
  287.000   46.922    0.347    0.240    8.959
  287.250   86.528    0.353    0.235    8.809
  287.500   98.820    0.376    0.231    8.824
  287.750  105.285    0.407    0.246    8.859
  288.000  108.286    0.431    0.251    8.870
  288.250  107.802    0.469    0.253    9.052
  288.500  107.298    0.470    0.249    9.786
  288.750  107.356    0.431    0.060   10.561
  289.000  106.853    0.418    0.051   11.618
  289.250  106.930    0.408    0.049   13.524
  289.500  106.446    0.396    0.055   15.149
  289.750  105.924    0.366    0.052   18.646
  290.000  106.020    0.310    0.048   20.899
  290.250  106.678    0.289    0.043   23.437
  290.500  107.337    0.282    0.038   24.841
  290.750  107.414    0.280    0.030   25.381
  291.000  107.491    0.280    0.025   25.918
  291.250  107.588    0.280    0.021   25.962
  291.500  107.085    0.280    0.013   26.037
  291.750  106.562    0.283    0.010   26.082
  292.000  106.059    0.284    0.007   26.172
  292.250  105.536    0.286    0.004   26.202
  292.500  104.491    0.289    0.007   26.293
  292.750  104.529    0.290    0.008   26.323
  293.000  104.645    0.293    0.008   26.383
  293.250  105.303    0.289    0.014   26.444
  293.500  105.981    0.287    0.025   26.535
  293.750  106.620    0.288    0.031   26.581
  294.000  107.859    0.293    0.043   26.627
  294.250  108.517    0.295    0.050   26.688
  294.500  108.594    0.295    0.054   26.256
  294.750  108.652    0.295    0.054   26.317
  295.000  108.149    0.294    0.055   25.905
