~VERSION INFORMATION
 VERS.                 2.0:   CWLS LOG ASCII STANDARD -VERSION 2.0
 WRAP.                  NO:   ONE LINE PER DEPTH STEP
~WELL INFORMATION BLOCK
#MNEM.UNIT           DATA                    DESCRIPTION OF MNEMONIC
#---------    -------------------            -------------------------------
# Generated from Intellog Unique Number	CW_79_81/WELL/2457
WELL.         SHELL MISTEHAE                 : Well_name    - WELL
LOC .         00/07-09-081-02W5/0            : Location     - LOCATION
UWI .         00/07-09-081-02W5/0            : Uwi          - UNIQUE WELL ID
ENTR.         MAX                            : Entered      - ENTERED BY
SRVC.         SCHLUMBERGER                   : Scn          - SERVICE COMPANY
STRT.M        243.84                         : top_depth    - START DEPTH
STOP.M        490.59                         : bot_depth    - STOP DEPTH
STEP.M        0.25                           : increment    - STEP LENGTH
 NULL. -999.2500:NULL Value
~CURVE INFORMATION BLOCK
#MNEM UNIT       ERCB CURVE CODE    CURVE DESCRIPTION
#-----------   ------------------   ----------------------------------
DEPT.M        00 001 00 00         : DEPTH        - DEPTH
ILD .OHMM     00 120 00 00         : RESD         - DEEP RESISTIVITY (DIL)
NPHI.V/V      00 330 00 00         : PHIN         - NEUTRON POROSITY (SANDSTONE)
DPHI.V/V      00 890 00 00         : PHID         - DENSITY POROSITY (SANDSTONE)
GR  .API      00 310 00 00         : GR           - GAMMA RAY
CALI.MM       00 280 01 00         : CAL          - CALIPER
~PARAMETER INFORMATION
#MNEM.UNIT           DATA             DESCRIPTION OF MNEMONIC
#---------         -----------     ------------------------------
GL  .M        607.771              : gl           - GROUND LEVEL ELEVATION
EREF.M        612.023              : kb           - ELEVATION OF DEPTH REFERENCE
DATM.M        607.771              : datum        - DATUM ELEVATION
TDD .M        492.557              : tdd          - TOTAL DEPTH DRILLER
RUN .         ONE                  : Run          - RUN NUMBER
ENG .         BILL                 : Engineer     - RECORDING ENGINEER
WIT .         JIM                  : Witness      - WITNESSED BY
MUD .         GEL                  : Mud_type     - MUD TYPE
MATR.         SANDSTONE            : Logunit      - NEUTRON MATRIX
TMAX.C        25.5556              : BHT          - MAXIMUM RECORDED TEMPERATURE
BHTD.M        492.557              : BHTDEP       - MAXIMUM RECORDED TEMPERATURE
MATR.         1                    : LOGUNIT      - NEUTRON MATRIX
RMT .C        21.1111              : MDTP         - TEMPERATURE OF MUD
NEUT.         1                    : NEUTRON      - NEUTRON TYPE
RESI.         0                    : RESIST       - RESISTIVITY TYPE
RMC .OHMM     3.28                 : RMC          - RESISTIVITY OF MUD CAKE
RMF .OHMM     4.9                  : RMF          - RESISTIVITY OF MUD FILTRATE
SUFT.C        -18.3333             : SUFT         - SURFACE TEMPERATURE
~A  DEPTH     RESD     PHIN     PHID       GR      CAL
# ...
  316.840    4.300    0.632    0.583   58.414  368.129
  317.090    4.510    0.625    0.557   59.855  346.782
  317.340    4.762    0.577    0.482   59.869  306.211
  317.590    4.870    0.551    0.492   58.934  284.542
  317.840    4.954    0.553    0.490   59.245  289.389
  318.090    4.957    0.563    0.504   61.039  324.164
  318.340    4.906    0.565    0.535   63.724  360.243
  318.590    4.910    0.546    0.547   66.074  329.859
  318.840    4.912    0.507    0.501   67.077  294.313
  319.090    4.952    0.500    0.382   66.853  331.298
  319.340    4.991    0.522    0.394   66.453  356.530
  319.590    5.086    0.548    0.406   66.231  352.537
  319.840    5.250    0.558    0.365   66.244  320.727
  320.090    5.483    0.534    0.284   66.310  276.196
  320.340    5.657    0.515    0.258   66.574  250.277
  320.590    5.702    0.521    0.280   65.876  250.299
  320.840    5.653    0.517    0.294   65.535  251.832
  321.090    5.429    0.520    0.315   65.668  258.486
  321.340    5.156    0.536    0.350   65.978  277.587
  321.590    5.100    0.570    0.401   65.362  315.684
  321.840    5.183    0.598    0.400   63.400  293.112
  322.090    5.378    0.574    0.405   59.384  277.871
  322.340    5.701    0.561    0.405   58.923  271.669
  322.590    6.072    0.547    0.412   60.242  274.105
  322.840    6.399    0.536    0.414   61.680  282.564
  323.090    6.624    0.556    0.381   61.350  289.392
  323.340    6.782    0.561    0.394   59.636  275.185
  323.590    6.836    0.549    0.357   59.416  255.126
  323.840    6.890    0.528    0.335   59.369  250.429
  324.090    6.919    0.522    0.331   59.500  251.860
  324.340    6.911    0.534    0.343   59.693  254.396
  324.590    6.856    0.545    0.360   59.712  255.735
  324.840    6.809    0.531    0.328   59.726  248.228
  325.090    6.813    0.538    0.330   59.502  250.257
  325.340    6.817    0.541    0.338   58.925  248.069
  325.590    6.822    0.542    0.352   57.873  258.134
  325.840    6.850    0.542    0.371   56.167  278.249
  326.090    7.018    0.542    0.392   53.032  285.675
  326.340    7.353    0.538    0.390   50.329  276.495
  326.590    7.630    0.513    0.355   49.392  272.907
  326.840    7.876    0.517    0.342   49.170  273.836
  327.090    8.116    0.522    0.329   49.659  275.266
  327.340    8.332    0.520    0.313   50.208  277.197
  327.590    8.473    0.527    0.313   49.463  280.559
  327.840    8.543    0.538    0.314   49.229  265.099
  328.090    8.180    0.502    0.295   49.959  241.422
  328.340    7.529    0.480    0.283   50.507  246.064
  328.590    7.010    0.495    0.308   50.875  271.794
  328.840    6.741    0.536    0.380   50.888  301.852
  329.090    6.727    0.555    0.485   49.651  304.564
  329.340    6.887    0.558    0.446   46.949  277.805
  329.590    7.199    0.555    0.454   48.150  289.479
  329.840    7.365    0.545    0.471   49.173  272.535
  330.090    7.396    0.555    0.515   50.372  264.524
  330.340    7.306    0.581    0.568   51.868  272.180
  330.590    7.024    0.578    0.572   53.991  268.977
  330.840    6.666    0.550    0.539   56.230  256.865
  331.090    6.526    0.525    0.478   55.535  280.991
  331.340    6.423    0.535    0.413   53.057  272.884
  331.590    6.310    0.555    0.406   51.648  266.681
  331.840    6.177    0.568    0.447   52.256  278.857
  332.090    5.992    0.560    0.444   54.281  301.269
  332.340    5.728    0.532    0.408   56.024  266.563
  332.590    5.245    0.505    0.327   58.410  254.536
  332.840    4.833    0.513    0.330   61.865  263.598
  333.090    4.480    0.533    0.349   65.201  270.854
  333.340    4.143    0.551    0.347   66.342  269.370
  333.590    3.684    0.567    0.326   62.625  268.694
  333.840    3.293    0.591    0.377   64.123  271.231
  334.090    2.970    0.588    0.437   70.780  293.753
  334.340    2.869    0.577    0.422   74.055  299.704
  334.590    2.902    0.564    0.392   74.187  298.121
  334.840    3.028    0.552    0.379   72.008  293.526
  335.090    3.271    0.541    0.389   68.152  285.419
  335.340    3.589    0.541    0.395   64.212  282.940
  335.590    3.834    0.577    0.508   61.853  303.044
  335.840    4.009    0.572    0.571   60.741  322.853
  336.090    4.175    0.549    0.573   60.045  326.697
  336.340    4.404    0.522    0.526   58.695  315.171
  336.590    4.795    0.487    0.461   55.537  307.331
  336.840    4.871    0.448    0.464   56.293  318.238
  337.090    4.428    0.461    0.465   59.868  272.066
  337.340    3.934    0.495    0.473   62.196  270.780
  337.590    3.476    0.527    0.506   62.685  288.880
  337.840    3.106    0.550    0.554   61.868  309.294
  338.090    2.833    0.572    0.575   61.560  325.143
  338.340    2.749    0.591    0.598   62.316  333.958
  338.590    2.731    0.589    0.601   63.282  327.153
  338.840    2.773    0.594    0.593   64.421  329.988
  339.090    2.907    0.596    0.576   65.265  329.413
  339.340    3.147    0.591    0.549   65.340  315.280
  339.590    3.607    0.579    0.489   63.876  274.999
  339.840    4.522    0.573    0.406   62.407  248.249
  340.090    5.149    0.558    0.364   60.287  265.136
  340.340    6.264    0.549    0.333   57.454  252.812
  340.590    7.646    0.540    0.311   54.858  237.969
  340.840    8.987    0.529    0.297   53.034  232.970
  341.090   10.803    0.520    0.303   51.954  235.645
  341.340   12.519    0.532    0.323   51.227  234.837
  341.590   13.761    0.536    0.331   50.293  236.868
  341.840   14.427    0.537    0.325   47.758  239.806
  342.090   14.705    0.531    0.315   46.348  243.044
  342.340   14.795    0.519    0.307   47.312  244.673
  342.590   14.831    0.507    0.309   50.018  241.071
  342.840   14.952    0.509    0.304   48.053  239.004
  343.090   14.963    0.501    0.317   48.545  239.029
  343.340   15.053    0.498    0.326   48.856  242.970
  343.590   15.172    0.508    0.335   48.752  241.991
  343.840   15.182    0.527    0.339   48.708  236.190
  344.090   14.726    0.541    0.335   49.957  234.868
  344.340   14.080    0.539    0.345   50.219  236.144
  344.590   13.481    0.526    0.332   51.186  236.167
  344.840   12.621    0.520    0.323   53.216  237.097
  345.090   11.783    0.521    0.319   55.839  237.925
  345.340   11.127    0.525    0.315   57.514  237.347
  345.590   10.849    0.525    0.301   54.349  233.927
  345.840   11.454    0.512    0.292   47.940  234.788
  346.090   12.322    0.505    0.321   48.190  238.433
  346.340   13.191    0.503    0.325   48.621  240.263
  346.590   14.098    0.512    0.322   49.230  241.491
  346.840   14.834    0.527    0.321   50.133  242.419
  347.090   14.681    0.531    0.322   51.423  242.447
  347.340   13.932    0.529    0.322   50.697  242.473
  347.590   12.950    0.520    0.317   50.950  242.905
  347.840   12.314    0.532    0.315   53.158  242.728
  348.090   11.838    0.544    0.311   55.188  242.150
  348.340   11.528    0.544    0.307   56.981  241.472
  348.590   11.447    0.524    0.311   61.546  240.927
  348.840   11.028    0.514    0.311   66.504  240.121
  349.090   10.481    0.499    0.292   72.212  239.742
  349.340    9.906    0.500    0.278   75.965  238.461
  349.590    9.491    0.503    0.267   75.743  237.279
  349.840    9.241    0.503    0.252   72.196  236.499
  350.090    9.006    0.498    0.221   67.864  235.810
  350.340    8.809    0.478    0.198   63.929  236.257
  350.590    8.560    0.470    0.169   63.468  237.083
  350.840    8.364    0.498    0.169   65.674  237.606
  351.090    8.187    0.519    0.189   68.417  238.232
  351.340    8.030    0.521    0.212   70.213  238.961
  351.590    7.883    0.519    0.216   70.426  239.474
  351.840    7.710    0.517    0.218   71.433  239.919
  352.090    7.547    0.505    0.233   73.820  240.750
  352.340    7.306    0.497    0.230   74.959  241.579
  352.590    7.127    0.485    0.228   75.922  242.808
  352.840    7.015    0.472    0.235   76.768  244.236
  353.090    6.900    0.483    0.243   76.201  245.152
