~VERSION INFORMATION
 VERS.                 2.0:   CWLS LOG ASCII STANDARD -VERSION 2.0
 WRAP.                  NO:   ONE LINE PER DEPTH STEP
~WELL INFORMATION BLOCK
#MNEM.UNIT           DATA                    DESCRIPTION OF MNEMONIC
#---------    -------------------            -------------------------------
# Generated from Intellog Unique Number	CS_77_79/WELL/913
WELL.         NOVALTA VIOLET                 : Well_name    - WELL
LOC .         00/07-32-078-03W4/0            : Location     - LOCATION
UWI .         00/07-32-078-03W4/0            : Uwi          - UNIQUE WELL ID
ENTR.         JHS                            : Entered      - ENTERED BY
SRVC.         SCHLUMBERGER                   : Scn          - SERVICE COMPANY
STRT.M        135                            : top_depth    - START DEPTH
STOP.M        400                            : bot_depth    - STOP DEPTH
STEP.M        0.25                           : increment    - STEP LENGTH
 NULL. -999.2500:NULL Value
~CURVE INFORMATION BLOCK
#MNEM UNIT       ERCB CURVE CODE    CURVE DESCRIPTION
#-----------   ------------------   ----------------------------------
DEPT.M        00 001 00 00         : DEPTH        - DEPTH
DPHI.V/V      00 890 00 00         : PHID         - DENSITY POROSITY (LIMESTONE)
NPHI.V/V      00 330 00 00         : PHIN         - NEUTRON POROSITY (LIMESTONE)
GR  .API      00 310 00 00         : GR           - GAMMA RAY
ILD .OHMM     00 120 00 00         : RESD         - DEEP RESISTIVITY (DIL)
RHOB.KG/M3    00 350 00 00         : DENS         - BULK DENSITY
~PARAMETER INFORMATION
#MNEM.UNIT           DATA             DESCRIPTION OF MNEMONIC
#---------         -----------     ------------------------------
GL  .M        549.79               : gl           - GROUND LEVEL ELEVATION
EREF.M        552.8                : kb           - ELEVATION OF DEPTH REFERENCE
DATM.M        552.8                : datum        - DATUM ELEVATION
TDD .M        405                  : tdd          - TOTAL DEPTH DRILLER
RUN .         ONE                  : Run          - RUN NUMBER
ENG .         BILL                 : Engineer     - RECORDING ENGINEER
WIT .         JIM                  : Witness      - WITNESSED BY
MUD .         GEL                  : Mud_type     - MUD TYPE
MATR.         LIMESTONE            : Logunit      - NEUTRON MATRIX
TMAX.C        23                   : BHT          - MAXIMUM RECORDED TEMPERATURE
BHTD.M        405                  : BHTDEP       - MAXIMUM RECORDED TEMPERATURE
MATR.         1                    : LOGUNIT      - NEUTRON MATRIX
RMT .C        25                   : MDTP         - TEMPERATURE OF MUD
NEUT.         1                    : NEUTRON      - NEUTRON TYPE
RESI.         0                    : RESIST       - RESISTIVITY TYPE
RMC .OHMM     0.25                 : RMC          - RESISTIVITY OF MUD CAKE
RMF .OHMM     0.25                 : RMF          - RESISTIVITY OF MUD FILTRATE
SUFT.C        15                   : SUFT         - SURFACE TEMPERATURE
~A  DEPTH     PHID     PHIN       GR     RESD     DENS
  135.000    0.273    0.485  103.247    2.890    0.000
  135.250    0.265    0.475  103.875    2.891    0.000
  135.500    0.262    0.474  107.558    2.838    0.000
  135.750    0.267    0.525  108.191    2.839    0.000
  136.000    0.266    0.565  107.618    2.840    0.000
  136.250    0.266    0.533  107.033    2.788    0.000
  136.500    0.273    0.481  106.457    2.788    0.000
  136.750    0.277    0.456  107.093    2.738    0.000
  137.000    0.270    0.480  104.697    2.738    0.000
  137.250    0.274    0.493  101.690    2.739    0.000
  137.500    0.275    0.478   99.904    2.740    0.000
  137.750    0.265    0.492   99.931    2.740    0.000
  138.000    0.257    0.505  101.184    2.741    0.000
  138.250    0.253    0.512  101.810    2.741    0.000
  138.500    0.260    0.515  103.058    2.742    0.000
  138.750    0.259    0.514  106.129    2.743    0.000
  139.000    0.257    0.484  108.585    2.795    0.000
  139.250    0.261    0.450  110.436    2.795    0.000
  139.500    0.264    0.425  105.001    2.848    0.000
  139.750    0.262    0.415  103.209    2.903    0.000
  140.000    0.259    0.446  107.488    2.903    0.000
  140.250    0.253    0.457  105.696    2.959    0.000
  140.500    0.251    0.482  100.872    2.959    0.000
  140.750    0.260    0.509   99.082    3.072    0.000
  141.000    0.262    0.520  102.146    3.073    0.000
  141.250    0.251    0.521  106.437    3.131    0.000
  141.500    0.252    0.484  107.065    3.132    0.000
  141.750    0.251    0.465  108.318    3.133    0.000
  142.000    0.250    0.453  107.729    3.134    0.000
  142.250    0.242    0.457  102.304    3.076    0.000
  142.500    0.234    0.484  100.506    3.077    0.000
  142.750    0.230    0.474  105.397    3.136    0.000
  143.000    0.234    0.440  110.287    3.195    0.000
  143.250    0.236    0.423  110.312    3.196    0.000
  143.500    0.235    0.445  109.131    3.197    0.000
  143.750    0.231    0.462  111.596    3.258    0.000
  144.000    0.224    0.467  113.439    3.382    0.000
  144.250    0.228    0.476  114.084    3.446    0.000
  144.500    0.231    0.456  113.500    3.512    0.000
  144.750    0.230    0.462  111.709    3.513    0.000
  145.000    0.226    0.478  110.522    3.513    0.000
  145.250    0.221    0.487  108.735    3.450    0.000
  145.500    0.235    0.488  104.511    3.450    0.000
  145.750    0.240    0.475  105.151    3.451    0.000
  146.000    0.234    0.489  111.254    3.452    0.000
  146.250    0.222    0.507  105.212    3.517    0.000
  146.500    0.216    0.474   98.560    4.008    0.000
  146.750    0.208    0.434   92.519    4.482    0.000
  147.000    0.202    0.425   86.480    4.830    0.000
  147.250    0.201    0.445   91.365    5.014    0.000
  147.500    0.211    0.433  101.116    5.110    0.000
  147.750    0.218    0.428  108.431    5.017    0.000
  148.000    0.211    0.455  112.103    4.834    0.000
  148.250    0.210    0.456  104.237    4.746    0.000
  148.500    0.227    0.431   86.657    5.114    0.000
  148.750    0.283    0.444   68.470    6.279    0.000
  149.000    0.301    0.417   60.614    8.303    0.000
  149.250    0.301    0.395   56.997   11.398    0.000
  149.500    0.288    0.389   53.381   13.231    0.000
  149.750    0.268    0.417   50.980   14.257    0.000
  150.000    0.251    0.442   57.082   12.993    0.000
  150.250    0.268    0.427   66.828   11.197    0.000
  150.500    0.273    0.415   79.006    9.831    0.000
  150.750    0.256    0.409   83.893    8.632    0.000
  151.000    0.230    0.417   85.139    7.866    0.000
  151.250    0.222    0.430   85.170    7.580    0.000
  151.500    0.227    0.436   85.808    8.169    0.000
  151.750    0.251    0.425   84.625    8.802    0.000
  152.000    0.261    0.401   88.905    9.484    0.000
  152.250    0.267    0.414   96.222   10.033    0.000
  152.500    0.263    0.438  102.323   10.415    0.000
  152.750    0.241    0.435  106.604   11.017    0.000
  153.000    0.236    0.396   97.527   11.225    0.000
  153.250    0.235    0.380   79.953   12.096    0.000
  153.500    0.226    0.373   78.762   12.794    0.000
  153.750    0.218    0.372   80.011   13.282    0.000
  154.000    0.215    0.369   81.859   14.049    0.000
  154.250    0.224    0.356   78.857   14.584    0.000
  154.500    0.245    0.351   79.489   15.426    0.000
  154.750    0.246    0.356   83.164   16.015    0.000
  155.000    0.236    0.353   82.593   16.319    0.000
  155.250    0.221    0.350   77.154   16.943    0.000
  155.500    0.228    0.356   73.546   17.265    0.000
  155.750    0.249    0.360   71.146   17.269    0.000
  156.000    0.257    0.364   68.133   17.273    0.000
  156.250    0.241    0.359   73.029   16.958    0.000
  156.500    0.233    0.329   73.052   16.649    0.000
  156.750    0.255    0.318   67.620   16.652    0.000
  157.000    0.257    0.337   64.614   16.656    0.000
  157.250    0.241    0.350   71.937   16.660    0.000
  157.500    0.235    0.341   75.001   16.977    0.000
  157.750    0.251    0.344   69.560   17.299    0.000
  158.000    0.266    0.354   62.910   17.304    0.000
  158.250    0.269    0.338   64.157   17.308    0.000
  158.500    0.253    0.324   69.656   16.991    0.000
  158.750    0.239    0.318   68.466   16.682    0.000
  159.000    0.232    0.337   67.893   16.076    0.000
  159.250    0.234    0.357   69.743   14.927    0.000
  159.500    0.244    0.367   71.597   13.858    0.000
  159.750    0.245    0.385   78.915   13.108    0.000
  160.000    0.234    0.415   88.054   12.399    0.000
  160.250    0.227    0.432   91.123   11.727    0.000
  160.500    0.217    0.420   89.330   11.093    0.000
  160.750    0.210    0.411   91.185   10.689    0.000
  161.000    0.206    0.406   94.256   10.302    0.000
  161.250    0.213    0.388   95.497   10.497    0.000
  161.500    0.234    0.372   93.701   10.898    0.000
  161.750    0.207    0.363   79.764   11.526    0.000
  162.000    0.184    0.355   68.256   11.316    0.000
  162.250    0.177    0.366   73.749   10.905    0.000
  162.500    0.211    0.410   89.575    9.938    0.000
  162.750    0.219    0.457  101.144    9.227    0.000
  163.000    0.213    0.453  107.855    7.805    0.000
  163.250    0.205    0.429  110.922    7.246    0.000
  163.500    0.204    0.420  109.735    6.983    0.000
  163.750    0.208    0.428  102.477    7.116    0.000
  164.000    0.217    0.432   97.649    7.668    0.000
  164.250    0.215    0.417   94.039    8.737    0.000
  164.500    0.232    0.390   89.812   10.726    0.000
  164.750    0.257    0.379   83.169   12.924    0.000
  165.000    0.276    0.368   80.156   15.285    0.000
  165.250    0.290    0.367   77.759   16.780    0.000
  165.500    0.297    0.376   80.222   17.101    0.000
  165.750    0.306    0.396   86.326   16.788    0.000
  166.000    0.303    0.397   89.995   15.587    0.000
  166.250    0.310    0.386   94.280   14.744    0.000
  166.500    0.361    0.417   91.268   15.023    0.000
  166.750    0.495    0.564   76.120   16.804    0.000
  167.000    0.474    0.443   62.180   17.444    0.000
  167.250    0.400    0.399   50.068   19.878    0.000
  167.500    0.340    0.374   44.636   21.023    0.000
  167.750    0.317    0.379   43.449   21.828    0.000
  168.000    0.309    0.362   40.443   21.831    0.000
  168.250    0.320    0.351   39.862   21.837    0.000
  168.500    0.339    0.349   51.437   21.439    0.000
  168.750    0.344    0.361   59.966   21.048    0.000
  169.000    0.326    0.362   67.287   20.666    0.000
  169.250    0.315    0.362   68.539   20.669    0.000
  169.500    0.323    0.372   68.556   20.294    0.000
  169.750    0.331    0.403   69.813   19.922    0.000
  170.000    0.328    0.411   71.659   19.198    0.000
  170.250    0.307    0.402   72.307   18.501    0.000
  170.500    0.295    0.386   74.752   17.828    0.000
  170.750    0.291    0.391   82.068   16.553    0.000
  171.000    0.270    0.406   88.173   16.252    0.000
  171.250    0.256    0.406   86.386   16.561    0.000
