~VERSION INFORMATION
 VERS.                 2.0:   CWLS LOG ASCII STANDARD -VERSION 2.0
 WRAP.                  NO:   ONE LINE PER DEPTH STEP
~WELL INFORMATION BLOCK
#MNEM.UNIT           DATA                    DESCRIPTION OF MNEMONIC
#---------    -------------------            -------------------------------
# Generated from Intellog Unique Number	CW_70_72/WELL/994
NULL.         -999.25                        : NULL_VALUE
WELL.         CHIEFCO ET AL CALLW 09-19      : Well_name    - WELL              
LOC .         09-19-071-20W4                 : Location     - LOCATION          
UWI .         00/09-19-071-20W4/0            : Uwi          - UNIQUE WELL ID    
ENTR.         JAYE                           : Entered      - ENTERED BY        
SRVC.         SCHLUMBERGER                   : Scn          - SERVICE COMPANY   
DATE.         20 JAN 83                      : Date         - LOG DATE          
STRT.M        320                            : top_depth    - START DEPTH       
STOP.M        495                            : bot_depth    - STOP DEPTH        
STEP.M        0.25                           : increment    - STEP LENGTH       
~CURVE INFORMATION BLOCK
#MNEM UNIT       ERCB CURVE CODE    CURVE DESCRIPTION
#-----------   ------------------   ----------------------------------
DEPT.M        00 001 00 00         : DEPTH        - DEPTH                       
DPHI.V/V      00 890 00 00         : PHID         - DENSITY POROSITY (SANDSTONE)
NPHI.V/V      00 330 00 00         : PHIN         - NEUTRON POROSITY (SANDSTONE)
GR  .API      00 310 00 00         : GR           - GAMMA RAY                   
CALI.MM       00 280 01 00         : CAL          - CALIPER                     
ILD .OHMM     00 120 00 00         : RESD         - DEEP RESISTIVITY (DIL)      
~PARAMETER INFORMATION       
#MNEM.UNIT           DATA             DESCRIPTION OF MNEMONIC
#---------         -----------     ------------------------------
GL  .M        593.2                : gl           - GROUND LEVEL ELEVATION      
EREF.M        596.2                : kb           - ELEVATION OF DEPTH REFERENCE
DATM.M        593.2                : datum        - DATUM ELEVATION             
TDD .M        498                  : tdd          - TOTAL DEPTH DRILLER         
RUN .         ONE                  : Run          - RUN NUMBER                  
ENG .         GAGGINO              : Engineer     - RECORDING ENGINEER          
WIT .         BAILEY               : Witness      - WITNESSED BY                
BASE.         EDM                  : Branch       - HOME BASE OF LOGGING UNIT   
MUD .         GEL CHEM             : Mud_type     - MUD TYPE                    
MATR.         SANDSTONE            : Logunit      - NEUTRON MATRIX              
TMAX.C        22.2                 : BHT          - MAXIMUM RECORDED TEMPERATURE
BHTD.M        496.5                : BHTDEP       - MAXIMUM RECORDED TEMPERATURE
RMT .C        32.7                 : MDTP         - TEMPERATURE OF MUD          
MUDD.KG/M     1100                 : MWT          - MUD DENSITY                 
NEUT.         1                    : NEUTRON      - NEUTRON TYPE                
RESI.         0                    : RESIST       - RESISTIVITY TYPE            
RM  .OHMM     11                   : RM           - RESISTIVITY OF MUD          
RMC .OHMM     0                    : RMC          - RESISTIVITY OF MUD CAKE     
RMF .OHMM     9.9                  : RMF          - RESISTIVITY OF MUD FILTRATE 
SUFT.C        0                    : SUFT         - SURFACE TEMPERATURE         
~A  DEPTH     PHID     PHIN       GR      CAL     RESD
# ...
  393.000    0.310    0.453   73.317  169.706    3.374
  393.250    0.310    0.451   76.425  169.907    3.381
  393.500    0.319    0.457   78.973  169.794    3.376
  393.750    0.323    0.480   77.288  169.477    3.390
  394.000    0.323    0.496   73.238  169.055    3.423
  394.250    0.317    0.479   70.682  168.530    3.424
  394.500    0.311    0.483   69.060  168.213    3.406
  394.750    0.310    0.489   69.429  167.582    3.350
  395.000    0.311    0.496   69.922  167.576    3.258
  395.250    0.307    0.503   70.167  167.153    3.192
  395.500    0.302    0.483   69.167  167.043    3.134
  395.750    0.296    0.467   69.288  167.034    3.088
  396.000    0.289    0.451   69.719  167.029    3.054
  396.250    0.281    0.419   70.275  167.124    3.027
  396.500    0.293    0.403   67.719  167.325    3.028
  396.750    0.298    0.411   68.524  167.628    3.035
  397.000    0.295    0.424   71.009  167.934    3.047
  397.250    0.287    0.437   74.365  168.133    3.054
  397.500    0.276    0.448   74.983  168.127    3.055
  397.750    0.291    0.435   73.672  168.431    3.061
  398.000    0.301    0.431   73.170  168.423    3.063
  398.250    0.300    0.432   73.352  168.416    3.058
  398.500    0.306    0.415   73.597  168.410    3.059
  398.750    0.318    0.406   73.842  168.402    3.043
  399.000    0.321    0.428   73.340  168.396    3.055
  399.250    0.314    0.445   73.460  168.389    3.067
  399.500    0.306    0.433   74.389  168.381    3.040
  399.750    0.300    0.420   76.128  168.476    3.001
  400.000    0.303    0.405   72.950  168.782    2.957
  400.250    0.307    0.400   67.468  168.879    2.925
  400.500    0.301    0.417   71.571  168.975    2.904
  400.750    0.300    0.415   75.924  168.968    2.900
  401.000    0.311    0.408   75.173  168.857    2.906
  401.250    0.324    0.418   73.737  168.850    2.907
  401.500    0.334    0.415   72.737  169.049    2.908
  401.750    0.329    0.399   70.616  169.250    2.882
  402.000    0.316    0.408   67.252  169.451    2.872
  402.250    0.319    0.435   69.923  169.546    2.862
  402.500    0.328    0.423   71.288  169.540    2.912
  402.750    0.333    0.417   71.969  169.741    3.036
  403.000    0.336    0.413   73.520  169.940    3.201
  403.250    0.324    0.405   76.504  170.141    3.362
  403.500    0.275    0.414   82.225  170.134    3.518
  403.750    0.221    0.426   86.640  170.232    3.689
  404.000    0.205    0.438   92.674  170.225    3.839
  404.250    0.196    0.448   99.142  170.424    4.002
  404.500    0.185    0.455  102.748  170.520    4.173
  404.750    0.197    0.451   98.698  170.617    4.285
  405.000    0.192    0.448   99.502  170.611    4.476
  405.250    0.184    0.435  102.672  170.707    4.588
  405.500    0.166    0.418  105.158  171.011    4.659
  405.750    0.194    0.402  100.424  171.212    4.497
  406.000    0.206    0.402   97.618  171.931    4.300
  406.250    0.235    0.432   99.419  172.338    4.097
  406.500    0.260    0.468   98.979  173.992    3.947
  406.750    0.292    0.504   95.676  177.097    3.860
  407.000    0.308    0.477   93.183  176.052    3.712
  407.250    0.258    0.456   91.497  171.896    3.914
  407.500    0.245    0.443   91.245  169.710    4.189
  407.750    0.238    0.442   93.481  168.976    4.458
  408.000    0.225    0.437   97.958  169.073    4.579
  408.250    0.200    0.437  103.493  169.376    4.453
  408.500    0.191    0.446  102.804  169.577    4.086
  408.750    0.250    0.441   98.568  169.985    3.596
  409.000    0.300    0.485   92.464  170.394    3.184
  409.250    0.362    0.520   85.240  170.594    2.840
  409.500    0.421    0.582   80.007  172.973    2.767
  409.750    0.457    0.604   72.036  176.492    2.945
  410.000    0.508    0.606   76.140  178.871    3.182
  410.250    0.356    0.578   81.052  175.130    3.563
  410.500    0.241    0.480   84.907  172.218    3.982
  410.750    0.185    0.439   87.205  170.448    4.303
  411.000    0.202    0.426   89.753  169.196    4.563
  411.250    0.227    0.416   92.425  168.461    4.748
  411.500    0.220    0.402   96.965  168.144    4.776
  411.750    0.212    0.400   98.516  167.721    4.787
  412.000    0.219    0.418   95.898  167.402    4.762
  412.250    0.215    0.437   95.209  167.395    4.781
  412.500    0.205    0.446   96.947  167.491    4.792
  412.750    0.206    0.431   99.806  167.590    4.820
  413.000    0.217    0.418   96.503  167.790    4.858
  413.250    0.226    0.410   89.466  167.782    4.860
  413.500    0.201    0.411   93.569  167.670    4.871
  413.750    0.173    0.424   98.544  167.664    4.891
  414.000    0.172    0.433   97.358  167.761    4.892
  414.250    0.191    0.432   95.735  168.376    4.894
  414.500    0.213    0.424   94.797  168.785    4.895
  414.750    0.188    0.431   94.420  169.399    4.869
  415.000    0.188    0.438   94.477  170.015    4.834
  415.250    0.206    0.431   95.033  170.942    4.791
  415.500    0.224    0.420   95.651  170.415    4.747
  415.750    0.215    0.411   94.900  170.202    4.608
  416.000    0.232    0.407   93.464  168.638    4.440
  416.250    0.247    0.406   87.983  167.594    3.997
  416.500    0.264    0.412   81.257  167.276    3.626
  416.750    0.282    0.419   76.398  167.059    3.283
  417.000    0.304    0.443   73.780  167.156    3.104
  417.250    0.305    0.459   70.290  167.565    3.170
  417.500    0.292    0.476   66.863  168.076    3.517
  417.750    0.212    0.467   61.132  168.484    4.128
  418.000    0.129    0.353   61.564  169.100    4.718
  418.250    0.115    0.317   62.617  169.612    5.445
  418.500    0.112    0.297   62.737  170.123    6.549
  418.750    0.108    0.288   62.608  170.427    7.600
  419.000    0.093    0.290   62.293  170.316    8.704
  419.250    0.098    0.300   61.729  170.102    9.913
  419.500    0.095    0.315   60.853  170.093   11.333
  419.750    0.069    0.299   59.915  169.880   12.176
  420.000    0.040    0.226   58.417  169.873   12.434
  420.250    0.049    0.196   56.670  169.864    9.778
  420.500    0.086    0.219   58.844  170.065    6.578
  420.750    0.153    0.290   64.069  169.644    5.483
  421.000    0.188    0.329   66.616  168.910    4.377
  421.250    0.282    0.397   65.118  168.487    3.423
  421.500    0.270    0.407   68.662  168.168    3.200
  421.750    0.255    0.416   72.018  167.749    3.171
  422.000    0.259    0.418   72.636  167.118    3.220
  422.250    0.264    0.416   73.317  166.694    3.258
  422.500    0.266    0.426   74.806  166.586    3.277
  422.750    0.271    0.450   76.669  166.372    3.309
  423.000    0.277    0.462   77.598  166.674    3.335
  423.250    0.272    0.451   78.030  167.186    3.336
  423.500    0.278    0.428   78.896  167.491    3.350
  423.750    0.289    0.425   79.452  168.105    3.383
  424.000    0.286    0.440   78.328  168.307    3.384
  424.250    0.280    0.461   76.457  168.816    3.385
  424.500    0.272    0.466   75.519  168.812    3.405
  424.750    0.283    0.445   75.825  168.803    3.432
  425.000    0.285    0.428   77.751  169.003    3.479
  425.250    0.276    0.443   83.037  169.100    3.519
  425.500    0.266    0.462   84.153  169.196    3.547
  425.750    0.247    0.458   82.095  169.295    3.588
  426.000    0.239    0.437   81.033  168.976    3.651
  426.250    0.248    0.424   79.286  168.762    3.728
  426.500    0.230    0.415   75.236  168.755    3.800
  426.750    0.225    0.398   74.734  169.474    3.830
  427.000    0.234    0.421   76.410  170.295    3.810
  427.250    0.220    0.412   79.393  171.638    3.733
  427.500    0.255    0.413   81.816  174.535    3.686
  427.750    0.278    0.430   83.430  183.034    3.618
  428.000    0.331    0.455   85.604  191.533    3.453
  428.250    0.341    0.469   90.019  193.912    3.259
  428.500    0.301    0.485   96.176  195.150    3.069
  428.750    0.291    0.505   99.658  198.669    2.870
  429.000    0.342    0.539   97.537  206.857    2.638
  429.250    0.741    0.583   86.890  219.402    2.415
