~VERSION INFORMATION
 VERS.                 2.0:   CWLS LOG ASCII STANDARD -VERSION 2.0
 WRAP.                  NO:   ONE LINE PER DEPTH STEP
~WELL INFORMATION BLOCK
#MNEM.UNIT           DATA                    DESCRIPTION OF MNEMONIC
#---------    -------------------            -------------------------------
# Generated from Intellog Unique Number	CC_84_87/WELL/1053
NULL.         -999.25                        : NULL_VALUE
WELL.         PETROREP ET AL HOUSE           : Well_name    - WELL              
LOC .         04-20-084-15W4                 : Location     - LOCATION          
UWI .         00/04-20-084-15W400            : Uwi          - UNIQUE WELL ID    
ENTR.         JHS                            : Entered      - ENTERED BY        
SRVC.         COMPUTALOG                     : Scn          - SERVICE COMPANY   
DATE.         06 JAN 81                      : Date         - LOG DATE
STRT.M        85                             : top_depth    - START DEPTH       
STOP.M        262.001                        : bot_depth    - STOP DEPTH        
STEP.M        0.3                            : increment    - STEP LENGTH       
~CURVE INFORMATION BLOCK
#MNEM UNIT       ERCB CURVE CODE    CURVE DESCRIPTION
#-----------   ------------------   ----------------------------------
DEPT.M        00 001 00 00         : DEPTH        - DEPTH                       
DPHI.V/V      00 890 00 00         : PHID         - DENSITY POROSITY (LIMESTONE)
NPHI.V/V      00 330 00 00         : PHIN         - NEUTRON POROSITY (LIMESTONE)
GR  .API      00 310 00 00         : GR           - GAMMA RAY                   
ILD .OHMM     00 120 00 00         : RESD         - DEEP RESISTIVITY (DIL)      
~PARAMETER INFORMATION       
#MNEM.UNIT           DATA             DESCRIPTION OF MNEMONIC
#---------         -----------     ------------------------------
GL  .M        529.5                : gl           - GROUND LEVEL ELEVATION      
EREF.M        533.16               : kb           - ELEVATION OF DEPTH REFERENCE
DATM.M        533.16               : datum        - DATUM ELEVATION             
TDD .M        265                  : tdd          - TOTAL DEPTH DRILLER         
RUN .         ONE                  : Run          - RUN NUMBER                  
ENG .         BILL                 : Engineer     - RECORDING ENGINEER          
WIT .         JIM                  : Witness      - WITNESSED BY                
MUD .         GEL                  : Mud_type     - MUD TYPE                    
MATR.         LIMESTONE            : Logunit      - NEUTRON MATRIX              
TMAX.C        13                   : BHT          - MAXIMUM RECORDED TEMPERATURE
BHTD.M        265                  : BHTDEP       - MAXIMUM RECORDED TEMPERATURE
MATR.         1                    : LOGUNIT      - NEUTRON MATRIX              
RMT .C        25                   : MDTP         - TEMPERATURE OF MUD          
NEUT.         1                    : NEUTRON      - NEUTRON TYPE                
RESI.         0                    : RESIST       - RESISTIVITY TYPE            
RMC .OHMM     0.25                 : RMC          - RESISTIVITY OF MUD CAKE     
RMF .OHMM     0.25                 : RMF          - RESISTIVITY OF MUD FILTRATE 
SUFT.C        15                   : SUFT         - SURFACE TEMPERATURE         
~A  DEPTH     PHID     PHIN       GR     RESD
   85.000    0.396    0.441   69.502   10.440
   85.300    0.421    0.397   67.039   10.832
   85.600    0.421    0.402   82.258   11.238
   85.900    0.381    0.437   85.282   10.821
   86.200    0.320    0.480   78.550   10.422
   86.500    0.311    0.478   74.258   11.016
   86.800    0.309    0.431   79.725   11.862
   87.100    0.302    0.389   92.503   11.856
   87.400    0.304    0.403   91.871   11.632
   87.700    0.353    0.413   96.115   10.593
   88.000    0.409    0.452   92.430    7.573
   88.300    0.439    0.495   88.750    6.284
   88.600    0.466    0.446   75.312    7.853
   88.900    0.448    0.402   71.021   10.573
   89.200    0.516    0.389   67.946   12.265
   89.500    0.530    0.393   64.879   11.812
   89.800    0.475    0.378   63.023    9.985
   90.100    0.341    0.363   75.195   10.357
   90.400    0.313    0.385   83.096    9.259
   90.700    0.316    0.429   70.271    7.974
   91.000    0.322    0.441   61.102    9.782
   91.300    0.310    0.345   78.149    9.076
   91.600    0.303    0.327   98.245    7.255
   91.900    0.300    0.355   99.441    5.091
   92.200    0.323    0.432   95.148    4.224
   92.500    0.351    0.501   92.076    4.068
   92.800    0.416    0.487   95.102    4.546
   93.100    0.474    0.496   93.248    5.082
   93.400    0.424    0.449  118.222    6.233
   93.700    0.246    0.401  135.876    7.936
   94.000    0.277    0.382  113.907    9.918
   94.300    0.297    0.425   88.887   12.629
   94.600    0.298    0.407   87.643   14.650
   94.900    0.288    0.387  101.642   14.643
   95.200    0.254    0.385  116.250   12.379
   95.500    0.220    0.396  122.322    9.533
   95.800    0.233    0.414  122.908    8.059
   96.100    0.269    0.429  117.397    7.618
   96.400    0.290    0.435   99.083   11.468
   96.700    0.292    0.403   92.963   14.602
   97.000    0.279    0.379   97.207   16.627
   97.300    0.273    0.388  106.330   14.055
   97.600    0.287    0.410  102.649   11.881
   97.900    0.307    0.409   93.479   13.279
   98.200    0.312    0.385   84.307   16.595
   98.500    0.311    0.388   90.382   18.548
   98.800    0.308    0.394  102.550   19.603
   99.100    0.287    0.373  108.626   18.879
   99.400    0.273    0.330  114.088   16.564
   99.700    0.274    0.308  123.817   15.657
  100.000    0.283    0.318  122.575   15.942
  100.300    0.294    0.343  117.066   15.642
  100.600    0.293    0.344  117.652   15.063
  100.900    0.300    0.350  118.849   14.503
  101.200    0.307    0.375  111.507   14.772
  101.500    0.294    0.383  132.215   15.611
  101.800    0.239    0.354  149.261   15.604
  102.100    0.232    0.360  136.434   14.479
  102.400    0.235    0.371  118.730   12.014
  102.700    0.251    0.380  110.777   10.346
  103.000    0.260    0.374  112.585   10.936
  103.300    0.258    0.385  108.293   11.997
  103.600    0.255    0.359  104.002   12.445
  103.900    0.240    0.334  112.516   11.764
  104.200    0.229    0.316  141.144   10.131
  104.500    0.199    0.315  155.755    8.251
  104.800    0.170    0.323  159.390    7.240
  105.100    0.167    0.355  160.584    6.593
  105.400    0.187    0.364  159.341    6.004
  105.700    0.184    0.401  156.877    5.890
  106.000    0.182    0.386  153.808    6.225
  106.300    0.172    0.394  154.394    6.222
  106.600    0.161    0.387  145.832    5.992
  106.900    0.178    0.392  151.297    5.457
  107.200    0.187    0.398  161.636    4.700
  107.500    0.214    0.404  163.441    4.280
  107.800    0.230    0.420  164.637    4.278
  108.100    0.250    0.466  159.128    4.963
  108.400    0.250    0.465  149.350    5.866
  108.700    0.263    0.447  129.816    7.752
  109.000    0.279    0.389  115.160   10.833
  109.300    0.289    0.362  107.211   12.335
  109.600    0.279    0.339  126.088   12.102
  109.900    0.246    0.319  134.599    9.496
  110.200    0.233    0.321  137.014    9.490
  110.500    0.240    0.354  151.010    9.486
  110.800    0.248    0.381  162.574    8.170
  111.100    0.253    0.398  158.892    7.722
  111.400    0.260    0.384  153.382    8.162
  111.700    0.284    0.397  130.190   10.588
  112.000    0.320    0.451  109.437   16.856
  112.300    0.348    0.451  117.945   21.865
  112.600    0.363    0.410  115.486   23.107
  112.900    0.341    0.413   92.294   21.440
  113.200    0.280    0.397   89.828   18.812
  113.500    0.266    0.390   86.761   17.454
  113.800    0.277    0.353   85.518   19.874
  114.100    0.301    0.361   87.933   24.836
  114.400    0.312    0.342   85.468   27.247
  114.700    0.320    0.352   86.052   28.799
  115.000    0.324    0.358   84.811   29.877
  115.300    0.321    0.376   85.396   30.993
  115.600    0.319    0.410   84.765   30.982
  115.900    0.322    0.417   82.301   30.391
  116.200    0.316    0.422   78.622   29.820
  116.500    0.310    0.419   81.646   28.718
  116.800    0.313    0.387   87.109   28.175
  117.100    0.321    0.384   85.257   28.161
  117.400    0.326    0.391   79.135   28.145
  117.700    0.328    0.398   87.649   28.662
  118.000    0.322    0.387   93.111   30.293
  118.300    0.325    0.392   80.894   30.282
  118.600    0.319    0.391   71.117   30.835
  118.900    0.322    0.384   79.627   31.400
  119.200    0.316    0.407   87.530   29.679
  119.500    0.307    0.428   87.503   29.116
  119.800    0.309    0.423   82.603   29.103
  120.100    0.315    0.389   71.605   29.639
  120.400    0.323    0.369   75.241   30.178
  120.700    0.316    0.361   81.311   30.167
  121.000    0.320    0.356   82.508   30.151
  121.300    0.326    0.380   86.144   29.037
  121.600    0.331    0.404   84.292   27.447
  121.900    0.337    0.444   73.902   27.434
  122.200    0.340    0.453   73.878   27.421
  122.500    0.346    0.404   79.953   24.972
  122.800    0.349    0.390   85.416   21.109
  123.100    0.323    0.383   82.342   16.258
  123.400    0.286    0.357   89.636   12.064
  123.700    0.267    0.338  103.635    9.644
  124.000    0.253    0.370  113.364    8.621
  124.300    0.235    0.387  108.464    8.779
  124.600    0.236    0.408  112.099    8.298
  124.900    0.241    0.375  134.632    7.146
  125.200    0.236    0.369  141.316    6.508
  125.500    0.218    0.387  134.584    6.385
  125.800    0.211    0.403  130.905    6.501
  126.100    0.222    0.424  125.394    6.745
  126.400    0.240    0.424  126.586    7.399
  126.700    0.249    0.429  134.491    8.270
  127.000    0.268    0.392  131.418    9.417
  127.300    0.289    0.351  128.345   10.924
  127.600    0.303    0.341  131.983   11.124
  127.900    0.310    0.358  134.394   12.667
  128.200    0.320    0.417  122.788   15.252
  128.500    0.318    0.414  115.449   16.731
  128.800    0.305    0.405   99.575   17.039
  129.100    0.292    0.379   97.107   14.948
  129.400    0.292    0.386  103.184   14.942
  129.700    0.301    0.384  100.722   14.661
  130.000    0.319    0.404  100.698   14.928
  130.300    0.334    0.432   99.457   16.376
  130.600    0.330    0.461   93.335   16.676
  130.900    0.303    0.436   97.579   15.187
  131.200    0.276    0.388  102.434   13.575
  131.500    0.289    0.343   90.826   13.570
  131.800    0.382    0.340   84.094   11.052
  132.100    0.421    0.450   91.998    8.511
  132.400    0.406    0.547  129.165    7.468
  132.700    0.331    0.589  137.059    7.059
  133.000    0.227    0.416  140.091    7.323
  133.300    0.235    0.404  138.848    8.184
  133.600    0.229    0.388  133.334    8.651
  133.900    0.238    0.402  122.948    8.809
  134.201    0.239    0.409  114.390    8.643
  134.501    0.233    0.443  143.021    7.871
  134.801    0.228    0.445  146.044    7.302
  135.101    0.239    0.425  130.777    7.300
  135.401    0.264    0.393  114.906    7.715
  135.701    0.283    0.376  103.904    9.118
  136.001    0.296    0.397   96.567   10.979
  136.301    0.294    0.429   89.838   12.736
  136.601    0.294    0.416   84.327   14.235
  136.901    0.286    0.408   80.642   15.616
