~VERSION INFORMATION
 VERS.                 2.0:   CWLS LOG ASCII STANDARD -VERSION 2.0
 WRAP.                  NO:   ONE LINE PER DEPTH STEP
~WELL INFORMATION BLOCK
#MNEM.UNIT           DATA                    DESCRIPTION OF MNEMONIC
#---------    -------------------            -------------------------------
# Generated from Intellog Unique Number	CS_71_72/WELL/641
WELL.         MAYUNARD ET AL BEHAN           : Well_name    - WELL
LOC .         00/04-21-072-11W4/0            : Location     - LOCATION
UWI .         00/04-21-072-11W4/0            : Uwi          - UNIQUE WELL ID
ENTR.         SP                             : Entered      - ENTERED BY
SRVC.         SCHLUMBERGER                   : Scn          - SERVICE COMPANY
STRT.M        300                            : top_depth    - START DEPTH
STOP.M        522.5                          : bot_depth    - STOP DEPTH
STEP.M        0.25                           : increment    - STEP LENGTH
 NULL. -999.2500:NULL Value
~CURVE INFORMATION BLOCK
#MNEM UNIT       ERCB CURVE CODE    CURVE DESCRIPTION
#-----------   ------------------   ----------------------------------
DEPT.M        00 001 00 00         : DEPTH        - DEPTH
ILD .OHMM     00 120 00 00         : RESD         - DEEP RESISTIVITY (DIL)
DPHI.V/V      00 890 00 00         : PHID         - DENSITY POROSITY (LIMESTONE)
NPHI.V/V      00 330 00 00         : PHIN         - NEUTRON POROSITY (LIMESTONE)
GR  .API      00 310 00 00         : GR           - GAMMA RAY
~PARAMETER INFORMATION
#MNEM.UNIT           DATA             DESCRIPTION OF MNEMONIC
#---------         -----------     ------------------------------
GL  .M        645.8                : gl           - GROUND LEVEL ELEVATION
EREF.M        649.15               : kb           - ELEVATION OF DEPTH REFERENCE
DATM.M        645.8                : datum        - DATUM ELEVATION
TDD .M        530                  : tdd          - TOTAL DEPTH DRILLER
RUN .         ONE                  : Run          - RUN NUMBER
ENG .         BILL                 : Engineer     - RECORDING ENGINEER
WIT .         JIM                  : Witness      - WITNESSED BY
MUD .         GEL                  : Mud_type     - MUD TYPE
MATR.         LIMESTONE            : Logunit      - NEUTRON MATRIX
TMAX.C        29                   : BHT          - MAXIMUM RECORDED TEMPERATURE
BHTD.M        530                  : BHTDEP       - MAXIMUM RECORDED TEMPERATURE
MATR.         1                    : LOGUNIT      - NEUTRON MATRIX
RMT .C        25                   : MDTP         - TEMPERATURE OF MUD
NEUT.         1                    : NEUTRON      - NEUTRON TYPE
RESI.         0                    : RESIST       - RESISTIVITY TYPE
RMC .OHMM     0.25                 : RMC          - RESISTIVITY OF MUD CAKE
RMF .OHMM     0.25                 : RMF          - RESISTIVITY OF MUD FILTRATE
SUFT.C        15                   : SUFT         - SURFACE TEMPERATURE
~A  DEPTH     RESD     PHID     PHIN       GR
# ...
  430.500    5.781    0.267    0.473   86.262
  430.750    5.784    0.257    0.469   86.871
  431.000    5.868    0.251    0.469   87.481
  431.250    5.872    0.245    0.470   87.492
  431.500    5.876    0.239    0.469   85.691
  431.750    5.960    0.244    0.465   85.099
  432.000    5.964    0.246    0.464   85.710
  432.250    5.968    0.242    0.461   88.133
  432.500    5.971    0.254    0.461   89.344
  432.750    5.894    0.258    0.461   91.765
  433.000    5.898    0.242    0.467   92.981
  433.250    5.741    0.243    0.483   92.987
  433.500    5.504    0.251    0.489   91.193
  433.750    5.186    0.252    0.494   91.198
  434.000    4.868    0.253    0.500   92.413
  434.250    4.471    0.255    0.502   96.641
  434.500    4.074    0.258    0.502   99.060
  434.750    3.836    0.270    0.506   99.672
  435.000    3.438    0.282    0.513   99.679
  435.250    3.121    0.293    0.526   97.882
  435.500    3.043    0.301    0.534   97.292
  435.750    3.451    0.301    0.514   97.901
  436.000    3.616    0.273    0.482   99.114
  436.250    3.780    0.253    0.473  101.536
  436.500    3.941    0.240    0.475  100.941
  436.750    4.106    0.243    0.479   99.143
  437.000    4.109    0.249    0.485   96.743
  437.250    4.115    0.237    0.488   97.957
  437.500    4.198    0.230    0.483   98.570
  437.750    4.201    0.221    0.481   98.578
  438.000    4.207    0.220    0.481   94.371
  438.250    4.211    0.224    0.481   93.176
  438.500    4.295    0.225    0.483   93.188
  438.750    4.379    0.212    0.483   93.796
  439.000    4.380    0.208    0.484   94.410
  439.250    4.466    0.206    0.484   93.216
  439.500    4.548    0.201    0.478   91.416
  439.750    4.714    0.196    0.469   90.220
  440.000    4.877    0.189    0.457   90.229
  440.250    5.041    0.182    0.446   89.638
  440.500    5.286    0.172    0.432   86.634
  440.750    6.013    0.146    0.422   79.415
  441.000    6.658    0.099    0.413   69.182
  441.250    7.546    0.059    0.330   58.953
  441.500    9.236    0.053    0.221   54.743
  441.750   10.364    0.072    0.217   62.584
  442.000    8.280    0.100    0.220   71.629
  442.250    6.677    0.125    0.242   84.290
  442.500    6.119    0.161    0.317   97.553
  442.750    5.802    0.187    0.433   93.346
  443.000    5.564    0.197    0.462   96.369
  443.250    5.408    0.196    0.479   95.172
  443.500    5.331    0.198    0.473   92.168
  443.750    5.415    0.209    0.462   90.370
  444.000    5.418    0.211    0.457   91.587
  444.250    5.502    0.205    0.451   94.609
  444.500    5.508    0.210    0.458   97.026
  444.750    5.512    0.221    0.456   97.641
  445.000    5.272    0.231    0.448   96.444
  445.250    5.278    0.237    0.448   95.249
  445.500    5.199    0.237    0.471   97.067
  445.750    5.124    0.234    0.477   97.675
  446.000    5.126    0.226    0.480   98.893
  446.250    5.052    0.223    0.493  100.710
  446.500    4.974    0.223    0.498  101.318
  446.750    4.977    0.234    0.486   98.921
  447.000    4.980    0.232    0.476   95.315
  447.250    4.985    0.232    0.488   91.105
  447.500    4.907    0.233    0.484   93.527
  447.750    4.912    0.227    0.472   94.739
  448.000    4.835    0.221    0.469   94.749
  448.250    4.759    0.206    0.477   91.745
  448.500    4.682    0.198    0.483   88.743
  448.750    4.684    0.194    0.479   89.358
  449.000    4.609    0.192    0.475   89.364
  449.250    4.613    0.211    0.470   91.181
  449.500    4.535    0.222    0.485   94.204
  449.750    4.379    0.222    0.495   97.225
  450.000    4.141    0.217    0.499   99.643
  450.250    3.823    0.214    0.493  100.256
  450.500    3.506    0.230    0.484   99.060
  450.750    3.109    0.241    0.501   96.060
  451.000    2.871    0.249    0.522   94.864
  451.250    2.554    0.268    0.551   94.873
  451.500    2.396    0.264    0.554   96.086
  451.750    2.158    0.249    0.548   99.712
  452.000    1.921    0.245    0.549  102.130
  452.250    1.845    0.237    0.560  105.151
  452.500    2.009    0.229    0.569  108.174
  452.750    2.256    0.224    0.566  106.976
  453.000    2.419    0.217    0.546  100.359
  453.250    2.745    0.207    0.518   95.549
  453.500    2.989    0.198    0.495   93.752
  453.750    3.234    0.194    0.478   93.159
  454.000    3.479    0.196    0.473   91.962
  454.250    3.643    0.203    0.477   91.372
  454.500    3.726    0.206    0.472   91.380
  454.750    3.809    0.202    0.465   91.991
  455.000    3.893    0.194    0.458   93.205
  455.250    4.138    0.186    0.452   93.214
  455.500    4.463    0.174    0.448   88.407
  455.750    4.708    0.167    0.450   84.198
  456.000    4.953    0.158    0.428   81.797
  456.250    5.037    0.157    0.405   82.409
  456.500    5.121    0.192    0.399   86.034
  456.750    4.964    0.204    0.443   88.453
  457.000    4.647    0.213    0.462   90.271
  457.250    4.410    0.224    0.460   92.087
  457.500    4.252    0.226    0.470   93.902
  457.750    3.855    0.237    0.474   92.707
  458.000    3.697    0.242    0.472   96.334
  458.250    3.539    0.231    0.486  101.163
  458.500    3.143    0.225    0.515  102.374
  458.750    2.985    0.232    0.532  101.180
  459.000    2.828    0.237    0.530  101.791
  459.250    2.671    0.239    0.534  101.799
  459.500    2.594    0.226    0.531  102.411
  459.750    2.518    0.215    0.532  106.641
  460.000    2.602    0.208    0.526  107.852
  460.250    2.605    0.206    0.522  110.272
  460.500    2.931    0.205    0.521  112.089
  460.750    3.015    0.208    0.531  107.881
  461.000    3.098    0.214    0.519  107.891
  461.250    3.103    0.211    0.511  108.503
  461.500    3.185    0.205    0.505  107.909
  461.750    3.271    0.202    0.502  107.920
  462.000    3.275    0.195    0.515  105.519
  462.250    3.277    0.194    0.497  102.515
  462.500    3.282    0.209    0.474  101.320
  462.750    3.125    0.214    0.476  109.763
  463.000    2.967    0.216    0.494  109.774
  463.250    2.891    0.232    0.516  112.795
  463.500    2.976    0.229    0.527  113.406
  463.750    3.059    0.222    0.527  107.996
  464.000    3.384    0.207    0.500  103.786
  464.250    3.708    0.199    0.461   98.978
  464.500    4.355    0.187    0.440   95.374
  464.750    5.002    0.176    0.420   92.371
  465.000    5.567    0.159    0.412   89.365
  465.250    6.053    0.136    0.398   82.148
  465.500    6.377    0.126    0.383   77.338
  465.750    6.703    0.120    0.344   76.745
  466.000    6.786    0.124    0.328   80.970
  466.250    6.871    0.146    0.332   83.991
  466.500    6.795    0.184    0.375   86.411
  466.750    6.718    0.222    0.397   87.624
  467.000    6.720    0.239    0.403   83.419
  467.250    7.046    0.246    0.397   79.211
  467.500    7.613    0.249    0.387   76.811
  467.750    7.857    0.236    0.385   76.824
  468.000    8.263    0.229    0.397   78.036
  468.250    8.346    0.213    0.399   79.855
  468.500    8.511    0.205    0.403   81.066
  468.750    8.514    0.200    0.397   82.279
  469.000    8.276    0.194    0.397   85.302
  469.250    7.959    0.191    0.403   87.723
  469.500    8.044    0.212    0.405   88.933
  469.750    8.530    0.225    0.407   87.737
  470.000    8.853    0.236    0.394   78.112
  470.250    9.500    0.244    0.381   73.900
  470.500   10.147    0.244    0.378   73.912
  470.750   10.471    0.242    0.384   79.345
  471.000   10.555    0.240    0.397   82.364
  471.250   10.239    0.236    0.402   87.197
  471.500   10.001    0.233    0.409   89.614
  471.750    9.523    0.227    0.414   90.826
  472.000    9.204    0.219    0.421   91.437
  472.250    8.727    0.196    0.427   91.446
  472.500    8.488    0.186    0.420   95.675
  472.750    8.091    0.179    0.412   99.298
  473.000    7.614    0.179    0.411   99.910
  473.250    7.456    0.186    0.408  102.933
  473.500    7.138    0.193    0.417  105.953
  473.750    7.062    0.203    0.427  105.963
