~VERSION INFORMATION
 VERS.                 2.0:   CWLS LOG ASCII STANDARD -VERSION 2.0
 WRAP.                  NO:   ONE LINE PER DEPTH STEP
~WELL INFORMATION BLOCK
#MNEM.UNIT           DATA                    DESCRIPTION OF MNEMONIC
#---------    -------------------            -------------------------------
# Generated from Intellog Unique Number	CS_73_76/WELL/2179
WELL.         MIAMI OIL PRODUCERS INC.       : Well_name    - WELL
LOC .         00/07-33-074-11W4/0            : Location     - LOCATION
UWI .         00/07-33-074-11W4/0            : Uwi          - UNIQUE WELL ID
ENTR.         SP                             : Entered      - ENTERED BY
SRVC.         SCHLUMBERGER                   : Scn          - SERVICE COMPANY
STRT.M        280.416                        : top_depth    - START DEPTH
STOP.M        514.916                        : bot_depth    - STOP DEPTH
STEP.M        0.25                           : increment    - STEP LENGTH
 NULL. -999.2500:NULL Value
~CURVE INFORMATION BLOCK
#MNEM UNIT       ERCB CURVE CODE    CURVE DESCRIPTION
#-----------   ------------------   ----------------------------------
DEPT.M        00 001 00 00         : DEPTH        - DEPTH
GR  .API      00 310 00 00         : GR           - GAMMA RAY
DPHI.V/V      00 890 00 00         : PHID         - DENSITY POROSITY (SANDSTONE)
NPHI.V/V      00 330 00 00         : PHIN         - NEUTRON POROSITY (SANDSTONE)
ILD .OHMM     00 120 00 00         : RESD         - DEEP RESISTIVITY (DIL)
~PARAMETER INFORMATION
#MNEM.UNIT           DATA             DESCRIPTION OF MNEMONIC
#---------         -----------     ------------------------------
GL  .M        657.149              : gl           - GROUND LEVEL ELEVATION
EREF.M        660.38               : kb           - ELEVATION OF DEPTH REFERENCE
DATM.M        657.149              : datum        - DATUM ELEVATION
TDD .M        743.712              : tdd          - TOTAL DEPTH DRILLER
RUN .         `                    : Run          - RUN NUMBER
ENG .         BILL                 : Engineer     - RECORDING ENGINEER
WIT .         JIM                  : Witness      - WITNESSED BY
MUD .         GEL                  : Mud_type     - MUD TYPE
MATR.         SANDSTONE            : Logunit      - NEUTRON MATRIX
TMAX.C        26.1111              : BHT          - MAXIMUM RECORDED TEMPERATURE
BHTD.M        743.712              : BHTDEP       - MAXIMUM RECORDED TEMPERATURE
MATR.         1                    : LOGUNIT      - NEUTRON MATRIX
RMT .C        25                   : MDTP         - TEMPERATURE OF MUD
NEUT.         1                    : NEUTRON      - NEUTRON TYPE
RESI.         0                    : RESIST       - RESISTIVITY TYPE
RMC .OHMM     0.25                 : RMC          - RESISTIVITY OF MUD CAKE
RMF .OHMM     0.25                 : RMF          - RESISTIVITY OF MUD FILTRATE
SUFT.C        15                   : SUFT         - SURFACE TEMPERATURE
~A  DEPTH       GR     PHID     PHIN     RESD
# ...
  323.916   78.624    0.315    0.644   14.706
  324.166   80.405    0.314    0.622   16.235
  324.416   81.722    0.302    0.604   17.245
  324.666   79.896    0.286    0.573   17.674
  324.916   77.899    0.271    0.543   17.113
  325.166   76.584    0.247    0.503   15.621
  325.416   74.718    0.221    0.471   14.256
  325.666   78.688    0.169    0.514   13.278
  325.916   84.757    0.194    0.589   12.006
  326.166   88.262    0.241    0.633   11.093
  326.416   91.864    0.249    0.661   10.466
  326.666   94.197    0.266    0.667    9.897
  326.916   97.951    0.269    0.667    9.810
  327.166   98.664    0.249    0.632    9.354
  327.416   96.305    0.235    0.599    8.900
  327.666   97.127    0.265    0.587    8.479
  327.916   99.734    0.258    0.586    8.118
  328.166  101.524    0.269    0.589    8.070
  328.416  102.467    0.248    0.597    8.322
  328.666  102.194    0.267    0.611    8.593
  328.916  100.373    0.272    0.635    8.660
  329.166   98.279    0.279    0.655    8.954
  329.416   97.502    0.272    0.659    9.031
  329.666   92.768    0.249    0.667    9.321
  329.916   87.984    0.262    0.672    9.636
  330.166   81.591    0.274    0.647    9.412
  330.416   79.275    0.274    0.647    8.762
  330.666   79.502    0.264    0.668    8.381
  330.916   82.271    0.225    0.692    7.650
  331.166   84.175    0.203    0.707    7.182
  331.416   87.815    0.194    0.695    6.802
  331.666   92.686    0.178    0.689    6.926
  331.916   97.218    0.196    0.698    7.039
  332.166   99.989    0.223    0.704    7.044
  332.416  100.151    0.236    0.699    7.046
  332.666   98.018    0.233    0.691    7.047
  332.916   99.642    0.223    0.683    7.059
  333.166  102.928    0.213    0.690    6.912
  333.416  101.435    0.230    0.700    6.804
  333.666   99.248    0.245    0.705    6.919
  333.916   97.895    0.256    0.695    7.190
  334.166   93.866    0.270    0.653    7.755
  334.416   85.130    0.286    0.628    8.667
  334.666   74.580    0.301    0.611    9.952
  334.916   64.340    0.288    0.587   11.435
  335.166   55.785    0.313    0.585   13.172
  335.416   45.949    0.329    0.635   15.088
  335.666   42.522    0.352    0.652   16.602
  335.916   40.821    0.368    0.673   17.400
  336.166   39.884    0.390    0.722   17.368
  336.416   40.847    0.409    0.723   16.891
  336.666   49.098    0.413    0.693   16.395
  336.916   53.429    0.352    0.655   15.716
  337.166   55.482    0.339    0.569   14.885
  337.416   55.403    0.327    0.542   13.900
  337.666   57.479    0.302    0.555   13.278
  337.916   58.901    0.309    0.552   12.274
  338.166   63.583    0.323    0.548   11.806
  338.416   67.498    0.295    0.574   10.769
  338.666   71.723    0.270    0.600   10.050
  338.916   76.168    0.262    0.643    9.481
  339.166   79.195    0.255    0.663    8.824
  339.416   75.878    0.269    0.671    8.620
  339.666   70.480    0.289    0.580    9.305
  339.916   63.477    0.306    0.571   10.473
  340.166   58.725    0.322    0.601   11.812
  340.416   54.531    0.323    0.627   13.162
  340.666   58.413    0.306    0.675   14.275
  340.916   61.179    0.314    0.681   14.671
  341.166   63.548    0.325    0.680   14.524
  341.416   63.663    0.337    0.647   14.081
  341.666   63.071    0.347    0.594   13.659
  341.916   63.084    0.357    0.575   13.250
  342.166   62.334    0.343    0.602   12.847
  342.416   62.363    0.330    0.606   12.673
  342.666   63.782    0.318    0.630   12.417
  342.916   66.198    0.309    0.579   12.172
  343.166   69.879    0.302    0.558   11.985
  343.416   73.568    0.290    0.520   11.669
  343.666   76.829    0.284    0.511   11.327
  343.916   78.440    0.275    0.526   11.108
  344.166   78.181    0.265    0.556   11.105
  344.416   75.122    0.258    0.579   11.320
  344.666   70.967    0.249    0.551   11.526
  344.916   65.949    0.253    0.546   12.234
  345.166   62.017    0.292    0.554   13.016
  345.416   60.705    0.327    0.578   13.752
  345.666   64.184    0.316    0.625   14.165
  345.916   65.070    0.333    0.639   14.393
  346.166   64.958    0.343    0.612   14.378
  346.416   63.914    0.356    0.600   14.370
  346.666   63.258    0.360    0.603   14.127
  346.916   64.159    0.350    0.623   13.829
  347.166   61.524    0.332    0.625   13.858
  347.416   60.311    0.318    0.626   13.886
  347.666   62.379    0.330    0.622   13.588
  347.916   62.727    0.341    0.621   13.382
  348.166   61.406    0.347    0.642   12.980
  348.416   60.884    0.332    0.644   12.589
  348.666   63.472    0.327    0.649   12.236
  348.916   67.478    0.316    0.656   11.703
  349.166   69.237    0.311    0.633   11.478
  349.416   67.593    0.301    0.619   10.958
  349.666   77.065    0.294    0.604   10.406
  349.916   81.358    0.281    0.586   10.118
  350.166   86.619    0.273    0.573    9.840
  350.416   93.353    0.266    0.582    9.380
  350.666   96.883    0.258    0.607    9.237
  350.916   98.516    0.252    0.631    9.237
  351.166   99.208    0.259    0.637    9.255
  351.416   94.800    0.252    0.610    9.540
  351.666   91.530    0.241    0.586   10.118
  351.916   87.577    0.247    0.564   10.729
  352.166   82.921    0.247    0.551   11.039
  352.416   79.350    0.237    0.578   11.304
  352.666   74.960    0.227    0.603   11.279
  352.916   72.006    0.241    0.589   10.599
  353.166   70.658    0.271    0.571    9.980
  353.416   73.212    0.288    0.567    9.396
  353.666   73.857    0.279    0.556    8.935
  353.916   71.899    0.267    0.549    8.669
  354.166   70.037    0.254    0.537    8.569
  354.416   75.279    0.264    0.526    8.404
  354.666   78.490    0.258    0.552    8.223
  354.916   82.483    0.247    0.578    7.865
  355.166   84.625    0.236    0.614    7.475
  355.416   85.947    0.225    0.636    6.961
  355.666   89.412    0.215    0.662    6.686
  355.916   93.237    0.210    0.682    6.326
  356.166   94.816    0.218    0.691    6.023
  356.416   92.503    0.226    0.705    5.598
  356.666   91.534    0.241    0.724    5.242
  356.916   91.736    0.239    0.742    4.931
  357.166   94.127    0.232    0.751    4.635
  357.416   95.609    0.247    0.742    4.475
  357.666   97.150    0.243    0.733    4.266
  357.916   97.113    0.233    0.731    4.181
  358.166   97.879    0.246    0.718    4.008
  358.416   98.311    0.259    0.722    3.964
  358.666   99.020    0.254    0.717    3.860
  358.916   98.960    0.243    0.721    3.946
  359.166   99.535    0.255    0.718    3.991
  359.416   99.319    0.249    0.724    4.116
  359.666   98.276    0.234    0.729    4.244
  359.916   95.626    0.246    0.740    4.256
  360.166   93.762    0.243    0.749    3.897
  360.416   93.399    0.238    0.748    3.417
  360.666   93.945    0.243    0.738    2.938
  360.916   95.906    0.235    0.750    2.591
  361.166   97.434    0.240    0.760    2.345
  361.416   97.405    0.229    0.770    2.686
  361.666   94.950    0.234    0.779    2.951
  361.916   93.237    0.239    0.770    3.283
  362.166   95.645    0.225    0.765    3.628
  362.416   98.178    0.231    0.768    4.017
  362.666   97.681    0.243    0.768    4.136
  362.916   91.435    0.249    0.706    4.272
  363.166   81.958    0.290    0.651    4.801
  363.416   73.645    0.311    0.621    5.642
  363.666   66.725    0.323    0.636    6.353
  363.916   63.644    0.312    0.645    7.172
  364.166   61.159    0.326    0.661    7.805
  364.416   61.739    0.308    0.672    8.080
  364.666   62.198    0.326    0.683    8.071
  364.916   62.285    0.336    0.689    8.072
  365.166   62.312    0.349    0.679    8.071
  365.416   62.912    0.332    0.669    8.070
  365.666   63.059    0.321    0.658    8.070
  365.916   63.438    0.326    0.660    8.069
  366.166   63.428    0.330    0.666    8.068
  366.416   63.410    0.333    0.671    8.068
  366.666   63.403    0.323    0.674    8.065
  366.916   63.678    0.314    0.672    7.980
  367.166   64.685    0.309    0.663    7.921
