~VERSION INFORMATION
 VERS.                 2.0:   CWLS LOG ASCII STANDARD -VERSION 2.0
 WRAP.                  NO:   ONE LINE PER DEPTH STEP
~WELL INFORMATION BLOCK
#MNEM.UNIT           DATA                    DESCRIPTION OF MNEMONIC
#---------    -------------------            -------------------------------
# Generated from Intellog Unique Number	CS_67_68/WELL/2161
WELL.         BVX et al TWEEDIE              : Well_name    - WELL
LOC .         00/03-06-067-11W4/0            : Location     - LOCATION
UWI .         00/03-06-067-11W4/0            : Uwi          - UNIQUE WELL ID
ENTR.         SP                             : Entered      - ENTERED BY
SRVC.         SCHLUMBERGER                   : Scn          - SERVICE COMPANY
STRT.M        365                            : top_depth    - START DEPTH
STOP.M        564                            : bot_depth    - STOP DEPTH
STEP.M        0.25                           : increment    - STEP LENGTH
 NULL. -999.2500:NULL Value
~CURVE INFORMATION BLOCK
#MNEM UNIT       ERCB CURVE CODE    CURVE DESCRIPTION
#-----------   ------------------   ----------------------------------
DEPT.M        00 001 00 00         : DEPTH        - DEPTH
ILD .OHMM     00 120 00 00         : RESD         - DEEP RESISTIVITY (DIL)
DPHI.V/V      00 890 00 00         : PHID         - DENSITY POROSITY (LIMESTONE)
NPHI.V/V      00 330 00 00         : PHIN         - NEUTRON POROSITY (LIMESTONE)
GR  .API      00 310 00 00         : GR           - GAMMA RAY
CALI.MM       00 280 01 00         : CAL          - CALIPER
~PARAMETER INFORMATION
#MNEM.UNIT           DATA             DESCRIPTION OF MNEMONIC
#---------         -----------     ------------------------------
GL  .M        643.48               : gl           - GROUND LEVEL ELEVATION
EREF.M        647.88               : kb           - ELEVATION OF DEPTH REFERENCE
DATM.M        647.88               : datum        - DATUM ELEVATION
TDD .M        563.2                : tdd          - TOTAL DEPTH DRILLER
RUN .         ONE                  : Run          - RUN NUMBER
ENG .         BILL                 : Engineer     - RECORDING ENGINEER
WIT .         JIM                  : Witness      - WITNESSED BY
MUD .         GEL                  : Mud_type     - MUD TYPE
MATR.         LIMESTONE            : Logunit      - NEUTRON MATRIX
TMAX.C        30                   : BHT          - MAXIMUM RECORDED TEMPERATURE
BHTD.M        562                  : BHTDEP       - MAXIMUM RECORDED TEMPERATURE
MATR.         1                    : LOGUNIT      - NEUTRON MATRIX
RMT .C        25                   : MDTP         - TEMPERATURE OF MUD
NEUT.         1                    : NEUTRON      - NEUTRON TYPE
RESI.         0                    : RESIST       - RESISTIVITY TYPE
RMC .OHMM     0.25                 : RMC          - RESISTIVITY OF MUD CAKE
RMF .OHMM     0.25                 : RMF          - RESISTIVITY OF MUD FILTRATE
SUFT.C        15                   : SUFT         - SURFACE TEMPERATURE
~A  DEPTH     RESD     PHID     PHIN       GR      CAL
# ...
  401.500    2.588    0.268    0.309   78.826  163.551
  401.750    2.867    0.250    0.324   91.668  161.646
  402.000    3.124    0.227    0.344  100.618  160.451
  402.250    3.254    0.230    0.356   97.774  159.762
  402.500    3.372    0.266    0.345   91.950  159.581
  402.750    3.467    0.284    0.353   88.010  161.730
  403.000    3.532    0.279    0.374   85.469  164.184
  403.250    3.544    0.212    0.393   83.718  162.583
  403.500    3.517    0.191    0.411   82.211  161.592
  403.750    3.497    0.202    0.408   84.474  161.105
  404.000    3.444    0.211    0.382   90.870  161.430
  404.250    3.393    0.217    0.364   94.713  163.783
  404.500    3.317    0.221    0.349   89.196  166.034
  404.750    3.249    0.219    0.335   86.591  166.866
  405.000    3.200    0.214    0.328   84.475  167.089
  405.250    3.141    0.207    0.338   86.920  167.620
  405.500    3.117    0.213    0.346   92.953  168.347
  405.750    3.099    0.218    0.352   95.093  169.180
  406.000    3.174    0.226    0.362   87.506  167.680
  406.250    3.319    0.233    0.371   82.533  163.748
  406.500    3.426    0.224    0.365   78.593  161.034
  406.750    3.536    0.198    0.353   80.795  160.550
  407.000    3.522    0.178    0.342   84.334  160.671
  407.250    3.463    0.159    0.336   98.028  162.008
  407.500    3.373    0.200    0.408  109.835  163.452
  407.750    3.261    0.233    0.439  124.564  163.775
  408.000    3.111    0.248    0.429  129.501  163.492
  408.250    3.008    0.248    0.406  124.348  162.600
  408.500    2.919    0.238    0.384  122.594  162.014
  408.750    2.838    0.230    0.362  137.991  162.034
  409.000    2.790    0.222    0.357  147.853  162.462
  409.250    2.764    0.218    0.359  133.212  162.989
  409.500    2.733    0.222    0.372  110.484  163.315
  409.750    2.702    0.226    0.377   95.053  164.855
  410.000    2.676    0.227    0.371   90.141  165.889
  410.250    2.656    0.239    0.360   86.871  163.579
  410.500    2.645    0.244    0.347   83.661  162.790
  410.750    2.611    0.243    0.350   81.119  165.952
  411.000    2.562    0.241    0.364   78.639  164.658
  411.250    2.500    0.237    0.377   77.009  162.450
  411.500    2.394    0.245    0.384   79.456  161.557
  411.750    2.311    0.264    0.395   80.866  161.072
  412.000    2.246    0.283    0.381   81.367  161.396
  412.250    2.200    0.290    0.368   81.316  162.431
  412.500    2.179    0.294    0.361   78.654  162.149
  412.750    2.151    0.307    0.379   75.019  163.081
  413.000    2.134    0.319    0.415   73.633  160.672
  413.250    2.126    0.325    0.410   71.943  161.402
  413.500    2.102    0.318    0.402   69.099  164.867
  413.750    2.071    0.316    0.393   70.082  163.368
  414.000    2.039    0.322    0.382   76.176  159.741
  414.250    2.013    0.327    0.386   71.385  157.534
  414.500    1.997    0.329    0.381   67.993  160.393
  414.750    1.993    0.329    0.377   71.654  162.441
  415.000    1.982    0.321    0.371   75.558  164.490
  415.250    1.967    0.313    0.365   70.707  165.725
  415.500    1.977    0.309    0.410   73.030  165.036
  415.750    2.014    0.307    0.438   79.851  162.727
  416.000    2.037    0.311    0.455   84.303  160.720
  416.250    2.090    0.317    0.440   84.986  159.526
  416.500    2.137    0.319    0.411   84.936  157.520
  416.750    2.218    0.316    0.389   83.733  158.149
  417.000    2.307    0.315    0.372   87.091  161.313
  417.250    2.421    0.309    0.373   84.064  163.259
  417.500    2.560    0.291    0.387   85.899  162.977
  417.750    2.672    0.272    0.381   87.432  160.972
  418.000    2.784    0.257    0.365   84.344  163.323
  418.250    2.868    0.258    0.350   86.059  162.942
  418.500    2.932    0.244    0.342   93.124  161.541
  418.750    2.998    0.228    0.364  103.595  160.851
  419.000    3.077    0.211    0.388  111.087  160.872
  419.250    3.152    0.192    0.384  103.742  161.603
  419.500    3.223    0.206    0.366   98.647  163.955
  419.750    3.265    0.211    0.355   94.829  164.180
  420.000    3.246    0.198    0.349   98.431  162.579
  420.250    3.174    0.188    0.384  101.301  161.180
  420.500    3.006    0.189    0.406   96.692  160.898
  420.750    2.890    0.212    0.412   89.774  163.555
  421.000    2.758    0.237    0.398   84.192  162.462
  421.250    2.592    0.276    0.389   86.940  160.657
  421.500    2.716    0.281    0.376   87.439  158.855
  421.750    2.577    0.278    0.366   85.690  157.355
  422.000    2.519    0.272    0.358   85.945  156.160
  422.250    2.562    0.262    0.350   87.786  155.676
  422.500    2.610    0.259    0.341   89.135  158.229
  422.750    2.668    0.262    0.351   87.928  160.075
  423.000    2.708    0.265    0.341   92.624  157.866
  423.250    2.748    0.266    0.352  100.236  156.063
  423.500    2.727    0.263    0.351  103.958  155.679
  423.750    2.647    0.264    0.361   95.640  156.308
  424.000    2.488    0.271    0.381   90.545  157.141
  424.250    2.287    0.279    0.392   91.471  156.958
  424.500    2.182    0.273    0.381   87.227  156.576
  424.750    2.134    0.250    0.378   86.753  156.494
  425.000    2.182    0.240    0.369   88.711  156.414
  425.250    2.264    0.254    0.359   87.083  156.739
  425.500    2.421    0.256    0.351   87.825  158.685
  425.750    2.604    0.247    0.342   91.789  160.936
  426.000    2.837    0.238    0.334   95.024  162.884
  426.250    3.045    0.229    0.335   98.867  162.599
  426.500    3.257    0.223    0.343  104.172  160.796
  426.750    3.431    0.223    0.338  107.892  158.693
  427.000    3.581    0.227    0.338  103.952  158.203
  427.250    3.738    0.220    0.351  101.654  158.328
  427.500    3.886    0.212    0.367  100.148  161.592
  427.750    4.049    0.205    0.360   97.423  165.664
  428.000    4.163    0.207    0.343   92.389  169.030
  428.250    4.194    0.191    0.329   95.382  172.397
  428.500    4.146    0.179    0.328  101.231  176.065
  428.750    3.956    0.167    0.344  107.326  178.721
  429.000    3.726    0.202    0.356  107.034  173.270
  429.250    3.451    0.235    0.348   94.581  169.845
  429.500    3.027    0.245    0.357   86.081  165.508
  429.750    2.927    0.245    0.356   87.127  157.222
  430.000    2.894    0.242    0.359   88.236  149.539
  430.250    3.043    0.234    0.350   83.991  148.751
  430.500    3.212    0.225    0.339   78.592  152.419
  430.750    3.303    0.228    0.329   83.533  154.877
  431.000    3.358    0.224    0.337   86.887  153.880
  431.250    3.345    0.216    0.342   80.091  151.066
  431.500    2.929    0.210    0.348   74.874  150.983
  431.750    2.579    0.231    0.352   67.591  150.702
  432.000    2.526    0.244    0.349   73.077  148.898
  432.250    2.535    0.233    0.354   76.188  147.804
  432.500    2.559    0.249    0.367   76.565  148.637
  432.750    2.582    0.256    0.372   78.463  150.076
  433.000    2.616    0.247    0.363   81.639  151.517
  433.250    2.650    0.238    0.364   70.647  151.132
  433.500    2.689    0.236    0.352   67.436  150.544
  433.750    2.719    0.236    0.349   66.536  150.466
  434.000    2.744    0.243    0.368   69.163  150.993
  434.250    2.769    0.243    0.371   72.338  149.898
  434.500    2.785    0.247    0.354   75.452  148.299
  434.750    2.748    0.251    0.349   78.565  146.900
  435.000    2.647    0.248    0.348   82.226  145.098
  435.250    2.535    0.249    0.357   75.430  143.801
  435.500    2.352    0.258    0.411   67.961  142.912
  435.750    2.232    0.276    0.407   61.712  142.323
  436.000    2.146    0.284    0.403   58.502  144.169
  436.250    2.110    0.286    0.396   54.319  146.623
  436.500    2.086    0.276    0.375   59.135  148.772
  436.750    2.101    0.276    0.355   63.829  150.514
  437.000    2.160    0.276    0.333   67.369  148.409
  437.250    2.221    0.273    0.320   71.578  147.213
  437.500    2.280    0.266    0.318   73.657  146.123
  437.750    2.353    0.270    0.341   72.941  145.739
