~VERSION INFORMATION
 VERS.                 2.0:   CWLS LOG ASCII STANDARD -VERSION 2.0
 WRAP.                  NO:   ONE LINE PER DEPTH STEP
~WELL INFORMATION BLOCK
#MNEM.UNIT           DATA                    DESCRIPTION OF MNEMONIC
#---------    -------------------            -------------------------------
# Generated from Intellog Unique Number	CC_80_83/WELL/2308
NULL.         -999.25                        : NULL_VALUE
WELL.         BVX ET AL ALGAR                : Well_name    - WELL
LOC .         07-34-083-16W4                 : Location     - LOCATION          
UWI .         00/07-34-083-16W400            : Uwi          - UNIQUE WELL ID    
ENTR.         DW                             : Entered      - ENTERED BY        
SRVC.         SCHLUMBERGER                   : Scn          - SERVICE COMPANY   
DATE.         03 MAR 80                      : Date         - LOG DATE
STRT.M        95                             : top_depth    - START DEPTH       
STOP.M        283.101                        : bot_depth    - STOP DEPTH        
STEP.M        0.3                            : increment    - STEP LENGTH       
~CURVE INFORMATION BLOCK
#MNEM UNIT       ERCB CURVE CODE    CURVE DESCRIPTION
#-----------   ------------------   ----------------------------------
DEPT.M        00 001 00 00         : DEPTH        - DEPTH                       
DPHI.V/V      00 890 00 00         : PHID         - DENSITY POROSITY (LIMESTONE)
NPHI.V/V      00 330 00 00         : PHIN         - NEUTRON POROSITY (LIMESTONE)
GR  .API      00 310 00 00         : GR           - GAMMA RAY                   
ILD .OHMM     00 120 00 00         : RESD         - DEEP RESISTIVITY (DIL)      
~PARAMETER INFORMATION       
#MNEM.UNIT           DATA             DESCRIPTION OF MNEMONIC
#---------         -----------     ------------------------------
GL  .M        526.5                : gl           - GROUND LEVEL ELEVATION      
EREF.M        529.5                : kb           - ELEVATION OF DEPTH REFERENCE
DATM.M        529.5                : datum        - DATUM ELEVATION             
TDD .M        282                  : tdd          - TOTAL DEPTH DRILLER         
RUN .         ONE                  : Run          - RUN NUMBER                  
ENG .         BILL                 : Engineer     - RECORDING ENGINEER          
WIT .         JIM                  : Witness      - WITNESSED BY                
MUD .         GEL                  : Mud_type     - MUD TYPE                    
MATR.         LIMESTONE            : Logunit      - NEUTRON MATRIX              
TMAX.C        18                   : BHT          - MAXIMUM RECORDED TEMPERATURE
BHTD.M        282                  : BHTDEP       - MAXIMUM RECORDED TEMPERATURE
MATR.         1                    : LOGUNIT      - NEUTRON MATRIX              
RMT .C        25                   : MDTP         - TEMPERATURE OF MUD          
NEUT.         1                    : NEUTRON      - NEUTRON TYPE                
RESI.         0                    : RESIST       - RESISTIVITY TYPE            
RMC .OHMM     0.25                 : RMC          - RESISTIVITY OF MUD CAKE     
RMF .OHMM     0.25                 : RMF          - RESISTIVITY OF MUD FILTRATE 
SUFT.C        15                   : SUFT         - SURFACE TEMPERATURE         
~A  DEPTH     PHID     PHIN       GR     RESD
# ...
  199.401    0.280    0.432   87.826    8.224
  199.701    0.268    0.438   91.496    8.226
  200.001    0.257    0.425   95.167    8.227
  200.301    0.248    0.448   97.614    7.774
  200.601    0.246    0.455   95.770    7.347
  200.901    0.254    0.448   90.248    7.075
  201.201    0.244    0.438   93.920    6.944
  201.501    0.256    0.428   98.816    7.078
  201.801    0.264    0.422   90.845    7.214
  202.101    0.267    0.437   91.452    7.494
  202.401    0.248    0.448   96.349    7.496
  202.701    0.246    0.451   92.667    7.496
  203.001    0.246    0.437   88.372    7.357
  203.301    0.249    0.417   95.718    7.221
  203.601    0.242    0.440   95.101    6.954
  203.901    0.208    0.471   93.258    6.825
  204.201    0.216    0.459   95.090    6.573
  204.501    0.227    0.455   96.310    6.211
  204.801    0.235    0.459   96.918    5.869
  205.101    0.247    0.463   83.430    5.982
  205.401    0.290    0.447   81.586    6.703
  205.701    0.295    0.445   82.194    7.231
  206.001    0.293    0.445   80.350    8.906
  206.301    0.269    0.424   76.054   11.610
  206.601    0.168    0.325   71.759   12.525
  206.901    0.193    0.347   69.916   11.837
  207.201    0.271    0.374   80.941   11.399
  207.501    0.300    0.394   77.871   11.400
  207.801    0.310    0.379   83.380   10.773
  208.101    0.264    0.396   85.826    9.438
  208.401    0.263    0.418   78.467    8.752
  208.701    0.300    0.436   74.785    8.921
  209.001    0.316    0.390   77.843    9.808
  209.301    0.282    0.414   77.837   10.188
  209.601    0.272    0.443   75.381   10.191
  209.901    0.292    0.465   76.601   10.001
  210.201    0.283    0.457   79.659    9.274
  210.501    0.260    0.431   79.041    9.101
  210.801    0.263    0.458   75.359    9.277
  211.101    0.269    0.474   71.677   10.592
  211.401    0.240    0.431   70.445   11.868
  211.701    0.104    0.331   71.665   12.097
  212.001    0.157    0.332   79.013   11.008
  212.301    0.236    0.366   93.102   10.207
  212.601    0.240    0.416   96.773    8.943
  212.901    0.239    0.446   93.704    8.611
  213.201    0.273    0.427   83.280    8.293
  213.501    0.300    0.433   80.824    8.615
  213.801    0.287    0.458   79.592    9.119
  214.101    0.268    0.457   78.975    9.295
  214.401    0.251    0.421   84.484    9.298
  214.701    0.238    0.422   87.542    9.125
  215.001    0.272    0.437   88.761    8.787
  215.301    0.252    0.425   93.659    8.462
  215.601    0.230    0.415  105.909    7.414
  215.901    0.227    0.420  113.257    6.619
  216.201    0.227    0.431  112.026    5.910
  216.501    0.208    0.447   93.636    5.585
  216.801    0.203    0.457   92.406    5.801
  217.101    0.212    0.445   88.724    7.145
  217.401    0.239    0.421   83.202    8.635
  217.701    0.235    0.402   83.197    9.316
  218.001    0.238    0.405   93.608    8.804
  218.301    0.260    0.421   98.505    8.319
  218.601    0.233    0.436  100.337    7.288
  218.901    0.224    0.450  102.170    5.488
  219.201    0.223    0.453  105.230    5.089
  219.501    0.219    0.435  108.900    5.090
  219.801    0.225    0.448  110.120    6.635
  220.101    0.219    0.432  109.502    7.158
  220.401    0.217    0.461  108.271    7.296
  220.701    0.223    0.479  110.104    7.437
  221.001    0.196    0.483  115.000    6.767
  221.301    0.185    0.479  113.767    6.274
  221.601    0.196    0.450  113.152    6.043
  221.901    0.208    0.435  112.533    6.044
  222.201    0.214    0.436  110.076    6.278
  222.501    0.200    0.423  102.717    7.034
  222.801    0.196    0.426   99.647    8.501
  223.101    0.158    0.415   97.804    9.525
  223.401    0.184    0.401  106.378   10.276
  223.701    0.202    0.392  106.983   10.474
  224.001    0.194    0.386  106.365   10.087
  224.301    0.192    0.380  105.746    9.714
  224.601    0.218    0.389  103.904    8.839
  224.901    0.228    0.403  100.835    8.353
  225.201    0.215    0.419  104.506    8.354
  225.501    0.211    0.449  116.143    8.355
  225.801    0.216    0.470  109.397    8.845
  226.101    0.226    0.463   99.587    9.363
  226.401    0.232    0.419  100.194    9.912
  226.701    0.229    0.403  100.801   10.493
  227.001    0.239    0.398   90.990   10.495
  227.301    0.276    0.377   84.858   10.902
  227.601    0.291    0.358   83.012   11.540
  227.901    0.300    0.367   84.233   12.217
  228.201    0.264    0.381   84.841   11.990
  228.501    0.216    0.393   82.996   11.768
  228.801    0.250    0.399   84.829   11.549
  229.101    0.262    0.403   90.338   10.913
  229.401    0.232    0.411   92.785   10.120
  229.701    0.227    0.419   89.103    9.563
  230.001    0.237    0.397   83.581    9.386
  230.301    0.264    0.401   82.351    9.566
  230.601    0.283    0.404   79.894    9.752
  230.901    0.268    0.407   77.436    9.939
  231.201    0.255    0.408   76.204   10.131
  231.501    0.244    0.408   75.588   10.929
  231.801    0.253    0.407   76.195   11.791
  232.101    0.280    0.406   76.803   12.248
  232.401    0.276    0.414   76.183   11.795
  232.701    0.273    0.430   79.242   10.532
  233.001    0.263    0.434   81.688   10.142
  233.301    0.237    0.434   78.004    9.404
  233.601    0.177    0.430   76.775    8.720
  233.901    0.196    0.376   76.156    8.241
  234.201    0.228    0.389   81.665    8.242
  234.501    0.240    0.414   83.499    8.089
  234.801    0.253    0.418   87.783    8.090
  235.101    0.238    0.399   90.841    8.728
  235.401    0.227    0.397   90.222    9.416
  235.701    0.230    0.390   88.992    9.598
  236.001    0.230    0.385   88.373    9.600
  236.301    0.225    0.392   90.819    9.245
  236.601    0.227    0.417   87.749    9.073
  236.901    0.211    0.415   86.518    8.414
  237.201    0.197    0.410   92.026    7.802
  237.501    0.210    0.401   93.247    7.513
  237.801    0.226    0.412   91.404    7.235
  238.101    0.253    0.434   87.109    7.101
  238.401    0.241    0.449   92.005    7.102
  238.701    0.214    0.457  101.191    6.586
  239.001    0.211    0.434  110.991    5.451
  239.301    0.226    0.442  107.308    4.598
  239.601    0.236    0.454  104.851    3.953
  239.901    0.237    0.457  106.070    3.736
  240.201    0.227    0.452  106.678    3.598
  240.501    0.224    0.462  110.963    3.808
  240.801    0.223    0.473  116.472    4.516
  241.101    0.220    0.453  115.853    5.255
  241.401    0.198    0.430  109.720    7.389
  241.701    0.179    0.405  102.975   10.390
  242.001    0.182    0.393   95.003   16.679
  242.301    0.159    0.390   85.805   18.338
  242.602    0.160    0.393   88.251   17.997
  242.902    0.172    0.385   96.211   16.375
  243.202    0.186    0.390  101.107   14.346
  243.502    0.192    0.400  102.941   13.303
  243.802    0.194    0.409  102.322   12.811
  244.102    0.205    0.412   99.252   12.338
  244.402    0.210    0.399   94.345   12.109
  244.702    0.165    0.390   91.275   12.818
  245.002    0.193    0.382   83.917   14.094
  245.302    0.208    0.374   74.719   14.639
  245.602    0.219    0.366   58.782   16.095
  245.902    0.239    0.377   50.810   17.363
  246.202    0.276    0.372   46.515   19.826
  246.502    0.271    0.371   47.122   23.070
  246.802    0.283    0.379   47.116   28.415
  247.102    0.314    0.404   44.044   30.079
  247.402    0.295    0.425   44.038   30.663
  247.702    0.282    0.413   44.035   29.528
  248.002    0.278    0.400   45.255   27.902
  248.302    0.275    0.393   47.701   24.445
  248.602    0.281    0.383   51.985   20.621
  248.902    0.284    0.384   56.268   17.069
  249.202    0.280    0.387   59.939   15.239
  249.502    0.273    0.383   63.611   13.101
  249.802    0.265    0.386   67.283   11.262
  250.102    0.259    0.402   72.180    9.867
  250.402    0.270    0.414   74.012    8.978
  250.702    0.273    0.418   77.683    8.484
  251.002    0.261    0.383   84.418    7.867
  251.302    0.211    0.394   94.830    7.295
