~VERSION INFORMATION
 VERS.                 2.0:   CWLS LOG ASCII STANDARD -VERSION 2.0
 WRAP.                  NO:   ONE LINE PER DEPTH STEP
~WELL INFORMATION BLOCK
#MNEM.UNIT           DATA                    DESCRIPTION OF MNEMONIC
#---------    -------------------            -------------------------------
# Generated from Intellog Unique Number	CS_67_68/WELL/2173
WELL.         06-34-067-02W4                 : Well_name    - WELL
LOC .         00/06-34-067-02W4/0            : Location     - LOCATION
UWI .         00/06-34-067-02W4/0            : Uwi          - UNIQUE WELL ID
ENTR.         SP                             : Entered      - ENTERED BY
SRVC.         SCHLUMBERGER                   : Scn          - SERVICE COMPANY
STRT.M        360                            : top_depth    - START DEPTH
STOP.M        615                            : bot_depth    - STOP DEPTH
STEP.M        0.25                           : increment    - STEP LENGTH
 NULL. -999.2500:NULL Value
~CURVE INFORMATION BLOCK
#MNEM UNIT       ERCB CURVE CODE    CURVE DESCRIPTION
#-----------   ------------------   ----------------------------------
DEPT.M        00 001 00 00         : DEPTH        - DEPTH
ILD .OHMM     00 120 00 00         : RESD         - DEEP RESISTIVITY (DIL)
DPHI.V/V      00 890 00 00         : PHID         - DENSITY POROSITY (LIMESTONE)
NPHI.V/V      00 330 00 00         : PHIN         - NEUTRON POROSITY (LIMESTONE)
GR  .API      00 310 00 00         : GR           - GAMMA RAY
CALI.MM       00 280 01 00         : CAL          - CALIPER
~PARAMETER INFORMATION
#MNEM.UNIT           DATA             DESCRIPTION OF MNEMONIC
#---------         -----------     ------------------------------
GL  .M        686.22               : gl           - GROUND LEVEL ELEVATION
EREF.M        689.57               : kb           - ELEVATION OF DEPTH REFERENCE
DATM.M        689.57               : datum        - DATUM ELEVATION
TDD .M        628                  : tdd          - TOTAL DEPTH DRILLER
RUN .         ONE                  : Run          - RUN NUMBER
ENG .         BILL                 : Engineer     - RECORDING ENGINEER
WIT .         JIM                  : Witness      - WITNESSED BY
MUD .         GEL                  : Mud_type     - MUD TYPE
MATR.         LIMESTONE            : Logunit      - NEUTRON MATRIX
TMAX.C        25                   : BHT          - MAXIMUM RECORDED TEMPERATURE
BHTD.M        627.2                : BHTDEP       - MAXIMUM RECORDED TEMPERATURE
MATR.         1                    : LOGUNIT      - NEUTRON MATRIX
RMT .C        25                   : MDTP         - TEMPERATURE OF MUD
NEUT.         1                    : NEUTRON      - NEUTRON TYPE
RESI.         0                    : RESIST       - RESISTIVITY TYPE
RMC .OHMM     0.25                 : RMC          - RESISTIVITY OF MUD CAKE
RMF .OHMM     0.25                 : RMF          - RESISTIVITY OF MUD FILTRATE
SUFT.C        15                   : SUFT         - SURFACE TEMPERATURE
~A  DEPTH     RESD     PHID     PHIN       GR      CAL
  360.000    3.511    0.208    0.448  105.897  179.156
  360.250    3.439    0.189    0.435  103.798  176.067
  360.500    3.226    0.179    0.431  104.953  174.820
  360.750    3.107    0.230    0.438  107.644  175.416
  361.000    3.083    0.240    0.471  110.827  176.422
  361.250    3.048    0.245    0.496  112.477  177.837
  361.500    2.990    0.251    0.516  112.466  179.866
  361.750    2.950    0.257    0.510  110.367  182.714
  362.000    2.922    0.250    0.496  110.417  184.642
  362.250    2.910    0.238    0.484  112.248  185.237
  362.500    2.931    0.239    0.475  113.221  185.322
  362.750    3.001    0.246    0.479  116.279  184.176
  363.000    3.143    0.245    0.485  118.172  183.033
  363.250    3.243    0.246    0.484  116.382  181.684
  363.500    3.359    0.250    0.482  116.309  181.154
  363.750    3.485    0.254    0.466  118.571  181.135
  364.000    3.569    0.256    0.454  110.698  180.298
  364.250    3.588    0.247    0.443  105.528  179.051
  364.500    3.573    0.251    0.439  100.910  176.883
  364.750    3.552    0.272    0.433  119.572  173.282
  365.000    3.498    0.267    0.448  130.495  170.192
  365.250    3.394    0.258    0.460  131.282  172.120
  365.500    3.161    0.250    0.455  115.607  173.944
  365.750    2.971    0.252    0.460  109.946  174.436
  366.000    2.845    0.259    0.483  107.048  174.112
  366.250    2.730    0.255    0.497  108.141  173.274
  366.500    2.704    0.255    0.482  110.466  172.335
  366.750    2.874    0.261    0.497  114.264  171.088
  367.000    3.165    0.266    0.515  110.874  169.840
  367.250    4.401    0.269    0.504  109.082  167.981
  367.500    5.461    0.272    0.451  104.034  165.300
  367.750    6.981    0.273    0.426   91.738  161.085
  368.000    9.177    0.271    0.418   80.794  156.665
  368.250   10.869    0.267    0.417   71.753  157.363
  368.500   11.793    0.323    0.389   69.654  156.937
  368.750   11.680    0.338    0.369   74.495  154.048
  369.000   11.040    0.344    0.353   75.345  152.496
  369.250   10.092    0.340    0.413   71.340  152.171
  369.500    8.987    0.332    0.441   70.286  152.560
  369.750    8.139    0.322    0.453   71.257  153.567
  370.000    7.022    0.315    0.442   73.519  154.779
  370.250    7.192    0.308    0.446   77.254  156.297
  370.500    7.818    0.315    0.451   81.482  158.121
  370.750    8.342    0.328    0.431   83.868  158.410
  371.000    9.051    0.335    0.418   73.782  157.675
  371.250    9.462    0.338    0.393   66.707  156.839
  371.500    9.763    0.317    0.407   64.056  155.899
  371.750    9.758    0.286    0.418   64.045  155.164
  372.000    9.810    0.274    0.424   62.743  154.737
  372.250    9.751    0.300    0.423   62.794  154.411
  372.500    9.604    0.314    0.412   64.930  154.905
  372.750    9.654    0.320    0.414   66.028  156.320
  373.000    9.740    0.321    0.416   70.501  156.914
  373.250    9.920    0.317    0.407   73.685  157.205
  373.500   10.046    0.313    0.400   71.278  157.494
  373.750   10.193    0.317    0.396   71.082  157.885
  374.000   10.322    0.328    0.393   73.406  157.765
  374.250   10.261    0.333    0.399   72.842  157.849
  374.500   10.144    0.335    0.414   69.085  158.032
  374.750    9.843    0.337    0.423   64.589  158.116
  375.000    8.847    0.337    0.415   62.735  157.996
  375.250    8.042    0.337    0.407   63.646  157.878
  375.500    7.434    0.341    0.399   65.662  157.246
  375.750    6.498    0.353    0.392   67.862  157.227
  376.000    5.565    0.379    0.413   69.142  157.926
  376.250    6.117    0.410    0.440   73.368  160.978
  376.500    6.763    0.424    0.466   82.511  164.338
  376.750    7.645    0.354    0.486   93.188  170.462
  377.000    8.326    0.331    0.463   98.767  176.486
  377.250    8.801    0.322    0.424   84.873  170.530
  377.500    8.963    0.322    0.401   75.895  165.393
  377.750    9.027    0.326    0.391   73.918  159.948
  378.000    8.857    0.331    0.399   76.916  157.780
  378.250    8.279    0.328    0.405   78.871  157.455
  378.500    7.856    0.323    0.406   79.107  157.334
  378.750    7.439    0.313    0.395   80.691  157.111
  379.000    7.098    0.295    0.387   83.630  156.990
  379.250    7.175    0.283    0.388   88.284  156.456
  379.500    7.267    0.272    0.413   91.163  155.826
  379.750    7.526    0.268    0.445   93.978  155.399
  380.000    7.765    0.263    0.440   97.037  155.891
  380.250    7.662    0.252    0.435   98.747  157.408
  380.500    7.379    0.262    0.430   98.552  158.623
  380.750    7.628    0.272    0.438   99.217  159.934
  381.000    8.306    0.275    0.451  101.109  161.042
  381.250    8.571    0.284    0.467  102.574  161.228
  381.500    9.145    0.301    0.451   99.614  161.312
  381.750    9.108    0.314    0.392   84.247  160.985
  382.000    8.545    0.322    0.358   66.054  160.865
  382.250    8.215    0.325    0.345   55.908  160.643
  382.500    7.823    0.308    0.371   65.418  160.317
  382.750    7.576    0.288    0.387   73.638  159.994
  383.000    7.351    0.276    0.394   83.271  159.562
  383.250    7.389    0.261    0.397   89.956  159.546
  383.500    7.540    0.249    0.390   97.254  159.940
  383.750    7.636    0.241    0.406  101.850  161.455
  384.000    7.849    0.249    0.414  103.804  162.258
  384.250    8.159    0.266    0.410  104.654  163.160
  384.500    8.325    0.278    0.401  105.380  163.655
  384.750    8.384    0.285    0.410   99.594  161.282
  385.000    8.288    0.294    0.415   99.953  158.807
  385.250    8.012    0.307    0.412  110.383  157.970
  385.500    7.364    0.315    0.410  118.725  158.565
  385.750    6.657    0.320    0.419  124.183  158.956
  386.000    5.851    0.302    0.436  129.578  159.758
  386.250    5.450    0.263    0.449  129.628  160.865
  386.500    4.944    0.199    0.442  124.579  162.585
  386.750    4.622    0.181    0.431  122.604  164.409
  387.000    5.099    0.208    0.445  124.864  165.930
  387.250    5.863    0.224    0.457  126.698  168.468
  387.500    7.329    0.249    0.464  128.898  169.680
  387.750    8.712    0.285    0.443  117.339  169.662
  388.000    9.489    0.313    0.387  100.006  166.983
  388.250   10.106    0.338    0.369   82.428  161.431
  388.500   10.369    0.353    0.354   61.348  158.961
  388.750   10.326    0.359    0.350   51.755  156.589
  389.000    9.852    0.357    0.378   50.391  155.136
  389.250    9.348    0.354    0.390   50.811  155.217
  389.500    8.886    0.356    0.391   51.783  155.715
  389.750    8.622    0.358    0.381   54.290  156.515
  390.000    8.475    0.356    0.395   57.534  157.519
  390.250    8.615    0.337    0.411   60.840  158.115
  390.500    8.873    0.327    0.423   64.208  158.714
  390.750    9.036    0.321    0.404   70.832  159.104
  391.000    8.784    0.315    0.385   77.207  159.802
  391.250    8.491    0.307    0.377   81.498  160.297
  391.500    8.285    0.298    0.368   78.600  160.689
  391.750    8.235    0.290    0.364   84.790  161.079
  392.000    8.278    0.288    0.391   89.386  161.163
  392.250    8.384    0.303    0.414   93.002  161.452
  392.500    8.491    0.308    0.428   94.282  161.536
  392.750    8.630    0.307    0.432   91.568  160.596
  393.000    8.725    0.300    0.444   90.881  159.247
  393.250    8.673    0.291    0.439   91.484  158.923
  393.500    8.478    0.288    0.425   93.069  159.724
  393.750    8.396    0.286    0.435   95.333  161.036
  394.000    8.425    0.287    0.436   98.209  161.119
  394.250    8.758    0.293    0.430   94.205  160.796
  394.500    9.120    0.299    0.427   89.279  160.573
  394.750    9.428    0.295    0.441   87.242  160.758
  395.000    9.801    0.270    0.460   89.749  160.840
  395.250   10.056    0.219    0.349   94.404  161.336
  395.500    9.885    0.196    0.320   87.578  161.625
  395.750    9.344    0.148    0.357   81.056  162.016
  396.000    8.965    0.216    0.419   85.405  162.409
  396.250    8.683    0.253    0.458   93.257  162.697
