~VERSION INFORMATION
 VERS.                 2.0:   CWLS LOG ASCII STANDARD -VERSION 2.0
 WRAP.                  NO:   ONE LINE PER DEPTH STEP
~WELL INFORMATION BLOCK
#MNEM.UNIT           DATA                    DESCRIPTION OF MNEMONIC
#---------    -------------------            -------------------------------
# Generated from Intellog Unique Number	CS_73_76/WELL/4140
WELL.         J M HJBER CURPORATION          : Well_name    - WELL
LOC .         00/06-03-074-18W4/0            : Location     - LOCATION
UWI .         00/06-03-074-18W4/0            : Uwi          - UNIQUE WELL ID
ENTR.         T                              : Entered      - ENTERED BY
SRVC.         SCHLUMBERGER                   : Scn          - SERVICE COMPANY
STRT.M        274.32                         : top_depth    - START DEPTH
STOP.M        493.82                         : bot_depth    - STOP DEPTH
STEP.M        0.25                           : increment    - STEP LENGTH
 NULL. -999.2500:NULL Value
~CURVE INFORMATION BLOCK
#MNEM UNIT       ERCB CURVE CODE    CURVE DESCRIPTION
#-----------   ------------------   ----------------------------------
DEPT.M        00 001 00 00         : DEPTH        - DEPTH
DELT.US/F     00 520 00 00         : DELT         - SONIC TRAVEL TIME
ILD .OHMM     00 120 00 00         : RESD         - DEEP RESISTIVITY (DIL)
GR  .API      00 310 00 00         : GR           - GAMMA RAY
~PARAMETER INFORMATION
#MNEM.UNIT           DATA             DESCRIPTION OF MNEMONIC
#---------         -----------     ------------------------------
GL  .M        591.16               : gl           - GROUND LEVEL ELEVATION
EREF.M        594.208              : kb           - ELEVATION OF DEPTH REFERENCE
DATM.M        594.208              : datum        - DATUM ELEVATION
TDD .M        505.968              : tdd          - TOTAL DEPTH DRILLER
RUN .         ONE                  : Run          - RUN NUMBER
ENG .         BILL                 : Engineer     - RECORDING ENGINEER
WIT .         JIM                  : Witness      - WITNESSED BY
MUD .         GEL                  : Mud_type     - MUD TYPE
MATR.         SANDSTONE            : Logunit      - NEUTRON MATRIX
TMAX.C        16.6667              : BHT          - MAXIMUM RECORDED TEMPERATURE
BHTD.M        505.968              : BHTDEP       - MAXIMUM RECORDED TEMPERATURE
MATR.         1                    : LOGUNIT      - NEUTRON MATRIX
RMT .C        16.6667              : MDTP         - TEMPERATURE OF MUD
NEUT.         1                    : NEUTRON      - NEUTRON TYPE
RESI.         0                    : RESIST       - RESISTIVITY TYPE
RMC .OHMM     3.28                 : RMC          - RESISTIVITY OF MUD CAKE
RMF .OHMM     2.85                 : RMF          - RESISTIVITY OF MUD FILTRATE
SUFT.C        15                   : SUFT         - SURFACE TEMPERATURE
~A  DEPTH     DELT     RESD       GR
# ...
  328.570  451.880    9.181   58.838
  328.820  455.222    9.172   55.093
  329.070  437.914    9.343   48.237
  329.320  426.601    9.336   45.736
  329.570  418.618    9.323   43.858
  329.820  413.970    9.499   45.089
  330.070  411.983    9.676   46.321
  330.320  410.663    9.855   46.930
  330.570  410.005    9.849   46.917
  330.820  408.688    9.840   46.283
  331.070  408.699    9.642   44.394
  331.320  408.042    9.264   43.141
  331.570  408.723    9.081   41.881
  331.820  408.735    8.901   41.252
  332.070  408.077    9.062   40.617
  332.320  408.089    9.058   40.605
  332.570  407.435    9.402   39.970
  332.820  406.783    9.395   39.335
  333.070  406.795    9.387   38.697
  333.320  410.803    9.376   38.688
  333.570  414.146    9.366   38.053
  333.820  415.490    9.359   37.419
  334.070  415.499    9.353   36.781
  334.320  415.516    9.340   37.390
  334.570  416.191    9.334   38.622
  334.820  416.200    9.327   39.853
  335.070  416.881    9.314   41.085
  335.320  417.559    9.310   40.447
  335.570  417.568    9.299   40.437
  335.820  417.579    9.291   40.428
  336.070  416.928    9.285   39.165
  336.320  416.937    9.274   38.533
  336.570  416.285    9.263   37.279
  336.820  416.294    9.257   36.645
  337.070  416.306    9.251   34.766
  337.320  415.651    9.240   32.884
  337.570  414.337    9.234   31.627
  337.820  414.345    9.047   30.992
  338.070  413.691    8.868   33.468
  338.320  413.034    8.686   37.191
  338.570  412.382    8.682   39.667
  338.820  412.391    8.674   39.032
  339.070  411.070    8.500   38.397
  339.320  410.416    8.492   40.251
  339.570  409.098    8.483   42.101
  339.820  408.444    8.475   42.711
  340.070  409.791    8.467   42.701
  340.320  410.466    8.460   42.689
  340.570  412.479    8.450   42.051
  340.820  412.488    8.444   41.416
  341.070  411.170    8.438   41.404
  341.320  410.513    8.267   42.635
  341.570  409.195    8.260   43.241
  341.820  409.204    8.252   43.235
  342.070  409.216    8.406   43.222
  342.320  408.561    8.400   42.584
  342.570  408.576    8.556   41.950
  342.820  408.590    8.709   41.937
  343.070  407.930    8.705   41.302
  343.320  407.942    8.867   41.293
  343.570  407.954    9.028   40.652
  343.820  406.633    9.021   40.645
  344.070  403.983    9.191   41.252
  344.320  402.660    9.729   43.105
  344.570  401.339   10.103   44.962
  344.820  401.357   10.492   48.676
  345.070  402.029   10.896   49.292
  345.320  403.378   11.317   51.761
  345.570  404.720   11.753   52.377
  345.820  405.397   11.971   53.608
  346.070  405.406   11.960   54.218
  346.320  405.421   11.947   56.065
  346.570  404.764   11.936   56.681
  346.820  402.114   12.160   57.913
  347.070  400.124   13.126   59.144
  347.320  394.809   15.014   60.376
  347.570  388.823   17.509   60.985
  347.820  380.840   24.778   59.103
  348.070  347.544   26.740   57.849
  348.320  250.959   26.721   54.723
  348.570  252.303   23.768   52.847
  348.820  253.647   20.741   64.032
  349.070  256.993   17.080   73.348
  349.320  262.997   15.196   72.713
  349.570  299.648   13.519   68.968
  349.820  318.978   12.262   65.223
  350.070  364.958   11.340   65.832
  350.320  386.287   10.897   67.067
  350.570  394.962   10.474   70.787
  350.820  396.306   10.267   71.396
  351.070  397.650   10.061   68.892
  351.320  396.329    9.860   67.638
  351.570  394.343    9.662   69.492
  351.820  393.019    9.653   72.590
  352.070  391.698    9.830   76.932
  352.320  393.042    9.821   80.652
  352.570  396.388   10.006   81.261
  352.820  395.067    9.995   78.760
  353.070  394.416    9.986   76.881
  353.320  394.422    9.979   76.247
  353.570  393.104    9.779   75.609
  353.820  389.116    9.581   74.974
  354.070  382.469    9.209   73.092
  354.320  386.475    9.024   72.464
  354.570  391.816    8.674   71.829
  354.820  395.158    8.500   71.813
  355.070  374.519    8.330   71.800
  355.320  368.535    8.159   71.162
  355.570  363.884    8.475   70.531
  355.820  365.231    8.801   70.522
  356.070  367.910    8.963   71.750
  356.320  369.248    8.955   74.229
  356.570  371.925    8.779   77.327
  356.820  371.936    8.601   77.936
  357.070  371.285    8.268   76.057
  357.320  371.966    7.947   79.152
  357.570  372.644    7.638   82.872
  357.820  373.316    7.340   83.484
  358.070  373.994    7.059   80.980
  358.320  376.007    6.916   80.349
  358.570  379.349    6.779   82.824
  358.820  382.689    6.643   85.300
  359.070  388.030    6.510   85.909
  359.320  393.371    6.379   85.894
  359.570  396.714    6.373   85.262
  359.820  400.722    6.246   83.380
  360.070  406.732    6.240   80.882
  360.320  411.407    6.356   75.893
  360.570  418.084    7.131   63.435
  360.820  421.426    8.811   55.335
  361.070  424.100    8.805   51.590
  361.320  423.448    8.463   49.708
  361.570  422.794    7.975   49.076
  361.820  421.470    7.669   47.820
  362.070  420.816    7.370   47.185
  362.320  420.164    7.083   46.547
  362.570  420.173    6.942   47.779
  362.820  420.851    6.936   53.368
  363.070  421.529    6.928   57.088
  363.320  422.207    7.057   55.206
  363.570  423.551    7.330   52.705
  363.820  423.565    7.757   52.073
  364.070  424.240    8.059   52.060
  364.320  424.258    8.365   55.780
  364.570  423.601    8.525   58.878
  364.820  423.612    8.681   58.862
  365.070  422.955    8.671   58.847
  365.320  422.300    8.667   58.837
  365.570  420.983    8.493   58.821
  365.820  420.325    8.323   58.815
  366.070  418.345    8.000   58.799
  366.320  417.021    7.690   59.402
  366.570  413.699    7.250   59.396
  366.820  408.381    7.380   59.383
  367.070  403.064    7.376   59.993
  367.320  397.080    7.662   59.977
  367.570  393.767    7.955   59.968
  367.820  393.773    8.263   59.958
  368.070  394.451    8.579   59.946
  368.320  395.129    8.907   61.171
  368.570  395.140    8.901   62.405
  368.820  395.818    8.553   64.881
  369.070  396.505    8.549   66.116
  369.320  397.180    8.542   64.853
  369.570  397.186    9.400   64.846
  369.820  396.531   10.962   63.590
  370.070  394.545   13.546   62.955
  370.320  388.561   15.798   62.320
  370.570  379.246   18.070   61.063
  370.820  331.960   21.484   56.074
  371.070  276.678   24.575   51.084
  371.320  256.705   25.526   46.092
  371.570  249.388   25.009   44.216
  371.820  243.405   24.038   43.578
  372.070  234.756   22.653   43.566
  372.320  225.442   21.779   43.556
  372.570  225.454   20.533   43.540
  372.820  242.119   17.918   43.531
  373.070  324.075   15.640   44.756
  373.320  338.076   12.879   45.994
  373.570  351.408   11.239   50.333
  373.820  358.748    9.999   52.806
  374.070  372.749    9.070   54.040
  374.320  401.406    8.718   54.653
  374.570  408.745    8.377   55.884
  374.820  409.426    8.370   56.491
  375.070  408.769    8.362   57.100
  375.320  406.119    8.516   57.087
  375.570  403.466    8.506   57.075
  375.820  401.476    8.339   57.062
  376.070  398.823    8.170   57.672
  376.320  395.504    8.007   57.662
  376.570  393.517    7.848   57.650
  376.820  392.197    7.542   57.637
  377.070  391.548    7.392   58.246
  377.320  390.888    7.392   58.234
  377.570  390.900    7.374   58.221
  377.820  390.248    7.092   56.339
  378.070  390.923    7.084   55.082
  378.320  392.267    7.080   57.555
  378.570  394.949    7.073   58.170
  378.820  395.621    7.203   60.021
  379.070  395.636    7.198   61.875
  379.320  392.983    7.330   61.865
  379.570  390.999    7.325   62.475
  379.820  389.673    7.602   63.084
  380.070  387.026    7.598   63.071
  380.320  385.702    7.738   61.808
  380.570  385.045    7.885   61.180
  380.820  383.724    8.032   60.545
  381.070  383.073    8.177   61.155
  381.320  385.749    8.333   62.386
  381.570  388.423    8.652   62.989
  381.820  390.439    8.984   62.980
  382.070  390.453    9.149   62.342
  382.320  391.794    9.145   61.085
  382.570  393.805    9.135   59.203
