~VERSION INFORMATION
 VERS.                 2.0:   CWLS LOG ASCII STANDARD -VERSION 2.0
 WRAP.                  NO:   ONE LINE PER DEPTH STEP
~WELL INFORMATION BLOCK
#MNEM.UNIT           DATA                    DESCRIPTION OF MNEMONIC
#---------    -------------------            -------------------------------
# Generated from Intellog Unique Number	CW_70_72/WELL/3004
NULL.         -999.25                        : NULL_VALUE
WELL.         SULPETRO BREND MITSUE 05-20    : Well_name    - WELL              
LOC .         05-20-070-05W5                 : Location     - LOCATION          
UWI .         00/05-20-070-05W5/0            : Uwi          - UNIQUE WELL ID    
ENTR.         JAYE                           : Entered      - ENTERED BY        
SRVC.         SCHLUMBERGER                   : Scn          - SERVICE COMPANY   
DATE.         5 FEB 80                       : Date         - LOG DATE          
STRT.M        635                            : top_depth    - START DEPTH       
STOP.M        885                            : bot_depth    - STOP DEPTH        
STEP.M        0.25                           : increment    - STEP LENGTH       
~CURVE INFORMATION BLOCK
#MNEM UNIT       ERCB CURVE CODE    CURVE DESCRIPTION
#-----------   ------------------   ----------------------------------
DEPT.M        00 001 00 00         : DEPTH        - DEPTH                       
ILD .OHMM     00 120 00 00         : RESD         - DEEP RESISTIVITY (DIL)      
CALI.MM       00 280 01 00         : CAL          - CALIPER                     
GR  .API      00 310 00 00         : GR           - GAMMA RAY                   
NPHI.V/V      00 330 00 00         : PHIN         - NEUTRON POROSITY (SANDSTONE)
DPHI.V/V      00 890 00 00         : PHID         - DENSITY POROSITY (SANDSTONE)
~PARAMETER INFORMATION       
#MNEM.UNIT           DATA             DESCRIPTION OF MNEMONIC
#---------         -----------     ------------------------------
GL  .M        738.2                : gl           - GROUND LEVEL ELEVATION      
EREF.M        742                  : kb           - ELEVATION OF DEPTH REFERENCE
DATM.M        738.2                : datum        - DATUM ELEVATION             
TDD .M        898                  : tdd          - TOTAL DEPTH DRILLER         
RUN .         ONE                  : Run          - RUN NUMBER                  
ENG .         DECKER               : Engineer     - RECORDING ENGINEER          
WIT .         CIAVARELLA           : Witness      - WITNESSED BY                
BASE.         EDM                  : Branch       - HOME BASE OF LOGGING UNIT   
MUD .         GEL CHEM             : Mud_type     - MUD TYPE                    
MATR.         SANDSTONE            : Logunit      - NEUTRON MATRIX              
TMAX.C        31.1                 : BHT          - MAXIMUM RECORDED TEMPERATURE
BHTD.M        899.5                : BHTDEP       - MAXIMUM RECORDED TEMPERATURE
RMT .C        12.7                 : MDTP         - TEMPERATURE OF MUD          
MUDD.KG/M     1000                 : MWT          - MUD DENSITY                 
NEUT.         1                    : NEUTRON      - NEUTRON TYPE                
RESI.         0                    : RESIST       - RESISTIVITY TYPE            
RM  .OHMM     0.25                 : RM           - RESISTIVITY OF MUD          
RMC .OHMM     0.25                 : RMC          - RESISTIVITY OF MUD CAKE     
RMF .OHMM     5                    : RMF          - RESISTIVITY OF MUD FILTRATE 
SUFT.C        0                    : SUFT         - SURFACE TEMPERATURE         
~A  DEPTH     RESD      CAL       GR     PHIN     PHID
# ...
  671.500    3.721  167.630   92.578    0.456    0.170
  671.750    3.733  167.754   92.405    0.437    0.181
  672.000    3.710  168.603   90.184    0.421    0.193
  672.250    3.708  167.694   91.066    0.411    0.196
  672.500    3.699  166.681   91.698    0.410    0.185
  672.750    3.662  166.909   91.899    0.430    0.170
  673.000    3.579  168.896   91.291    0.415    0.201
  673.250    3.465  173.159   95.832    0.423    0.195
  673.500    3.379  176.589   94.232    0.439    0.171
  673.750    3.228  176.920   93.996    0.449    0.202
  674.000    3.067  174.771   94.753    0.455    0.193
  674.250    2.849  177.687   95.077    0.447    0.209
  674.500    2.682  182.776   94.469    0.427    0.197
  674.750    2.529  184.865   83.811    0.450    0.179
  675.000    2.358  182.094   71.665    0.472    0.235
  675.250    2.122  161.436   62.249    0.459    0.271
  675.500    1.849  155.981   50.041    0.432    0.289
  675.750    1.602  154.555   45.959    0.415    0.302
  676.000    1.447  154.473   44.048    0.381    0.307
  676.250    1.349  154.183   43.009    0.391    0.291
  676.500    1.319  154.411   40.539    0.410    0.282
  676.750    1.333  154.643   37.883    0.406    0.317
  677.000    1.355  155.282   39.199    0.390    0.313
  677.250    1.401  155.714   41.693    0.386    0.306
  677.500    1.437  155.951   42.140    0.394    0.302
  677.750    1.455  156.075   44.573    0.402    0.300
  678.000    1.446  156.296   44.275    0.413    0.294
  678.250    1.422  156.524   40.566    0.409    0.285
  678.500    1.397  156.447   38.841    0.400    0.296
  678.750    1.367  156.468   41.709    0.390    0.308
  679.000    1.341  156.387   41.721    0.395    0.307
  679.250    1.306  156.206   40.555    0.409    0.293
  679.500    1.267  156.219   37.901    0.408    0.299
  679.750    1.242  156.243   35.371    0.398    0.315
  680.000    1.232  156.266   35.568    0.390    0.329
  680.250    1.257  156.495   38.559    0.400    0.324
  680.500    1.290  156.314   40.309    0.404    0.317
  680.750    1.309  156.224   39.827    0.407    0.304
  681.000    1.323  156.144   38.784    0.393    0.290
  681.250    1.340  156.372   37.432    0.385    0.270
  681.500    1.357  156.805   37.570    0.407    0.255
  681.750    1.366  157.134   38.388    0.403    0.297
  682.000    1.373  157.158   39.084    0.394    0.306
  682.250    1.380  157.386   39.345    0.402    0.308
  682.500    1.395  157.615   39.793    0.407    0.309
  682.750    1.426  157.638   39.495    0.399    0.315
  683.000    1.458  157.456   39.384    0.387    0.314
  683.250    1.479  157.470   41.754    0.378    0.312
  683.500    1.509  157.286   45.986    0.386    0.308
  683.750    1.539  157.104   49.224    0.383    0.301
  684.000    1.586  157.023   51.781    0.393    0.292
  684.250    1.648  156.843   54.275    0.405    0.286
  684.500    1.736  156.755   56.893    0.403    0.284
  684.750    1.856  156.567   60.691    0.391    0.276
  685.000    1.963  156.179   65.728    0.400    0.248
  685.250    2.030  156.094   68.905    0.401    0.229
  685.500    2.043  155.906   70.222    0.402    0.244
  685.750    2.042  155.514   70.296    0.406    0.237
  686.000    1.996  155.441   71.053    0.412    0.232
  686.250    1.875  155.459   75.470    0.421    0.233
  686.500    1.693  155.275   73.188    0.438    0.244
  686.750    1.495  154.983   68.858    0.434    0.267
  687.000    1.429  155.008   61.922    0.429    0.261
  687.250    1.428  154.926   54.801    0.438    0.262
  687.500    1.460  154.844   44.578    0.423    0.289
  687.750    1.489  155.065   49.368    0.390    0.319
  688.000    1.497  155.189   58.625    0.404    0.293
  688.250    1.441  155.631   65.461    0.416    0.275
  688.500    1.392  155.854   60.946    0.429    0.265
  688.750    1.358  155.667   56.243    0.452    0.291
  689.000    1.352  155.693   58.675    0.482    0.294
  689.250    1.465  155.714   58.192    0.481    0.287
  689.500    1.639  155.839   53.056    0.462    0.310
  689.750    1.910  155.862   55.736    0.428    0.294
  690.000    2.626  156.088   61.953    0.433    0.241
  690.250    3.067  156.521   66.494    0.422    0.187
  690.500    3.261  156.960   72.030    0.354    0.154
  690.750    3.284  157.079   77.749    0.379    0.173
  691.000    3.246  158.240   85.579    0.398    0.210
  691.250    3.166  159.811   89.996    0.414    0.205
  691.500    3.088  160.970   87.962    0.430    0.181
  691.750    3.006  161.406   84.748    0.439    0.158
  692.000    2.937  160.292   79.737    0.420    0.167
  692.250    2.892  159.283   77.888    0.410    0.197
  692.500    2.934  158.679   77.032    0.410    0.223
  692.750    3.228  157.975   73.138    0.412    0.233
  693.000    3.818  157.793   72.778    0.419    0.183
  693.250    5.066  157.503   73.597    0.366    0.133
  693.500    6.006  157.523   73.424    0.259    0.180
  693.750    6.037  157.546   68.164    0.230    0.124
  694.000    5.757  157.465   60.918    0.211    0.061
  694.250    5.045  157.281   57.395    0.207    0.049
  694.500    3.936  157.091   63.365    0.234    0.053
  694.750    3.219  157.113   70.014    0.368    0.109
  695.000    2.891  157.238   77.409    0.418    0.182
  695.250    2.621  157.260   75.004    0.450    0.196
  695.500    2.453  156.870   73.216    0.450    0.244
  695.750    2.365  156.579   71.430    0.428    0.242
  696.000    2.360  156.293   70.885    0.410    0.219
  696.250    2.350  156.213   74.621    0.422    0.219
  696.500    2.357  156.128   77.114    0.432    0.231
  696.750    2.419  156.354   80.354    0.433    0.237
  697.000    2.514  157.412   80.990    0.411    0.230
  697.250    2.634  158.363   81.371    0.394    0.211
  697.500    2.743  158.901   85.851    0.390    0.207
  697.750    2.868  160.578   88.905    0.403    0.194
  698.000    3.125  163.183   89.661    0.420    0.183
  698.250    3.649  165.272   87.130    0.481    0.281
  698.500    4.586  163.537   64.438    0.520    0.322
  698.750    6.049  161.181   52.539    0.559    0.402
  699.000    7.253  160.891   31.211    0.624    0.517
  699.250    6.930  162.876   23.842    0.684    0.700
  699.500    6.224  164.863   28.631    0.741    0.669
  699.750    4.748  162.194   38.199    0.724    0.614
  700.000    3.882  158.911   51.487    0.673    0.309
  700.250    3.234  157.278   68.498    0.596    0.262
  700.500    3.073  156.262   69.938    0.377    0.254
  700.750    2.948  155.770   70.137    0.367    0.259
  701.000    2.891  155.169   72.445    0.367    0.265
  701.250    2.851  155.190   75.994    0.377    0.252
  701.500    2.776  155.005   79.792    0.396    0.251
  701.750    2.739  154.508   85.202    0.406    0.249
  702.000    2.716  154.738   88.005    0.383    0.244
  702.250    2.740  155.279   83.677    0.390    0.237
  702.500    2.802  155.609   81.766    0.390    0.238
  702.750    2.896  156.148   83.764    0.383    0.245
  703.000    3.051  156.686   83.963    0.376    0.248
  703.250    3.231  157.327   86.148    0.381    0.241
  703.500    3.481  158.277   92.426    0.393    0.234
  703.750    3.674  159.849   99.387    0.404    0.232
  704.000    3.812  161.732   96.422    0.415    0.242
  704.250    3.860  163.821   94.946    0.417    0.247
  704.500    3.745  165.704  100.604    0.436    0.239
  704.750    3.578  167.276  102.044    0.459    0.214
  705.000    3.431  168.643   95.977    0.472    0.230
  705.250    3.247  168.353   88.855    0.486    0.225
  705.500    3.126  161.447   84.465    0.503    0.230
  705.750    3.066  161.367   89.998    0.462    0.209
  706.000    3.002  164.386   95.470    0.453    0.183
  706.250    2.972  167.716   95.483    0.487    0.158
  706.500    2.899  167.530   96.240    0.505    0.191
  706.750    2.834  165.694   97.061    0.495    0.204
  707.000    2.810  164.989   97.072    0.482    0.197
  707.250    2.767  164.394  102.172    0.479    0.186
  707.500    2.745  164.412  102.185    0.494    0.176
  707.750    2.738  164.229   99.097    0.473    0.171
