~VERSION INFORMATION
 VERS.                 2.0:   CWLS LOG ASCII STANDARD -VERSION 2.0
 WRAP.                  NO:   ONE LINE PER DEPTH STEP
~WELL INFORMATION BLOCK
#MNEM.UNIT           DATA                    DESCRIPTION OF MNEMONIC
#---------    -------------------            -------------------------------
# Generated from Intellog Unique Number	CS_77_79/WELL/871
WELL.         HOME LEISMER                   : Well_name    - WELL
LOC .         00/06-11-078-07W4/0            : Location     - LOCATION
UWI .         00/06-11-078-07W4/0            : Uwi          - UNIQUE WELL ID
ENTR.         JHS                            : Entered      - ENTERED BY
SRVC.         SCHLUMBERGER                   : Scn          - SERVICE COMPANY
STRT.M        106.680                        : top_depth    - START DEPTH
STOP.M        344.180                        : bot_depth    - STOP DEPTH
STEP.M        0.25                           : increment    - STEP LENGTH
 NULL. -999.2500:NULL Value
~CURVE INFORMATION BLOCK
#MNEM UNIT       ERCB CURVE CODE    CURVE DESCRIPTION
#-----------   ------------------   ----------------------------------
DEPT.M        00 001 00 00         : DEPTH        - DEPTH
RHOB.KG/M3    00 350 00 00         : DENS         - BULK DENSITY
GR  .API      00 310 00 00         : GR           - GAMMA RAY
DPHI.V/V      00 890 00 00         : PHID         - DENSITY POROSITY (SANDSTONE)
NPHI.V/V      00 330 00 00         : PHIN         - NEUTRON POROSITY (SANDSTONE)
ILD .OHMM     00 120 00 00         : RESD         - DEEP RESISTIVITY (DIL)
~PARAMETER INFORMATION
#MNEM.UNIT           DATA             DESCRIPTION OF MNEMONIC
#---------         -----------     ------------------------------
GL  .M        533.461              : gl           - GROUND LEVEL ELEVATION
EREF.M        536.814              : kb           - ELEVATION OF DEPTH REFERENCE
DATM.M        536.814              : datum        - DATUM ELEVATION
TDD .M        347.472              : tdd          - TOTAL DEPTH DRILLER
RUN .         ONE                  : Run          - RUN NUMBER
ENG .         BILL                 : Engineer     - RECORDING ENGINEER
WIT .         JIM                  : Witness      - WITNESSED BY
MUD .         GEL                  : Mud_type     - MUD TYPE
MATR.         SANDSTONE            : Logunit      - NEUTRON MATRIX
TMAX.C        21.6667              : BHT          - MAXIMUM RECORDED TEMPERATURE
BHTD.M        347.472              : BHTDEP       - MAXIMUM RECORDED TEMPERATURE
MATR.         1                    : LOGUNIT      - NEUTRON MATRIX
RMT .C        25                   : MDTP         - TEMPERATURE OF MUD
NEUT.         1                    : NEUTRON      - NEUTRON TYPE
RESI.         0                    : RESIST       - RESISTIVITY TYPE
RMC .OHMM     0.25                 : RMC          - RESISTIVITY OF MUD CAKE
RMF .OHMM     0.25                 : RMF          - RESISTIVITY OF MUD FILTRATE
SUFT.C        15                   : SUFT         - SURFACE TEMPERATURE
~A  DEPTH     DENS       GR     PHID     PHIN     RESD
  106.680    0.000  101.400    0.307    0.574    2.648
  106.930    0.000   97.103    0.300    0.584    2.677
  107.180    0.000   95.996    0.291    0.593    2.761
  107.430    0.000   98.838    0.316    0.601    2.845
  107.680    0.000  100.642    0.300    0.612    2.932
  107.930    0.000  100.987    0.303    0.612    3.022
  108.180    0.000  102.526    0.300    0.599    3.109
  108.430    0.000  103.014    0.259    0.577    3.274
  108.680    0.000  101.888    0.249    0.553    3.369
  108.930    0.000  100.702    0.266    0.560    3.471
  109.180    0.000  101.299    0.256    0.578    3.576
  109.430    0.000  100.213    0.244    0.538    3.685
  109.680    0.000  100.654    0.265    0.528    3.688
  109.930    0.000  100.649    0.270    0.519    3.592
  110.180    0.000   96.722    0.253    0.529    3.489
  110.430    0.000   95.691    0.254    0.557    3.325
  110.680    0.000   97.678    0.276    0.576    3.168
  110.930    0.000   99.691    0.273    0.606    3.181
  111.180    0.000   98.084    0.254    0.580    3.208
  111.430    0.000   97.276    0.251    0.554    3.319
  111.680    0.000   98.015    0.262    0.535    3.417
  111.930    0.000   93.832    0.244    0.522    3.611
  112.180    0.000   88.530    0.237    0.511    3.831
  112.430    0.000   83.979    0.243    0.514    4.123
  112.680    0.000   79.672    0.243    0.503    4.534
  112.930    0.000   76.227    0.257    0.473    5.225
  113.180    0.000   69.918    0.212    0.439    6.377
  113.430    0.000   63.946    0.189    0.398    6.864
  113.680    0.000   62.978    0.139    0.386    6.419
  113.930    0.000   70.212    0.190    0.461    5.246
  114.180    0.000   83.218    0.266    0.509    4.410
  114.430    0.000   92.515    0.273    0.522    4.045
  114.680    0.000   97.217    0.265    0.517    3.906
  114.930    0.000   97.137    0.263    0.530    4.056
  115.180    0.000   94.442    0.254    0.544    5.125
  115.430    0.000   85.262    0.262    0.474    6.284
  115.680    0.000   76.075    0.275    0.455    7.698
  115.930    0.000   77.459    0.301    0.449    7.726
  116.180    0.000   87.445    0.269    0.463    7.236
  116.430    0.000   94.837    0.257    0.479    6.393
  116.680    0.000   99.838    0.258    0.495    5.695
  116.930    0.000  100.965    0.265    0.516    5.591
  117.180    0.000  100.832    0.273    0.525    6.189
  117.430    0.000  101.472    0.289    0.507    7.402
  117.680    0.000   97.665    0.302    0.478    9.053
  117.930    0.000   97.818    0.309    0.458    9.569
  118.180    0.000   97.643    0.302    0.463    9.384
  118.430    0.000   97.362    0.297    0.471    8.359
  118.680    0.000   98.752    0.271    0.462    7.426
  118.930    0.000  101.604    0.259    0.443    6.759
  119.180    0.000  105.191    0.252    0.455    6.623
  119.430    0.000  109.582    0.251    0.468    6.947
  119.680    0.000  108.848    0.252    0.474    7.313
  119.930    0.000  105.345    0.255    0.465    8.212
  120.180    0.000   99.253    0.273    0.477    9.620
  120.430    0.000   96.897    0.291    0.484   10.896
  120.680    0.000   89.406    0.316    0.504   12.703
  120.930    0.000   75.053    0.370    0.545   14.319
  121.180    0.000   56.907    0.382    0.531   18.172
  121.430    0.000   40.449    0.423    0.517   20.710
  121.680    0.000   26.643    0.552    0.613   23.237
  121.930    0.000   23.544    0.581    0.621   25.399
  122.180    0.000   23.589    0.494    0.469   27.025
  122.430    0.000   23.733    0.322    0.403   29.188
  122.680    0.000   24.763    0.298    0.377   31.498
  122.930    0.000   25.367    0.297    0.359   34.809
  123.180    0.000   26.190    0.308    0.352   36.878
  123.430    0.000   26.565    0.330    0.361   39.197
  123.680    0.000   27.534    0.345    0.396   40.481
  123.930    0.000   28.526    0.344    0.400   40.743
  124.180    0.000   28.954    0.337    0.392   40.832
  124.430    0.000   29.596    0.331    0.394   40.065
  124.680    0.000   30.221    0.333    0.404   38.430
  124.930    0.000   30.609    0.338    0.404   37.869
  125.180    0.000   31.581    0.336    0.392   38.087
  125.430    0.000   33.233    0.334    0.394   39.311
  125.680    0.000   34.174    0.336    0.399   40.062
  125.930    0.000   34.980    0.323    0.412   40.099
  126.180    0.000   36.163    0.306    0.414   38.628
  126.430    0.000   37.536    0.312    0.421   37.828
  126.680    0.000   38.862    0.329    0.409   37.821
  126.930    0.000   40.357    0.322    0.398   38.493
  127.180    0.000   41.303    0.332    0.409   38.538
  127.430    0.000   43.101    0.329    0.404   38.554
  127.680    0.000   45.262    0.331    0.413   38.557
  127.930    0.000   43.250    0.330    0.418   38.599
  128.180    0.000   41.025    0.325    0.398   37.778
  128.430    0.000   46.824    0.339    0.393   37.162
  128.680    0.000   51.456    0.329    0.397   35.978
  128.930    0.000   54.239    0.324    0.404   34.522
  129.180    0.000   53.526    0.318    0.410   31.806
  129.430    0.000   54.391    0.304    0.412   30.827
  129.680    0.000   55.477    0.303    0.414   28.832
  129.930    0.000   52.450    0.315    0.415   28.199
  130.180    0.000   51.954    0.319    0.421   28.260
  130.430    0.000   56.077    0.308    0.434   29.217
  130.680    0.000   59.532    0.300    0.432   29.558
  130.930    0.000   58.915    0.303    0.416   29.217
  131.180    0.000   57.427    0.317    0.413   28.862
  131.430    0.000   55.674    0.332    0.437   27.840
  131.680    0.000   56.099    0.316    0.446   26.165
  131.930    0.000   57.419    0.308    0.441   25.076
  132.180    0.000   60.382    0.326    0.434   24.244
  132.430    0.000   64.965    0.326    0.431   23.044
  132.680    0.000   70.657    0.337    0.439   22.828
  132.930    0.000   72.860    0.369    0.465   22.166
  133.180    0.000   71.235    0.401    0.491   22.500
  133.430    0.000   69.746    0.410    0.518   25.370
  133.680    0.000   70.576    0.433    0.554   26.437
  133.930    0.000   72.054    0.425    0.565   24.160
  134.180    0.000   74.216    0.385    0.515   19.020
  134.430    0.000   77.937    0.393    0.487   11.781
  134.680    0.000   83.085    0.367    0.489    8.428
  134.930    0.000   94.934    0.339    0.510    6.680
  135.180    0.000  106.542    0.259    0.542    5.590
  135.430    0.000  113.521    0.245    0.574    5.218
  135.680    0.000  110.601    0.225    0.586    5.221
  135.930    0.000  102.908    0.205    0.571    5.875
  136.180    0.000   87.030    0.200    0.521    7.682
  136.430    0.000   80.628    0.206    0.501   13.075
  136.680    0.000   70.349    0.314    0.496   17.769
  136.930    0.000   49.050    0.334    0.423   21.908
  137.180    0.000   47.855    0.319    0.412   26.905
  137.430    0.000   52.622    0.316    0.406   26.000
  137.680    0.000   60.151    0.318    0.406   23.862
  137.930    0.000   65.974    0.299    0.413   17.301
  138.180    0.000   72.960    0.276    0.426   13.644
  138.430    0.000   81.379    0.257    0.435   12.113
  138.680    0.000   86.135    0.252    0.443   11.446
  138.930    0.000   84.645    0.273    0.454   11.566
  139.180    0.000   73.413    0.316    0.456   11.968
  139.430    0.000   64.350    0.301    0.423   12.717
  139.680    0.000   68.671    0.275    0.416   13.905
  139.930    0.000   79.112    0.256    0.435   15.200
  140.180    0.000   75.313    0.262    0.444   15.844
  140.430    0.000   71.917    0.295    0.435   16.523
  140.680    0.000   76.380    0.328    0.461   17.184
  140.930    0.000   80.704    0.315    0.457   17.933
  141.180    0.000   77.162    0.309    0.454   18.463
  141.430    0.000   72.349    0.306    0.451   18.443
  141.680    0.000   71.146    0.308    0.441   18.259
  141.930    0.000   71.603    0.310    0.434   17.177
  142.180    0.000   74.103    0.315    0.435   15.697
  142.430    0.000   79.116    0.322    0.449   12.828
  142.680    0.000   87.645    0.318    0.458   10.470
  142.930    0.000   98.167    0.278    0.456    8.335
