~VERSION INFORMATION
 VERS.                 2.0:   CWLS LOG ASCII STANDARD -VERSION 2.0
 WRAP.                  NO:   ONE LINE PER DEPTH STEP
~WELL INFORMATION BLOCK
#MNEM.UNIT           DATA                    DESCRIPTION OF MNEMONIC
#---------    -------------------            -------------------------------
# Generated from Intellog Unique Number	CW_76_78/WELL/2570
WELL.         ATCOR ET AL PELICAN            : Well_name    - WELL
LOC .         00/06-34-078-25W4/0            : Location     - LOCATION
UWI .         00/06-34-078-25W4/0            : Uwi          - UNIQUE WELL ID
ENTR.         MAX                            : Entered      - ENTERED BY
SRVC.         COMPUTALOG                     : Scn          - SERVICE COMPANY
STRT.M        270                            : top_depth    - START DEPTH
STOP.M        490                            : bot_depth    - STOP DEPTH
STEP.M        0.25                           : increment    - STEP LENGTH
 NULL. -999.2500:NULL Value
~CURVE INFORMATION BLOCK
#MNEM UNIT       ERCB CURVE CODE    CURVE DESCRIPTION
#-----------   ------------------   ----------------------------------
DEPT.M        00 001 00 00         : DEPTH        - DEPTH
ILD .OHMM     00 120 00 00         : RESD         - DEEP RESISTIVITY (DIL)
NPHI.V/V      00 330 00 00         : PHIN         - NEUTRON POROSITY (SANDSTONE)
DPHI.V/V      00 890 00 00         : PHID         - DENSITY POROSITY (SANDSTONE)
CALI.MM       00 280 01 00         : CAL          - CALIPER
GR  .API      00 310 00 00         : GR           - GAMMA RAY
~PARAMETER INFORMATION
#MNEM.UNIT           DATA             DESCRIPTION OF MNEMONIC
#---------         -----------     ------------------------------
GL  .M        581                  : gl           - GROUND LEVEL ELEVATION
EREF.M        584.7                : kb           - ELEVATION OF DEPTH REFERENCE
DATM.M        581                  : datum        - DATUM ELEVATION
TDD .M        491.9                : tdd          - TOTAL DEPTH DRILLER
RUN .         ONE                  : Run          - RUN NUMBER
ENG .         BILL                 : Engineer     - RECORDING ENGINEER
WIT .         JIM                  : Witness      - WITNESSED BY
MUD .         GEL                  : Mud_type     - MUD TYPE
MATR.         SANDSTONE            : Logunit      - NEUTRON MATRIX
TMAX.C        30                   : BHT          - MAXIMUM RECORDED TEMPERATURE
BHTD.M        491.9                : BHTDEP       - MAXIMUM RECORDED TEMPERATURE
RMT .C        19                   : MDTP         - TEMPERATURE OF MUD
MUDD.KG/M     1120                 : MWT          - MUD DENSITY
NEUT.         1                    : NEUTRON      - NEUTRON TYPE
RESI.         0                    : RESIST       - RESISTIVITY TYPE
RM  .OHMM     4.4                  : RM           - RESISTIVITY OF MUD
RMC .OHMM     0.25                 : RMC          - RESISTIVITY OF MUD CAKE
RMF .OHMM     4.1                  : RMF          - RESISTIVITY OF MUD FILTRATE
SUFT.C        -10                  : SUFT         - SURFACE TEMPERATURE
~A  DEPTH     RESD     PHIN     PHID      CAL       GR
# ...
  452.500   10.739    0.340    0.276  197.324   34.570
  452.750   10.854    0.337    0.286  197.385   23.647
  453.000   11.174    0.331    0.295  196.431   20.336
  453.250   12.058    0.318    0.298  195.477   18.547
  453.500   13.007    0.306    0.299  195.038   18.547
  453.750   14.029    0.307    0.298  194.592   18.020
  454.000   16.612    0.312    0.297  194.153   17.748
  454.250   18.600    0.313    0.299  193.706   18.088
  454.500   23.944    0.309    0.300  193.759   17.820
  454.750   28.090    0.311    0.297  193.827   17.557
  455.000   31.165    0.312    0.295  193.381   17.289
  455.250   32.999    0.310    0.298  193.441   17.325
  455.500   34.617    0.306    0.299  192.995   17.362
  455.750   35.978    0.306    0.301  192.548   17.707
  456.000   38.465    0.309    0.303  192.109   18.047
  456.250   40.728    0.321    0.304  192.170   18.388
  456.500   43.117    0.332    0.302  193.744   19.333
  456.750   46.512    0.336    0.295  195.841   20.291
  457.000   50.183    0.330    0.292  196.916   20.327
  457.250   53.145    0.325    0.292  196.977   21.272
  457.500   54.705    0.328    0.288  197.559   21.917
  457.750   55.310    0.339    0.287  197.605   21.349
  458.000   55.385    0.339    0.289  197.173   21.081
  458.250   54.956    0.330    0.285  196.212   21.118
  458.500   55.030    0.324    0.284  195.266   21.767
  458.750   54.576    0.321    0.288  194.812   21.799
  459.000   53.642    0.317    0.286  195.395   21.835
  459.250   53.227    0.309    0.278  196.977   21.876
  459.500   53.227    0.311    0.272  197.529   21.608
  459.750   53.380    0.328    0.270  197.613   21.645
  460.000   52.476    0.333    0.270  197.666   21.994
  460.250   52.042    0.328    0.273  197.219   22.326
  460.500   51.630    0.323    0.277  196.765   24.492
  460.750   50.286    0.327    0.282  195.811   24.842
  461.000   49.417    0.329    0.282  194.857   23.961
  461.250   47.243    0.329    0.275  195.932   26.137
  461.500   45.149    0.327    0.269  196.508   28.598
  461.750   41.193    0.325    0.270  196.076   31.073
  462.000   37.236    0.333    0.265  196.129   33.244
  462.250   32.749    0.340    0.248  196.689   35.711
  462.500   31.585    0.331    0.236  197.257   39.703
  462.750   31.050    0.319    0.227  197.318   44.008
  463.000   31.050    0.336    0.232  196.379   45.562
  463.250   31.139    0.349    0.257  195.425   45.602
  463.500   31.457    0.354    0.264  193.957   39.853
  463.750   33.005    0.353    0.271  193.510   34.107
  464.000   33.991    0.349    0.275  193.578   30.188
  464.250   33.717    0.339    0.278  194.653   27.181
  464.500   32.233    0.332    0.277  195.214   26.614
  464.750   30.809    0.338    0.282  196.304   27.254
  465.000   29.181    0.345    0.288  195.849   28.512
  465.250   29.181    0.352    0.291  195.910   29.457
  465.500   28.711    0.352    0.291  196.992   30.415
  465.750   26.209    0.344    0.287  197.045   31.360
  466.000   26.724    0.339    0.278  197.114   32.918
  466.250   26.724    0.342    0.281  197.174   34.475
  466.500   26.548    0.351    0.286  197.242   35.120
  466.750   25.857    0.357    0.285  197.295   35.770
  467.000   25.648    0.347    0.283  197.356   36.419
  467.250   25.687    0.335    0.279  197.432   37.673
  467.500   25.726    0.340    0.274  196.970   38.627
  467.750   25.286    0.335    0.274  196.531   39.263
  468.000   24.849    0.327    0.273  196.592   40.825
  468.250   23.318    0.338    0.272  196.660   42.078
  468.500   21.877    0.362    0.269  196.728   43.641
  468.750   20.717    0.347    0.262  196.773   46.720
  469.000   19.802    0.342    0.251  197.386   49.191
  469.250   18.753    0.329    0.244  197.402   51.357
  469.500   17.594    0.311    0.221  197.977   55.050
  469.750   16.658    0.308    0.146  198.560   59.346
  470.000   15.484    0.331    0.159  198.613   65.468
  470.250   14.128    0.350    0.159  198.673   70.678
  470.500   12.537    0.369    0.150  198.734   75.592
  470.750   11.546    0.363    0.145  199.801   81.405
  471.000   10.534    0.356    0.146  199.877   94.227
  471.250    9.790    0.360    0.143  200.437  100.653
  471.500    8.851    0.362    0.141  200.505   99.786
  471.750    8.459    0.359    0.150  199.552   97.996
  472.000    8.087    0.356    0.155  198.083   98.332
  472.250    7.873    0.358    0.158  197.652  100.194
  472.500    7.885    0.394    0.159  197.697  103.278
  472.750    8.349    0.403    0.162  195.744  103.319
  473.000    9.175    0.389    0.166  194.790   95.435
  473.250   10.663    0.360    0.174  194.351   56.821
  473.500   11.939    0.335    0.179  195.934   47.115
  473.750   14.403    0.316    0.187  198.522   45.630
  474.000   16.277    0.302    0.198  198.590   47.497
  474.250   17.558    0.293    0.180  197.637   50.576
  474.500   17.425    0.282    0.127  197.705   53.356
  474.750   15.313    0.269    0.091  197.750   53.388
  475.000   11.927    0.264    0.032  197.811   62.871
  475.250    9.203    0.282    0.070  198.379   75.992
  475.500    7.867    0.354    0.143  197.940   85.153
  475.750    6.479    0.425    0.172  198.000   87.932
  476.000    5.859    0.442    0.179  198.576   87.360
  476.250    5.812    0.430    0.174  198.629   94.395
  476.500    5.928    0.405    0.172  198.190   97.483
  476.750    6.454    0.397    0.177  198.250   90.516
  477.000    8.389    0.391    0.183  198.303   83.554
  477.250    9.839    0.366    0.209  198.371   62.889
  477.500   11.225    0.342    0.224  198.447   67.499
  477.750   12.336    0.360    0.252  198.500   71.795
  478.000   13.307    0.386    0.266  198.553   73.349
  478.250   14.095    0.407    0.276  198.621   67.299
  478.500   14.649    0.443    0.294  199.189   59.728
  478.750   15.223    0.454    0.329  199.242   53.070
  479.000   16.272    0.440    0.325  199.318   51.585
  479.250   17.886    0.414    0.301  199.378   53.452
  479.500   19.294    0.408    0.286  198.924   56.222
  479.750   19.680    0.410    0.285  199.000   62.658
  480.000   18.636    0.411    0.295  199.060   65.433
  480.250   16.538    0.410    0.291  199.106   66.986
  480.500   14.536    0.428    0.293  199.174   70.983
  480.750   12.778    0.452    0.309  199.742   74.671
  481.000   11.550    0.466    0.341  199.802   80.493
  481.250   10.246    0.507    0.375  200.370   85.098
  481.500    9.007    0.523    0.391  200.431   85.743
  481.750    7.700    0.539    0.366  200.499   86.084
  482.000    6.832    0.524    0.334  199.545   88.863
  482.250    6.350    0.491    0.293  199.098   88.596
  482.500    6.070    0.477    0.257  198.659   88.328
  482.750    5.911    0.511    0.260  198.213   87.760
  483.000    5.810    0.525    0.302  198.273   86.270
  483.250    5.872    0.551    0.385  197.312   86.611
  483.500    5.990    0.538    0.394  196.873   93.342
  483.750    6.286    0.501    0.300  196.419  101.898
  484.000    6.534    0.474    0.259  196.487  106.508
  484.250    6.789    0.456    0.089  196.548  106.849
  484.500    7.190    0.429    0.058  196.608  106.281
  484.750    7.541    0.416    0.059  196.162  106.013
  485.000    7.839    0.389    0.113  194.216  106.045
  485.250    8.148    0.377    0.200  193.755  105.777
  485.500    7.935    0.395    0.222  193.808  106.426
  485.750    7.376    0.441    0.208  195.397  107.675
  486.000    6.920    0.439    0.166  198.501  109.238
  486.250    6.802    0.418    0.120  198.569  109.574
  486.500    6.810    0.409    0.146  196.601  106.572
  486.750    7.079    0.412    0.134  196.661  105.396
  487.000    7.496    0.420    0.106  196.722  106.036
  487.250    8.395    0.425    0.100  195.269  106.381
  487.500    8.722    0.427    0.114  195.322  105.804
  487.750    8.900    0.425    0.147  195.382  105.237
  488.000    8.746    0.418    0.172  194.429  105.273
  488.250    8.597    0.410    0.199  193.990  105.001
  488.500    8.373    0.418    0.211  193.535  104.433
  488.750    8.308    0.428    0.216  193.089  104.165
