~VERSION INFORMATION
 VERS.                 2.0:   CWLS LOG ASCII STANDARD -VERSION 2.0
 WRAP.                  NO:   ONE LINE PER DEPTH STEP
~WELL INFORMATION BLOCK
#MNEM.UNIT           DATA                    DESCRIPTION OF MNEMONIC
#---------    -------------------            -------------------------------
# Generated from Intellog Unique Number	CS_71_72/WELL/701
WELL.         SULPETRO ET AL IPIATIK         : Well_name    - WELL
LOC .         00/06-01-072-11W4/0            : Location     - LOCATION
UWI .         00/06-01-072-11W4/0            : Uwi          - UNIQUE WELL ID
ENTR.         SP                             : Entered      - ENTERED BY
SRVC.         SCHLUMBERGER                   : Scn          - SERVICE COMPANY
STRT.M        295                            : top_depth    - START DEPTH
STOP.M        525                            : bot_depth    - STOP DEPTH
STEP.M        0.25                           : increment    - STEP LENGTH
 NULL. -999.2500:NULL Value
~CURVE INFORMATION BLOCK
#MNEM UNIT       ERCB CURVE CODE    CURVE DESCRIPTION
#-----------   ------------------   ----------------------------------
DEPT.M        00 001 00 00         : DEPTH        - DEPTH
ILD .OHMM     00 120 00 00         : RESD         - DEEP RESISTIVITY (DIL)
DPHI.V/V      00 890 00 00         : PHID         - DENSITY POROSITY (LIMESTONE)
NPHI.V/V      00 330 00 00         : PHIN         - NEUTRON POROSITY (LIMESTONE)
GR  .API      00 310 00 00         : GR           - GAMMA RAY
~PARAMETER INFORMATION
#MNEM.UNIT           DATA             DESCRIPTION OF MNEMONIC
#---------         -----------     ------------------------------
GL  .M        644.9                : gl           - GROUND LEVEL ELEVATION
EREF.M        648.4                : kb           - ELEVATION OF DEPTH REFERENCE
DATM.M        644.9                : datum        - DATUM ELEVATION
TDD .M        529                  : tdd          - TOTAL DEPTH DRILLER
RUN .         ONE                  : Run          - RUN NUMBER
ENG .         BILL                 : Engineer     - RECORDING ENGINEER
WIT .         JIM                  : Witness      - WITNESSED BY
MUD .         GEL                  : Mud_type     - MUD TYPE
MATR.         LIMESTONE            : Logunit      - NEUTRON MATRIX
TMAX.C        20                   : BHT          - MAXIMUM RECORDED TEMPERATURE
BHTD.M        529                  : BHTDEP       - MAXIMUM RECORDED TEMPERATURE
MATR.         1                    : LOGUNIT      - NEUTRON MATRIX
RMT .C        25                   : MDTP         - TEMPERATURE OF MUD
NEUT.         1                    : NEUTRON      - NEUTRON TYPE
RESI.         0                    : RESIST       - RESISTIVITY TYPE
RMC .OHMM     0.25                 : RMC          - RESISTIVITY OF MUD CAKE
RMF .OHMM     0.25                 : RMF          - RESISTIVITY OF MUD FILTRATE
SUFT.C        15                   : SUFT         - SURFACE TEMPERATURE
~A  DEPTH     RESD     PHID     PHIN       GR
# ...
  338.500    9.055    0.307    0.352   27.769
  338.750    9.057    0.310    0.353   28.373
  339.000    9.058    0.311    0.364   30.191
  339.250    8.892    0.316    0.374   32.006
  339.500    8.894    0.327    0.374   31.394
  339.750    8.895    0.318    0.370   30.784
  340.000    8.732    0.317    0.368   29.565
  340.250    8.733    0.318    0.376   28.345
  340.500    8.735    0.313    0.378   27.735
  340.750    8.736    0.309    0.375   27.122
  341.000    8.739    0.307    0.369   26.509
  341.250    8.740    0.303    0.367   25.897
  341.500    8.906    0.300    0.361   25.287
  341.750    8.909    0.303    0.359   25.282
  342.000    8.910    0.306    0.358   24.671
  342.250    8.911    0.312    0.358   24.059
  342.500    8.913    0.312    0.359   25.269
  342.750    8.915    0.309    0.362   25.873
  343.000    8.917    0.311    0.361   25.260
  343.250    8.918    0.311    0.359   24.041
  343.500    8.919    0.318    0.359   24.038
  343.750    8.922    0.316    0.363   24.640
  344.000    8.758    0.315    0.370   25.243
  344.250    8.759    0.310    0.367   25.239
  344.500    8.760    0.306    0.363   24.019
  344.750    8.763    0.303    0.360   22.801
  345.000    8.764    0.297    0.357   22.188
  345.250    8.931    0.289    0.353   22.790
  345.500    8.768    0.286    0.349   23.395
  345.750    8.768    0.281    0.346   25.819
  346.000    8.771    0.295    0.346   27.029
  346.250    8.938    0.309    0.352   26.418
  346.500    8.774    0.314    0.356   23.377
  346.750    8.775    0.323    0.363   23.372
  347.000    8.776    0.335    0.370   24.583
  347.250    8.779    0.334    0.370   25.793
  347.500    8.780    0.328    0.364   26.396
  347.750    8.619    0.327    0.369   26.390
  348.000    8.620    0.325    0.366   26.385
  348.250    8.622    0.326    0.363   26.990
  348.500    8.623    0.335    0.362   27.593
  348.750    8.625    0.335    0.364   27.588
  349.000    8.467    0.328    0.367   26.369
  349.250    8.468    0.326    0.366   24.543
  349.500    8.469    0.319    0.365   23.930
  349.750    8.471    0.313    0.363   26.355
  350.000    8.472    0.309    0.365   28.781
  350.250    8.317    0.317    0.374   48.816
  350.500    7.864    0.308    0.385   63.387
  350.750    7.436    0.288    0.394   89.495
  351.000    7.164    0.267    0.402   94.956
  351.250    7.165    0.210    0.409   94.344
  351.500    7.581    0.228    0.419   93.733
  351.750    8.020    0.253    0.402   88.870
  352.000    8.809    0.268    0.398   86.437
  352.250    8.977    0.262    0.398   84.610
  352.500    9.321    0.255    0.400   84.604
  352.750    8.980    0.250    0.408   84.602
  353.000    8.491    0.251    0.424   85.809
  353.250    7.880    0.247    0.428   87.021
  353.500    7.177    0.235    0.438   90.053
  353.750    6.660    0.222    0.447   93.086
  354.000    6.298    0.192    0.453   97.332
  354.250    6.068    0.177    0.454   99.757
  354.500    6.069    0.178    0.432  100.967
  354.750    6.421    0.197    0.419   96.712
  355.000    6.667    0.215    0.395   91.242
  355.250    7.322    0.230    0.399   93.666
  355.500    7.603    0.236    0.401   97.911
  355.750    7.895    0.229    0.401   98.516
  356.000    7.896    0.220    0.402   93.653
  356.250    7.751    0.213    0.405   89.397
  356.500    8.048    0.214    0.414   86.357
  356.750    8.357    0.226    0.432   85.745
  357.000    8.841    0.218    0.434   85.740
  357.250    9.180    0.216    0.422   85.128
  357.500    9.355    0.216    0.420   81.480
  357.750    9.533    0.238    0.419   76.617
  358.000    9.716    0.249    0.416   72.969
  358.250   10.089    0.268    0.407   69.928
  358.500   10.281    0.283    0.394   67.496
  358.750   10.675    0.302    0.387   74.777
  359.000   10.878    0.319    0.400   77.810
  359.250   11.086    0.304    0.396   81.450
  359.500   11.088    0.286    0.390   78.407
  359.750   10.683    0.274    0.388   77.797
  360.000   10.486    0.263    0.388   80.221
  360.250   10.293    0.250    0.385   81.433
  360.500   10.490    0.234    0.378   84.463
  360.750   10.892    0.221    0.373   86.887
  361.000   11.310    0.205    0.371   87.492
  361.250   11.744    0.202    0.365   84.449
  361.500   11.967    0.232    0.375   83.231
  361.750   11.748    0.252    0.387   85.049
  362.000   11.532    0.261    0.400   86.866
  362.250   11.110    0.237    0.414   89.898
  362.500   10.704    0.221    0.425   91.716
  362.750   10.313    0.225    0.425   92.926
  363.000   10.123    0.229    0.407   92.922
  363.250    9.753    0.234    0.394   91.096
  363.500    9.222    0.229    0.388   92.912
  363.750    8.558    0.215    0.393   97.766
  364.000    8.092    0.190    0.396   97.762
  364.250    8.093    0.187    0.393   94.721
  364.500    7.653    0.188    0.390   91.680
  364.750    7.799    0.208    0.401   85.603
  365.000    7.948    0.232    0.405   81.348
  365.250    8.408    0.252    0.407   74.056
  365.500    9.064    0.265    0.406   63.728
  365.750    9.589    0.267    0.401   66.153
  366.000   10.145    0.256    0.404   71.006
  366.250   10.534    0.253    0.410   73.430
  366.500   11.145    0.246    0.404   74.032
  366.750   11.357    0.254    0.399   71.598
  367.000   11.792    0.269    0.398   67.344
  367.250   12.477    0.286    0.403   64.303
  367.500   12.714    0.301    0.401   64.298
  367.750   12.957    0.311    0.398   64.295
  368.000   12.959    0.303    0.392   67.935
  368.250   12.721    0.295    0.392   77.038
  368.500   12.257    0.288    0.392   80.679
  368.750   12.031    0.276    0.393   80.673
  369.000   11.591    0.270    0.399   83.099
  369.250   11.168    0.270    0.399   89.775
  369.500   10.962    0.272    0.395   90.984
  369.750   10.964    0.268    0.397   86.120
  370.000   11.385    0.253    0.399   84.903
  370.250   11.601    0.236    0.397   77.611
  370.500   12.274    0.233    0.392   69.712
  370.750   12.744    0.264    0.386   56.955
  371.000   13.997    0.280    0.382   50.270
  371.250   15.089    0.297    0.378   47.229
  371.500   15.667    0.307    0.376   46.010
  371.750   15.967    0.313    0.375   45.397
  372.000   15.673    0.317    0.377   45.999
  372.250   15.100    0.330    0.383   46.603
  372.500   14.547    0.339    0.388   47.207
  372.750   14.015    0.322    0.391   49.023
  373.000   13.252    0.313    0.392   49.020
  373.250   13.009    0.302    0.389   48.408
  373.500   13.509    0.294    0.387   47.797
  373.750   13.766    0.290    0.385   45.361
  374.000   14.293    0.287    0.383   42.929
  374.250   15.407    0.290    0.382   41.103
  374.500   16.301    0.311    0.382   41.099
  374.750   16.925    0.317    0.383   39.271
  375.000   17.575    0.319    0.382   38.053
  375.250   17.910    0.333    0.379   37.442
  375.500   17.256    0.328    0.376   36.829
  375.750   16.938    0.325    0.371   36.825
  376.000   16.320    0.324    0.369   38.034
  376.250   16.019    0.329    0.376   40.459
  376.500   15.724    0.336    0.382   44.097
  376.750   15.727    0.336    0.382   46.523
  377.000   15.730    0.322    0.382   49.556
  377.250   15.733    0.312    0.377   47.122
  377.500   15.737    0.307    0.376   40.437
  377.750   15.740    0.310    0.374   38.004
  378.000   15.743    0.312    0.373   36.177
  378.250   15.746    0.328    0.374   36.174
  378.500   15.749    0.334    0.379   39.811
  378.750   15.752    0.328    0.382   41.629
  379.000   16.052    0.315    0.387   44.055
  379.250   16.055    0.319    0.382   44.658
  379.500   15.759    0.323    0.380   44.047
  379.750   15.762    0.324    0.374   45.256
  380.000   15.765    0.321    0.373   45.859
  380.250   15.767    0.318    0.368   44.031
  380.500   15.771    0.315    0.374   40.991
  380.750   15.774    0.311    0.386   39.166
  381.000   15.777    0.309    0.391   36.731
  381.250   16.078    0.306    0.391   37.943
  381.500   16.080    0.295    0.388   43.404
  381.750   16.084    0.305    0.387   45.828
