~VERSION INFORMATION
 VERS.                 2.0:   CWLS LOG ASCII STANDARD -VERSION 2.0
 WRAP.                  NO:   ONE LINE PER DEPTH STEP
~WELL INFORMATION BLOCK
#MNEM.UNIT           DATA                    DESCRIPTION OF MNEMONIC
#---------    -------------------            -------------------------------
# Generated from Intellog Unique Number	CS_69_70/WELL/818
WELL.         ET AL TWEEDIE                  : Well_name    - WELL
LOC .         00/07-07-069-13W4/0            : Location     - LOCATION
UWI .         00/07-07-069-13W4/0            : Uwi          - UNIQUE WELL ID
ENTR.         SP                             : Entered      - ENTERED BY
SRVC.         SCHLUMBERGER                   : Scn          - SERVICE COMPANY
STRT.M        243.84                         : top_depth    - START DEPTH
STOP.M        438.59                         : bot_depth    - STOP DEPTH
STEP.M        0.25                           : increment    - STEP LENGTH
 NULL. -999.2500:NULL Value
~CURVE INFORMATION BLOCK
#MNEM UNIT       ERCB CURVE CODE    CURVE DESCRIPTION
#-----------   ------------------   ----------------------------------
DEPT.M        00 001 00 00         : DEPTH        - DEPTH
GR  .API      00 310 00 00         : GR           - GAMMA RAY
DPHI.V/V      00 890 00 00         : PHID         - DENSITY POROSITY (SANDSTONE)
NPHI.V/V      00 330 00 00         : PHIN         - NEUTRON POROSITY (SANDSTONE)
ILD .OHMM     00 120 00 00         : RESD         - DEEP RESISTIVITY (DIL)
~PARAMETER INFORMATION
#MNEM.UNIT           DATA             DESCRIPTION OF MNEMONIC
#---------         -----------     ------------------------------
GL  .M        548.03               : gl           - GROUND LEVEL ELEVATION
EREF.M        551.078              : kb           - ELEVATION OF DEPTH REFERENCE
DATM.M        548.03               : datum        - DATUM ELEVATION
TDD .M        446.532              : tdd          - TOTAL DEPTH DRILLER
RUN .         ONE                  : Run          - RUN NUMBER
ENG .         BILL                 : Engineer     - RECORDING ENGINEER
WIT .         JIM                  : Witness      - WITNESSED BY
MUD .         GEL                  : Mud_type     - MUD TYPE
MATR.         SANDSTONE            : Logunit      - NEUTRON MATRIX
TMAX.C        21.1111              : BHT          - MAXIMUM RECORDED TEMPERATURE
BHTD.M        446.532              : BHTDEP       - MAXIMUM RECORDED TEMPERATURE
MATR.         1                    : LOGUNIT      - NEUTRON MATRIX
RMT .C        25                   : MDTP         - TEMPERATURE OF MUD
NEUT.         1                    : NEUTRON      - NEUTRON TYPE
RESI.         0                    : RESIST       - RESISTIVITY TYPE
RMC .OHMM     0.25                 : RMC          - RESISTIVITY OF MUD CAKE
RMF .OHMM     0.25                 : RMF          - RESISTIVITY OF MUD FILTRATE
SUFT.C        15                   : SUFT         - SURFACE TEMPERATURE
~A  DEPTH       GR     PHID     PHIN     RESD
  243.840  106.162    0.247    0.552    2.277
  244.090  106.181    0.244    0.547    2.276
  244.340  106.171    0.252    0.555    2.318
  244.590  105.766    0.261    0.564    2.398
  244.840  104.685    0.267    0.561    2.461
  245.090  102.964    0.244    0.562    2.579
  245.340  100.123    0.175    0.574    2.679
  245.590   96.836    0.157    0.584    2.720
  245.840   92.966    0.136    0.588    2.706
  246.090   89.185    0.110    0.541    2.625
  246.340   98.110    0.136    0.526    2.461
  246.590  103.027    0.230    0.509    2.364
  246.840  103.397    0.245    0.532    2.296
  247.090  103.364    0.255    0.528    2.260
  247.340  105.647    0.238    0.525    2.253
  247.590  108.249    0.228    0.510    2.263
  247.840  106.767    0.205    0.518    2.290
  248.090  104.253    0.205    0.533    2.360
  248.340  102.976    0.199    0.551    2.421
  248.590  103.974    0.182    0.556    2.506
  248.840  105.540    0.177    0.542    2.605
  249.090  105.339    0.191    0.549    2.657
  249.340  105.050    0.201    0.512    2.734
  249.590  104.609    0.184    0.492    2.831
  249.840  103.473    0.166    0.477    2.824
  250.090  100.812    0.181    0.468    2.909
  250.340   98.728    0.187    0.467    2.932
  250.590   99.435    0.177    0.467    2.934
  250.840  102.286    0.191    0.487    2.887
  251.090  104.437    0.195    0.510    2.831
  251.340  106.406    0.199    0.524    2.753
  251.590  109.053    0.203    0.538    2.674
  251.840  112.108    0.189    0.550    2.624
  252.090  113.149    0.193    0.558    2.582
  252.340  112.730    0.201    0.566    2.551
  252.590  109.061    0.211    0.571    2.557
  252.840  107.934    0.217    0.567    2.585
  253.090  108.126    0.222    0.559    2.620
  253.340  107.273    0.214    0.554    2.645
  253.590  105.443    0.209    0.546    2.652
  253.840  103.502    0.222    0.538    2.624
  254.090  100.524    0.234    0.534    2.532
  254.340   98.787    0.223    0.531    2.506
  254.590   96.291    0.214    0.536    2.527
  254.840   94.045    0.199    0.522    2.685
  255.090   92.593    0.187    0.493    3.000
  255.340   90.436    0.177    0.431    3.565
  255.590   88.913    0.162    0.354    4.314
  255.840   85.871    0.177    0.322    5.021
  256.090   84.540    0.210    0.306    5.772
  256.340   83.052    0.270    0.302    6.362
  256.590   86.884    0.288    0.332    6.566
  256.840   91.889    0.235    0.357    6.159
  257.090   99.728    0.196    0.378    5.636
  257.340  103.891    0.192    0.395    5.188
  257.590  107.592    0.194    0.413    4.875
  257.840  110.894    0.169    0.432    4.514
  258.090  107.082    0.182    0.449    4.281
  258.340  100.715    0.187    0.464    4.246
  258.590   96.097    0.198    0.454    4.364
  258.840   91.354    0.250    0.331    4.773
  259.090   86.664    0.349    0.276    5.516
  259.340   81.737    0.365    0.233    6.422
  259.590   75.644    0.378    0.210    7.531
  259.840   70.577    0.358    0.223    8.568
  260.090   65.720    0.341    0.238    9.652
  260.340   71.255    0.357    0.245   10.722
  260.590   67.578    0.377    0.221   12.194
  260.840   59.227    0.389    0.198   14.149
  261.090   54.052    0.383    0.181   15.795
  261.340   50.684    0.399    0.166   17.808
  261.590   49.083    0.407    0.160   19.403
  261.840   48.052    0.406    0.160   19.636
  262.090   48.546    0.408    0.164   18.519
  262.340   48.901    0.414    0.167   16.757
  262.590   48.379    0.409    0.178   14.686
  262.840   51.558    0.401    0.197   12.149
  263.090   58.306    0.398    0.209    9.842
  263.340   63.422    0.336    0.225    7.897
  263.590   68.682    0.295    0.251    6.258
  263.840   74.370    0.263    0.286    5.116
  264.090   78.589    0.248    0.359    4.531
  264.340   82.030    0.258    0.376    4.051
  264.590   84.447    0.267    0.387    3.785
  264.840   82.333    0.273    0.396    3.525
  265.090   79.598    0.278    0.403    3.419
  265.340   80.814    0.281    0.411    3.389
  265.590   85.842    0.269    0.415    3.434
  265.840   91.280    0.241    0.407    3.598
  266.090   94.904    0.219    0.402    3.838
  266.340   98.267    0.215    0.407    3.982
  266.590  100.608    0.208    0.422    3.984
  266.840  103.334    0.194    0.443    3.739
  267.090  105.229    0.175    0.468    3.471
  267.340  106.058    0.156    0.492    3.132
  267.590  101.144    0.117    0.526    2.828
  267.840   92.989    0.096    0.537    2.506
  268.090   81.707    0.152    0.507    2.297
  268.340   94.392    0.243    0.503    2.408
  268.590   99.629    0.311    0.435    2.623
  268.840   93.107    0.357    0.355    2.840
  269.090   85.535    0.384    0.338    3.012
  269.340   82.675    0.354    0.350    3.140
  269.590   82.136    0.328    0.398    3.216
  269.840   83.790    0.313    0.432    3.295
  270.090   83.118    0.304    0.428    3.345
  270.340   83.971    0.299    0.425    3.376
  270.590   85.192    0.292    0.437    3.397
  270.840   87.892    0.280    0.450    3.435
  271.090   90.198    0.266    0.457    3.485
  271.340   90.441    0.248    0.462    3.551
  271.590   89.493    0.226    0.471    3.657
  271.840   92.214    0.223    0.467    3.738
  272.090   96.934    0.227    0.456    3.806
  272.340  100.585    0.216    0.458    3.884
  272.590  102.139    0.217    0.480    3.944
  272.840  100.864    0.208    0.477    3.990
  273.090  102.237    0.198    0.471    3.986
  273.340  107.199    0.165    0.478    3.969
  273.590  110.408    0.144    0.490    3.913
  273.840  113.662    0.145    0.503    3.825
  274.090  115.745    0.152    0.511    3.730
  274.340  118.299    0.174    0.515    3.647
  274.590  120.194    0.176    0.518    3.598
  274.840  121.138    0.191    0.492    3.581
  275.090  120.532    0.224    0.478    3.583
  275.340  118.709    0.233    0.459    3.628
  275.590  112.663    0.221    0.446    3.717
  275.840  104.084    0.236    0.431    3.870
  276.090   99.572    0.262    0.399    4.019
  276.340   96.537    0.292    0.383    4.179
  276.590   92.709    0.315    0.372    4.261
  276.840   91.251    0.321    0.389    4.287
  277.090   90.455    0.303    0.404    4.205
  277.340   90.639    0.289    0.419    3.956
  277.590   90.771    0.282    0.431    3.738
  277.840   91.223    0.278    0.436    3.506
  278.090   91.669    0.279    0.439    3.349
  278.340   94.036    0.260    0.448    3.258
  278.590   96.632    0.243    0.455    3.218
  278.840  100.269    0.269    0.462    3.226
  279.090  101.951    0.278    0.466    3.265
  279.340   91.705    0.293    0.469    3.324
  279.590   85.490    0.314    0.441    3.377
  279.840   81.317    0.339    0.408    3.422
  280.090   77.579    0.362    0.381    3.412
  280.340   87.327    0.367    0.367    3.339
  280.590   91.373    0.299    0.368    3.139
  280.840   98.007    0.259    0.391    3.022
  281.090  102.422    0.237    0.408    2.920
  281.340  105.192    0.227    0.419    2.932
  281.590  107.260    0.239    0.432    3.021
  281.840  108.467    0.240    0.440    3.110
  282.090  109.907    0.236    0.451    3.225
  282.340  109.899    0.246    0.462    3.332
  282.590  109.876    0.261    0.470    3.430
  282.840  111.112    0.271    0.478    3.486
  283.090  111.528    0.285    0.480    3.474
  283.340  111.035    0.297    0.479    3.410
  283.590  109.804    0.313    0.489    3.322
  283.840  109.072    0.319    0.494    3.244
  284.090  108.685    0.311    0.493    3.136
  284.340  109.814    0.308    0.486    3.003
  284.590  111.752    0.305    0.482    2.909
  284.840  113.420    0.301    0.476    2.889
  285.090  113.956    0.297    0.470    2.934
  285.340  113.704    0.287    0.459    3.035
  285.590  112.986    0.278    0.448    3.159
  285.840  112.480    0.280    0.442    3.316
  286.090  109.590    0.288    0.453    3.474
  286.340  105.885    0.218    0.463    3.654
  286.590  101.944    0.166    0.400    3.934
  286.840   99.233    0.134    0.317    4.299
  287.090  100.956    0.233    0.371    4.577
