~VERSION INFORMATION
 VERS.                 2.0:   CWLS LOG ASCII STANDARD -VERSION 2.0
 WRAP.                  NO:   ONE LINE PER DEPTH STEP
~WELL INFORMATION BLOCK
#MNEM.UNIT           DATA                    DESCRIPTION OF MNEMONIC
#---------    -------------------            -------------------------------
# Generated from Intellog Unique Number	CW_79_81/WELL/549
WELL.         07-16-079-24W4                 : Well_name    - WELL
LOC .         00/07-16-079-24W4/0            : Location     - LOCATION
UWI .         00/07-16-079-24W4/0            : Uwi          - UNIQUE WELL ID
ENTR.         MAX                            : Entered      - ENTERED BY
SRVC.         SCHLUMBERGER                   : Scn          - SERVICE COMPANY
STRT.M        198.12                         : top_depth    - START DEPTH
STOP.M        457.12                         : bot_depth    - STOP DEPTH
STEP.M        0.25                           : increment    - STEP LENGTH
 NULL. -999.2500:NULL Value
~CURVE INFORMATION BLOCK
#MNEM UNIT       ERCB CURVE CODE    CURVE DESCRIPTION
#-----------   ------------------   ----------------------------------
DEPT.M        00 001 00 00         : DEPTH        - DEPTH
ILD .OHMM     00 120 00 00         : RESD         - DEEP RESISTIVITY (DIL)
NPHI.V/V      00 330 00 00         : PHIN         - NEUTRON POROSITY (SANDSTONE)
DPHI.V/V      00 890 00 00         : PHID         - DENSITY POROSITY (SANDSTONE)
CALI.MM       00 280 01 00         : CAL          - CALIPER
GR  .API      00 310 00 00         : GR           - GAMMA RAY
~PARAMETER INFORMATION
#MNEM.UNIT           DATA             DESCRIPTION OF MNEMONIC
#---------         -----------     ------------------------------
GL  .M        557.479              : gl           - GROUND LEVEL ELEVATION
EREF.M        561.137              : kb           - ELEVATION OF DEPTH REFERENCE
DATM.M        557.479              : datum        - DATUM ELEVATION
TDD .M        353.568              : tdd          - TOTAL DEPTH DRILLER
RUN .         ONE                  : Run          - RUN NUMBER
ENG .         BILL                 : Engineer     - RECORDING ENGINEER
WIT .         JIM                  : Witness      - WITNESSED BY
MUD .         GEL                  : Mud_type     - MUD TYPE
MATR.         SANDSTONE            : Logunit      - NEUTRON MATRIX
TMAX.C        20                   : BHT          - MAXIMUM RECORDED TEMPERATURE
BHTD.M        445.008              : BHTDEP       - MAXIMUM RECORDED TEMPERATURE
RMT .C        17.7778              : MDTP         - TEMPERATURE OF MUD
MUDD.KG/M     10400                : MWT          - MUD DENSITY
NEUT.         1                    : NEUTRON      - NEUTRON TYPE
RESI.         0                    : RESIST       - RESISTIVITY TYPE
RM  .OHMM     10.7                 : RM           - RESISTIVITY OF MUD
RMC .OHMM     0.25                 : RMC          - RESISTIVITY OF MUD CAKE
RMF .OHMM     0.25                 : RMF          - RESISTIVITY OF MUD FILTRATE
SUFT.C        -23.3333             : SUFT         - SURFACE TEMPERATURE
~A  DEPTH     RESD     PHIN     PHID      CAL       GR
# ...
  234.620   44.917    0.452    0.285  237.019   58.210
  234.870   46.637    0.464    0.297  237.539   54.399
  235.120   48.027    0.470    0.292  238.066   50.885
  235.370   48.523    0.463    0.292  238.085   49.430
  235.620   49.065    0.463    0.296  239.107   50.324
  235.870   49.583    0.478    0.291  239.630   50.045
  236.120   50.126    0.488    0.284  239.650   49.472
  236.370   50.665    0.497    0.282  240.171   49.485
  236.620   50.749    0.498    0.284  239.698   49.500
  236.870   50.377    0.497    0.296  239.223   50.394
  237.120   49.578    0.491    0.284  239.246   50.413
  237.370   48.762    0.468    0.291  239.769   49.541
  237.620   47.110    0.452    0.294  239.792   47.497
  237.870   44.700    0.468    0.280  239.320   46.627
  238.120   40.916    0.476    0.293  238.844   46.349
  238.370   37.793    0.481    0.293  237.871   47.243
  238.620   34.894    0.482    0.274  236.898   49.317
  238.870   31.934    0.478    0.274  235.930   50.799
  239.120   28.714    0.472    0.267  235.953   51.696
  239.370   26.746    0.458    0.266  235.973   52.299
  239.620   24.704    0.448    0.262  236.499   51.723
  239.870   22.410    0.423    0.231  236.522   48.503
  240.120   20.509    0.340    0.191  236.044   45.576
  240.370   18.433    0.275    0.122  234.576   45.590
  240.620   16.122    0.330    0.281  231.614   50.017
  240.870   13.976    0.402    0.287  229.144   52.676
  241.120   12.675    0.455    0.282  226.682   52.691
  241.370   11.708    0.454    0.274  226.207   52.116
  241.620   10.912    0.455    0.265  226.725   53.011
  241.870   10.259    0.467    0.262  226.258   54.205
  242.120    9.734    0.475    0.253  225.780   54.510
  242.370    9.662    0.491    0.252  225.302   55.112
  242.620   10.130    0.509    0.247  224.332   55.715
  242.870   11.209    0.508    0.258  223.857   55.434
  243.120   12.066    0.482    0.271  223.384   54.860
  243.370   12.196    0.460    0.262  223.905   53.699
  243.620   11.364    0.453    0.258  223.927   53.124
  243.870    9.943    0.446    0.274  223.953   54.023
  244.120    9.016    0.437    0.271  223.979   56.389
  244.370    8.251    0.451    0.259  224.004   59.050
  244.620    7.691    0.451    0.253  224.519   61.710
  244.870    7.296    0.447    0.255  225.043   63.784
  245.120    6.924    0.448    0.238  225.071   65.856
  245.370    6.937    0.455    0.240  225.088   67.338
  245.620    7.202    0.452    0.241  225.116   67.353
  245.870    8.042    0.457    0.235  225.634   65.896
  246.120    9.143    0.457    0.238  226.155   65.615
  246.370   10.299    0.452    0.231  226.180   66.514
  246.620   12.475    0.438    0.230  225.207   65.054
  246.870   13.560    0.432    0.229  225.230   61.538
  247.120   13.579    0.440    0.261  224.760   54.790
  247.370   12.769    0.437    0.280  225.284   54.511
  247.620   11.581    0.430    0.298  225.301   55.405
  247.870   10.411    0.427    0.284  225.827   57.774
  248.120    9.614    0.440    0.268  226.348   59.256
  248.370    8.880    0.452    0.252  226.368   62.212
  248.620    8.273    0.452    0.236  226.396   65.166
  248.870    7.848    0.449    0.211  227.412   69.884
  249.120    7.448    0.441    0.201  228.430   76.957
  249.370    7.261    0.444    0.210  229.457   82.263
  249.620    7.341    0.425    0.198  231.967   88.454
  249.870    7.693    0.414    0.196  235.976   94.348
  250.120    8.283    0.425    0.178  238.986   95.246
  250.370    8.842    0.422    0.164  240.500   92.320
  250.620    9.266    0.419    0.180  238.042   88.803
  250.870    9.536    0.422    0.177  237.066   86.172
  251.120   10.084    0.421    0.167  238.084   86.187
  251.370   10.474    0.415    0.164  240.602   86.202
  251.620   10.587    0.433    0.169  242.617   84.448
  251.870   10.136    0.433    0.182  241.638   77.699
  252.120    9.193    0.388    0.169  231.209   72.715
  252.370    7.281    0.356    0.185  229.738   72.727
  252.620    6.785    0.371    0.223  230.259   82.740
  252.870    6.211    0.391    0.218  232.777   87.459
  253.120    5.840    0.410    0.201  234.288   91.296
  253.370    5.695    0.444    0.187  235.807   91.019
  253.620    5.654    0.454    0.198  235.830   91.029
  253.870    5.712    0.462    0.193  235.855   89.572
  254.120    5.881    0.466    0.189  236.871   84.882
  254.370    6.276    0.467    0.184  237.398   78.426
  254.620    6.880    0.465    0.174  237.915   76.087
  254.870    7.684    0.452    0.194  236.945   75.219
  255.120    7.696    0.452    0.222  232.489   75.531
  255.370    6.731    0.458    0.219  228.531   75.835
  255.620    5.236    0.465    0.214  228.056   77.616
  255.870    4.623    0.475    0.177  228.079   85.568
  256.120    4.465    0.499    0.159  228.596   93.230
  256.370    4.638    0.495    0.152  231.112   94.126
  256.620    4.951    0.471    0.156  230.636   96.196
  256.870    5.283    0.464    0.154  229.168  100.622
  257.120    5.739    0.489    0.209  228.690  101.519
  257.370    6.952    0.495    0.244  228.220   99.178
  257.620    8.571    0.493    0.264  228.243   91.842
  257.870   10.286    0.479    0.285  227.765   89.210
  258.120   11.075    0.467    0.281  226.300   86.577
  258.370   11.714    0.446    0.276  225.827   85.414
  258.620   11.630    0.448    0.261  226.342   85.134
  258.870   11.650    0.457    0.262  227.864   83.972
  259.120   12.211    0.451    0.261  227.389   81.633
  259.370   13.032    0.445    0.253  227.412   81.059
  259.620   13.777    0.449    0.245  227.440   80.190
  259.870   14.569    0.449    0.229  227.460   72.558
  260.120   15.409    0.448    0.229  227.480   66.396
  260.370   15.719    0.443    0.254  226.012   60.824
  260.620   16.029    0.436    0.267  225.536   55.840
  260.870   15.778    0.414    0.271  226.057   56.443
  261.120   15.941    0.417    0.270  227.576   58.807
  261.370   16.406    0.440    0.267  227.599   61.761
  261.620   17.352    0.455    0.273  227.124   65.303
  261.870   19.023    0.470    0.277  226.154   69.141
  262.120   20.673    0.479    0.274  226.176   68.567
  262.370   21.473    0.483    0.272  225.704   67.992
  262.620   21.316    0.480    0.271  225.727   66.537
  262.870   20.969    0.491    0.269  225.254   64.199
  263.120   20.632    0.490    0.263  225.274   62.448
  263.370   21.043    0.483    0.248  225.300   60.699
  263.620   21.854    0.471    0.226  225.820   59.240
  263.870   23.114    0.471    0.224  225.843   58.372
  264.120   24.663    0.480    0.222  225.868   58.389
  264.370   25.856    0.484    0.226  225.897   55.460
  264.620   26.128    0.464    0.251  226.415   54.591
  264.870   26.177    0.459    0.266  226.935   53.724
  265.120   26.226    0.462    0.281  226.961   55.796
  265.370   26.264    0.454    0.308  226.983   57.573
  265.620   25.843    0.459    0.289  226.514   55.236
  265.870   25.428    0.463    0.290  226.534   53.487
  266.120   25.241    0.465    0.294  226.556   53.206
  266.370   24.836    0.466    0.304  226.585   54.397
  266.620   24.653    0.470    0.315  226.608   55.001
  266.870   24.247    0.465    0.316  226.129   55.599
  267.120   23.426    0.461    0.319  225.159   56.202
  267.370   22.642    0.459    0.309  224.687   56.511
  267.620   22.480    0.455    0.291  224.704   55.641
  267.870   22.311    0.454    0.300  225.227   54.185
  268.120   21.948    0.451    0.308  225.754   54.199
  268.370   21.401    0.442    0.323  226.271   54.212
  268.620   21.049    0.442    0.325  226.795   54.817
  268.870   20.525    0.450    0.320  227.313   54.831
  269.120   20.014    0.457    0.325  227.833   54.842
  269.370   19.863    0.458    0.327  229.355   55.153
  269.620   19.372    0.458    0.320  230.374   54.871
  269.870   19.057    0.461    0.321  230.895   54.002
  270.120   18.747    0.483    0.331  230.917   51.959
  270.370   18.778    0.501    0.339  230.940   51.680
  270.620   18.984    0.505    0.328  231.962   53.165
  270.870   19.012    0.496    0.325  235.968   54.059
