~VERSION INFORMATION
 VERS.                 2.0:   CWLS LOG ASCII STANDARD -VERSION 2.0
 WRAP.                  NO:   ONE LINE PER DEPTH STEP
~WELL INFORMATION BLOCK
#MNEM.UNIT           DATA                    DESCRIPTION OF MNEMONIC
#---------    -------------------            -------------------------------
# Generated from Intellog Unique Number	CS_73_76/WELL/2172
WELL.         BOW VALLEY INDUSTRIES LTD      : Well_name    - WELL
LOC .         00/06-34-074-16W4/0            : Location     - LOCATION
UWI .         00/06-34-074-16W4/0            : Uwi          - UNIQUE WELL ID
ENTR.         SP                             : Entered      - ENTERED BY
SRVC.         SCHLUMBERGER                   : Scn          - SERVICE COMPANY
STRT.M        316.992                        : top_depth    - START DEPTH
STOP.M        517.992                        : bot_depth    - STOP DEPTH
STEP.M        0.25                           : increment    - STEP LENGTH
 NULL. -999.2500:NULL Value
~CURVE INFORMATION BLOCK
#MNEM UNIT       ERCB CURVE CODE    CURVE DESCRIPTION
#-----------   ------------------   ----------------------------------
DEPT.M        00 001 00 00         : DEPTH        - DEPTH
GR  .API      00 310 00 00         : GR           - GAMMA RAY
DPHI.V/V      00 890 00 00         : PHID         - DENSITY POROSITY (SANDSTONE)
NPHI.V/V      00 330 00 00         : PHIN         - NEUTRON POROSITY (SANDSTONE)
ILD .OHMM     00 120 00 00         : RESD         - DEEP RESISTIVITY (DIL)
~PARAMETER INFORMATION
#MNEM.UNIT           DATA             DESCRIPTION OF MNEMONIC
#---------         -----------     ------------------------------
GL  .M        666.902              : gl           - GROUND LEVEL ELEVATION
EREF.M        669.95               : kb           - ELEVATION OF DEPTH REFERENCE
DATM.M        666.902              : datum        - DATUM ELEVATION
TDD .M        521.513              : tdd          - TOTAL DEPTH DRILLER
RUN .         ONE                  : Run          - RUN NUMBER
ENG .         BILL                 : Engineer     - RECORDING ENGINEER
WIT .         JIM                  : Witness      - WITNESSED BY
MUD .         GEL                  : Mud_type     - MUD TYPE
MATR.         SANDSTONE            : Logunit      - NEUTRON MATRIX
TMAX.C        28.8889              : BHT          - MAXIMUM RECORDED TEMPERATURE
BHTD.M        521.513              : BHTDEP       - MAXIMUM RECORDED TEMPERATURE
MATR.         1                    : LOGUNIT      - NEUTRON MATRIX
RMT .C        25                   : MDTP         - TEMPERATURE OF MUD
NEUT.         1                    : NEUTRON      - NEUTRON TYPE
RESI.         0                    : RESIST       - RESISTIVITY TYPE
RMC .OHMM     0.25                 : RMC          - RESISTIVITY OF MUD CAKE
RMF .OHMM     0.25                 : RMF          - RESISTIVITY OF MUD FILTRATE
SUFT.C        15                   : SUFT         - SURFACE TEMPERATURE
~A  DEPTH       GR     PHID     PHIN     RESD
# ...
  490.992  120.616    0.150    0.451    6.164
  491.242  103.253    0.144    0.447    6.725
  491.492   96.975    0.120    0.407    7.361
  491.742  104.250    0.095    0.350    7.830
  491.992  106.609    0.127    0.380    8.134
  492.242  103.732    0.143    0.386    7.798
  492.492  103.105    0.134    0.381    7.986
  492.742  105.001    0.116    0.390    8.386
  492.992  106.434    0.132    0.389    8.749
  493.242  103.504    0.124    0.382    9.193
  493.492   97.152    0.094    0.372    8.769
  493.742   99.007    0.082    0.340    8.302
  493.992  114.220    0.094    0.340    7.030
  494.242  127.380    0.147    0.391    6.185
  494.492  128.680    0.173    0.439    5.882
  494.742  121.629    0.168    0.479    5.875
  494.992  115.515    0.157    0.441    6.058
  495.242  110.511    0.147    0.426    6.651
  495.492  112.795    0.147    0.418    7.242
  495.742  108.825    0.103    0.394    8.088
  495.992  106.963    0.064    0.377    8.430
  496.242  116.913    0.051    0.392    8.793
  496.492  110.504    0.106    0.418   10.109
  496.742   94.604    0.174    0.417   11.429
  496.992   86.435    0.197    0.346   12.896
  497.242   89.164    0.221    0.348   14.211
  497.492  104.483    0.256    0.372   14.074
  497.742  112.294    0.227    0.381   13.043
  497.992  110.947    0.212    0.390   12.035
  498.242  102.121    0.186    0.393   11.006
  498.492  105.347    0.173    0.382   10.083
  498.742  125.168    0.176    0.373    9.651
  498.992  135.734    0.167    0.394    9.676
  499.242  136.945    0.159    0.410   10.328
  499.492  132.647    0.149    0.425   10.851
  499.742  122.766    0.167    0.391   11.683
  499.992  112.508    0.172    0.363   12.982
  500.242  102.908    0.193    0.374   14.926
  500.492  100.309    0.234    0.394   16.130
  500.742  101.428    0.210    0.403   15.617
  500.992  106.076    0.121    0.355   15.164
  501.242  111.570    0.064    0.354   14.433
  501.492  113.446    0.138    0.369   13.735
  501.742  111.416    0.168    0.376   13.041
  501.992  109.573    0.182    0.374   12.654
  502.242  108.158    0.189    0.366   12.642
  502.492  106.792    0.180    0.371   12.669
  502.742  110.337    0.179    0.370   13.275
  502.992  115.615    0.177    0.377   14.146
  503.242  116.272    0.172    0.387   15.505
  503.492  107.626    0.180    0.396   17.817
  503.742   99.478    0.198    0.394   20.778
  503.992  106.208    0.228    0.374   23.488
  504.242  109.473    0.239    0.352   23.855
  504.492  115.660    0.251    0.342   22.029
  504.742  128.436    0.251    0.355   19.209
  504.992  141.584    0.228    0.378   17.512
  505.242  151.774    0.212    0.415   16.362
  505.492  142.347    0.212    0.408   15.699
  505.742  139.083    0.169    0.385   14.252
  505.992  143.724    0.162    0.345   13.892
  506.242  149.708    0.138    0.344   13.038
  506.492  157.710    0.135    0.356   12.596
  506.742  164.031    0.153    0.356   12.454
  506.992  157.344    0.176    0.347   12.416
  507.242  148.559    0.177    0.346   12.675
  507.492  137.018    0.178    0.367   12.889
  507.742  123.217    0.183    0.388   12.899
  507.992  121.253    0.166    0.382   13.027
  508.242  120.874    0.132    0.381   13.780
  508.492  105.001    0.162    0.379   15.055
  508.742   91.568    0.185    0.362   16.554
  508.992   82.661    0.212    0.361   18.096
  509.242   77.942    0.220    0.369   19.100
  509.492   78.834    0.233    0.383   19.216
  509.742   80.012    0.229    0.388   19.133
  509.992   76.795    0.214    0.374   20.868
  510.242   73.967    0.218    0.335   23.067
  510.492   68.594    0.281    0.314   27.227
  510.742   61.003    0.335    0.229   36.127
  510.992   59.851    0.339    0.197   53.758
  511.242   54.013    0.398    0.164   69.826
  511.492   49.088    0.407    0.123   78.042
  511.742   50.528    0.397    0.121   81.884
  511.992   59.632    0.388    0.144   77.861
  512.242   64.116    0.366    0.169   65.716
  512.492   66.861    0.324    0.213   51.573
  512.742   69.902    0.304    0.233   46.271
  512.992   67.626    0.309    0.231   45.273
  513.242   54.919    0.325    0.221   49.722
  513.492   53.560    0.329    0.210   59.881
  513.742   62.316    0.388    0.171   76.724
  513.992   62.350    0.430    0.112   91.315
  514.242   59.601    0.432    0.143   97.265
  514.492   56.318    0.422    0.173   95.007
  514.742   52.909    0.365    0.238  104.515
  514.992   51.231    0.330    0.220  111.251
  515.242   51.781    0.348    0.185  102.773
  515.492   52.315    0.357    0.131   88.727
  515.742   53.675    0.398    0.115   80.460
  515.992   54.256    0.344    0.118   77.686
  516.242   52.902    0.335    0.117   77.421
  516.492   48.211    0.361    0.116   73.494
  516.742   45.165    0.387    0.112   71.212
  516.992   41.908    0.367    0.109   77.482
  517.242   41.675    0.347    0.102   92.545
  517.492   42.943    0.338    0.089  103.729
  517.742   44.985    0.327    0.079  110.857
  517.992   44.921    0.312    0.070  113.961
