~VERSION INFORMATION
 VERS.                 2.0:   CWLS LOG ASCII STANDARD -VERSION 2.0
 WRAP.                  NO:   ONE LINE PER DEPTH STEP
~WELL INFORMATION BLOCK
#MNEM.UNIT           DATA                    DESCRIPTION OF MNEMONIC
#---------    -------------------            -------------------------------
# Generated from Intellog Unique Number	CS_77_79/WELL/5037
WELL.         MESA HB LEISMER                : Well_name    - WELL
LOC .         00/07-35-078-10W4/0            : Location     - LOCATION
UWI .         00/07-35-078-10W4/0            : Uwi          - UNIQUE WELL ID
ENTR.         JOE                            : Entered      - ENTERED BY
SRVC.         SCHLUMBERGER                   : Scn          - SERVICE COMPANY
STRT.M        231.648                        : top_depth    - START DEPTH
STOP.M        463.148                        : bot_depth    - STOP DEPTH
STEP.M        0.25                           : increment    - STEP LENGTH
 NULL. -999.2500:NULL Value
~CURVE INFORMATION BLOCK
#MNEM UNIT       ERCB CURVE CODE    CURVE DESCRIPTION
#-----------   ------------------   ----------------------------------
DEPT.M        00 001 00 00         : DEPTH        - DEPTH
RHOB.KG/M3    00 350 00 00         : DENS         - BULK DENSITY
GR  .API      00 310 00 00         : GR           - GAMMA RAY
DPHI.V/V      00 890 00 00         : PHID         - DENSITY POROSITY (SANDSTONE)
NPHI.V/V      00 330 00 00         : PHIN         - NEUTRON POROSITY (SANDSTONE)
ILD .OHMM     00 120 00 00         : RESD         - DEEP RESISTIVITY (DIL)
~PARAMETER INFORMATION
#MNEM.UNIT           DATA             DESCRIPTION OF MNEMONIC
#---------         -----------     ------------------------------
GL  .M        657.454              : gl           - GROUND LEVEL ELEVATION
EREF.M        661.416              : kb           - ELEVATION OF DEPTH REFERENCE
DATM.M        661.416              : datum        - DATUM ELEVATION
TDD .M        475.488              : tdd          - TOTAL DEPTH DRILLER
RUN .         ONE                  : Run          - RUN NUMBER
ENG .         BILL                 : Engineer     - RECORDING ENGINEER
WIT .         JIM                  : Witness      - WITNESSED BY
MUD .         GEL                  : Mud_type     - MUD TYPE
MATR.         SANDSTONE            : Logunit      - NEUTRON MATRIX
TMAX.C        23                   : BHT          - MAXIMUM RECORDED TEMPERATURE
BHTD.M        405                  : BHTDEP       - MAXIMUM RECORDED TEMPERATURE
MATR.         1                    : LOGUNIT      - NEUTRON MATRIX
RMT .C        25                   : MDTP         - TEMPERATURE OF MUD
NEUT.         1                    : NEUTRON      - NEUTRON TYPE
RESI.         0                    : RESIST       - RESISTIVITY TYPE
RMC .OHMM     0.25                 : RMC          - RESISTIVITY OF MUD CAKE
RMF .OHMM     0.25                 : RMF          - RESISTIVITY OF MUD FILTRATE
SUFT.C        15                   : SUFT         - SURFACE TEMPERATURE
~A  DEPTH     DENS       GR     PHID     PHIN     RESD
# ...
  304.648    0.000   60.201    0.318    0.423   19.518
  304.898    0.000   60.144    0.337    0.441   18.917
  305.148    0.000   61.930    0.336    0.455   18.768
  305.398   -0.000   64.764    0.330    0.433   18.523
  305.648   -0.000   70.656    0.320    0.438   17.982
  305.898   -0.000   70.191    0.316    0.446   17.903
  306.148    0.000   67.217    0.338    0.435   17.616
  306.398    0.000   64.531    0.349    0.429   17.597
  306.648    0.000   61.876    0.341    0.428   17.585
  306.898   -0.000   58.973    0.346    0.428   17.296
  307.148   -0.000   63.700    0.331    0.422   17.325
  307.398   -0.000   67.623    0.339    0.422   17.344
  307.648    0.000   67.314    0.351    0.424   17.337
  307.898    0.000   64.555    0.341    0.428   17.744
  308.148   -0.000   63.432    0.331    0.430   17.732
  308.398   -0.000   66.790    0.342    0.448   17.777
  308.648   -0.000   70.331    0.328    0.462   17.409
  308.898    0.000   69.768    0.330    0.445   17.483
  309.148    0.000   66.364    0.323    0.428   17.130
  309.398    0.000   65.273    0.319    0.417   17.183
  309.648   -0.000   63.547    0.321    0.418   17.168
  309.898   -0.000   58.742    0.330    0.429   17.567
  310.148   -0.000   60.157    0.322    0.450   17.553
  310.398    0.000   64.276    0.315    0.455   17.539
  310.648    0.000   66.639    0.318    0.436   17.950
  310.898    0.000   65.466    0.327    0.431   17.932
  311.148   -0.000   63.061    0.337    0.437   18.178
  311.398   -0.000   62.693    0.325    0.457   18.304
  311.648    0.000   63.132    0.330    0.473   18.334
  311.898    0.000   62.986    0.354    0.472   18.353
  312.148    0.000   60.589    0.323    0.467   18.369
  312.398   -0.000   61.382    0.316    0.480   18.386
  312.648   -0.000   61.007    0.321    0.487   18.334
  312.898   -0.000   61.397    0.331    0.487   17.042
  313.148    0.000   61.540    0.342    0.494   16.592
  313.398    0.000   59.906    0.337    0.482   16.109
  313.648    0.000   59.688    0.337    0.461   15.648
  313.898   -0.000   63.648    0.331    0.459   15.198
  314.148   -0.000   67.161    0.330    0.459   14.842
  314.398    0.000   64.612    0.335    0.445   14.599
  314.648    0.000   60.685    0.340    0.440   14.641
  314.898    0.000   60.075    0.341    0.438   14.336
  315.148   -0.000   62.578    0.347    0.460   14.129
  315.398   -0.000   67.199    0.349    0.474   14.118
  315.648   -0.000   69.348    0.344    0.457   14.100
  315.898    0.000   67.371    0.315    0.445   13.880
  316.148    0.000   64.125    0.313    0.450   13.894
  316.398    0.000   64.729    0.342    0.449   13.900
  316.648   -0.000   66.303    0.337    0.439   13.685
  316.898   -0.000   65.823    0.316    0.446   13.344
  317.148   -0.000   65.944    0.321    0.456   12.965
  317.398    0.000   66.417    0.332    0.441   12.563
  317.648    0.000   66.995    0.338    0.438   12.420
  317.898   -0.000   68.972    0.312    0.432   11.883
  318.148   -0.000   69.736    0.317    0.436   11.306
  318.398   -0.000   68.995    0.310    0.459   11.016
  318.648    0.000   69.033    0.314    0.475   10.336
  318.898    0.000   70.001    0.289    0.483    9.843
  319.148    0.000   70.169    0.271    0.464    9.150
  319.398   -0.000   66.219    0.210    0.353    8.592
  319.648   -0.000   62.638    0.161    0.312    8.109
  319.898   -0.000   60.109    0.149    0.316    7.966
  320.148    0.000   60.280    0.172    0.453    7.839
  320.398    0.000   66.306    0.278    0.508    7.699
  320.648   -0.000   68.036    0.311    0.480    7.433
  320.898   -0.000   66.072    0.300    0.462    7.228
  321.148   -0.000   65.173    0.313    0.458    6.820
  321.398    0.000   68.415    0.335    0.487    6.330
  321.648    0.000   72.801    0.304    0.486    5.969
  321.898    0.000   80.282    0.272    0.452    5.635
  322.148   -0.000   86.718    0.260    0.422    5.481
  322.398   -0.000   91.803    0.229    0.434    5.367
  322.648   -0.000   94.587    0.247    0.476    5.268
  322.898    0.000   94.385    0.242    0.481    5.350
  323.148    0.000   90.415    0.244    0.496    5.532
  323.398    0.000   92.264    0.233    0.491    5.593
  323.648   -0.000   98.659    0.232    0.486    5.890
  323.898   -0.000  100.899    0.231    0.489    6.065
  324.148    0.000  100.755    0.223    0.469    6.264
  324.398    0.000   97.617    0.215    0.449    6.340
  324.648    0.000   96.709    0.223    0.437    6.394
  324.898   -0.000   91.928    0.238    0.438    6.412
  325.148   -0.000   92.464    0.224    0.484    6.295
  325.398   -0.000  100.871    0.224    0.477    6.181
  325.648    0.000  105.331    0.211    0.463    6.099
  325.898    0.000  105.145    0.203    0.485    6.043
  326.148    0.000  103.096    0.199    0.495    5.980
  326.398   -0.000   98.642    0.213    0.468    6.056
  326.648   -0.000   99.954    0.216    0.458    6.247
  326.898    0.000  100.892    0.200    0.475    6.575
  327.148    0.000   96.457    0.206    0.488    6.714
  327.398    0.000   91.974    0.226    0.474    6.725
  327.648   -0.000   93.120    0.262    0.457    6.615
  327.898   -0.000   88.391    0.244    0.454    6.420
  328.148   -0.000   85.417    0.244    0.495    6.221
  328.398    0.000   90.309    0.237    0.514    5.934
  328.648    0.000   91.045    0.239    0.478    5.918
  328.898    0.000   87.608    0.233    0.460    6.187
  329.148   -0.000   82.864    0.240    0.443    6.662
  329.398   -0.000   84.741    0.256    0.444    7.271
  329.648   -0.000   84.876    0.247    0.474    7.724
  329.898    0.000   83.765    0.266    0.474    7.964
  330.148    0.000   83.737    0.265    0.448    8.212
  330.398   -0.000   85.572    0.273    0.441    8.629
  330.648   -0.000   84.652    0.296    0.445    9.030
  330.898   -0.000   81.545    0.282    0.443    8.578
  331.148    0.000   79.683    0.288    0.457    7.582
  331.398    0.000   81.012    0.288    0.495    6.125
  331.648    0.000   85.552    0.291    0.471    4.199
  331.898   -0.000   94.708    0.286    0.465    3.473
  332.148   -0.000  101.630    0.247    0.538    3.155
  332.398   -0.000  106.817    0.246    0.591    2.982
  332.648    0.000  104.988    0.257    0.576    2.990
  332.898    0.000  103.962    0.239    0.557    3.074
  333.148   -0.000  107.924    0.230    0.548    3.168
  333.398   -0.000  112.624    0.252    0.565    3.365
  333.648   -0.000  114.813    0.238    0.585    3.670
  333.898    0.000  114.334    0.239    0.548    4.022
  334.148    0.000  106.377    0.257    0.517    4.412
  334.398    0.000  102.380    0.251    0.507    4.705
  334.648   -0.000  100.025    0.221    0.502    4.703
  334.898   -0.000   97.351    0.233    0.505    4.508
  335.148   -0.000   93.945    0.217    0.519    4.209
  335.398    0.000   91.394    0.211    0.550    3.971
  335.648    0.000   96.951    0.221    0.563    3.826
  335.898    0.000  103.484    0.242    0.537    3.788
  336.148   -0.000  105.303    0.234    0.514    3.947
  336.398   -0.000  103.062    0.234    0.498    4.295
  336.648    0.000   99.923    0.249    0.486    4.637
  336.898    0.000   94.244    0.234    0.482    5.410
  337.148    0.000   90.861    0.259    0.468    6.153
  337.398   -0.000   86.275    0.263    0.448    6.821
  337.648   -0.000   85.149    0.242    0.470    7.471
  337.898   -0.000   85.719    0.230    0.445    7.253
  338.148    0.000   89.846    0.255    0.431    6.831
  338.398    0.000   89.132    0.260    0.427    6.170
  338.648    0.000   86.188    0.244    0.443    5.530
  338.898   -0.000   87.889    0.223    0.461    5.009
  339.148   -0.000   94.755    0.238    0.492    4.373
  339.398    0.000   99.441    0.248    0.507    4.138
  339.648    0.000  102.149    0.222    0.494    4.233
  339.898    0.000  100.452    0.216    0.493    4.530
  340.148   -0.000  102.436    0.206    0.494    4.963
  340.398   -0.000  100.040    0.229    0.471    5.685
  340.648   -0.000   95.257    0.220    0.445    6.079
  340.898    0.000   91.914    0.206    0.433    6.589
