~VERSION INFORMATION
 VERS.                 2.0:   CWLS LOG ASCII STANDARD -VERSION 2.0
 WRAP.                  NO:   ONE LINE PER DEPTH STEP
~WELL INFORMATION BLOCK
#MNEM.UNIT           DATA                    DESCRIPTION OF MNEMONIC
#---------    -------------------            -------------------------------
# Generated from Intellog Unique Number	CW_79_81/WELL/2451
WELL.         06-15-080-22W4                 : Well_name    - WELL
LOC .         00/06-15-080-22W4/0            : Location     - LOCATION
UWI .         00/06-15-080-22W4/0            : Uwi          - UNIQUE WELL ID
ENTR.         MAX                            : Entered      - ENTERED BY
SRVC.         SCHLUMBERGER                   : Scn          - SERVICE COMPANY
STRT.M        215                            : top_depth    - START DEPTH
STOP.M        434.75                         : bot_depth    - STOP DEPTH
STEP.M        0.25                           : increment    - STEP LENGTH
 NULL. -999.2500:NULL Value
~CURVE INFORMATION BLOCK
#MNEM UNIT       ERCB CURVE CODE    CURVE DESCRIPTION
#-----------   ------------------   ----------------------------------
DEPT.M        00 001 00 00         : DEPTH        - DEPTH
ILD .OHMM     00 120 00 00         : RESD         - DEEP RESISTIVITY (DIL)
NPHI.V/V      00 330 00 00         : PHIN         - NEUTRON POROSITY (SANDSTONE)
DPHI.V/V      00 890 00 00         : PHID         - DENSITY POROSITY (SANDSTONE)
GR  .API      00 310 00 00         : GR           - GAMMA RAY
CALI.MM       00 280 01 00         : CAL          - CALIPER
~PARAMETER INFORMATION
#MNEM.UNIT           DATA             DESCRIPTION OF MNEMONIC
#---------         -----------     ------------------------------
GL  .M        586                  : gl           - GROUND LEVEL ELEVATION
EREF.M        590.5                : kb           - ELEVATION OF DEPTH REFERENCE
DATM.M        586                  : datum        - DATUM ELEVATION
TDD .M        440                  : tdd          - TOTAL DEPTH DRILLER
RUN .         ONE                  : Run          - RUN NUMBER
ENG .         BILL                 : Engineer     - RECORDING ENGINEER
WIT .         JIM                  : Witness      - WITNESSED BY
MUD .         GEL                  : Mud_type     - MUD TYPE
MATR.         SANDSTONE            : Logunit      - NEUTRON MATRIX
TMAX.C        28                   : BHT          - MAXIMUM RECORDED TEMPERATURE
BHTD.M        440                  : BHTDEP       - MAXIMUM RECORDED TEMPERATURE
MATR.         1                    : LOGUNIT      - NEUTRON MATRIX
RMT .C        17                   : MDTP         - TEMPERATURE OF MUD
NEUT.         1                    : NEUTRON      - NEUTRON TYPE
RESI.         0                    : RESIST       - RESISTIVITY TYPE
RMC .OHMM     7.25                 : RMC          - RESISTIVITY OF MUD CAKE
RMF .OHMM     6.53                 : RMF          - RESISTIVITY OF MUD FILTRATE
SUFT.C        -20.5556             : SUFT         - SURFACE TEMPERATURE
~A  DEPTH     RESD     PHIN     PHID       GR      CAL
# ...
  288.000   16.204    0.453    0.353   60.662  228.687
  288.250   16.346    0.440    0.360   59.822  228.760
  288.500   16.564    0.442    0.362   56.835  229.163
  288.750   16.666    0.448    0.362   51.821  229.156
  289.000   16.935    0.450    0.360   47.703  229.148
  289.250   17.269    0.451    0.359   44.597  228.940
  289.500   17.553    0.449    0.360   42.029  228.235
  289.750   17.681    0.439    0.365   39.270  226.553
  290.000   17.792    0.422    0.367   41.003  226.130
  290.250   18.021    0.421    0.360   42.190  226.518
  290.500   18.252    0.429    0.357   41.589  226.609
  290.750   18.487    0.448    0.356   41.465  226.600
  291.000   18.695    0.468    0.354   42.294  226.591
  291.250   18.833    0.459    0.350   42.864  226.581
  291.500   18.952    0.441    0.349   43.356  226.572
  291.750   19.196    0.442    0.352   44.782  226.564
  292.000   19.345    0.451    0.352   46.386  226.556
  292.250   19.397    0.452    0.347   44.949  226.348
  292.500   19.319    0.445    0.340   41.964  225.643
  292.750   18.991    0.441    0.343   43.925  223.712
  293.000   18.716    0.454    0.358   45.410  222.046
  293.250   18.453    0.454    0.356   44.690  222.038
  293.500   18.288    0.446    0.356   44.148  223.222
  293.750   18.338    0.433    0.357   43.069  224.604
  294.000   18.603    0.425    0.358   41.514  225.489
  294.250   18.967    0.445    0.356   40.316  225.480
  294.500   18.956    0.462    0.355   40.310  225.471
  294.750   18.945    0.467    0.348   39.589  225.460
  295.000   18.741    0.478    0.336   37.438  226.049
  295.250   18.604    0.471    0.331   36.717  226.637
  295.500   18.623    0.447    0.333   38.083  226.926
  295.750   18.760    0.430    0.334   40.183  226.916
  296.000   18.880    0.446    0.332   41.171  226.906
  296.250   19.122    0.450    0.332   40.212  226.898
  296.500   19.367    0.442    0.329   38.717  226.890
  296.750   19.551    0.429    0.325   37.281  226.682
  297.000   19.669    0.422    0.321   36.262  226.375
  297.250   19.757    0.440    0.317   35.531  226.366
  297.500   19.608    0.456    0.317   34.283  226.356
  297.750   19.332    0.458    0.319   34.755  226.745
  298.000   18.966    0.458    0.325   36.300  226.835
  298.250   18.702    0.458    0.331   37.130  226.628
  298.500   18.565    0.450    0.334   36.469  226.322
  298.750   18.477    0.425    0.335   34.306  226.228
  299.000   18.726    0.430    0.336   33.059  225.805
  299.250   18.837    0.453    0.336   34.007  225.399
  299.500   18.856    0.442    0.332   36.923  225.291
  299.750   18.718    0.423    0.330   38.944  225.480
  300.000   18.362    0.412    0.329   39.297  225.870
  300.250   17.669    0.420    0.331   39.689  226.257
  300.500   17.288    0.443    0.333   41.671  226.248
  300.750   17.511    0.450    0.334   40.473  225.841
  301.000   18.005    0.460    0.336   39.454  225.137
  301.250   18.486    0.473    0.337   38.853  224.333
  301.500   18.787    0.485    0.336   39.206  223.629
  301.750   18.792    0.477    0.340   41.395  223.469
  302.000   18.264    0.460    0.343   41.638  224.704
  302.250   17.406    0.448    0.340   43.064  225.488
  302.500   16.679    0.443    0.331   46.635  226.572
  302.750   15.787    0.442    0.325   48.418  227.359
  303.000   14.885    0.443    0.321   47.996  227.749
  303.250   14.284    0.447    0.312   48.915  228.135
  303.500   13.784    0.452    0.295   51.145  228.126
  303.750   13.591    0.445    0.292   52.808  228.118
  304.000   13.333    0.435    0.301   54.473  228.109
  304.250   12.834    0.421    0.307   56.853  228.497
  304.500   12.135    0.408    0.302   60.305  229.184
  304.750   11.371    0.410    0.285   64.631  229.571
  305.000   11.127    0.445    0.276   63.632  229.564
  305.250   11.194    0.453    0.245   63.389  229.555
  305.500   10.869    0.386    0.186   70.477  229.546
  305.750    9.996    0.362    0.178   78.104  229.735
  306.000    8.925    0.405    0.220   82.213  230.125
  306.250    8.080    0.451    0.232   82.037  230.678
  306.500    7.853    0.459    0.231   84.764  231.496
  306.750    7.900    0.468    0.230   84.043  231.885
  307.000    7.908    0.463    0.228   83.501  231.678
  307.250    7.850    0.460    0.225   84.212  231.271
  307.500    7.766    0.467    0.221   86.234  230.765
  307.750    7.781    0.471    0.211   88.612  229.961
  308.000    7.886    0.459    0.201   88.607  229.953
  308.250    7.934    0.465    0.218   89.078  229.944
  308.500    7.903    0.467    0.224   88.835  230.232
  308.750    7.844    0.456    0.220   88.114  230.621
  309.000    7.799    0.434    0.211   87.096  231.010
  309.250    7.804    0.415    0.202   86.493  231.646
  309.500    7.854    0.424    0.196   89.468  232.878
  309.750    8.115    0.437    0.192   88.987  233.664
  310.000    8.303    0.436    0.198   86.716  234.152
  310.250    8.383    0.432    0.207   86.234  234.342
  310.500    8.364    0.432    0.213   87.659  234.434
  310.750    8.277    0.446    0.214   87.453  234.903
  311.000    8.158    0.447    0.214   86.455  235.308
  311.250    8.043    0.436    0.214   88.358  236.094
  311.500    7.930    0.429    0.211   86.862  236.285
  311.750    7.846    0.429    0.206   85.903  236.078
  312.000    7.789    0.432    0.200   86.613  235.871
  312.250    7.730    0.436    0.205   86.478  236.174
  312.500    7.725    0.448    0.220   82.250  235.749
  312.750    7.982    0.457    0.227   82.721  234.550
  313.000    8.661    0.453    0.231   82.835  233.647
  313.250    9.693    0.451    0.224   80.565  233.241
  313.500   10.816    0.449    0.200   75.850  233.233
  313.750   11.315    0.427    0.160   71.093  233.387
  314.000   11.226    0.388    0.162   73.572  234.207
  314.250   10.486    0.385    0.210   80.006  235.390
  314.500    9.191    0.428    0.232   82.683  235.977
  314.750    8.186    0.453    0.242   83.751  236.167
  315.000    7.647    0.444    0.249   84.403  235.861
  315.250    7.581    0.427    0.260   84.327  234.244
  315.500    7.792    0.441    0.268   81.589  232.166
  315.750    8.545    0.438    0.269   77.530  231.759
  316.000    9.063    0.437    0.263   77.405  231.949
  316.250    9.245    0.435    0.251   79.546  232.139
  316.500    9.051    0.433    0.240   82.641  231.932
  316.750    8.343    0.435    0.242   85.933  231.044
  317.000    7.567    0.445    0.242   86.921  230.621
  317.250    7.066    0.458    0.239   89.540  230.613
  317.500    6.773    0.450    0.242   90.011  231.199
  317.750    6.657    0.438    0.244   89.052  232.582
  318.000    6.675    0.436    0.245   87.557  234.760
  318.250    6.779    0.454    0.244   86.845  237.780
  318.500    6.871    0.474    0.243   88.082  239.012
  318.750    6.866    0.459    0.232   87.123  239.003
  319.000    6.861    0.444    0.228   84.376  238.399
  319.250    6.994    0.452    0.233   79.839  236.800
  319.500    7.381    0.469    0.243   74.528  234.505
  319.750    8.354    0.446    0.246   70.815  232.177
  320.000    9.417    0.433    0.245   72.549  230.513
  320.250    9.730    0.436    0.249   76.120  229.710
  320.500    9.707    0.445    0.261   76.652  229.502
  320.750    9.668    0.447    0.268   75.335  229.493
  321.000    9.760    0.439    0.266   73.422  229.584
  321.250   10.061    0.434    0.254   71.926  229.971
  321.500   10.637    0.442    0.260   70.430  229.960
  321.750   11.363    0.458    0.274   68.516  229.953
  322.000   12.379    0.459    0.287   66.067  230.242
  322.250   13.205    0.457    0.281   64.630  230.431
  322.500   13.467    0.448    0.251   64.505  230.225
  322.750   12.901    0.411    0.203   64.888  229.337
  323.000   11.619    0.353    0.189   65.628  228.914
  323.250   10.485    0.390    0.221   73.014  228.507
  323.500    9.318    0.422    0.245   76.646  228.399
  323.750    8.188    0.438    0.244   78.072  228.391
  324.000    7.308    0.438    0.225   78.842  228.482
  324.250    6.819    0.431    0.220   81.796  228.950
