~VERSION INFORMATION
 VERS.                 2.0:   CWLS LOG ASCII STANDARD -VERSION 2.0
 WRAP.                  NO:   ONE LINE PER DEPTH STEP
~WELL INFORMATION BLOCK
#MNEM.UNIT           DATA                    DESCRIPTION OF MNEMONIC
#---------    -------------------            -------------------------------
# Generated from Intellog Unique Number	CS_77_79/WELL/856
WELL.         CANADIAN WORLDWIDE ENERGY      : Well_name    - WELL
LOC .         00/05-19-077-04W4/0            : Location     - LOCATION
UWI .         00/05-19-077-04W4/0            : Uwi          - UNIQUE WELL ID
ENTR.         SP                             : Entered      - ENTERED BY
SRVC.         SCHLUMBERGER                   : Scn          - SERVICE COMPANY
STRT.M        150                            : top_depth    - START DEPTH
STOP.M        405                            : bot_depth    - STOP DEPTH
STEP.M        0.25                           : increment    - STEP LENGTH
 NULL. -999.2500:NULL Value
~CURVE INFORMATION BLOCK
#MNEM UNIT       ERCB CURVE CODE    CURVE DESCRIPTION
#-----------   ------------------   ----------------------------------
DEPT.M        00 001 00 00         : DEPTH        - DEPTH
ILD .OHMM     00 120 00 00         : RESD         - DEEP RESISTIVITY (DIL)
DPHI.V/V      00 890 00 00         : PHID         - DENSITY POROSITY (LIMESTONE)
NPHI.V/V      00 330 00 00         : PHIN         - NEUTRON POROSITY (LIMESTONE)
GR  .API      00 310 00 00         : GR           - GAMMA RAY
~PARAMETER INFORMATION
#MNEM.UNIT           DATA             DESCRIPTION OF MNEMONIC
#---------         -----------     ------------------------------
GL  .M        563.2                : gl           - GROUND LEVEL ELEVATION
EREF.M        566.2                : kb           - ELEVATION OF DEPTH REFERENCE
DATM.M        563.2                : datum        - DATUM ELEVATION
TDD .M        405.5                : tdd          - TOTAL DEPTH DRILLER
RUN .         ONE                  : Run          - RUN NUMBER
ENG .         BILL                 : Engineer     - RECORDING ENGINEER
WIT .         JIM                  : Witness      - WITNESSED BY
MUD .         GEL                  : Mud_type     - MUD TYPE
MATR.         LIMESTONE            : Logunit      - NEUTRON MATRIX
TMAX.C        24                   : BHT          - MAXIMUM RECORDED TEMPERATURE
BHTD.M        405.5                : BHTDEP       - MAXIMUM RECORDED TEMPERATURE
MATR.         1                    : LOGUNIT      - NEUTRON MATRIX
RMT .C        25                   : MDTP         - TEMPERATURE OF MUD
NEUT.         1                    : NEUTRON      - NEUTRON TYPE
RESI.         0                    : RESIST       - RESISTIVITY TYPE
RMC .OHMM     0.25                 : RMC          - RESISTIVITY OF MUD CAKE
RMF .OHMM     0.25                 : RMF          - RESISTIVITY OF MUD FILTRATE
SUFT.C        15                   : SUFT         - SURFACE TEMPERATURE
~A  DEPTH     RESD     PHID     PHIN       GR
# ...
  367.500    4.612    0.341    0.331   32.722
  367.750    4.702    0.331    0.316   33.350
  368.000    4.797    0.315    0.306   33.985
  368.250    4.800    0.308    0.306   32.166
  368.500    4.894    0.304    0.310   30.337
  368.750    4.899    0.299    0.306   30.356
  369.000    4.902    0.300    0.300   29.765
  369.250    4.904    0.303    0.303   29.167
  369.500    4.909    0.306    0.306   27.340
  369.750    4.912    0.309    0.309   25.515
  370.000    4.914    0.306    0.305   25.543
  370.250    5.013    0.302    0.302   26.790
  370.500    5.016    0.300    0.309   28.034
  370.750    5.021    0.305    0.325   29.905
  371.000    5.023    0.321    0.333   32.990
  371.250    4.933    0.331    0.336   37.311
  371.500    4.935    0.327    0.331   41.020
  371.750    4.754    0.325    0.323   35.517
  372.000    4.410    0.321    0.322   33.069
  372.250    4.249    0.321    0.318   29.406
  372.500    4.173    0.322    0.321   28.186
  372.750    4.097    0.324    0.326   28.214
  373.000    4.258    0.326    0.331   30.690
  373.250    4.425    0.327    0.337   33.780
  373.500    5.561    0.323    0.343   35.026
  373.750    6.600    0.304    0.348   36.890
  374.000    8.139    0.194    0.355   51.664
  374.250    9.481    0.154    0.370   95.335
  374.500   10.042    0.148    0.387  110.724
  374.750   10.240    0.146    0.404  114.437
  375.000   10.644    0.160    0.411  111.377
  375.250   10.857    0.172    0.408  109.552
  375.500   10.864    0.176    0.400  106.497
  375.750   10.470    0.167    0.387  104.059
  376.000   10.476    0.170    0.381  100.389
  376.250   10.287    0.172    0.372  102.876
  376.500   10.296    0.168    0.385  105.349
  376.750   10.498    0.168    0.431  109.057
  377.000   10.504    0.173    0.445  110.304
  377.250   10.510    0.176    0.437  110.328
  377.500   10.517    0.176    0.417  107.885
  377.750   10.327    0.175    0.416  105.444
  378.000   10.138    0.172    0.434  107.923
  378.250    9.585    0.164    0.446  111.635
  378.500    8.891    0.157    0.448  117.797
  378.750    8.246    0.173    0.445  111.059
  379.000    7.503    0.192    0.436  104.926
  379.250    6.701    0.235    0.421   95.110
  379.500    5.872    0.265    0.408   82.219
  379.750    5.343    0.285    0.387   68.096
  380.000    4.958    0.303    0.363   45.983
  380.250    4.960    0.307    0.347   36.166
  380.500    4.964    0.293    0.334   34.963
  380.750    5.159    0.278    0.319   36.205
  381.000    5.465    0.258    0.312   38.070
  381.250    5.902    0.251    0.304   38.091
  381.500    6.018    0.243    0.301   38.110
  381.750    5.909    0.231    0.294   40.587
  382.000    5.802    0.222    0.296   47.371
  382.250    5.805    0.240    0.299   54.154
  382.500    5.594    0.257    0.308   50.485
  382.750    5.596    0.278    0.318   43.738
  383.000    5.601    0.273    0.328   36.381
  383.250    5.498    0.263    0.333   31.480
  383.500    5.609    0.251    0.323   32.115
  383.750    5.612    0.229    0.318   40.134
  384.000    5.723    0.247    0.316   44.449
  384.250    5.837    0.262    0.311   41.399
  384.500    5.954    0.254    0.303   42.649
  384.750    5.957    0.224    0.298   47.583
  385.000    5.962    0.223    0.299   42.077
  385.250    5.853    0.229    0.301   41.472
  385.500    5.747    0.242    0.329   44.570
  385.750    5.538    0.270    0.348   48.284
  386.000    5.335    0.268    0.358   51.373
  386.250    5.238    0.246    0.360   56.921
  386.500    4.953    0.284    0.357   61.860
  386.750    4.862    0.299    0.357   53.884
  387.000    4.775    0.308    0.359   40.994
  387.250    4.868    0.307    0.349   34.252
  387.500    4.965    0.300    0.344   34.278
  387.750    4.968    0.267    0.331   36.135
  388.000    5.165    0.239    0.326   44.767
  388.250    5.266    0.239    0.322   50.926
  388.500    5.580    0.267    0.323   48.488
  388.750    5.690    0.285    0.322   42.979
  389.000    5.803    0.285    0.318   39.923
  389.250    5.918    0.273    0.314   40.554
  389.500    5.923    0.212    0.319   47.335
  389.750    5.925    0.235    0.333   54.734
  390.000    5.932    0.250    0.351   47.994
  390.250    5.934    0.253    0.349   44.324
  390.500    5.827    0.241    0.340   47.417
  390.750    5.722    0.233    0.331   53.583
  391.000    5.409    0.230    0.333   54.832
  391.250    5.210    0.247    0.343   54.850
  391.500    4.925    0.305    0.356   47.495
  391.750    4.570    0.340    0.370   41.362
  392.000    4.571    0.346    0.370   32.777
  392.250    4.488    0.347    0.355   26.034
  392.500    4.492    0.308    0.362   27.281
  392.750    4.669    0.227    0.376   40.218
  393.000    4.672    0.229    0.385   49.458
  393.250    4.675    0.242    0.383   67.916
  393.500    4.420    0.264    0.375   70.396
  393.750    4.259    0.290    0.368   65.495
  394.000    4.103    0.324    0.362   36.004
  394.250    3.952    0.341    0.355   28.645
  394.500    3.881    0.340    0.346   23.753
  394.750    3.885    0.336    0.342   21.310
  395.000    3.887    0.327    0.331   20.098
  395.250    3.964    0.315    0.326   21.350
  395.500    4.043    0.292    0.322   25.058
  395.750    4.123    0.291    0.323   28.148
  396.000    4.125    0.302    0.322   23.870
  396.250    4.127    0.316    0.318   21.426
  396.500    4.131    0.318    0.318   19.599
  396.750    4.133    0.319    0.321   19.007
  397.000    4.135    0.319    0.322   19.642
  397.250    4.062    0.318    0.322   20.278
  397.500    4.064    0.314    0.322   22.141
  397.750    3.991    0.314    0.323   22.771
  398.000    3.994    0.317    0.325   23.404
  398.250    3.996    0.317    0.329   22.810
  398.500    3.998    0.314    0.334   20.372
  398.750    4.001    0.313    0.333   20.394
  399.000    4.005    0.312    0.333   21.641
  399.250    4.007    0.312    0.336   23.504
  399.500    4.009    0.315    0.330   22.907
  399.750    4.013    0.318    0.326   21.699
  400.000    4.091    0.319    0.324   20.497
  400.250    4.173    0.318    0.323   19.893
  400.500    4.255    0.315    0.318   22.379
  400.750    4.864    0.301    0.310   24.237
  401.000    5.454    0.233    0.296   27.949
  401.250    6.001    0.191    0.286   30.419
  401.500    6.357    0.153    0.301   37.203
  401.750    6.607    0.155    0.327   43.369
  402.000    6.867    0.158    0.368   46.465
  402.250    7.004    0.159    0.400   47.099
  402.500    7.420    0.159    0.436   47.119
  402.750    8.011    0.163    0.471   46.521
  403.000    8.984    0.178    0.487   47.156
  403.250    9.697    0.192    0.480   48.404
  403.500   10.876    0.152    0.450   49.044
  403.750   11.965    0.119    0.312   47.838
  404.000   13.416    0.091    0.297   47.234
  404.250   15.626    0.061    0.293   46.638
  404.500   17.860    0.024    0.288   45.433
  404.750   18.213    0.008    0.286   44.216
  405.000   15.075    0.000    0.283   39.932
