~VERSION INFORMATION
 VERS.                 2.0:   CWLS LOG ASCII STANDARD -VERSION 2.0
 WRAP.                  NO:   ONE LINE PER DEPTH STEP
~WELL INFORMATION BLOCK
#MNEM.UNIT           DATA                    DESCRIPTION OF MNEMONIC
#---------    -------------------            -------------------------------
# Generated from Intellog Unique Number	CS_77_79/WELL/855
WELL.         CWWE HARDY                     : Well_name    - WELL
LOC .         00/05-15-078-04W4/0            : Location     - LOCATION
UWI .         00/05-15-078-04W4/0            : Uwi          - UNIQUE WELL ID
ENTR.         JHS                            : Entered      - ENTERED BY
SRVC.         SCHLUMBERGER                   : Scn          - SERVICE COMPANY
STRT.M        140                            : top_depth    - START DEPTH
STOP.M        405                            : bot_depth    - STOP DEPTH
STEP.M        0.25                           : increment    - STEP LENGTH
 NULL. -999.2500:NULL Value
~CURVE INFORMATION BLOCK
#MNEM UNIT       ERCB CURVE CODE    CURVE DESCRIPTION
#-----------   ------------------   ----------------------------------
DEPT.M        00 001 00 00         : DEPTH        - DEPTH
DPHI.V/V      00 890 00 00         : PHID         - DENSITY POROSITY (LIMESTONE)
NPHI.V/V      00 330 00 00         : PHIN         - NEUTRON POROSITY (LIMESTONE)
GR  .API      00 310 00 00         : GR           - GAMMA RAY
ILD .OHMM     00 120 00 00         : RESD         - DEEP RESISTIVITY (DIL)
RHOB.KG/M3    00 350 00 00         : DENS         - BULK DENSITY
~PARAMETER INFORMATION
#MNEM.UNIT           DATA             DESCRIPTION OF MNEMONIC
#---------         -----------     ------------------------------
GL  .M        562.55               : gl           - GROUND LEVEL ELEVATION
EREF.M        566.5                : kb           - ELEVATION OF DEPTH REFERENCE
DATM.M        566.5                : datum        - DATUM ELEVATION
TDD .M        420                  : tdd          - TOTAL DEPTH DRILLER
RUN .         ONE                  : Run          - RUN NUMBER
ENG .         BILL                 : Engineer     - RECORDING ENGINEER
WIT .         JIM                  : Witness      - WITNESSED BY
MUD .         GEL                  : Mud_type     - MUD TYPE
MATR.         LIMESTONE            : Logunit      - NEUTRON MATRIX
TMAX.C        23                   : BHT          - MAXIMUM RECORDED TEMPERATURE
BHTD.M        420                  : BHTDEP       - MAXIMUM RECORDED TEMPERATURE
MATR.         1                    : LOGUNIT      - NEUTRON MATRIX
RMT .C        25                   : MDTP         - TEMPERATURE OF MUD
NEUT.         1                    : NEUTRON      - NEUTRON TYPE
RESI.         0                    : RESIST       - RESISTIVITY TYPE
RMC .OHMM     0.25                 : RMC          - RESISTIVITY OF MUD CAKE
RMF .OHMM     0.25                 : RMF          - RESISTIVITY OF MUD FILTRATE
SUFT.C        15                   : SUFT         - SURFACE TEMPERATURE
~A  DEPTH     PHID     PHIN       GR     RESD     DENS
# ...
  176.500    0.398    0.433   83.529   18.712    0.000
  176.750    0.431    0.430   61.696   18.735    0.000
  177.000    0.392    0.413   54.234   19.479    0.000
  177.250    0.359    0.405   49.909   20.251    0.000
  177.500    0.337    0.411   48.065   21.046    0.000
  177.750    0.330    0.390   48.095   23.155    0.000
  178.000    0.323    0.374   51.259   24.995    0.000
  178.250    0.327    0.375   51.920   26.485    0.000
  178.500    0.339    0.380   49.464   27.021    0.000
  178.750    0.345    0.373   47.621   27.555    0.000
  179.000    0.344    0.373   51.420   28.112    0.000
  179.250    0.339    0.382   55.191   28.148    0.000
  179.500    0.329    0.375   62.102   28.187    0.000
  179.750    0.319    0.370   69.020   28.206    0.000
  180.000    0.317    0.371   73.430   27.700    0.000
  180.250    0.330    0.375   74.089   27.745    0.000
  180.500    0.330    0.372   73.502   27.763    0.000
  180.750    0.323    0.366   72.289   27.800    0.000
  181.000    0.319    0.384   69.832   27.835    0.000
  181.250    0.320    0.381   71.120   27.853    0.000
  181.500    0.329    0.369   69.278   27.359    0.000
  181.750    0.314    0.368   64.318   26.377    0.000
  182.000    0.293    0.364   68.727   25.428    0.000
  182.250    0.277    0.353   74.390   24.509    0.000
  182.500    0.274    0.351   75.050   24.082    0.000
  182.750    0.333    0.375   76.960   24.111    0.000
  183.000    0.411    0.420   81.998   24.591    0.000
  183.250    0.492    0.538   83.909   25.080    0.000
  183.500    0.572    0.569   68.325   25.105    0.000
  183.750    0.474    0.525   55.238   24.207    0.000
  184.000    0.390    0.445   46.522   23.778    0.000
  184.250    0.344    0.406   39.067   23.805    0.000
  184.500    0.336    0.389   38.475   24.289    0.000
  184.750    0.341    0.377   41.011   24.777    0.000
  185.000    0.344    0.378   47.311   24.794    0.000
  185.250    0.341    0.386   50.459   25.300    0.000
  185.500    0.337    0.374   55.493   25.331    0.000
  185.750    0.320    0.364   61.158   25.346    0.000
  186.000    0.304    0.361   63.069   24.900    0.000
  186.250    0.301    0.374   63.731   24.460    0.000
  186.500    0.296    0.381   66.895   23.588    0.000
  186.750    0.281    0.381   67.553   22.741    0.000
  187.000    0.279    0.390   70.097   22.327    0.000
  187.250    0.266    0.371   72.005   21.939    0.000
  187.500    0.261    0.365   65.165   21.554    0.000
  187.750    0.279    0.371   57.712   21.988    0.000
  188.000    0.322    0.372   59.622   22.863    0.000
  188.250    0.337    0.370   60.909   23.313    0.000
  188.500    0.340    0.370   60.316   24.239    0.000
  188.750    0.335    0.378   60.350   24.731    0.000
  189.000    0.330    0.382   64.763   24.747    0.000
  189.250    0.318    0.377   71.676   23.411    0.000
  189.500    0.284    0.367   80.468   22.144    0.000
  189.750    0.261    0.368   83.003   19.797    0.000
  190.000    0.266    0.380   82.423   17.701    0.000
  190.250    0.278    0.391   81.838   17.065    0.000
  190.500    0.272    0.395   83.115   16.759    0.000
  190.750    0.260    0.385   86.280   16.466    0.000
  191.000    0.249    0.373   87.564   16.482    0.000
  191.250    0.242    0.370   88.845   16.497    0.000
  191.500    0.238    0.379   91.386   16.833    0.000
  191.750    0.255    0.389   95.171   17.166    0.000
  192.000    0.280    0.392   98.953   17.850    0.000
  192.250    0.286    0.382  104.625   18.554    0.000
  192.500    0.288    0.380  105.900   19.294    0.000
  192.750    0.294    0.375  100.939   19.678    0.000
  193.000    0.281    0.367   96.601   20.081    0.000
  193.250    0.244    0.354   89.139   20.094    0.000
  193.500    0.228    0.344   70.430   20.497    0.000
  193.750    0.261    0.348   59.840   21.316    0.000
  194.000    0.299    0.366   55.508   21.737    0.000
  194.250    0.304    0.374   53.667   22.599    0.000
  194.500    0.319    0.400   53.087   23.491    0.000
  194.750    0.325    0.395   53.749   24.423    0.000
  195.000    0.321    0.376   53.779   24.915    0.000
  195.250    0.315    0.367   53.192   24.944    0.000
  195.500    0.316    0.357   54.478   24.049    0.000
  195.750    0.311    0.350   64.521   23.175    0.000
  196.000    0.289    0.344   73.305   22.338    0.000
  196.250    0.275    0.340   82.089   21.533    0.000
  196.500    0.264    0.345   88.375   20.371    0.000
  196.750    0.261    0.381   89.046   19.274    0.000
  197.000    0.288    0.385   84.074   18.931    0.000
  197.250    0.313    0.372   75.990   18.596    0.000
  197.500    0.302    0.366   73.525   18.614    0.000
  197.750    0.286    0.369   79.812   18.284    0.000
  198.000    0.274    0.374   91.094   17.300    0.000
  198.250    0.259    0.371   96.763   17.314    0.000
  198.500    0.262    0.364   91.793   17.014    0.000
  198.750    0.283    0.359   84.329   17.352    0.000
  199.000    0.274    0.359   81.242   18.042    0.000
  199.250    0.241    0.353   85.038   18.406    0.000
  199.500    0.215    0.341   89.445   18.777    0.000
  199.750    0.223    0.337   91.982   19.159    0.000
  200.000    0.249    0.343   89.525   19.171    0.000
  200.250    0.258    0.351   87.688   19.197    0.000
  200.500    0.265    0.363   86.470   18.858    0.000
  200.750    0.292    0.365   92.761   18.880    0.000
  201.000    0.303    0.371   92.175   19.260    0.000
  201.250    0.304    0.380   89.093   19.272    0.000
  201.500    0.302    0.381   87.866   18.938    0.000
  201.750    0.291    0.366   87.277   18.602    0.000
  202.000    0.267    0.358   94.197   17.932    0.000
  202.250    0.260    0.366   98.606   16.648    0.000
  202.500    0.253    0.372  102.390   15.453    0.000
  202.750    0.242    0.368  109.300   14.346    0.000
  203.000    0.227    0.384  119.334   13.067    0.000
  203.250    0.215    0.405  123.750   12.358    0.000
  203.500    0.212    0.412  123.785   11.470    0.000
  203.750    0.215    0.408  122.570   10.854    0.000
  204.000    0.223    0.405  123.858   10.465    0.000
  204.250    0.226    0.405  122.019   10.276    0.000
  204.500    0.222    0.411  115.182    9.905    0.000
  204.750    0.216    0.422  114.598    9.734    0.000
  205.000    0.217    0.439  119.634    9.931    0.000
  205.250    0.224    0.423  119.046   10.126    0.000
  205.500    0.235    0.398  109.078   11.142    0.000
  205.750    0.254    0.391   93.492   12.028    0.000
  206.000    0.287    0.386   96.656   12.742    0.000
  206.250    0.292    0.381  104.190   13.246    0.000
  206.500    0.282    0.394  105.478   14.034    0.000
  206.750    0.283    0.429   98.639   14.316    0.000
  207.000    0.288    0.432   98.059   14.883    0.000
  207.250    0.283    0.423  101.213   14.901    0.000
  207.500    0.258    0.420  107.503   14.639    0.000
  207.750    0.223    0.426  113.172   14.111    0.000
  208.000    0.211    0.429  116.328   13.603    0.000
  208.250    0.211    0.426  118.873   13.108    0.000
  208.500    0.218    0.417  117.648   12.878    0.000
  208.750    0.216    0.401  108.942   12.893    0.000
  209.000    0.218    0.392   90.228   13.150    0.000
  209.250    0.256    0.380   86.513   14.199    0.000
  209.500    0.266    0.373   89.677   15.037    0.000
  209.750    0.264    0.365   88.462   16.237    0.000
  210.000    0.276    0.361   82.254   16.877    0.000
  210.250    0.303    0.371   77.294   17.548    0.000
  210.500    0.308    0.379   76.702   16.918    0.000
  210.750    0.277    0.398   90.489   15.126    0.000
  211.000    0.217    0.421   98.021   14.304    0.000
  211.250    0.182    0.425  105.557   13.027    0.000
  211.500    0.212    0.406  109.969   11.428    0.000
  211.750    0.332    0.393  107.507   10.025    0.000
  212.000    0.320    0.395  100.681    9.847    0.000
  212.250    0.301    0.392   98.207   10.431    0.000
  212.500    0.302    0.374   95.123   11.917    0.000
  212.750    0.311    0.366   95.779   14.140    0.000
