~VERSION INFORMATION
 VERS.                 2.0:   CWLS LOG ASCII STANDARD -VERSION 2.0
 WRAP.                  NO:   ONE LINE PER DEPTH STEP
~WELL INFORMATION BLOCK
#MNEM.UNIT           DATA                    DESCRIPTION OF MNEMONIC
#---------    -------------------            -------------------------------
# Generated from Intellog Unique Number	CX_WELLS/WELL/3171
WELL.         ULSTER ET AL HANGST            : Well_name    - WELL
LOC .         00/02-02-083-11W4/0            : Location     - LOCATION
UWI .         00/02-02-083-11W400            : Uwi          - UNIQUE WELL ID
ENTR.         T                              : Entered      - ENTERED BY
SRVC.         SCHLUMBERGER                   : Scn          - SERVICE COMPANY
STRT.M        285                            : top_depth    - START DEPTH
STOP.M        510                            : bot_depth    - STOP DEPTH
STEP.M        0.25                           : increment    - STEP LENGTH
 NULL. -999.2500:NULL Value
~CURVE INFORMATION BLOCK
#MNEM UNIT       ERCB CURVE CODE    CURVE DESCRIPTION
#-----------   ------------------   ----------------------------------
DEPT.M        00 001 00 00         : DEPTH        - DEPTH
GR  .API      00 310 00 00         : GR           - GAMMA RAY
NPHI.V/V      00 330 00 00         : PHIN         - NEUTRON POROSITY (SANDSTONE)
DPHI.V/V      00 890 00 00         : PHID         - DENSITY POROSITY (SANDSTONE)
ILD .OHMM     00 120 00 00         : RESD         - DEEP RESISTIVITY (DIL)
~PARAMETER INFORMATION
#MNEM.UNIT           DATA             DESCRIPTION OF MNEMONIC
#---------         -----------     ------------------------------
GL  .M        733                  : gl           - GROUND LEVEL ELEVATION
EREF.M        736.9                : kb           - ELEVATION OF DEPTH REFERENCE
DATM.M        736.9                : datum        - DATUM ELEVATION
TDD .M        508                  : tdd          - TOTAL DEPTH DRILLER
RUN .         ONE                  : Run          - RUN NUMBER
ENG .         BILL                 : Engineer     - RECORDING ENGINEER
WIT .         JIM                  : Witness      - WITNESSED BY
MUD .         GEL                  : Mud_type     - MUD TYPE
MATR.         SANDSTONE            : Logunit      - NEUTRON MATRIX
TMAX.C        23                   : BHT          - MAXIMUM RECORDED TEMPERATURE
BHTD.M        508                  : BHTDEP       - MAXIMUM RECORDED TEMPERATURE
MATR.         1                    : LOGUNIT      - NEUTRON MATRIX
RMT .C        20                   : MDTP         - TEMPERATURE OF MUD
NEUT.         1                    : NEUTRON      - NEUTRON TYPE
RESI.         4.2                  : RESIST       - RESISTIVITY TYPE
RMC .OHMM     4.2                  : RMC          - RESISTIVITY OF MUD CAKE
RMF .OHMM     3.75                 : RMF          - RESISTIVITY OF MUD FILTRATE
SUFT.C        15                   : SUFT         - SURFACE TEMPERATURE
~A  DEPTH       GR     PHIN     PHID     RESD
# ...
  415.500   95.829    0.496    0.258    3.882
  415.750   97.590    0.504    0.258    3.551
  416.000   95.951    0.516    0.259    3.308
  416.250   94.312    0.522    0.261    3.138
  416.500   92.659    0.531    0.263    3.031
  416.750   91.575    0.530    0.264    3.033
  417.000   90.491    0.506    0.258    3.093
  417.250   92.253    0.479    0.253    3.212
  417.500   95.152    0.469    0.245    3.522
  417.750   98.066    0.458    0.239    3.721
  418.000  100.382    0.461    0.238    4.155
  418.250   99.868    0.463    0.241    4.476
  418.500   98.229    0.465    0.241    4.562
  418.750   97.145    0.465    0.241    4.735
  419.000   96.644    0.464    0.239    5.009
  419.250   97.254    0.462    0.239    5.197
  419.500   97.863    0.460    0.241    5.596
  419.750   99.638    0.454    0.243    5.914
  420.000   98.582    0.452    0.245    6.483
  420.250   97.484    0.427    0.246    7.106
  420.500   95.263    0.408    0.238    8.079
  420.750   95.331    0.395    0.226    9.023
  421.000   95.371    0.394    0.226    9.362
  421.250   94.884    0.404    0.231    9.549
  421.500   94.356    0.413    0.241    9.558
  421.750   93.827    0.419    0.245    9.235
  422.000   93.882    0.422    0.245    8.916
  422.250   93.922    0.424    0.242    8.162
  422.500   93.977    0.424    0.236    7.883
  422.750   94.614    0.425    0.235    7.610
  423.000   95.820    0.431    0.236    7.216
  423.250   97.568    0.436    0.237    6.729
  423.500   98.191    0.439    0.237    6.610
  423.750   95.400    0.443    0.233    6.384
  424.000   92.609    0.444    0.233    6.278
  424.250   88.707    0.444    0.234    6.176
  424.500   87.055    0.440    0.236    6.413
  424.750   85.375    0.432    0.243    6.655
  425.000   84.305    0.410    0.255    7.300
  425.250   85.483    0.402    0.270    7.859
  425.500   86.107    0.410    0.283    8.156
  425.750   85.619    0.419    0.276    8.623
  426.000   85.118    0.423    0.265    8.637
  426.250   85.145    0.424    0.253    8.342
  426.500   88.045    0.425    0.246    8.057
  426.750   90.375    0.429    0.234    7.368
  427.000   90.999    0.432    0.222    6.619
  427.250   88.777    0.434    0.228    6.055
  427.500   84.293    0.430    0.236    5.743
  427.750   81.488    0.421    0.245    5.547
  428.000   86.677    0.412    0.249    5.864
  428.250   93.574    0.414    0.253    6.434
  428.500   92.490    0.424    0.249    6.674
  428.750   91.962    0.433    0.247    7.055
  429.000   90.323    0.432    0.244    7.598
  429.250   89.794    0.425    0.243    7.891
  429.500   90.431    0.422    0.242    8.043
  429.750   91.637    0.419    0.239    8.204
  430.000   93.399    0.416    0.237    8.215
  430.250   94.009    0.419    0.236    7.934
  430.500   94.632    0.422    0.236    7.390
  430.750   94.700    0.427    0.236    7.010
  431.000   93.603    0.428    0.235    6.896
  431.250   90.825    0.428    0.241    6.901
  431.500   87.452    0.429    0.243    6.910
  431.750   84.661    0.429    0.251    6.922
  432.000   83.591    0.430    0.259    7.058
  432.250   82.521    0.436    0.266    7.194
  432.500   82.575    0.441    0.272    7.335
  432.750   82.060    0.443    0.279    7.348
  433.000   82.101    0.443    0.283    6.844
  433.250   82.183    0.443    0.283    6.149
  433.500   82.792    0.446    0.273    5.830
  433.750   83.402    0.454    0.261    5.431
  434.000   85.733    0.459    0.252    5.151
  434.250   89.797    0.466    0.244    4.886
  434.500   92.114    0.472    0.243    4.556
  434.750   94.459    0.478    0.244    4.397
  435.000   92.237    0.471    0.244    4.405
  435.250   88.863    0.452    0.236    4.488
  435.500   83.796    0.442    0.227    5.011
  435.750   78.160    0.442    0.233    5.906
  436.000   74.231    0.442    0.238    6.590
  436.250   69.760    0.442    0.184    7.626
  436.500   68.080    0.434    0.108    8.825
  436.750   64.748    0.301    0.082   10.403
  437.000   63.650    0.275    0.108   10.804
  437.250   63.122    0.289    0.222   10.621
  437.500   65.480    0.358    0.241    9.720
  437.750   67.797    0.422    0.242    9.216
  438.000   75.818    0.439    0.239    8.434
  438.250   83.269    0.439    0.235    7.718
  438.500   88.459    0.432    0.224    7.451
  438.750   92.496    0.431    0.224    7.194
  439.000   92.551    0.430    0.224    6.826
  439.250   92.036    0.433    0.224    6.590
  439.500   91.549    0.443    0.218    6.251
  439.750   91.576    0.449    0.213    5.929
  440.000   92.199    0.445    0.215    5.728
  440.250   94.543    0.438    0.218    5.734
  440.500   99.150    0.427    0.220    5.541
  440.750  103.215    0.422    0.220    5.446
  441.000  102.686    0.423    0.216    5.167
  441.250  101.020    0.428    0.214    4.813
  441.500   98.798    0.435    0.217    4.732
  441.750   96.590    0.442    0.227    4.490
  442.000   93.813    0.449    0.253    4.335
  442.250   92.146    0.454    0.277    3.756
  442.500   88.786    0.476    0.288    3.083
  442.750   84.302    0.500    0.290    2.871
  443.000   81.511    0.525    0.284    3.150
  443.250   79.303    0.517    0.277    3.268
  443.500   78.192    0.473    0.254    3.582
  443.750   79.398    0.454    0.245    3.926
  444.000   81.729    0.442    0.236    4.228
  444.250   82.907    0.432    0.235    4.551
  444.500   83.531    0.422    0.229    4.990
  444.750   81.878    0.414    0.217    5.370
  445.000   78.532    0.404    0.212    5.187
  445.250   77.434    0.397    0.220    4.660
  445.500   82.624    0.426    0.231    4.263
  445.750   88.951    0.453    0.246    3.831
  446.000   88.436    0.465    0.250    3.632
  446.250   87.922    0.467    0.250    3.572
  446.500   88.545    0.465    0.249    3.513
  446.750   89.737    0.457    0.244    3.582
  447.000   89.223    0.429    0.239    3.787
  447.250   88.139    0.424    0.227    4.076
  447.500   88.193    0.423    0.217    4.553
  447.750   92.231    0.455    0.223    4.724
  448.000   93.437    0.482    0.247    4.996
  448.250   95.781    0.488    0.254    4.913
  448.500   96.404    0.499    0.259    4.179
  448.750   96.459    0.513    0.260    3.623
  449.000   96.527    0.511    0.257    3.255
  449.250   97.137    0.505    0.251    3.142
  449.500   97.177    0.495    0.244    2.981
  449.750   97.814    0.474    0.244    2.984
  450.000   96.175    0.447    0.244    3.044
  450.250   95.078    0.446    0.244    3.047
  450.500   93.980    0.449    0.238    3.164
  450.750   92.355    0.458    0.229    3.226
  451.000   91.840    0.477    0.216    3.411
  451.250   93.602    0.493    0.196    3.607
  451.500   96.488    0.495    0.185    3.679
  451.750  102.801    0.430    0.191    3.618
  452.000  104.576    0.450    0.219    3.621
  452.250  102.951    0.489    0.237    3.626
  452.500  101.840    0.507    0.242    3.631
  452.750  100.756    0.481    0.233    3.639
  453.000   98.534    0.456    0.227    3.642
  453.250   96.326    0.440    0.228    3.851
  453.500   92.966    0.424    0.233    4.221
  453.750   89.037    0.420    0.247    4.709
  454.000   87.385    0.424    0.265    5.555
  454.250   86.883    0.418    0.273    5.559
  454.500   85.786    0.415    0.268    5.668
  454.750   84.147    0.418    0.268    5.887
  455.000   83.605    0.421    0.272    6.000
  455.250   81.979    0.424    0.272    6.345
  455.500   82.020    0.426    0.268    6.586
  455.750   80.936    0.429    0.263    6.965
  456.000   80.422    0.429    0.261    7.231
  456.250   82.183    0.405    0.257    7.373
  456.500   89.066    0.377    0.256    7.521
  456.750   94.242    0.381    0.254    7.266
  457.000   97.737    0.395    0.252    7.013
  457.250   97.792    0.397    0.245    6.896
  457.500   98.984    0.393    0.237    7.032
  457.750  100.177    0.393    0.234    7.851
  458.000  101.938    0.399    0.232    8.300
  458.250  102.548    0.405    0.236    8.617
  458.500  107.168    0.412    0.238    8.626
  458.750  111.219    0.415    0.242    8.641
