~VERSION INFORMATION
 VERS.                 2.0:   CWLS LOG ASCII STANDARD -VERSION 2.0
 WRAP.                  NO:   ONE LINE PER DEPTH STEP
~WELL INFORMATION BLOCK
#MNEM.UNIT           DATA                    DESCRIPTION OF MNEMONIC
#---------    -------------------            -------------------------------
# Generated from Intellog Unique Number	CS_77_79/WELL/3286
WELL.         ALLIED ROXANA MINERALS LTD.    : Well_name    - WELL
LOC .         00/06-12-079-18W4/0            : Location     - LOCATION
UWI .         00/06-12-079-18W4/0            : Uwi          - UNIQUE WELL ID
ENTR.         JOETTE                         : Entered      - ENTERED BY
SRVC.         SCHLUMBERGER                   : Scn          - SERVICE COMPANY
DATE.         08-24-92                       : Date         - LOG DATE
STRT.M        198.12                         : top_depth    - START DEPTH
STOP.M        411.37                         : bot_depth    - STOP DEPTH
STEP.M        0.25                           : increment    - STEP LENGTH
 NULL. -999.2500:NULL Value
~CURVE INFORMATION BLOCK
#MNEM UNIT       ERCB CURVE CODE    CURVE DESCRIPTION
#-----------   ------------------   ----------------------------------
DEPT.M        00 001 00 00         : DEPTH        - DEPTH
ILD .OHMM     00 120 00 00         : RESD         - DEEP RESISTIVITY (DIL)
DPHI.V/V      00 890 00 00         : PHID         - DENSITY POROSITY (SANDSTONE)
NPHI.V/V      00 330 00 00         : PHIN         - NEUTRON POROSITY (SANDSTONE)
GR  .API      00 310 00 00         : GR           - GAMMA RAY
~PARAMETER INFORMATION
#MNEM.UNIT           DATA             DESCRIPTION OF MNEMONIC
#---------         -----------     ------------------------------
GL  .M        541.477              : gl           - GROUND LEVEL ELEVATION
EREF.M        544.525              : kb           - ELEVATION OF DEPTH REFERENCE
DATM.M        544.525              : datum        - DATUM ELEVATION
TDD .M        411.48               : tdd          - TOTAL DEPTH DRILLER
RUN .         ONE                  : Run          - RUN NUMBER
ENG .         BILL                 : Engineer     - RECORDING ENGINEER
WIT .         JIM                  : Witness      - WITNESSED BY
MUD .         GEL                  : Mud_type     - MUD TYPE
MATR.         SANDSTONE            : Logunit      - NEUTRON MATRIX
TMAX.C        23.3333              : BHT          - MAXIMUM RECORDED TEMPERATURE
BHTD.M        411.48               : BHTDEP       - MAXIMUM RECORDED TEMPERATURE
MATR.         1                    : LOGUNIT      - NEUTRON MATRIX
RMT .C        18.3333              : MDTP         - TEMPERATURE OF MUD
NEUT.         1                    : NEUTRON      - NEUTRON TYPE
RESI.         0                    : RESIST       - RESISTIVITY TYPE
RMC .OHMM     1.73                 : RMC          - RESISTIVITY OF MUD CAKE
RMF .OHMM     1.24                 : RMF          - RESISTIVITY OF MUD FILTRATE
SUFT.C        5                    : SUFT         - SURFACE TEMPERATURE
~A  DEPTH     RESD     PHID     PHIN       GR
  198.120    6.497    0.339    0.527   94.011
  198.370    6.324    0.376    0.496   97.739
  198.620    6.334    0.323    0.491  102.755
  198.870    6.967    0.323    0.503  102.171
  199.120    8.214    0.351    0.487   96.120
  199.370    8.635    0.381    0.450   93.080
  199.620    9.056    0.309    0.451   91.297
  199.870    9.689    0.305    0.447   94.427
  200.120    9.709    0.308    0.452   97.571
  200.370    9.734    0.315    0.443   97.001
  200.620    9.551    0.290    0.429  101.987
  200.870    9.166    0.265    0.447  102.047
  201.120    8.983    0.265    0.473  100.878
  201.370    8.795    0.295    0.466  101.566
  201.620    8.617    0.307    0.434  104.082
  201.870    8.642    0.303    0.428  107.211
  202.120    8.652    0.296    0.438  110.340
  202.370    8.484    0.288    0.436  111.043
  202.620    8.296    0.279    0.435  111.073
  202.870    8.108    0.282    0.443  108.062
  203.120    8.128    0.261    0.454  100.754
  203.370    9.380    0.279    0.460   87.920
  203.620    9.796    0.300    0.458   81.840
  203.870   10.830    0.278    0.454   76.359
  204.120   11.666    0.277    0.460   67.209
  204.370   11.681    0.290    0.444   62.986
  204.620   11.103    0.304    0.434   66.714
  204.870   10.509    0.298    0.434   71.700
  205.120   10.118    0.272    0.444   73.616
  205.370    9.940    0.287    0.460   68.749
  205.620    9.752    0.300    0.444   63.897
  205.870    9.377    0.302    0.441   68.269
  206.120    9.184    0.312    0.471   67.100
  206.370    8.798    0.322    0.477   64.075
  206.620    8.219    0.343    0.480   59.836
  206.870    8.645    0.360    0.449   58.683
  207.120    9.066    0.352    0.440   58.128
  207.370   13.148    0.345    0.436   58.202
  207.620   14.192    0.335    0.434   58.876
  207.870   14.608    0.326    0.437   60.777
  208.120   15.039    0.328    0.440   61.436
  208.370   14.450    0.335    0.455   64.594
  208.620   14.059    0.338    0.463   65.238
  208.870   13.065    0.342    0.457   65.941
  209.120   12.070    0.334    0.468   67.843
  209.370   10.270    0.334    0.484   70.987
  209.620    9.270    0.339    0.497   72.244
  209.870    8.276    0.324    0.493   74.774
  210.120    7.489    0.333    0.480   75.463
  210.370    7.103    0.324    0.472   77.963
  210.620    7.732    0.314    0.501   81.092
  210.870    8.163    0.314    0.506   78.082
  211.120    7.777    0.320    0.473   77.542
  211.370    7.188    0.315    0.468   80.057
  211.620    6.397    0.319    0.474   83.187
  211.870    6.209    0.328    0.483   83.860
  212.120    6.437    0.299    0.481   84.533
  212.370    6.452    0.294    0.481   88.890
  212.620    7.085    0.301    0.484   92.648
  212.870    7.303    0.304    0.458   94.550
  213.120    7.729    0.301    0.453   95.223
  213.370    8.565    0.297    0.450   97.124
  213.620    9.204    0.297    0.457   91.059
  213.870    9.421    0.309    0.453   86.806
  214.120    9.436    0.305    0.450   86.865
  214.370    9.258    0.306    0.444   89.395
  214.620    8.868    0.299    0.436   89.440
  214.870    7.883    0.297    0.424   87.043
  215.120    7.497    0.317    0.436   84.048
  215.370    7.107    0.336    0.484   83.508
  215.620    6.721    0.373    0.515   86.652
  215.870    6.335    0.349    0.512   87.910
  216.120    5.949    0.336    0.484   91.653
  216.370    5.766    0.329    0.485   96.639
  216.620    5.386    0.323    0.499   99.154
  216.870    5.406    0.275    0.519   94.916
  217.120    5.431    0.272    0.517   89.450
  217.370    5.441    0.301    0.505   82.755
  217.620    5.673    0.320    0.490   77.918
  217.870    5.886    0.314    0.498   78.591
  218.120    6.723    0.329    0.518   76.180
  218.370    7.757    0.361    0.531   67.015
  218.620    9.400    0.390    0.484   53.567
  218.870   15.313    0.394    0.467   54.241
  219.120   16.951    0.347    0.467   57.999
  219.370   19.004    0.345    0.466   58.073
  219.620   18.623    0.346    0.465   58.133
  219.870   17.624    0.348    0.459   58.192
  220.120   16.427    0.338    0.456   58.850
  220.370   14.626    0.335    0.443   58.325
  220.620   14.235    0.343    0.439   57.741
  220.870   13.854    0.349    0.444   55.959
  221.120   13.671    0.349    0.437   56.632
  221.370   13.687    0.362    0.429   58.563
  221.620   13.919    0.359    0.433   58.009
  221.870   13.934    0.341    0.435   57.454
  222.120   13.949    0.347    0.443   56.900
  222.370   13.984    0.357    0.455   59.400
  222.620   13.999    0.359    0.453   62.544
  222.870   13.816    0.364    0.474   61.989
  223.120   13.836    0.365    0.461   60.207
  223.370   13.455    0.356    0.451   58.439
  223.620   13.475    0.366    0.461   54.201
  223.870   13.282    0.364    0.468   53.017
  224.120   13.110    0.339    0.458   54.934
  224.370   13.119    0.340    0.460   56.835
  224.620   13.139    0.339    0.466   56.880
  224.870   12.961    0.331    0.456   60.638
  225.120   12.986    0.330    0.445   62.554
  225.370   13.006    0.333    0.441   60.157
  225.620   13.026    0.336    0.440   57.761
  225.870   13.046    0.342    0.439   57.221
  226.120   12.863    0.355    0.443   57.251
  226.370   12.888    0.362    0.451   57.325
  226.620   12.695    0.353    0.457   57.385
  226.870   12.512    0.345    0.470   57.459
  227.120   12.537    0.347    0.481   56.904
  227.370   12.354    0.353    0.480   56.978
  227.620   12.177    0.355    0.482   57.637
  227.870   11.989    0.350    0.454   58.295
  228.120   12.009    0.354    0.444   61.425
  228.370   12.034    0.350    0.447   63.341
  228.620   12.053    0.346    0.453   65.242
  228.870   12.073    0.352    0.462   65.316
  229.120   11.890    0.360    0.462   62.306
  229.370   11.905    0.335    0.445   59.281
  229.620   11.935    0.331    0.449   57.498
  229.870   11.950    0.338    0.465   57.558
  230.120   11.970    0.371    0.466   60.687
  230.370   11.995    0.373    0.456   62.588
  230.620   12.020    0.352    0.451   62.692
  230.870   12.030    0.331    0.457   62.108
  231.120   12.055    0.340    0.459   59.097
  231.370   12.080    0.345    0.464   57.330
  231.620   12.095    0.341    0.460   59.860
  231.870   12.120    0.342    0.463   60.504
  232.120   12.348    0.347    0.462   59.949
  232.370   12.358    0.343    0.460   58.781
  232.620   12.383    0.325    0.466   58.870
  232.870   12.408    0.327    0.475   58.914
  233.120   12.418    0.349    0.461   60.216
  233.370   12.438    0.353    0.452   60.276
  233.620   12.463    0.357    0.448   60.320
  233.870   12.487    0.347    0.459   59.766
  234.120   12.502    0.342    0.476   60.439
  234.370   12.527    0.344    0.449   61.741
  234.620   12.552    0.335    0.449   63.029
  234.870   12.562    0.333    0.453   63.702
  235.120   12.379    0.333    0.459   63.147
  235.370   12.404    0.332    0.472   62.593
  235.620   12.221    0.321    0.468   62.667
  235.870   12.236    0.326    0.455   63.340
  236.120   12.063    0.327    0.453   64.029
  236.370   11.682    0.319    0.452   64.702
  236.620   11.490    0.329    0.440   64.147
  236.870   11.307    0.328    0.444   62.350
  237.120   11.124    0.309    0.441   64.865
  237.370   11.149    0.335    0.445   67.381
  237.620   11.164    0.310    0.455   68.668
  237.870   11.184    0.307    0.451   67.499
  238.120   11.609    0.306    0.452   65.732
  238.370   12.243    0.308    0.456   66.405
  238.620   12.871    0.303    0.460   66.465
  238.870   13.906    0.286    0.455   67.752
  239.120   25.702    0.247    0.426   67.197
  239.370   31.402    0.194    0.260   61.731
  239.620   35.282    0.138    0.235   57.493
  239.870   39.972    0.089    0.204   55.096
  240.120   44.050    0.048    0.172   51.487
  240.370   35.752    0.030    0.144   50.303
  240.620   26.633    0.034    0.174   54.661
  240.870   18.538    0.082    0.217   61.488
  241.120   15.510    0.117    0.336   67.073
  241.370   13.507    0.188    0.412   70.817
