~VERSION INFORMATION
 VERS.                 2.0:   CWLS LOG ASCII STANDARD -VERSION 2.0
 WRAP.                  NO:   ONE LINE PER DEPTH STEP
~WELL INFORMATION BLOCK
#MNEM.UNIT           DATA                    DESCRIPTION OF MNEMONIC
#---------    -------------------            -------------------------------
# Generated from Intellog Unique Number	CX_WELLS/WELL/2499
WELL.         04-02-084-15W4                 : Well_name    - WELL
LOC .         00/04-02-084-15W4/0            : Location     - LOCATION
UWI .         00/04-02-084-15W400            : Uwi          - UNIQUE WELL ID
ENTR.         JHS                            : Entered      - ENTERED BY
SRVC.         SCHLUMBERGER                   : Scn          - SERVICE COMPANY
STRT.M        76                             : top_depth    - START DEPTH
STOP.M        280.75                         : bot_depth    - STOP DEPTH
STEP.M        0.25                           : increment    - STEP LENGTH
 NULL. -999.2500:NULL Value
~CURVE INFORMATION BLOCK
#MNEM UNIT       ERCB CURVE CODE    CURVE DESCRIPTION
#-----------   ------------------   ----------------------------------
DEPT.M        00 001 00 00         : DEPTH        - DEPTH
GR  .API      00 310 00 00         : GR           - GAMMA RAY
DPHI.V/V      00 890 00 00         : PHID         - DENSITY POROSITY (SANDSTONE)
NPHI.V/V      00 330 00 00         : PHIN         - NEUTRON POROSITY (SANDSTONE)
ILD .OHMM     00 120 00 00         : RESD         - DEEP RESISTIVITY (DIL)
~PARAMETER INFORMATION
#MNEM.UNIT           DATA             DESCRIPTION OF MNEMONIC
#---------         -----------     ------------------------------
GL  .M        552.1                : gl           - GROUND LEVEL ELEVATION
EREF.M        555.8                : kb           - ELEVATION OF DEPTH REFERENCE
DATM.M        555.8                : datum        - DATUM ELEVATION
TDD .M        281                  : tdd          - TOTAL DEPTH DRILLER
RUN .         ONE                  : Run          - RUN NUMBER
ENG .         BILL                 : Engineer     - RECORDING ENGINEER
WIT .         JIM                  : Witness      - WITNESSED BY
MUD .         GEL                  : Mud_type     - MUD TYPE
MATR.         SANDSTONE            : Logunit      - NEUTRON MATRIX
TMAX.C        20                   : BHT          - MAXIMUM RECORDED TEMPERATURE
BHTD.M        281                  : BHTDEP       - MAXIMUM RECORDED TEMPERATURE
MATR.         1                    : LOGUNIT      - NEUTRON MATRIX
RMT .C        25                   : MDTP         - TEMPERATURE OF MUD
NEUT.         1                    : NEUTRON      - NEUTRON TYPE
RESI.         0                    : RESIST       - RESISTIVITY TYPE
RMC .OHMM     0.25                 : RMC          - RESISTIVITY OF MUD CAKE
RMF .OHMM     0.25                 : RMF          - RESISTIVITY OF MUD FILTRATE
SUFT.C        15                   : SUFT         - SURFACE TEMPERATURE
~A  DEPTH       GR     PHID     PHIN     RESD
# ...
  206.500   88.439    0.277    0.391    9.022
  206.750   87.142    0.271    0.427    8.958
  207.000   85.164    0.266    0.424    9.632
  207.250   84.519    0.261    0.405    9.907
  207.500   83.718    0.263    0.406    9.691
  207.750   83.929    0.264    0.416    9.721
  208.000   87.775    0.255    0.400    9.554
  208.250   91.868    0.242    0.324    9.296
  208.500   95.168    0.238    0.324    8.766
  208.750   95.063    0.240    0.360    8.347
  209.000   93.267    0.243    0.386    8.235
  209.250   91.489    0.247    0.381    8.251
  209.500   88.366    0.245    0.331    8.254
  209.750   87.837    0.239    0.331    8.384
  210.000   92.366    0.232    0.335    8.451
  210.250   98.756    0.231    0.347    8.293
  210.500  102.848    0.232    0.371    7.988
  210.750  102.393    0.227    0.380    7.814
  211.000   97.446    0.223    0.379    7.969
  211.250   91.517    0.240    0.407    8.334
  211.500   89.473    0.255    0.394    8.850
  211.750   87.136    0.251    0.356    9.397
  212.000   86.259    0.236    0.347    9.632
  212.250   91.518    0.226    0.360    9.621
  212.500   99.173    0.219    0.359    9.789
  212.750  102.445    0.216    0.388    9.704
  213.000   98.702    0.224    0.423    9.056
  213.250   92.799    0.223    0.423    8.452
  213.500   91.870    0.220    0.383    8.290
  213.750   96.548    0.226    0.346    8.519
  214.000  100.362    0.233    0.352    8.939
  214.250  100.726    0.227    0.359    9.286
  214.500  103.609    0.222    0.376    8.975
  214.750  106.854    0.223    0.382    8.608
  215.000  107.739    0.219    0.377    8.347
  215.250  107.631    0.204    0.372    7.917
  215.500  107.612    0.192    0.363    7.446
  215.750  106.587    0.202    0.358    7.194
  216.000  106.146    0.215    0.356    7.182
  216.250  107.062    0.217    0.342    7.114
  216.500  107.560    0.212    0.318    7.048
  216.750  107.805    0.206    0.304    7.034
  217.000  108.785    0.206    0.325    6.800
  217.250  105.554    0.243    0.379    6.483
  217.500  100.335    0.261    0.402    6.327
  217.750   96.142    0.265    0.380    6.367
  218.000   91.363    0.258    0.347    6.811
  218.250   87.086    0.247    0.330    7.849
  218.500   87.478    0.260    0.318    9.157
  218.750   87.641    0.271    0.300   10.119
  219.000   86.489    0.278    0.316   10.537
  219.250   86.751    0.259    0.344   10.777
  219.500   89.151    0.256    0.361   10.771
  219.750   91.371    0.280    0.342   10.346
  220.000   92.292    0.270    0.277    9.886
  220.250   93.892    0.257    0.270    9.607
  220.500   93.650    0.250    0.293    9.090
  220.750   88.914    0.258    0.346    8.561
  221.000   86.014    0.270    0.342    8.331
  221.250   89.518    0.267    0.280    8.414
  221.500   93.457    0.248    0.300    8.698
  221.750   93.808    0.232    0.352    9.120
  222.000   91.043    0.248    0.373    9.398
  222.250   85.954    0.267    0.362    9.189
  222.500   82.119    0.263    0.335    9.071
  222.750   84.040    0.241    0.320    9.482
  223.000   88.561    0.222    0.329    9.922
  223.250   86.259    0.249    0.320    9.971
  223.500   89.002    0.237    0.379    9.670
  223.750   89.704    0.230    0.426    9.541
  224.000   85.937    0.228    0.435    9.580
  224.250   84.144    0.212    0.409    9.584
  224.500   84.862    0.228    0.317    9.582
  224.750   86.897    0.265    0.293    9.423
  225.000   88.474    0.267    0.304    9.496
  225.250   90.446    0.250    0.312    9.715
  225.500   94.879    0.244    0.307    9.743
  225.750  101.195    0.245    0.315    9.562
  226.000  104.274    0.237    0.356    9.424
  226.250   99.523    0.236    0.379    9.301
  226.500   94.433    0.222    0.382    9.016
  226.750   95.331    0.215    0.373    8.887
  227.000  100.019    0.215    0.350    8.952
  227.250  104.465    0.205    0.331    8.895
  227.500  108.444    0.200    0.335    8.609
  227.750  111.395    0.210    0.339    8.245
  228.000  115.220    0.203    0.355    7.634
  228.250  116.529    0.193    0.375    6.746
  228.500  113.535    0.202    0.381    6.104
  228.750  106.826    0.220    0.368    5.952
  229.000   98.160    0.220    0.354    6.065
  229.250   93.628    0.209    0.372    6.359
  229.500   93.085    0.193    0.396    7.825
  229.750   96.070    0.196    0.387    9.300
  230.000  104.779    0.200    0.348    9.516
  230.250  116.401    0.193    0.320    8.879
  230.500  121.142    0.198    0.343    7.459
  230.750  116.295    0.197    0.415    6.950
  231.000  112.288    0.199    0.385    6.910
  231.250  112.814    0.191    0.341    6.931
  231.500  117.096    0.184    0.353    6.926
  231.750  121.678    0.188    0.382    6.930
  232.000  122.311    0.184    0.402    6.932
  232.250  121.277    0.188    0.374    6.939
  232.500  120.834    0.195    0.326    6.877
  232.750  121.715    0.190    0.303    6.675
  233.000  120.715    0.187    0.321    6.545
  233.250  115.628    0.195    0.346    6.572
  233.500  109.548    0.202    0.353    6.691
  233.750  105.771    0.197    0.365    7.295
  234.000  103.104    0.128    0.319    8.379
  234.250   96.212    0.061    0.247   10.193
  234.500   92.535    0.055    0.195   12.025
  234.750  102.814    0.105    0.198   12.684
  235.000  119.096    0.168    0.267   13.061
  235.250  121.380    0.189    0.307   12.712
  235.500  115.254    0.192    0.318   12.143
  235.750  111.799    0.199    0.313   11.565
  236.000  110.473    0.198    0.311   10.647
  236.250  108.720    0.185    0.317    9.531
  236.500  110.007    0.183    0.320    8.873
  236.750  112.786    0.194    0.320    8.782
  237.000  117.655    0.189    0.334    8.166
  237.250  119.377    0.189    0.350    7.882
  237.500  116.398    0.202    0.351    7.960
  237.750  111.340    0.212    0.336    8.458
  238.000  106.366    0.216    0.326   10.107
  238.250  105.702    0.208    0.316   10.557
  238.500  109.936    0.200    0.313   10.262
  238.750  107.997    0.204    0.323    9.933
  239.000  100.490    0.214    0.325    9.680
  239.250   95.097    0.216    0.317    9.580
  239.500   92.331    0.207    0.335    9.590
  239.750   92.926    0.209    0.385    9.586
  240.000   91.476    0.227    0.392    9.686
  240.250   89.879    0.234    0.383    9.954
  240.500   94.611    0.221    0.366   10.256
  240.750   99.492    0.217    0.334   10.328
  241.000   93.547    0.240    0.326   10.159
  241.250   89.294    0.244    0.344   10.150
  241.500   86.165    0.257    0.351   10.190
  241.750   86.250    0.264    0.340   10.067
  242.000   89.180    0.252    0.342    9.978
  242.250   90.307    0.235    0.356    9.966
  242.500   87.414    0.230    0.350    9.808
  242.750   83.859    0.242    0.337    9.814
  243.000   86.009    0.243    0.324    9.713
  243.250   90.402    0.230    0.313    9.526
  243.500   91.368    0.223    0.332    9.459
  243.750   87.517    0.233    0.371    9.453
  244.000   83.093    0.245    0.390    9.297
  244.250   85.295    0.234    0.418    9.143
  244.500   88.293    0.219    0.396    9.132
  244.750   87.787    0.229    0.332    9.083
  245.000   87.990    0.239    0.299    8.864
  245.250   91.671    0.225    0.317    8.601
  245.500   93.968    0.215    0.322    8.337
  245.750   93.329    0.213    0.310    7.932
  246.000   94.871    0.218    0.311    7.933
  246.250   96.258    0.224    0.316    8.223
  246.500   95.065    0.229    0.324    8.752
  246.750   93.952    0.230    0.337    9.437
  247.000   95.726    0.225    0.344    9.685
  247.250   98.345    0.220    0.350    9.529
  247.500   99.758    0.218    0.355    9.546
  247.750   99.977    0.215    0.358    9.286
  248.000   97.012    0.197    0.357    8.876
  248.250   93.813    0.168    0.354    8.623
  248.500   96.288    0.173    0.357    8.217
  248.750   98.204    0.223    0.344    7.710
  249.000  101.834    0.230    0.340    7.479
  249.250  105.693    0.213    0.361    7.572
  249.500  109.463    0.212    0.378    7.256
  249.750  114.191    0.215    0.358    6.444
