~VERSION INFORMATION
 VERS.                 2.0:   CWLS LOG ASCII STANDARD -VERSION 2.0
 WRAP.                  NO:   ONE LINE PER DEPTH STEP
~WELL INFORMATION BLOCK
#MNEM.UNIT           DATA                    DESCRIPTION OF MNEMONIC
#---------    -------------------            -------------------------------
# Generated from Intellog Unique Number	CS_69_70/WELL/822
NULL.         -999.25                        : NULL_VALUE
WELL.         A.E.C. FISHER                  : Well_name    - WELL              
LOC .         00/07-16-070-04W4/0            : Location     - LOCATION          
UWI .         00/07-16-070-04W4/0            : Uwi          - UNIQUE WELL ID    
ENTR.         SP                             : Entered      - ENTERED BY        
SRVC.         SCHLUMBERGER                   : Scn          - SERVICE COMPANY   
STRT.M        300                            : top_depth    - START DEPTH       
STOP.M        515                            : bot_depth    - STOP DEPTH        
STEP.M        0.25                           : increment    - STEP LENGTH       
~CURVE INFORMATION BLOCK
#MNEM UNIT       ERCB CURVE CODE    CURVE DESCRIPTION
#-----------   ------------------   ----------------------------------
DEPT.M        00 001 00 00         : DEPTH        - DEPTH                       
GR  .API      00 310 00 00         : GR           - GAMMA RAY                   
NPHI.V/V      00 330 00 00         : PHIN         - NEUTRON POROSITY (LIMESTONE)
DPHI.V/V      00 890 00 00         : PHID         - DENSITY POROSITY (LIMESTONE)
ILD .OHMM     00 120 00 00         : RESD         - DEEP RESISTIVITY (DIL)      
~PARAMETER INFORMATION       
#MNEM.UNIT           DATA             DESCRIPTION OF MNEMONIC
#---------         -----------     ------------------------------
GL  .M        677.5                : gl           - GROUND LEVEL ELEVATION      
EREF.M        681                  : kb           - ELEVATION OF DEPTH REFERENCE
DATM.M        677.5                : datum        - DATUM ELEVATION             
TDD .M        536                  : tdd          - TOTAL DEPTH DRILLER         
RUN .         ONE                  : Run          - RUN NUMBER                  
ENG .         BILL                 : Engineer     - RECORDING ENGINEER          
WIT .         JIM                  : Witness      - WITNESSED BY                
MUD .         GEL                  : Mud_type     - MUD TYPE                    
MATR.         LIMESTONE            : Logunit      - NEUTRON MATRIX              
TMAX.C        31                   : BHT          - MAXIMUM RECORDED TEMPERATURE
BHTD.M        536                  : BHTDEP       - MAXIMUM RECORDED TEMPERATURE
MATR.         1                    : LOGUNIT      - NEUTRON MATRIX              
RMT .C        25                   : MDTP         - TEMPERATURE OF MUD          
NEUT.         1                    : NEUTRON      - NEUTRON TYPE                
RESI.         0                    : RESIST       - RESISTIVITY TYPE            
RMC .OHMM     0.25                 : RMC          - RESISTIVITY OF MUD CAKE     
RMF .OHMM     0.25                 : RMF          - RESISTIVITY OF MUD FILTRATE 
SUFT.C        15                   : SUFT         - SURFACE TEMPERATURE         
~A  DEPTH       GR     PHIN     PHID     RESD
# ...
  430.500   73.376    0.281    0.122   12.045
  430.750   58.828    0.295    0.074   10.563
  431.000   67.355    0.360    0.156    9.092
  431.250   74.065    0.444    0.237    7.974
  431.500   78.338    0.481    0.301    7.259
  431.750   78.369    0.495    0.298    6.861
  432.000   75.960    0.465    0.304    6.131
  432.250   74.770    0.470    0.317    5.795
  432.500   77.833    0.477    0.327    5.376
  432.750   80.287    0.479    0.302    4.987
  433.000   82.743    0.482    0.294    4.456
  433.250   82.163    0.484    0.280    4.292
  433.500   84.011    0.477    0.274    4.133
  433.750   85.852    0.474    0.275    4.055
  434.000   87.701    0.508    0.275    4.131
  434.250   89.555    0.525    0.275    4.053
  434.500   90.182    0.532    0.274    3.978
  434.750   89.600    0.507    0.274    3.759
  435.000   90.230    0.497    0.274    3.759
  435.250   91.473    0.492    0.274    3.901
  435.500   89.679    0.481    0.276    4.049
  435.750   89.700    0.471    0.280    4.125
  436.000   91.546    0.469    0.285    4.528
  436.250   89.751    0.466    0.288    4.972
  436.500   87.348    0.461    0.283    5.161
  436.750   86.769    0.463    0.275    5.457
  437.000   86.791    0.469    0.271    5.456
  437.250   85.608    0.464    0.266    5.354
  437.500   85.019    0.464    0.262    5.352
  437.750   85.651    0.460    0.263    5.352
  438.000   81.434    0.445    0.279    5.451
  438.250   79.025    0.438    0.295    5.765
  438.500   82.094    0.455    0.294    6.097
  438.750   87.590    0.474    0.286    6.447
  439.000   88.816    0.484    0.279    6.568
  439.250   82.168    0.488    0.288    6.691
  439.500   79.153    0.477    0.305    6.689
  439.750   77.964    0.486    0.311    6.442
  440.000   76.774    0.506    0.323    6.321
  440.250   75.586    0.498    0.320    5.974
  440.500   73.179    0.457    0.315    5.862
  440.750   73.206    0.436    0.311    5.972
  441.000   76.874    0.450    0.302    5.971
  441.250   79.934    0.482    0.281    6.555
  441.500   73.895    0.408    0.265    7.063
  441.750   69.662    0.359    0.213    6.931
  442.000   66.648    0.392    0.147    6.801
  442.250   75.182    0.410    0.221    6.427
  442.500   83.712    0.416    0.294    6.190
  442.750   87.981    0.439    0.278    6.074
  443.000   88.616    0.444    0.272    5.741
  443.250   88.031    0.461    0.279    5.227
  443.500   89.271    0.473    0.270    4.759
  443.750   86.263    0.464    0.263    4.583
  444.000   79.607    0.462    0.287    4.172
  444.250   82.064    0.479    0.299    4.019
  444.500   83.918    0.496    0.311    3.659
  444.750   84.544    0.494    0.316    3.269
  445.000   85.182    0.529    0.319    2.762
  445.250   85.199    0.583    0.322    2.422
  445.500   85.839    0.603    0.319    2.289
  445.750   85.862    0.546    0.312    2.205
  446.000   84.671    0.524    0.307    2.331
  446.250   85.309    0.509    0.301    2.375
  446.500   88.981    0.515    0.297    2.465
  446.750   90.820    0.537    0.291    2.706
  447.000   90.845    0.553    0.286    3.085
  447.250   89.656    0.535    0.287    3.934
  447.500   83.008    0.494    0.293    4.924
  447.750   79.986    0.455    0.297    6.048
  448.000   73.948    0.409    0.297    7.023
  448.250   69.112    0.378    0.154    6.892
  448.500   65.487    0.371    0.122    6.393
  448.750   77.056    0.413    0.162    5.503
  449.000   81.935    0.439    0.227    5.010
  449.250   85.001    0.435    0.271    4.825
  449.500   85.028    0.411    0.272    4.647
  449.750   86.871    0.419    0.266    4.559
  450.000   86.291    0.428    0.257    4.474
  450.250   86.315    0.444    0.252    4.309
  450.500   86.338    0.448    0.252    4.072
  450.750   86.972    0.448    0.260    3.849
  451.000   88.824    0.458    0.262    3.571
  451.250   91.883    0.474    0.267    3.375
  451.500   90.698    0.494    0.269    2.959
  451.750   89.502    0.509    0.270    2.850
  452.000   92.567    0.512    0.270    2.797
  452.250   94.413    0.498    0.268    2.796
  452.500   95.051    0.510    0.270    2.957
  452.750   95.681    0.504    0.267    3.187
  453.000   94.490    0.481    0.264    3.564
  453.250   92.094    0.467    0.255    3.770
  453.500   91.510    0.457    0.249    4.139
  453.750   93.359    0.457    0.242    4.377
  454.000   95.201    0.453    0.236    4.805
  454.250   94.619    0.446    0.228    5.686
  454.500   92.210    0.420    0.219    6.480
  454.750   85.559    0.362    0.203    6.983
  455.000   76.474    0.369    0.178    7.666
  455.250   78.933    0.376    0.176    7.957
  455.500   80.165    0.378    0.222    8.258
  455.750   78.977    0.386    0.256    7.660
  456.000   79.613    0.405    0.250    8.411
  456.250   77.812    0.411    0.274   10.527
  456.500   68.124    0.328    0.291   13.425
  456.750   60.864    0.292    0.207   15.300
  457.000   60.276    0.274    0.131   15.880
  457.250   62.735    0.373    0.059   16.178
  457.500   65.796    0.406    0.096   15.290
  457.750   65.219    0.417    0.219   13.921
  458.000   65.243    0.400    0.264   12.914
  458.250   67.090    0.386    0.280   11.979
  458.500   68.324    0.380    0.272   11.537
  458.750   70.792    0.377    0.264   11.111
  459.000   72.020    0.375    0.260   11.108
  459.250   70.233    0.397    0.256   11.316
  459.500   69.641    0.404    0.253   11.744
  459.750   72.095    0.396    0.257   11.964
  460.000   75.774    0.404    0.253   12.418
  460.250   77.010    0.412    0.250   14.154
  460.500   75.209    0.414    0.258   17.387
  460.750   72.197    0.413    0.326   25.753
  461.000   72.223    0.411    0.350   35.397
  461.250   63.147    0.411    0.349   46.861
  461.500   59.521    0.413    0.345   49.556
  461.750   58.333    0.416    0.345   48.626
  462.000   61.395    0.420    0.345   38.836
  462.250   65.675    0.412    0.351   29.322
  462.500   70.557    0.422    0.347   23.858
  462.750   73.007    0.413    0.338   20.536
  463.000   71.817    0.413    0.327   18.697
  463.250   77.926    0.424    0.321   16.092
  463.500   82.801    0.427    0.312   14.652
  463.750   90.113    0.440    0.303   12.849
  464.000   95.612    0.433    0.289   11.920
  464.250   98.058    0.423    0.267   10.852
  464.500   92.621    0.416    0.228   10.258
  464.750   89.006    0.412    0.219    9.516
  465.000   87.208    0.408    0.214    9.164
  465.250   92.095    0.398    0.213    8.825
  465.500   95.761    0.395    0.220    8.659
  465.750   98.215    0.399    0.238    8.658
  466.000   96.424    0.416    0.250    8.656
  466.250   94.011    0.429    0.261    8.655
  466.500   89.184    0.371    0.261    9.151
  466.750   85.562    0.347    0.247    9.499
  467.000   81.943    0.355    0.226    9.676
  467.250   77.716    0.383    0.228   10.044
  467.500   71.061    0.363    0.253   10.231
  467.750   77.165    0.344    0.275   10.039
  468.000   82.045    0.358    0.254   10.037
  468.250   81.466    0.398    0.254   10.815
  468.500   75.412    0.407    0.276   12.326
  468.750   68.763    0.375    0.298   13.036
  469.000   66.364    0.372    0.310   14.581
  469.250   65.165    0.379    0.294   15.135
  469.500   69.452    0.366    0.290   15.132
  469.750   73.122    0.356    0.274   14.303
  470.000   75.565    0.362    0.266   13.022
  470.250   79.847    0.369    0.255   11.855
  470.500   82.299    0.353    0.242   11.205
  470.750   84.144    0.345    0.237   10.591
  471.000   79.311    0.338    0.242   11.201
  471.250   72.048    0.345    0.258   11.845
  471.500   69.647    0.350    0.274   12.763
  471.750   71.502    0.351    0.281   14.013
  472.000   72.733    0.386    0.271   15.676
  472.250   72.760    0.423    0.293   18.897
  472.500   67.321    0.433    0.312   20.364
  472.750   66.736    0.413    0.341   21.534
  473.000   72.238    0.415    0.354   20.354
  473.250   72.863    0.437    0.344   18.532
  473.500   72.886    0.441    0.338   15.364
  473.750   73.516    0.438    0.330   12.979
