~VERSION INFORMATION
 VERS.                 2.0:   CWLS LOG ASCII STANDARD -VERSION 2.0
 WRAP.                  NO:   ONE LINE PER DEPTH STEP
~WELL INFORMATION BLOCK
#MNEM.UNIT           DATA                    DESCRIPTION OF MNEMONIC
#---------    -------------------            -------------------------------
# Generated from Intellog Unique Number	CW_73_75/WELL/56
WELL.         AMOCO ET AL JO-1 MARTIN HILLS  : Well_name    - WELL
LOC .         00/06-11-075-03W5/0            : Location     - LOCATION
UWI .         00/06-11-075-03W5/0            : Uwi          - UNIQUE WELL ID
ENTR.         JJ                             : Entered      - ENTERED BY
SRVC.         SCHLUMBERGER                   : Scn          - SERVICE COMPANY
DATE.         4 MAR 73                       : Date         - LOG DATE
STRT.M        542.794                        : top_depth    - START DEPTH
STOP.M        670.544                        : bot_depth    - STOP DEPTH
STEP.M        0.25                           : increment    - STEP LENGTH
 NULL. -999.2500:NULL Value
~CURVE INFORMATION BLOCK
#MNEM UNIT       ERCB CURVE CODE    CURVE DESCRIPTION
#-----------   ------------------   ----------------------------------
DEPT.M        00 001 00 00         : DEPTH        - DEPTH
NPHI.V/V      00 330 00 00         : PHIN         - NEUTRON POROSITY (SANDSTONE)
GR  .API      00 310 00 00         : GR           - GAMMA RAY
DELT.US/F     00 520 00 00         : DELT         - SONIC TRAVEL TIME
ILD .OHMM     00 120 00 00         : RESD         - DEEP RESISTIVITY (DIL)
~PARAMETER INFORMATION
#MNEM.UNIT           DATA             DESCRIPTION OF MNEMONIC
#---------         -----------     ------------------------------
GL  .M        716.067              : gl           - GROUND LEVEL ELEVATION
EREF.M        720.547              : kb           - ELEVATION OF DEPTH REFERENCE
DATM.M        716.067              : datum        - DATUM ELEVATION
TDD .M        659.587              : tdd          - TOTAL DEPTH DRILLER
RUN .         ONE                  : Run          - RUN NUMBER
ENG .         BOYKO                : Engineer     - RECORDING ENGINEER
WIT .         HUCULAK              : Witness      - WITNESSED BY
BASE.         EDM                  : Branch       - HOME BASE OF LOGGING UNIT
MUD .         CHEM GEL             : Mud_type     - MUD TYPE
MATR.         SANDSTONE            : Logunit      - NEUTRON MATRIX
TMAX.C        27.7778              : BHT          - MAXIMUM RECORDED TEMPERATURE
BHTD.M        659.282              : BHTDEP       - MAXIMUM RECORDED TEMPERATURE
RMT .C        20                   : MDTP         - TEMPERATURE OF MUD
MUDD.KG/M     1104                 : MWT          - MUD DENSITY
NEUT.         1                    : NEUTRON      - NEUTRON TYPE
RESI.         0                    : RESIST       - RESISTIVITY TYPE
RM  .OHMM     4.96                 : RM           - RESISTIVITY OF MUD
RMC .OHMM     0                    : RMC          - RESISTIVITY OF MUD CAKE
RMF .OHMM     4.75                 : RMF          - RESISTIVITY OF MUD FILTRATE
SUFT.C        5                    : SUFT         - SURFACE TEMPERATURE
~A  DEPTH     PHIN       GR     DELT     RESD
  542.794    0.392   54.468  111.158    4.859
  543.044    0.403   54.819  112.032    4.840
  543.294    0.413   53.202  112.908    4.849
  543.544    0.396   50.604  113.978    4.830
  543.794    0.406   51.560  114.266    4.856
  544.044    0.412   54.413  113.578    4.820
  544.294    0.415   57.077  112.792    4.854
  544.544    0.404   60.359  111.711    4.854
  544.794    0.383   60.642  111.609    4.827
  545.044    0.367   58.660  111.800    4.817
  545.294    0.363   55.337  111.991    4.834
  545.544    0.364   53.485  111.987    4.904
  545.794    0.376   53.148  111.787    4.958
  546.044    0.396   54.593  110.999    5.002
  546.294    0.387   57.381  110.507    5.085
  546.544    0.368   61.214  109.622    5.226
  546.794    0.374   69.933  108.933    5.420
  547.044    0.379   69.668  108.147    5.468
  547.294    0.370   66.095  107.751    5.428
  547.544    0.382   71.207  109.702    5.527
  547.794    0.372   71.797  111.555    5.670
  548.044    0.356   65.104  113.896    5.923
  548.294    0.372   59.764  113.110    6.065
  548.544    0.388   56.750  111.541    6.290
  548.794    0.370   55.496  112.709    6.693
  549.044    0.361   54.189  111.532    7.509
  549.294    0.348   53.123  103.707    7.990
  549.544    0.216   52.616   91.385    7.744
  549.794    0.152   56.319   85.320    7.079
  550.044    0.246   60.761   70.945    6.412
  550.294    0.288   66.548   77.588    5.937
  550.544    0.362   65.425   94.691    5.457
  550.794    0.390   61.971  110.522    4.907
  551.044    0.398   62.438  120.586    4.469
  551.294    0.398   66.027  121.168    4.198
  551.544    0.400   64.600  119.991    4.129
  551.794    0.405   65.488  117.836    4.136
  552.044    0.413   68.712  114.409    4.174
  552.294    0.421   69.418  113.916    4.313
  552.544    0.405   68.600  113.227    4.622
  552.794    0.367   66.685  112.440    5.215
  553.044    0.325   64.520  110.872    6.700
  553.294    0.232   61.557   98.844    9.802
  553.544    0.191   57.922   86.131   12.615
  553.794    0.175   54.719   80.457   16.148
  554.044    0.158   51.270   73.120   21.558
  554.294    0.142   46.849   69.401   21.281
  554.544    0.161   48.720   67.050   16.349
  554.794    0.211   52.423   71.249   10.047
  555.044    0.257   55.948   80.434    7.108
  555.294    0.311   58.981   97.927    5.265
  555.544    0.381   63.978  109.458    4.312
  555.794    0.406   65.783  114.927    3.941
  556.044    0.402   67.472  122.548    3.710
  556.294    0.390   70.144  127.138    3.757
  556.544    0.389   72.079  120.876    4.049
  556.794    0.401   72.726  120.188    4.316
  557.044    0.400   71.232  119.205    4.518
  557.294    0.384   65.340  118.223    4.755
  557.544    0.364   67.211  113.331    4.931
  557.794    0.343   68.049  110.883    5.133
  558.044    0.331   64.535  109.997    5.432
  558.294    0.354   59.373  110.091    5.769
  558.544    0.368   58.315  108.816    5.864
  558.794    0.362   62.575  105.782    5.601
  559.044    0.369   66.767  102.062    5.291
  559.294    0.381   70.291  100.591    4.908
  559.544    0.395   72.588  105.866    4.462
  559.794    0.407   72.138  110.260    4.169
  560.044    0.365   70.584  113.090    4.033
  560.294    0.360   69.524  115.236    3.974
  560.544    0.361   70.912  116.209    3.981
  560.794    0.357   72.898  116.596    4.009
  561.044    0.360   78.811  117.471    4.060
  561.294    0.358   81.171  117.954    4.127
  561.544    0.359   86.894  118.341    4.280
  561.794    0.337   88.646  121.367    4.496
  562.044    0.329   77.125  121.069    4.646
  562.294    0.330   78.701  117.839    4.766
  562.544    0.347   79.410  115.097    4.871
  562.794    0.343   78.656  112.844    4.960
  563.044    0.340   77.280  113.035    5.051
  563.294    0.339   76.091  114.008    5.219
  563.544    0.335   73.871  112.439    5.403
  563.794    0.352   71.577  110.773    5.452
  564.044    0.373   66.661  110.573    5.431
  564.294    0.362   67.498  111.351    5.361
  564.544    0.342   74.385  111.443    5.168
  564.794    0.334   77.661  111.048    5.037
  565.044    0.348   79.838  110.945    4.908
  565.294    0.351   82.506  110.940    4.792
  565.544    0.350   83.583  111.914    4.662
  565.794    0.362   80.624  113.864    4.560
  566.044    0.346   83.174  114.642    4.518
  566.294    0.344   84.124  112.389    4.492
  566.544    0.343   84.170  112.483    4.450
  566.794    0.355   86.097  115.410    4.409
  567.044    0.372   82.344  116.871    4.417
  567.294    0.388   77.549  117.063    4.440
  567.544    0.373   80.039  117.645    4.448
  567.794    0.368   85.391  116.858    4.382
  568.044    0.379   80.963  117.147    4.326
  568.294    0.401   84.917  117.338    4.286
  568.544    0.401   75.108  117.333    4.231
  568.794    0.371   72.272  118.013    4.176
  569.044    0.345   76.103  118.498    4.153
  569.294    0.354   81.584  116.831    4.152
  569.544    0.382   82.120  117.120    4.167
  569.794    0.383   80.388  118.777    4.174
  570.044    0.399   78.578  119.358    4.196
  570.294    0.419   77.640  118.963    4.165
  570.544    0.400   80.914  118.079    4.066
  570.794    0.354   80.341  117.683    3.970
  571.044    0.373   78.055  120.807    3.869
  571.294    0.391   80.353  134.684    3.622
  571.544    0.420   84.797  118.940    3.409
  571.794    0.393   84.342  119.229    3.804
  572.044    0.376   80.040  120.984    4.567
  572.294    0.391   76.716  121.957    5.524
  572.544    0.400   70.515  123.125    6.560
  572.794    0.394   63.825  120.189    8.006
  573.044    0.379   63.075  118.814    9.284
  573.294    0.373   65.253  119.592   10.172
  573.544    0.369   67.308  119.588   10.321
  573.794    0.373   68.439  117.531    9.162
  574.044    0.393   67.069  109.901    7.354
  574.294    0.377   67.476  101.001    6.553
  574.544    0.345   72.224   95.913    5.691
  574.794    0.360   77.581   95.029    5.052
  575.044    0.365   73.890  111.545    4.781
  575.294    0.376   69.832  110.465    4.676
  575.544    0.357   70.421  108.505    4.753
  575.794    0.356   73.518  111.433    4.930
  576.044    0.356   76.121  114.850    5.226
  576.294    0.352   72.120  113.086    5.684
  576.544    0.321   67.758  112.397    6.138
  576.794    0.293   65.408  114.738    7.169
  577.044    0.272   63.611  110.726    7.985
  577.294    0.283   64.139  106.811    8.466
  577.544    0.307   67.055   98.595    7.654
  577.794    0.321   69.473   90.966    6.708
  578.044    0.350   74.958   95.751    5.858
  578.294    0.377   79.393  102.198    5.219
  578.544    0.386   84.813  108.939    4.824
  578.794    0.377   79.835  115.191    4.616
  579.044    0.368   73.761  118.412    4.573
  579.294    0.373   72.879  118.994    4.530
  579.544    0.355   73.955  113.808    4.681
  579.794    0.344   76.622  111.849    4.698
  580.044    0.358   77.270  113.311    5.072
  580.294    0.369   80.917  116.532    5.007
  580.544    0.341   83.096  117.505    5.089
  580.794    0.321   70.967  113.493    5.126
  581.044    0.344   72.470  109.382    5.023
  581.294    0.365   75.815  104.685    4.895
  581.544    0.328   75.723  108.884    4.557
  581.794    0.321   73.624  113.963    4.282
  582.044    0.321   74.581  110.244    4.281
  582.294    0.291   75.534  111.901    4.874
  582.544    0.253   73.615  113.362    5.757
  582.794    0.189   69.919  111.305    6.712
  583.044    0.152   59.866   97.615    7.103
  583.294    0.237   63.208   86.662    7.655
  583.544    0.305   68.813   75.807    7.179
  583.794    0.332   78.332   75.117    6.408
  584.044    0.334   73.350   93.686    5.966
  584.294    0.346   70.756  105.803    5.344
  584.544    0.357   72.084  102.866    5.086
  584.794    0.338   74.379  112.051    4.700
  585.044    0.346   78.581  117.227    4.531
  585.294    0.358   82.527  117.320    4.383
  585.544    0.370   77.247  116.924    4.233
  585.794    0.371   77.103  116.529    4.125
  586.044    0.365   81.662  116.427    4.042
