~VERSION INFORMATION
 VERS.                 2.0:   CWLS LOG ASCII STANDARD -VERSION 2.0
 WRAP.                  NO:   ONE LINE PER DEPTH STEP
~WELL INFORMATION BLOCK
#MNEM.UNIT           DATA                    DESCRIPTION OF MNEMONIC
#---------    -------------------            -------------------------------
# Generated from Intellog Unique Number	CW_73_75/WELL/901
WELL.         08-05-075-25W4                 : Well_name    - WELL
LOC .         00/08-05-075-25W4/0            : Location     - LOCATION
UWI .         00/08-05-075-25W4/0            : Uwi          - UNIQUE WELL ID
ENTR.         JAYE                           : Entered      - ENTERED BY
SRVC.         SCHLUMBERGER                   : Scn          - SERVICE COMPANY
DATE.         16 NOV 74                      : Date         - LOG DATE
STRT.M        423.672                        : top_depth    - START DEPTH
STOP.M        621.672                        : bot_depth    - STOP DEPTH
STEP.M        0.25                           : increment    - STEP LENGTH
 NULL. -999.2500:NULL Value
~CURVE INFORMATION BLOCK
#MNEM UNIT       ERCB CURVE CODE    CURVE DESCRIPTION
#-----------   ------------------   ----------------------------------
DEPT.M        00 001 00 00         : DEPTH        - DEPTH
ILD .OHMM     00 120 00 00         : RESD         - DEEP RESISTIVITY (DIL)
NPHI.V/V      00 330 00 00         : PHIN         - NEUTRON POROSITY (SANDSTONE)
DPHI.V/V      00 890 00 00         : PHID         - DENSITY POROSITY (SANDSTONE)
GR  .API      00 310 00 00         : GR           - GAMMA RAY
CALI.MM       00 280 01 00         : CAL          - CALIPER
~PARAMETER INFORMATION
#MNEM.UNIT           DATA             DESCRIPTION OF MNEMONIC
#---------         -----------     ------------------------------
GL  .M        700.126              : gl           - GROUND LEVEL ELEVATION
EREF.M        704.088              : kb           - ELEVATION OF DEPTH REFERENCE
DATM.M        700.126              : datum        - DATUM ELEVATION
TDD .M        622.402              : tdd          - TOTAL DEPTH DRILLER
RUN .         ONE                  : Run          - RUN NUMBER
ENG .         SIMPSON              : Engineer     - RECORDING ENGINEER
WIT .         OXTOBY               : Witness      - WITNESSED BY
BASE.         EDM                  : Branch       - HOME BASE OF LOGGING UNIT
MUD .         GEL                  : Mud_type     - MUD TYPE
MATR.         SANDSTONE            : Logunit      - NEUTRON MATRIX
TMAX.C        23.3333              : BHT          - MAXIMUM RECORDED TEMPERATURE
BHTD.M        623.011              : BHTDEP       - MAXIMUM RECORDED TEMPERATURE
RMT .C        15                   : MDTP         - TEMPERATURE OF MUD
MUDD.KG/M     1080                 : MWT          - MUD DENSITY
NEUT.         1                    : NEUTRON      - NEUTRON TYPE
RESI.         0                    : RESIST       - RESISTIVITY TYPE
RM  .OHMM     1.8                  : RM           - RESISTIVITY OF MUD
RMC .OHMM     0                    : RMC          - RESISTIVITY OF MUD CAKE
RMF .OHMM     2.27                 : RMF          - RESISTIVITY OF MUD FILTRATE
SUFT.C        -17.7778             : SUFT         - SURFACE TEMPERATURE
~A  DEPTH     RESD     PHIN     PHID       GR      CAL
# ...
  460.172    3.804    0.560    0.215  107.584  238.950
  460.422    3.987    0.550    0.238  102.252  241.420
  460.672    4.101    0.514    0.226  102.862  237.526
  460.922    4.266    0.485    0.214  104.806  230.859
  461.172    4.546    0.510    0.215  106.932  226.964
  461.422    5.034    0.592    0.224  107.239  223.993
  461.672    5.596    0.569    0.239   94.875  222.666
  461.922    6.986    0.530    0.267   81.540  222.159
  462.172    7.822    0.517    0.287   72.873  223.090
  462.422    8.319    0.533    0.286   73.727  224.021
  462.672    8.190    0.546    0.302   75.367  224.643
  462.922    7.856    0.504    0.290   76.584  225.265
  463.172    7.397    0.465    0.279   77.315  226.504
  463.422    6.789    0.446    0.271   78.532  228.257
  463.672    6.162    0.507    0.254   79.263  229.701
  463.922    5.593    0.503    0.264   78.540  230.530
  464.172    5.058    0.491    0.276   73.571  230.431
  464.422    4.368    0.485    0.260   70.605  230.540
  464.672    3.765    0.543    0.247   74.064  231.164
  464.922    3.210    0.614    0.226   81.769  231.683
  465.172    2.777    0.661    0.249   87.775  231.690
  465.422    2.484    0.675    0.270   90.689  230.362
  465.672    2.532    0.654    0.267   93.967  227.802
  465.922    2.841    0.600    0.295   95.972  225.961
  466.172    3.319    0.566    0.263   95.308  224.427
  466.422    4.468    0.536    0.264   84.278  223.406
  466.672    5.799    0.515    0.276   75.126  222.387
  466.922    7.120    0.517    0.264   70.643  221.573
  467.172    8.002    0.506    0.271   69.799  221.373
  467.422    8.387    0.497    0.288   69.136  221.791
  467.672    8.471    0.485    0.293   66.593  222.824
  467.922    8.477    0.504    0.297   63.505  223.446
  468.172    8.421    0.487    0.303   61.750  222.734
  468.422    8.183    0.481    0.304   61.512  220.688
  468.672    7.792    0.489    0.295   61.152  219.668
  468.922    7.352    0.503    0.279   58.791  219.881
  469.172    7.039    0.538    0.302   56.612  220.092
  469.422    6.740    0.558    0.302   54.433  221.022
  469.672    6.525    0.522    0.305   52.922  222.774
  469.922    6.306    0.512    0.319   53.229  224.116
  470.172    6.160    0.521    0.318   54.385  224.635
  470.422    5.780    0.514    0.320   55.480  224.436
  470.672    5.364    0.510    0.305   56.454  224.033
  470.922    4.887    0.520    0.299   57.428  224.553
  471.172    4.568    0.490    0.291   58.281  225.278
  471.422    4.406    0.494    0.276   58.648  225.900
  471.672    4.227    0.495    0.250   58.775  225.907
  471.922    4.047    0.351    0.219   58.838  226.223
  472.172    3.939    0.330    0.186   58.539  226.639
  472.422    3.950    0.379    0.132   58.300  227.159
  472.672    4.056    0.426    0.159   58.546  227.577
  472.922    4.330    0.383    0.143   58.611  227.686
  473.172    4.605    0.444    0.172   46.913  227.282
  473.422    4.677    0.491    0.213   49.645  227.082
  473.672    4.587    0.508    0.300   54.257  226.268
  473.922    4.556    0.504    0.323   58.445  225.557
  474.172    4.585    0.518    0.322   62.875  225.049
  474.422    4.674    0.517    0.321   66.759  224.542
  474.672    4.791    0.541    0.317   67.187  224.139
  474.922    4.938    0.538    0.302   66.767  224.350
  475.172    5.090    0.554    0.311   67.013  224.767
  475.422    5.246    0.542    0.319   66.472  225.595
  475.672    5.358    0.519    0.319   64.171  227.450
  475.922    5.196    0.507    0.303   62.902  225.301
  476.172    4.447    0.525    0.302   65.635  223.459
  476.422    3.763    0.524    0.293   70.610  223.056
  476.672    3.286    0.527    0.290   76.859  223.780
  476.922    2.999    0.563    0.298   83.472  225.430
  477.172    2.824    0.611    0.301   91.175  226.361
  477.422    2.954    0.625    0.304   96.818  225.237
  477.672    3.363    0.550    0.287  102.461  223.603
  477.922    4.070    0.561    0.266   90.460  222.890
  478.172    4.507    0.574    0.265   78.580  222.382
  478.422    4.758    0.550    0.266   71.733  222.287
  478.672    4.779    0.558    0.268   66.522  222.705
  478.922    4.722    0.571    0.267   63.009  222.916
  479.172    4.665    0.544    0.269   64.044  223.642
  479.422    4.516    0.528    0.270   65.685  224.572
  479.672    4.348    0.523    0.273   67.811  224.374
  479.922    4.233    0.533    0.276   71.028  223.560
  480.172    4.151    0.517    0.254   73.519  222.846
  480.422    4.071    0.522    0.261   75.584  221.929
  480.672    4.029    0.521    0.277   75.527  221.731
  480.922    4.040    0.492    0.290   71.105  221.840
  481.172    4.065    0.520    0.285   63.529  222.565
  481.422    4.106    0.535    0.283   61.351  223.188
  481.672    4.147    0.570    0.285   58.990  223.707
  481.922    4.197    0.596    0.291   60.206  224.330
  482.172    4.325    0.547    0.282   63.545  225.055
  482.422    4.491    0.513    0.256   69.976  225.781
  482.672    4.504    0.499    0.215   76.103  226.506
  482.922    4.433    0.525    0.200   81.625  227.334
  483.172    4.387    0.544    0.201   86.964  228.778
  483.422    4.572    0.523    0.175   86.544  229.401
  483.672    4.925    0.550    0.206   80.667  226.943
  483.922    5.598    0.562    0.229   74.123  224.075
  484.172    6.314    0.497    0.277   68.548  222.952
  484.422    7.612    0.467    0.295   65.460  221.727
  484.672    9.125    0.436    0.291   63.948  221.220
  484.922    9.922    0.476    0.304   60.981  221.535
  485.172   10.227    0.497    0.318   60.136  222.055
  485.422   10.274    0.504    0.319   60.928  222.985
  485.672    9.817    0.508    0.316   60.932  223.710
  485.922    8.829    0.528    0.314   58.511  224.435
  486.172    7.986    0.544    0.320   57.969  224.647
  486.422    7.603    0.555    0.328   58.640  224.038
  486.672    7.121    0.524    0.311   60.463  223.121
  486.922    6.645    0.510    0.286   61.618  223.231
  487.172    6.280    0.551    0.280   62.411  223.031
  487.422    6.057    0.522    0.295   62.415  222.730
  487.672    5.789    0.508    0.319   60.660  222.942
  487.922    5.493    0.515    0.318   62.847  224.489
  488.172    5.192    0.505    0.294   68.793  226.651
  488.422    5.007    0.506    0.260   75.223  228.506
  488.672    4.803    0.521    0.250   81.169  223.995
  488.922    4.625    0.525    0.266   84.205  222.359
  489.172    4.535    0.601    0.282   82.935  221.955
  489.422    4.423    0.588    0.303   77.300  222.373
  489.672    4.370    0.569    0.295   75.668  222.687
  489.922    4.357    0.552    0.283   78.218  223.105
  490.172    4.377    0.587    0.277   81.739  223.214
  490.422    4.486    0.603    0.272   83.137  223.631
  490.672    4.693    0.568    0.266   83.384  224.151
  490.922    4.963    0.546    0.260   83.144  224.568
  491.172    5.357    0.527    0.251   81.815  224.575
  491.422    5.511    0.513    0.234   76.968  225.198
  491.672    5.385    0.496    0.225   70.605  224.998
  491.922    5.204    0.454    0.243   65.032  224.801
  492.172    5.065    0.490    0.271   61.640  224.601
  492.422    4.895    0.512    0.287   64.009  225.738
  492.672    4.756    0.522    0.293   67.893  226.565
  492.922    4.614    0.536    0.295   70.746  227.700
  493.172    4.566    0.545    0.293   72.933  228.529
  493.422    4.587    0.532    0.294   74.089  228.946
  493.672    4.693    0.511    0.296   70.758  229.261
  493.922    4.981    0.473    0.275   67.852  229.473
  494.172    5.683    0.441    0.243   66.946  229.993
  494.422    6.077    0.409    0.204   66.466  229.486
  494.672    6.451    0.357    0.142   65.923  228.260
  494.922    6.823    0.339    0.132   65.260  226.624
  495.172    7.324    0.387    0.174   65.022  226.733
  495.422    7.703    0.473    0.202   63.631  229.103
  495.672    8.042    0.283    0.159   62.483  230.545
  495.922    8.137    0.251    0.068   62.911  231.579
  496.172    7.678    0.309    0.078   63.825  231.585
  496.422    7.085    0.362    0.110   64.920  231.284
