~VERSION INFORMATION
 VERS.                 2.0:   CWLS LOG ASCII STANDARD -VERSION 2.0
 WRAP.                  NO:   ONE LINE PER DEPTH STEP
~WELL INFORMATION BLOCK
#MNEM.UNIT           DATA                    DESCRIPTION OF MNEMONIC
#---------    -------------------            -------------------------------
# Generated from Intellog Unique Number	CS_77_79/WELL/834
WELL.         CANOXY WINIFRED                : Well_name    - WELL
LOC .         00/01-28-078-02W4/0            : Location     - LOCATION
UWI .         00/01-28-078-02W4/0            : Uwi          - UNIQUE WELL ID
ENTR.         JHS                            : Entered      - ENTERED BY
SRVC.         SCHLUMBERGER                   : Scn          - SERVICE COMPANY
STRT.M        158.496                        : top_depth    - START DEPTH
STOP.M        426.496                        : bot_depth    - STOP DEPTH
STEP.M        0.25                           : increment    - STEP LENGTH
 NULL. -999.2500:NULL Value
~CURVE INFORMATION BLOCK
#MNEM UNIT       ERCB CURVE CODE    CURVE DESCRIPTION
#-----------   ------------------   ----------------------------------
DEPT.M        00 001 00 00         : DEPTH        - DEPTH
GR  .API      00 310 00 00         : GR           - GAMMA RAY
DPHI.V/V      00 890 00 00         : PHID         - DENSITY POROSITY (SANDSTONE)
NPHI.V/V      00 330 00 00         : PHIN         - NEUTRON POROSITY (SANDSTONE)
ILD .OHMM     00 120 00 00         : RESD         - DEEP RESISTIVITY (DIL)
~PARAMETER INFORMATION
#MNEM.UNIT           DATA             DESCRIPTION OF MNEMONIC
#---------         -----------     ------------------------------
GL  .M        570.89               : gl           - GROUND LEVEL ELEVATION
EREF.M        574.243              : kb           - ELEVATION OF DEPTH REFERENCE
DATM.M        574.243              : datum        - DATUM ELEVATION
TDD .M        434.34               : tdd          - TOTAL DEPTH DRILLER
RUN .         ONE                  : Run          - RUN NUMBER
ENG .         BILL                 : Engineer     - RECORDING ENGINEER
WIT .         JIM                  : Witness      - WITNESSED BY
MUD .         GEL                  : Mud_type     - MUD TYPE
MATR.         SANDSTONE            : Logunit      - NEUTRON MATRIX
TMAX.C        21.1111              : BHT          - MAXIMUM RECORDED TEMPERATURE
BHTD.M        434.34               : BHTDEP       - MAXIMUM RECORDED TEMPERATURE
MATR.         1                    : LOGUNIT      - NEUTRON MATRIX
RMT .C        25                   : MDTP         - TEMPERATURE OF MUD
NEUT.         1                    : NEUTRON      - NEUTRON TYPE
RESI.         0                    : RESIST       - RESISTIVITY TYPE
RMC .OHMM     0.25                 : RMC          - RESISTIVITY OF MUD CAKE
RMF .OHMM     0.25                 : RMF          - RESISTIVITY OF MUD FILTRATE
SUFT.C        15                   : SUFT         - SURFACE TEMPERATURE
~A  DEPTH       GR     PHID     PHIN     RESD
# ...
  245.496   96.758    0.299    0.445    7.167
  245.746  101.591    0.275    0.447    6.418
  245.996  103.286    0.269    0.453    5.904
  246.246  102.981    0.286    0.455    5.840
  246.496  100.735    0.276    0.456    5.794
  246.746  100.920    0.272    0.453    5.620
  246.996  100.442    0.275    0.455    5.617
  247.246  102.038    0.295    0.461    5.746
  247.496   99.876    0.299    0.467    5.846
  247.746  101.515    0.298    0.480    6.114
  247.996   98.690    0.290    0.480    5.816
  248.246   94.683    0.300    0.490    5.386
  248.496   96.885    0.284    0.506    5.346
  248.746   97.391    0.273    0.512    5.833
  248.996   91.433    0.277    0.495    6.493
  249.246   82.498    0.317    0.481    7.374
  249.496   82.611    0.337    0.458    8.782
  249.746   87.412    0.320    0.479   10.554
  249.996   85.521    0.326    0.459   12.274
  250.246   88.827    0.338    0.435   13.315
  250.496   87.226    0.324    0.418   12.486
  250.746   81.154    0.308    0.412   10.907
  250.996   83.901    0.295    0.416    8.517
  251.246   89.986    0.285    0.427    7.396
  251.496   91.234    0.288    0.440    6.889
  251.746   91.754    0.289    0.451    6.817
  251.996   89.810    0.287    0.456    7.281
  252.246   79.976    0.290    0.464    9.021
  252.496   69.650    0.301    0.458   11.950
  252.746   61.386    0.358    0.426   14.548
  252.996   59.294    0.366    0.409   16.569
  253.246   59.360    0.357    0.412   17.790
  253.496   58.886    0.353    0.432   17.319
  253.746   62.294    0.358    0.444   15.999
  253.996   65.226    0.356    0.452   15.245
  254.246   67.971    0.353    0.442   14.849
  254.496   66.735    0.351    0.438   15.159
  254.746   62.602    0.347    0.433   15.980
  254.996   57.933    0.353    0.413   16.809
  255.246   56.021    0.358    0.406   18.224
  255.496   55.347    0.357    0.409   18.691
  255.746   55.483    0.352    0.415   18.674
  255.996   56.736    0.350    0.421   18.384
  256.246   55.832    0.353    0.422   17.905
  256.496   55.522    0.360    0.420   17.757
  256.746   58.470    0.353    0.427   17.434
  256.996   58.389    0.354    0.436   17.459
  257.246   57.928    0.359    0.448   17.818
  257.496   59.688    0.363    0.442   17.846
  257.746   59.020    0.366    0.426   17.874
  257.996   56.390    0.370    0.419   17.893
  258.246   57.576    0.363    0.427   17.746
  258.496   58.894    0.365    0.439   17.591
  258.746   61.885    0.359    0.446   17.058
  258.996   65.311    0.350    0.447   16.476
  259.246   67.859    0.360    0.438   15.509
  259.496   69.456    0.366    0.438   14.594
  259.746   70.902    0.365    0.442   14.073
  259.996   74.400    0.343    0.446   13.233
  260.246   73.665    0.328    0.456   13.085
  260.496   73.548    0.320    0.440   12.967
  260.746   75.520    0.324    0.442   12.816
  260.996   78.594    0.329    0.437   12.350
  261.246   79.407    0.327    0.430   11.855
  261.496   78.851    0.321    0.431   11.544
  261.746   78.983    0.316    0.437   11.200
  261.996   80.719    0.308    0.441   11.130
  262.246   79.248    0.309    0.451   11.679
  262.496   76.259    0.321    0.457   12.241
  262.746   73.483    0.336    0.460   13.187
  262.996   68.385    0.354    0.454   14.099
  263.246   65.005    0.371    0.444   14.773
  263.496   63.446    0.356    0.442   15.022
  263.746   63.680    0.357    0.449   15.043
  263.996   66.297    0.361    0.459   15.065
  264.246   67.174    0.366    0.465   15.101
  264.496   65.859    0.360    0.462   14.830
  264.746   65.274    0.350    0.457   14.554
  264.996   64.188    0.348    0.445   14.626
  265.246   64.465    0.354    0.441   14.317
  265.496   69.310    0.361    0.441   14.351
  265.746   70.991    0.357    0.436   13.938
  265.996   70.110    0.348    0.448   13.557
  266.246   69.156    0.338    0.449   12.922
  266.496   71.308    0.331    0.447   12.735
  266.746   73.616    0.328    0.452   12.178
  266.996   74.007    0.320    0.444   11.637
  267.246   74.844    0.318    0.448   11.053
  267.496   78.203    0.322    0.442   10.470
  267.746   81.978    0.312    0.424    9.273
  267.996   86.822    0.294    0.423    7.837
  268.246   90.163    0.283    0.436    6.023
  268.496   96.704    0.271    0.461    4.766
  268.746  101.284    0.270    0.480    3.994
  268.996  100.452    0.289    0.511    3.893
  269.246   95.747    0.294    0.538    4.202
  269.496   89.554    0.305    0.523    5.044
  269.746   82.250    0.323    0.503    6.632
  269.996   75.411    0.345    0.486    8.130
  270.246   71.827    0.371    0.473    9.503
  270.496   72.044    0.377    0.473   10.912
  270.746   72.075    0.379    0.474   11.111
  270.996   72.149    0.374    0.470   10.777
  271.246   73.255    0.369    0.486   10.460
  271.496   73.542    0.367    0.496   10.537
  271.746   74.600    0.373    0.482   10.661
  271.996   73.742    0.372    0.485   10.871
  272.246   71.356    0.372    0.477   10.879
  272.496   69.880    0.374    0.470   10.886
  272.746   73.256    0.379    0.473   10.888
  272.996   73.435    0.370    0.461   10.798
  273.246   75.120    0.363    0.452   10.718
  273.496   78.422    0.363    0.462   10.949
  273.746   75.845    0.368    0.473   11.392
  273.996   76.531    0.373    0.459   11.966
  274.246   75.931    0.373    0.460   12.408
  274.496   72.975    0.367    0.463   12.258
  274.746   71.530    0.364    0.460   11.289
  274.996   71.197    0.350    0.464    9.368
  275.246   73.884    0.341    0.479    7.906
  275.496   76.141    0.346    0.495    8.021
  275.746   78.798    0.359    0.515    9.395
  275.996   78.055    0.370    0.496    9.736
  276.246   78.031    0.372    0.475   10.162
  276.496   78.878    0.377    0.466   10.532
  276.746   79.812    0.375    0.468   10.348
  276.996   83.068    0.364    0.479   10.356
  277.246   85.442    0.361    0.478   10.386
  277.496   84.452    0.361    0.479   10.561
  277.746   82.895    0.366    0.488   10.951
  277.996   83.745    0.364    0.490   11.395
  278.246   86.173    0.359    0.476   11.066
  278.496   89.078    0.358    0.457   10.471
  278.746   90.349    0.353    0.447    9.680
  278.996   95.836    0.345    0.458    7.439
  279.246  103.312    0.329    0.478    5.097
  279.496  111.675    0.301    0.501    3.715
  279.746  116.375    0.288    0.564    3.118
  279.996  119.561    0.274    0.553    2.892
  280.246  121.069    0.276    0.531    2.803
  280.496  117.789    0.269    0.529    2.859
  280.746  117.575    0.264    0.519    2.922
  280.996  120.177    0.268    0.523    3.015
  281.246  120.674    0.248    0.543    3.110
  281.496  121.095    0.242    0.561    3.209
  281.746  121.081    0.242    0.566    3.320
  281.996  121.944    0.245    0.578    3.353
  282.246  123.548    0.255    0.549    3.401
  282.496  123.342    0.269    0.537    3.411
  282.746  118.833    0.273    0.548    3.329
  282.996  117.100    0.253    0.559    3.236
  283.246  118.420    0.252    0.545    3.164
  283.496  119.802    0.269    0.559    3.241
  283.746  121.609    0.291    0.576    3.330
  283.996  116.936    0.301    0.553    3.581
  284.246  109.096    0.295    0.519    3.927
  284.496  104.306    0.290    0.477    4.292
  284.746  103.058    0.286    0.467    4.628
  284.996  105.400    0.277    0.480    4.984
  285.246  106.357    0.290    0.491    5.114
  285.496  107.284    0.320    0.493    5.060
  285.746  106.701    0.311    0.503    4.998
  285.996  103.084    0.294    0.498    4.913
  286.246   99.704    0.291    0.493    4.817
  286.496   97.803    0.304    0.498    4.904
  286.746   98.109    0.298    0.502    5.156
  286.996   97.484    0.289    0.494    5.561
  287.246   92.916    0.288    0.484    6.085
  287.496   90.096    0.299    0.478    6.606
  287.746   89.616    0.304    0.464    7.313
  287.996   93.542    0.301    0.456    7.464
  288.246   96.621    0.301    0.456    6.894
  288.496   94.442    0.297    0.463    5.764
  288.746   89.264    0.283    0.472    5.878
