~VERSION INFORMATION
 VERS.                 2.0:   CWLS LOG ASCII STANDARD -VERSION 2.0
 WRAP.                  NO:   ONE LINE PER DEPTH STEP
~WELL INFORMATION BLOCK
#MNEM.UNIT           DATA                    DESCRIPTION OF MNEMONIC
#---------    -------------------            -------------------------------
# Generated from Intellog Unique Number	CW_79_81/WELL/620
WELL.         PETROREP SANDERS               : Well_name    - WELL
LOC .         00/07-26-080-02W5/0            : Location     - LOCATION
UWI .         00/07-26-080-02W5/0            : Uwi          - UNIQUE WELL ID
ENTR.         MAX                            : Entered      - ENTERED BY
SRVC.         SCHLUMBERGER                   : Scn          - SERVICE COMPANY
STRT.M        256.032                        : top_depth    - START DEPTH
STOP.M        515.032                        : bot_depth    - STOP DEPTH
STEP.M        0.25                           : increment    - STEP LENGTH
 NULL. -999.2500:NULL Value
~CURVE INFORMATION BLOCK
#MNEM UNIT       ERCB CURVE CODE    CURVE DESCRIPTION
#-----------   ------------------   ----------------------------------
DEPT.M        00 001 00 00         : DEPTH        - DEPTH
ILD .OHMM     00 120 00 00         : RESD         - DEEP RESISTIVITY (DIL)
NPHI.V/V      00 330 00 00         : PHIN         - NEUTRON POROSITY (SANDSTONE)
DPHI.V/V      00 890 00 00         : PHID         - DENSITY POROSITY (SANDSTONE)
CALI.MM       00 280 01 00         : CAL          - CALIPER
GR  .API      00 310 00 00         : GR           - GAMMA RAY
~PARAMETER INFORMATION
#MNEM.UNIT           DATA             DESCRIPTION OF MNEMONIC
#---------         -----------     ------------------------------
GL  .M        602.254              : gl           - GROUND LEVEL ELEVATION
EREF.M        605.607              : kb           - ELEVATION OF DEPTH REFERENCE
DATM.M        602.254              : datum        - DATUM ELEVATION
TDD .M        544.068              : tdd          - TOTAL DEPTH DRILLER
RUN .         ONE                  : Run          - RUN NUMBER
ENG .         BILL                 : Engineer     - RECORDING ENGINEER
WIT .         JIM                  : Witness      - WITNESSED BY
MUD .         GEL                  : Mud_type     - MUD TYPE
MATR.         SANDSTONE            : Logunit      - NEUTRON MATRIX
TMAX.C        24.4444              : BHT          - MAXIMUM RECORDED TEMPERATURE
BHTD.M        544.068              : BHTDEP       - MAXIMUM RECORDED TEMPERATURE
RMT .C        18.3333              : MDTP         - TEMPERATURE OF MUD
MUDD.KG/M     1120                 : MWT          - MUD DENSITY
NEUT.         1                    : NEUTRON      - NEUTRON TYPE
RESI.         0                    : RESIST       - RESISTIVITY TYPE
RM  .OHMM     5                    : RM           - RESISTIVITY OF MUD
RMC .OHMM     0                    : RMC          - RESISTIVITY OF MUD CAKE
RMF .OHMM     7                    : RMF          - RESISTIVITY OF MUD FILTRATE
SUFT.C        -20.5556             : SUFT         - SURFACE TEMPERATURE
~A  DEPTH     RESD     PHIN     PHID      CAL       GR
# ...
  329.032   23.093    0.455    0.332  164.019   81.069
  329.282   16.478    0.441    0.339  163.476   84.953
  329.532   14.770    0.460    0.333  165.468   88.241
  329.782   12.648    0.452    0.335  165.942   91.226
  330.032   11.441    0.442    0.332  165.912   92.706
  330.282   10.444    0.453    0.318  165.873   92.688
  330.532    9.709    0.451    0.300  165.838   92.667
  330.782    9.361    0.449    0.273  167.330   96.554
  331.032    9.109    0.444    0.249  168.822   98.036
  331.282    8.944    0.435    0.266  169.801   95.008
  331.532    8.703    0.443    0.272  169.257   93.785
  331.782    8.546    0.458    0.282  168.718   94.366
  332.032    8.240    0.455    0.281  168.684   93.444
  332.282    7.802    0.463    0.264  169.153   97.029
  332.532    7.253    0.478    0.245  170.646   99.411
  332.782    6.930    0.482    0.234  171.111   99.390
  333.032    6.561    0.465    0.250  171.085   97.569
  333.282    6.155    0.451    0.266  170.028   97.541
  333.532    5.881    0.448    0.260  169.485   97.526
  333.782    5.670    0.450    0.265  169.454   98.407
  334.032    5.517    0.471    0.261  170.942  101.392
  334.282    5.176    0.468    0.257  170.394  102.573
  334.532    4.768    0.456    0.249  169.859  101.952
  334.782    4.433    0.448    0.243  169.311  102.527
  335.032    4.197    0.446    0.249  170.799  103.413
  335.282    4.159    0.449    0.243  171.278  101.587
  335.532    4.236    0.441    0.246  171.748   99.160
  335.782    4.598    0.450    0.239  172.222   98.538
  336.032    5.130    0.465    0.227  172.700   98.515
  336.282    5.273    0.459    0.242  173.162   98.197
  336.532    5.321    0.443    0.256  172.618   96.674
  336.782    5.370    0.439    0.273  172.074   99.356
  337.032    5.621    0.449    0.275  170.513  102.343
  337.282    5.725    0.450    0.265  169.974  106.527
  337.532    5.884    0.443    0.258  169.435  104.105
  337.782    5.938    0.448    0.246  171.427   99.877
  338.032    5.938    0.452    0.224  173.432  102.860
  338.282    5.939    0.448    0.236  175.938  106.448
  338.532    5.778    0.464    0.235  175.903  110.332
  338.782    5.572    0.482    0.230  174.855  111.814
  339.032    5.521    0.485    0.236  174.303  110.892
  339.282    5.275    0.484    0.260  173.259  106.063
  339.532    4.949    0.494    0.261  170.675  100.928
  339.782    4.356    0.495    0.255  169.627   99.410
  340.032    3.904    0.478    0.273  170.097   97.284
  340.282    3.499    0.475    0.292  171.072   95.758
  340.532    3.283    0.465    0.310  171.046   94.538
  340.782    3.137    0.451    0.320  169.993   93.010
  341.032    3.108    0.456    0.322  169.954   90.287
  341.282    3.195    0.455    0.306  169.411   86.956
  341.532    3.437    0.444    0.312  169.372   84.831
  341.782    3.731    0.449    0.301  169.841   83.313
  342.032    4.519    0.456    0.277  169.815   80.588
  342.282    4.996    0.451    0.290  169.776   76.054
  342.532    6.334    0.439    0.312  168.215   73.933
  342.782    6.939    0.431    0.316  166.145   73.011
  343.032    7.957    0.429    0.313  165.084   72.985
  343.282    8.104    0.416    0.319  165.558   69.964
  343.532    7.465    0.408    0.323  165.532   66.032
  343.782    6.877    0.406    0.322  165.489   66.913
  344.032    6.631    0.403    0.322  165.463   68.097
  344.282    6.692    0.411    0.315  165.424   67.175
  344.532    7.134    0.423    0.318  165.393   64.147
  344.782    7.887    0.423    0.341  164.328   64.129
  345.032    8.800    0.428    0.347  163.280   62.901
  345.282   10.562    0.439    0.327  163.754   61.979
  345.532   11.258    0.442    0.325  164.733   62.562
  345.782   12.334    0.425    0.323  164.698   64.042
  346.032   13.390    0.433    0.318  164.154   64.923
  346.282   13.514    0.418    0.308  163.615   65.206
  346.532   13.889    0.416    0.313  163.576   63.680
  346.782   14.406    0.420    0.319  164.050   61.255
  347.032   14.538    0.435    0.343  165.038   61.833
  347.282   14.276    0.444    0.328  164.490   61.813
  347.532   13.765    0.438    0.321  163.951   61.189
  347.782   13.272    0.427    0.324  164.421   60.572
  348.032   12.797    0.425    0.330  164.899   60.249
  348.282   12.339    0.419    0.334  165.365   62.329
  348.532   12.227    0.411    0.339  165.326   63.812
  348.782   12.798    0.410    0.334  165.300   64.996
  349.032   13.396    0.415    0.319  165.265   66.175
  349.282   14.411    0.429    0.319  165.226   67.955
  349.532   14.811    0.430    0.320  165.196   69.442
  349.782   14.947    0.429    0.312  165.666   73.026
  350.032   15.085    0.434    0.298  165.631   82.324
  350.282   15.085    0.445    0.255  166.101   91.921
  350.532   15.224    0.455    0.244  167.084   94.603
  350.782   15.364    0.453    0.264  170.616   94.284
  351.032   15.365    0.446    0.276  172.104   95.163
  351.282   15.226    0.436    0.265  167.998   97.547
  351.532   14.284    0.431    0.262  168.472   97.526
  351.782   12.803    0.445    0.259  168.433   96.905
  352.032   11.372    0.458    0.258  167.890   95.078
  352.282   10.287    0.467    0.265  168.877   93.558
  352.532    9.563    0.461    0.260  169.347   89.330
  352.782    9.390    0.445    0.243  168.803   77.285
  353.032    9.391    0.352    0.185  167.751   71.254
  353.282    9.137    0.333    0.171  167.207   66.125
  353.532    8.810    0.370    0.217  167.682   66.705
  353.782    8.418    0.402    0.278  166.112   72.092
  354.032    7.970    0.409    0.306  165.568   74.776
  354.282    8.191    0.417    0.306  166.560   81.971
  354.532    8.974    0.425    0.297  167.539   82.549
  354.782   10.012    0.435    0.281  168.017   74.414
  355.032   10.771    0.426    0.299  167.978   62.373
  355.282   11.800    0.405    0.323  166.917   52.131
  355.532   13.531    0.407    0.341  165.364   50.909
  355.782   15.097    0.415    0.341  164.312   50.588
  356.032   13.409    0.412    0.344  164.273   52.067
  356.282   11.379    0.415    0.337  163.729   50.845
  356.532   10.773    0.418    0.337  164.195   50.221
  356.782   10.483    0.410    0.352  164.678   48.998
  357.032   10.676    0.409    0.363  165.148   47.177
  357.282   11.485    0.427    0.358  165.626   46.255
  357.532   12.355    0.435    0.352  166.092   45.631
  357.782   13.911    0.435    0.341  166.570   44.706
  358.032   14.965    0.441    0.341  167.045   45.289
  358.282   14.965    0.430    0.325  167.510   46.468
  358.532   14.695    0.409    0.344  168.502   46.445
  358.782   14.562    0.414    0.359  168.972   46.124
  359.032   14.563    0.415    0.362  169.442   45.809
  359.282   14.431    0.406    0.344  170.429   46.387
  359.532   14.431    0.403    0.344  171.408   49.967
  359.782   14.432    0.410    0.343  171.382   51.753
  360.032   14.433    0.421    0.341  168.799   53.535
  360.282   14.565    0.423    0.349  166.724   55.321
  360.532   14.565    0.420    0.363  167.202   58.002
  360.782   14.567    0.428    0.357  166.650   59.187
  361.032   14.435    0.437    0.351  166.624   59.166
  361.282   14.435    0.439    0.354  166.577   58.843
  361.532   14.436    0.444    0.353  166.551   57.920
  361.782   14.436    0.443    0.357  167.016   56.996
  362.032   14.437    0.436    0.355  166.990   57.279
  362.282   14.437    0.433    0.350  167.464   58.761
  362.532   14.438    0.439    0.348  167.934   60.844
  362.782   14.438    0.439    0.340  167.900   63.829
  363.032   14.439    0.437    0.318  168.378   68.617
  363.282   14.439    0.436    0.294  169.862   80.317
  363.532   14.440    0.433    0.242  171.354   85.406
  363.782   14.440    0.436    0.216  172.341   81.478
  364.032   14.441    0.422    0.118  172.298   70.636
  364.282   14.441    0.381    0.060  171.759   59.496
  364.532   14.181    0.201    0.010  170.706   53.765
  364.782   13.063    0.198    0.007  170.676   52.535
  365.032   10.688    0.236    0.019  170.637   54.323
  365.282    9.070    0.306    0.043  170.602   63.316
