~VERSION INFORMATION
 VERS.                 2.0:   CWLS LOG ASCII STANDARD -VERSION 2.0
 WRAP.                  NO:   ONE LINE PER DEPTH STEP
~WELL INFORMATION BLOCK
#MNEM.UNIT           DATA                    DESCRIPTION OF MNEMONIC
#---------    -------------------            -------------------------------
# Generated from Intellog Unique Number	CS_67_68/WELL/784
WELL.         BOW VALLEY EXPLORATION         : Well_name    - WELL
LOC .         00/07-34-068-14W4/0            : Location     - LOCATION
UWI .         00/07-34-068-14W4/0            : Uwi          - UNIQUE WELL ID
ENTR.         SP                             : Entered      - ENTERED BY
SRVC.         SCHLUMBERGER                   : Scn          - SERVICE COMPANY
STRT.M        268.224                        : top_depth    - START DEPTH
STOP.M        472.224                        : bot_depth    - STOP DEPTH
STEP.M        0.25                           : increment    - STEP LENGTH
 NULL. -999.2500:NULL Value
~CURVE INFORMATION BLOCK
#MNEM UNIT       ERCB CURVE CODE    CURVE DESCRIPTION
#-----------   ------------------   ----------------------------------
DEPT.M        00 001 00 00         : DEPTH        - DEPTH
GR  .API      00 310 00 00         : GR           - GAMMA RAY
DPHI.V/V      00 890 00 00         : PHID         - DENSITY POROSITY (SANDSTONE)
NPHI.V/V      00 330 00 00         : PHIN         - NEUTRON POROSITY (SANDSTONE)
ILD .OHMM     00 120 00 00         : RESD         - DEEP RESISTIVITY (DIL)
~PARAMETER INFORMATION
#MNEM.UNIT           DATA             DESCRIPTION OF MNEMONIC
#---------         -----------     ------------------------------
GL  .M        561.289              : gl           - GROUND LEVEL ELEVATION
EREF.M        564.49               : kb           - ELEVATION OF DEPTH REFERENCE
DATM.M        561.289              : datum        - DATUM ELEVATION
TDD .M        472.44               : tdd          - TOTAL DEPTH DRILLER
RUN .         ONE                  : Run          - RUN NUMBER
ENG .         BILL                 : Engineer     - RECORDING ENGINEER
WIT .         JIM                  : Witness      - WITNESSED BY
MUD .         GEL                  : Mud_type     - MUD TYPE
MATR.         SANDSTONE            : Logunit      - NEUTRON MATRIX
TMAX.C        23.3333              : BHT          - MAXIMUM RECORDED TEMPERATURE
BHTD.M        472.44               : BHTDEP       - MAXIMUM RECORDED TEMPERATURE
MATR.         1                    : LOGUNIT      - NEUTRON MATRIX
RMT .C        25                   : MDTP         - TEMPERATURE OF MUD
NEUT.         1                    : NEUTRON      - NEUTRON TYPE
RESI.         0                    : RESIST       - RESISTIVITY TYPE
RMC .OHMM     0.25                 : RMC          - RESISTIVITY OF MUD CAKE
RMF .OHMM     0.25                 : RMF          - RESISTIVITY OF MUD FILTRATE
SUFT.C        15                   : SUFT         - SURFACE TEMPERATURE
~A  DEPTH       GR     PHID     PHIN     RESD
  268.224   64.006    0.267    0.562    2.309
  268.474   63.993    0.224    0.569    2.355
  268.724   62.466    0.185    0.583    2.422
  268.974   61.143    0.145    0.593    2.484
  269.224   63.660    0.115    0.550    2.571
  269.474   66.150    0.298    0.536    2.581
  269.724   65.939    0.324    0.559    2.606
  269.974   64.672    0.331    0.576    2.713
  270.224   64.691    0.353    0.559    2.869
  270.474   64.944    0.212    0.560    2.942
  270.724   64.319    0.175    0.571    3.073
  270.974   59.854    0.115    0.577    3.143
  271.224   53.767    0.068    0.506    3.165
  271.474   58.292    0.332    0.523    3.082
  271.724   66.912    0.335    0.541    2.939
  271.974   72.161    0.338    0.553    2.849
  272.224   74.610    0.297    0.564    2.759
  272.474   75.972    0.261    0.569    2.762
  272.724   76.281    0.252    0.577    2.852
  272.974   75.229    0.254    0.566    2.966
  273.224   73.480    0.264    0.579    3.056
  273.474   71.996    0.256    0.566    3.111
  273.724   70.745    0.266    0.568    3.141
  273.974   69.951    0.287    0.551    3.115
  274.224   69.235    0.272    0.543    3.072
  274.474   68.543    0.263    0.536    3.089
  274.724   67.767    0.272    0.518    3.110
  274.974   66.356    0.264    0.510    3.114
  275.224   64.024    0.240    0.518    3.059
  275.474   66.963    0.249    0.510    2.954
  275.724   68.229    0.233    0.522    2.849
  275.974   67.173    0.250    0.539    2.748
  276.224   67.333    0.256    0.530    2.639
  276.474   67.853    0.255    0.497    2.598
  276.724   68.330    0.242    0.513    2.794
  276.974   68.388    0.234    0.534    2.958
  277.224   67.678    0.251    0.542    3.831
  277.474   64.243    0.259    0.551    4.885
  277.724   54.916    0.268    0.507    6.829
  277.974   45.272    0.303    0.347    8.717
  278.224   35.728    0.330    0.163   12.314
  278.474   18.993    0.353    0.150   18.265
  278.724   20.351    0.368    0.140   21.750
  278.974   16.279    0.375    0.145   20.558
  279.224   16.270    0.365    0.153   15.193
  279.474   15.253    0.359    0.167   11.394
  279.724   14.406    0.357    0.195    8.268
  279.974   14.102    0.356    0.220    6.242
  280.224   14.200    0.352    0.252    4.702
  280.474   14.721    0.346    0.276    3.523
  280.724   15.400    0.338    0.298    2.780
  280.974   16.019    0.329    0.322    2.353
  281.224   16.263    0.322    0.335    2.138
  281.474   16.267    0.314    0.344    2.068
  281.724   16.258    0.312    0.353    2.017
  281.974   16.121    0.314    0.361    1.973
  282.224   16.283    0.316    0.365    1.941
  282.474   16.645    0.319    0.367    1.912
  282.724   17.019    0.325    0.364    1.880
  282.974   17.382    0.330    0.361    1.860
  283.224   17.746    0.329    0.365    1.850
  283.474   19.050    0.330    0.366    1.844
  283.724   20.544    0.333    0.365    1.834
  283.974   23.046    0.338    0.367    1.844
  284.224   26.139    0.336    0.379    1.851
  284.474   29.823    0.329    0.387    1.846
  284.724   32.425    0.325    0.396    1.838
  284.974   35.089    0.322    0.415    1.844
  285.224   35.948    0.337    0.424    1.841
  285.474   33.403    0.346    0.418    1.837
  285.724   30.542    0.344    0.427    1.835
  285.974   31.489    0.337    0.422    1.814
  286.224   32.797    0.328    0.401    1.814
  286.474   34.250    0.321    0.409    1.839
  286.724   34.842    0.314    0.412    1.875
  286.974   34.838    0.308    0.407    1.935
  287.224   36.284    0.314    0.402    2.018
  287.474   40.315    0.319    0.397    2.124
  287.724   46.332    0.309    0.383    2.282
  287.974   52.962    0.303    0.373    2.404
  288.224   59.516    0.276    0.398    2.702
  288.474   64.334    0.229    0.416    3.109
  288.724   63.248    0.212    0.425    3.476
  288.974   63.207    0.226    0.431    4.133
  289.224   66.235    0.231    0.436    3.936
  289.474   68.582    0.242    0.433    3.989
  289.724   68.773    0.247    0.426    4.079
  289.974   68.622    0.240    0.423    4.194
  290.224   68.668    0.235    0.413    4.284
  290.474   69.174    0.235    0.405    4.135
  290.724   73.269    0.246    0.398    3.556
  290.974   75.422    0.263    0.423    2.900
  291.224   76.578    0.332    0.467    2.556
  291.474   76.354    0.398    0.513    2.258
  291.724   76.000    0.464    0.578    2.100
  291.974   75.712    0.491    0.615    2.024
  292.224   71.247    0.521    0.613    2.019
  292.474   67.944    0.441    0.583    2.042
  292.724   64.985    0.417    0.534    2.120
  292.974   60.899    0.374    0.492    2.181
  293.224   58.851    0.335    0.462    2.179
  293.474   61.619    0.318    0.451    2.314
  293.724   63.978    0.318    0.452    2.423
  293.974   65.122    0.318    0.453    2.565
  294.224   65.435    0.317    0.465    2.894
  294.474   63.960    0.317    0.479    3.053
  294.724   62.668    0.324    0.489    3.470
  294.974   59.417    0.321    0.490    3.694
  295.224   52.263    0.303    0.444    3.903
  295.474   45.081    0.271    0.416    3.943
  295.724   45.831    0.243    0.441    3.911
  295.974   46.656    0.215    0.454    3.746
  296.224   47.686    0.265    0.450    3.662
  296.474   48.583    0.277    0.447    3.244
  296.724   49.568    0.268    0.448    3.085
  296.974   51.208    0.266    0.453    2.933
  297.224   52.422    0.262    0.470    2.893
  297.474   55.474    0.269    0.480    2.954
  297.724   60.335    0.277    0.492    3.030
  297.974   63.693    0.264    0.460    3.123
  298.224   64.944    0.252    0.447    3.194
  298.474   64.824    0.257    0.454    3.190
  298.724   64.064    0.273    0.464    3.238
  298.974   67.258    0.273    0.470    3.467
  299.224   70.834    0.224    0.473    3.676
  299.474   73.147    0.191    0.473    3.741
  299.724   73.584    0.165    0.474    3.696
  299.974   75.631    0.183    0.490    3.621
  300.224   79.393    0.195    0.495    3.469
  300.474   83.644    0.200    0.495    3.231
  300.724   86.801    0.192    0.502    3.179
  300.974   90.189    0.201    0.491    3.284
  301.224   92.803    0.219    0.472    3.511
  301.474   92.291    0.227    0.456    3.868
  301.724   87.139    0.233    0.442    4.051
  301.974   79.770    0.242    0.437    4.198
  302.224   75.599    0.254    0.435    4.127
  302.474   70.347    0.266    0.435    3.960
  302.724   66.621    0.275    0.448    3.747
  302.974   67.287    0.282    0.452    3.532
  303.224   68.622    0.286    0.442    3.287
  303.474   68.767    0.285    0.433    3.083
  303.724   66.841    0.279    0.436    2.866
  303.974   65.127    0.278    0.444    2.766
  304.224   64.800    0.280    0.432    2.789
  304.474   66.843    0.275    0.422    2.976
  304.724   68.510    0.266    0.424    3.181
  304.974   70.415    0.253    0.445    3.394
  305.224   71.650    0.240    0.465    3.504
  305.474   71.193    0.241    0.478    3.411
  305.724   67.467    0.275    0.475    3.169
  305.974   62.231    0.300    0.469    2.814
  306.224   58.338    0.318    0.463    2.489
  306.474   55.001    0.334    0.471    2.262
  306.724   56.908    0.333    0.483    2.180
  306.974   60.724    0.331    0.490    2.187
  307.224   63.626    0.327    0.475    2.395
  307.474   67.455    0.308    0.464    2.794
  307.724   70.510    0.287    0.455    3.143
  307.974   73.239    0.267    0.454    3.520
  308.224   75.682    0.247    0.453    3.781
  308.474   77.262    0.235    0.447    4.009
  308.724   78.204    0.231    0.441    4.051
  308.974   79.405    0.227    0.435    3.999
  309.224   80.170    0.232    0.444    3.866
  309.474   80.598    0.240    0.461    3.594
  309.724   80.603    0.255    0.474    3.351
  309.974   79.513    0.264    0.493    3.099
  310.224   78.541    0.285    0.500    2.881
  310.474   78.159    0.298    0.484    2.846
  310.724   78.113    0.297    0.477    2.889
  310.974   77.790    0.286    0.489    2.942
  311.224   75.918    0.278    0.497    3.014
  311.474   75.236    0.271    0.493    2.931
