~VERSION INFORMATION
 VERS.                 2.0:   CWLS LOG ASCII STANDARD -VERSION 2.0
 WRAP.                  NO:   ONE LINE PER DEPTH STEP
~WELL INFORMATION BLOCK
#MNEM.UNIT           DATA                    DESCRIPTION OF MNEMONIC
#---------    -------------------            -------------------------------
# Generated from Intellog Unique Number	CW_70_72/WELL/502
NULL.         -999.25                        : NULL_VALUE
WELL.         NORCEN ET AL VICTOR 05-07      : Well_name    - WELL              
LOC .         05-07-071-01W5                 : Location     - LOCATION          
UWI .         00/05-07-071-01W5/0            : Uwi          - UNIQUE WELL ID    
ENTR.         JAYE                           : Entered      - ENTERED BY        
SRVC.         COMPUTALOG                     : Scn          - SERVICE COMPANY   
DATE.         16 MAR 82                      : Date         - LOG DATE          
STRT.M        390                            : top_depth    - START DEPTH       
STOP.M        626                            : bot_depth    - STOP DEPTH        
STEP.M        0.25                           : increment    - STEP LENGTH       
~CURVE INFORMATION BLOCK
#MNEM UNIT       ERCB CURVE CODE    CURVE DESCRIPTION
#-----------   ------------------   ----------------------------------
DEPT.M        00 001 00 00         : DEPTH        - DEPTH                       
DPHI.V/V      00 890 00 00         : PHID         - DENSITY POROSITY (SANDSTONE)
NPHI.V/V      00 330 00 00         : PHIN         - NEUTRON POROSITY (SANDSTONE)
GR  .API      00 310 00 00         : GR           - GAMMA RAY                   
CALI.MM       00 280 01 00         : CAL          - CALIPER                     
ILD .OHMM     00 120 00 00         : RESD         - DEEP RESISTIVITY (DIL)      
~PARAMETER INFORMATION       
#MNEM.UNIT           DATA             DESCRIPTION OF MNEMONIC
#---------         -----------     ------------------------------
GL  .M        591.23               : gl           - GROUND LEVEL ELEVATION      
EREF.M        595.33               : kb           - ELEVATION OF DEPTH REFERENCE
DATM.M        591.23               : datum        - DATUM ELEVATION             
TDD .M        642                  : tdd          - TOTAL DEPTH DRILLER         
RUN .         ONE                  : Run          - RUN NUMBER                  
ENG .         DROMLEWICZ/MURRAY    : Engineer     - RECORDING ENGINEER          
WIT .         BOGNER               : Witness      - WITNESSED BY                
BASE.         EDM                  : Branch       - HOME BASE OF LOGGING UNIT   
MUD .         GEL CHEM             : Mud_type     - MUD TYPE                    
MATR.         SANDSTONE            : Logunit      - NEUTRON MATRIX              
TMAX.C        30                   : BHT          - MAXIMUM RECORDED TEMPERATURE
BHTD.M        643                  : BHTDEP       - MAXIMUM RECORDED TEMPERATURE
RMT .C        10                   : MDTP         - TEMPERATURE OF MUD          
MUDD.KG/M     1140                 : MWT          - MUD DENSITY                 
NEUT.         1                    : NEUTRON      - NEUTRON TYPE                
RESI.         0                    : RESIST       - RESISTIVITY TYPE            
RM  .OHMM     3.2                  : RM           - RESISTIVITY OF MUD          
RMC .OHMM     2.2                  : RMC          - RESISTIVITY OF MUD CAKE     
RMF .OHMM     1.8                  : RMF          - RESISTIVITY OF MUD FILTRATE 
SUFT.C        0                    : SUFT         - SURFACE TEMPERATURE         
~A  DEPTH     PHID     PHIN       GR      CAL     RESD
# ...
  572.500    0.106    0.221   86.877  197.889    7.253
  572.750    0.108    0.201   79.440  200.294    7.410
  573.000    0.111    0.215   76.185  202.599    7.289
  573.250    0.106    0.245   94.229  203.881    7.022
  573.500    0.091    0.244   95.483  204.525    6.664
  573.750    0.079    0.235   97.496  204.830    6.183
  574.000    0.098    0.232  103.327  205.052    5.856
  574.250    0.119    0.228  118.235  205.276    5.632
  574.500    0.130    0.219  119.687  205.297    5.720
  574.750    0.123    0.214  107.604  205.603    5.169
  575.000    0.091    0.220   95.459  206.235    4.396
  575.250    0.129    0.263   92.897  206.987    3.782
  575.500    0.152    0.318  104.183  206.991    3.254
  575.750    0.176    0.408  110.384  206.789    2.912
  576.000    0.164    0.407  110.520  206.489    2.577
  576.250    0.147    0.361  103.132  206.079    2.437
  576.500    0.135    0.304  100.259  205.802    2.374
  576.750    0.141    0.295  107.844  205.484    2.467
  577.000    0.144    0.306  111.543  205.303    2.632
  577.250    0.138    0.312  110.925  205.185    2.856
  577.500    0.130    0.314  108.239  204.781    3.249
  577.750    0.111    0.315  103.364  204.377    3.689
  578.000    0.012    0.311   97.607  203.859    4.172
  578.250    0.009    0.303   93.415  201.572    4.710
  578.500    0.036    0.294   88.601  199.493    5.348
  578.750    0.072    0.283   95.871  199.094    5.959
  579.000    0.072    0.269   97.886  201.196    6.179
  579.250    0.080    0.272   98.386  203.494    6.033
  579.500    0.089    0.285  102.849  204.663    5.934
  579.750    0.100    0.296  107.482  204.986    5.982
  580.000    0.097    0.278  107.554  205.117    6.180
  580.250    0.073    0.254  103.360  205.318    6.445
  580.500    0.034    0.235  103.741  205.224    6.968
  580.750    0.008    0.214  101.684  205.126    7.532
  581.000    0.011    0.192   92.044  204.850    7.901
  581.250    0.043    0.146   86.540  204.836    8.086
  581.500    0.056    0.263   90.307  204.631    8.449
  581.750    0.030    0.270   97.826  204.453    9.047
  582.000    0.005    0.242   90.382  204.133    9.435
  582.250    0.036    0.222   82.558  203.934    8.837
  582.500    0.072    0.207   81.688  204.051    8.245
  582.750    0.093    0.220   86.518  204.171    7.606
  583.000    0.106    0.339   95.100  204.291    6.951
  583.250    0.111    0.342  103.937  204.089    6.535
  583.500    0.105    0.312  101.064  202.952    6.355
  583.750    0.104    0.276   96.436  201.078    6.492
  584.000    0.097    0.274  100.391  200.251    6.979
  584.250    0.083    0.267   95.513  199.847    7.306
  584.500    0.080    0.253   90.451  200.381    7.591
  584.750    0.089    0.258   94.718  200.283    7.932
  585.000    0.092    0.273  103.858  200.621    8.350
  585.250    0.025    0.264   99.486  200.845    8.858
  585.500    0.001    0.241   91.412  201.153    9.239
  585.750    0.023    0.220   85.659  201.795    9.313
  586.000    0.049    0.233   86.105  202.219    9.075
  586.250    0.077    0.253   92.930  202.559    8.262
  586.500    0.086    0.269   97.384  202.760    7.367
  586.750    0.083    0.266   99.149  202.799    6.707
  587.000    0.090    0.254  101.844  202.901    6.060
  587.250    0.089    0.266  106.298  202.795    5.601
  587.500    0.075    0.293  112.131  202.823    5.306
  587.750    0.126    0.271  114.200  202.717    5.725
  588.000    0.217    0.139   93.663  202.926    7.446
  588.250    0.268    0.120   80.206  202.942   10.424
  588.500    0.317    0.116   47.520  202.845   14.133
  588.750    0.326    0.112   38.386  202.750   22.118
  589.000    0.330    0.109   33.697  202.879   28.018
  589.250    0.337    0.111   35.209  202.987   27.821
  589.500    0.340    0.117   37.714  203.095   25.617
  589.750    0.337    0.124   36.096  203.010   23.499
  590.000    0.335    0.134   37.858  202.501   21.073
  590.250    0.329    0.142   38.617  202.717   18.129
  590.500    0.317    0.154   36.870  202.521   15.685
  590.750    0.298    0.190   34.681  202.229   13.316
  591.000    0.278    0.267   32.429  201.492   11.696
  591.250    0.270    0.277   31.061  200.458   10.351
  591.500    0.266    0.265   33.765  199.237    8.755
  591.750    0.265    0.266   37.710  198.392    7.349
  592.000    0.262    0.278   39.166  198.008    6.251
  592.250    0.262    0.295   38.052  197.789    5.358
  592.500    0.269    0.306   36.740  197.799    4.715
  592.750    0.271    0.306   35.489  198.449    4.292
  593.000    0.268    0.300   34.487  199.290    3.849
  593.250    0.266    0.288   33.427  200.022    3.485
  593.500    0.264    0.276   35.441  200.660    3.233
  593.750    0.265    0.268   38.324  201.296    3.091
  594.000    0.266    0.268   37.954  201.204    2.922
  594.250    0.267    0.266   35.645  200.794    2.737
  594.500    0.268    0.260   35.220  198.730    2.642
  594.750    0.275    0.254   36.479  197.375    2.589
  595.000    0.274    0.259   38.425  196.553    2.552
  595.250    0.266    0.267   39.308  196.557    2.548
  595.500    0.255    0.279   39.622  196.999    2.516
  595.750    0.244    0.289   39.694  198.055    2.499
  596.000    0.254    0.291   39.521  199.107    2.485
  596.250    0.261    0.284   39.652  200.065    2.477
  596.500    0.255    0.275   41.530  200.686    2.460
  596.750    0.258    0.266   45.045  201.330    2.452
  597.000    0.246    0.272   48.742  201.876    2.458
  597.250    0.249    0.297   47.750  202.187    2.478
  597.500    0.237    0.297   45.825  202.394    2.498
  597.750    0.233    0.288   44.690  202.824    2.504
  598.000    0.235    0.272   43.577  202.941    2.519
  598.250    0.240    0.297   42.957  202.948    2.545
  598.500    0.251    0.298   42.351  203.178    2.565
  598.750    0.251    0.290   42.355  203.292    2.567
  599.000    0.254    0.281   42.350  203.189    2.554
  599.250    0.254    0.279   42.174  203.199    2.535
  599.500    0.261    0.272   42.049  203.009    2.522
  599.750    0.260    0.253   41.994  202.613    2.505
  600.000    0.253    0.268   42.183  203.127    2.492
  600.250    0.244    0.287   42.938  203.980    2.474
  600.500    0.240    0.280   43.641  203.894    2.467
  600.750    0.244    0.284   43.954  203.785    2.468
  601.000    0.245    0.285   44.040  203.378    2.478
  601.250    0.246    0.278   43.662  203.289    2.494
  601.500    0.241    0.269   43.486  203.192    2.504
  601.750    0.239    0.281   42.925  202.787    2.525
  602.000    0.241    0.302   42.545  202.586    2.550
  602.250    0.243    0.291   42.302  203.123    2.570
  602.500    0.243    0.271   42.310  204.277    2.601
  602.750    0.241    0.282   47.638  205.338    2.632
  603.000    0.235    0.296   53.472  205.345    2.673
  603.250    0.226    0.285   56.859  205.480    2.809
  603.500    0.219    0.265   59.306  205.484    2.947
  603.750    0.208    0.270   62.569  204.749    3.156
  604.000    0.197    0.277   63.825  203.618    3.291
  604.250    0.199    0.279   63.711  203.100    3.471
  604.500    0.204    0.276   64.720  201.864    3.654
  604.750    0.204    0.269   66.540  199.887    3.819
  605.000    0.197    0.262   68.738  196.154    3.923
  605.250    0.190    0.250   70.811  193.750    3.985
  605.500    0.182    0.257   71.005  191.993    4.009
  605.750    0.170    0.281   70.453  192.211    4.119
  606.000    0.173    0.296   71.081  194.426    4.247
  606.250    0.179    0.280   73.034  196.823    4.455
  606.500    0.181    0.259   74.413  197.670    4.762
  606.750    0.178    0.282   75.239  197.683    5.013
  607.000    0.169    0.276   75.122  197.791    5.238
  607.250    0.160    0.262   75.061  197.714    5.463
  607.500    0.154    0.244   76.255  197.301    5.676
  607.750    0.153    0.250   78.397  196.888    5.875
  608.000    0.156    0.268   80.843  196.376    6.081
  608.250    0.145    0.273   83.231  196.919    6.248
  608.500    0.135    0.260   80.853  197.769    6.298
  608.750    0.130    0.247   79.171  198.706    6.137
