~VERSION INFORMATION
 VERS.                 2.0:   CWLS LOG ASCII STANDARD -VERSION 2.0
 WRAP.                  NO:   ONE LINE PER DEPTH STEP
~WELL INFORMATION BLOCK
#MNEM.UNIT           DATA                    DESCRIPTION OF MNEMONIC
#---------    -------------------            -------------------------------
# Generated from Intellog Unique Number	CS_77_79/WELL/889
WELL.         KANDEX HOMESTEAD THORNBURY     : Well_name    - WELL
LOC .         00/07-01-079-13W4/0            : Location     - LOCATION
UWI .         00/07-01-079-13W4/0            : Uwi          - UNIQUE WELL ID
ENTR.         JHS                            : Entered      - ENTERED BY
SRVC.         SCHLUMBERGER                   : Scn          - SERVICE COMPANY
STRT.M        259.08                         : top_depth    - START DEPTH
STOP.M        493.58                         : bot_depth    - STOP DEPTH
STEP.M        0.25                           : increment    - STEP LENGTH
 NULL. -999.2500:NULL Value
~CURVE INFORMATION BLOCK
#MNEM UNIT       ERCB CURVE CODE    CURVE DESCRIPTION
#-----------   ------------------   ----------------------------------
DEPT.M        00 001 00 00         : DEPTH        - DEPTH
RHOB.KG/M3    00 350 00 00         : DENS         - BULK DENSITY
GR  .API      00 310 00 00         : GR           - GAMMA RAY
DPHI.V/V      00 890 00 00         : PHID         - DENSITY POROSITY (SANDSTONE)
NPHI.V/V      00 330 00 00         : PHIN         - NEUTRON POROSITY (SANDSTONE)
ILD .OHMM     00 120 00 00         : RESD         - DEEP RESISTIVITY (DIL)
~PARAMETER INFORMATION
#MNEM.UNIT           DATA             DESCRIPTION OF MNEMONIC
#---------         -----------     ------------------------------
GL  .M        679.399              : gl           - GROUND LEVEL ELEVATION
EREF.M        683.057              : kb           - ELEVATION OF DEPTH REFERENCE
DATM.M        683.057              : datum        - DATUM ELEVATION
TDD .M        499.872              : tdd          - TOTAL DEPTH DRILLER
RUN .         ONE                  : Run          - RUN NUMBER
ENG .         BILL                 : Engineer     - RECORDING ENGINEER
WIT .         JIM                  : Witness      - WITNESSED BY
MUD .         GEL                  : Mud_type     - MUD TYPE
MATR.         SANDSTONE            : Logunit      - NEUTRON MATRIX
TMAX.C        21.6667              : BHT          - MAXIMUM RECORDED TEMPERATURE
BHTD.M        499.872              : BHTDEP       - MAXIMUM RECORDED TEMPERATURE
MATR.         1                    : LOGUNIT      - NEUTRON MATRIX
RMT .C        25                   : MDTP         - TEMPERATURE OF MUD
NEUT.         1                    : NEUTRON      - NEUTRON TYPE
RESI.         0                    : RESIST       - RESISTIVITY TYPE
RMC .OHMM     0.25                 : RMC          - RESISTIVITY OF MUD CAKE
RMF .OHMM     0.25                 : RMF          - RESISTIVITY OF MUD FILTRATE
SUFT.C        15                   : SUFT         - SURFACE TEMPERATURE
~A  DEPTH     DENS       GR     PHID     PHIN     RESD
  259.080    0.000  103.665    0.245    0.546    3.506
  259.330    0.000  102.674    0.246    0.550    3.499
  259.580    0.000  101.716    0.247    0.554    3.582
  259.830    0.000  103.518    0.258    0.549    3.577
  260.080    0.000  106.285    0.254    0.541    3.576
  260.330    0.000  107.392    0.251    0.548    3.567
  260.580    0.000  107.393    0.251    0.552    3.572
  260.830    0.000  106.169    0.248    0.560    3.582
  261.080    0.000  104.886    0.254    0.566    3.586
  261.330    0.000  103.558    0.252    0.572    3.581
  261.580    0.000  100.120    0.239    0.561    3.664
  261.830    0.000   97.572    0.220    0.537    3.659
  262.080    0.000   96.437    0.204    0.523    3.666
  262.330    0.000   96.924    0.255    0.543    3.574
  262.580    0.000   99.475    0.273    0.558    3.404
  262.830    0.000  101.330    0.249    0.570    3.242
  263.080    0.000   99.974    0.257    0.571    3.078
  263.330    0.000   97.876    0.258    0.560    2.993
  263.580    0.000   98.606    0.248    0.554    2.927
  263.830    0.000  101.779    0.253    0.562    2.932
  264.080    0.000  104.445    0.243    0.558    2.983
  264.330    0.000  103.136    0.247    0.550    3.009
  264.580    0.000  100.119    0.227    0.536    3.109
  264.830    0.000  100.546    0.220    0.519    3.148
  265.080    0.000  103.448    0.243    0.536    3.251
  265.330    0.000  104.474    0.254    0.550    3.355
  265.580    0.000  103.044    0.265    0.539    3.417
  265.830    0.000  101.708    0.250    0.543    3.501
  266.080    0.000  100.828    0.239    0.553    3.680
  266.330    0.000  100.964    0.245    0.552    3.806
  266.580    0.000  104.236    0.244    0.527    3.841
  266.830    0.000  107.185    0.232    0.517    3.970
  267.080    0.000  109.822    0.222    0.510    4.102
  267.330    0.000  109.973    0.212    0.503    4.136
  267.580    0.000  109.011    0.222    0.504    4.137
  267.830    0.000  107.291    0.233    0.507    4.115
  268.080    0.000  106.364    0.250    0.511    3.986
  268.330    0.000  105.343    0.234    0.533    3.870
  268.580    0.000  105.399    0.234    0.547    3.774
  268.830    0.000  105.814    0.226    0.535    3.709
  269.080    0.000  105.488    0.221    0.523    3.747
  269.330    0.000  104.446    0.221    0.538    3.855
  269.580    0.000  103.939    0.209    0.536    3.918
  269.830    0.000  105.682    0.224    0.525    4.050
  270.080    0.000  105.861    0.214    0.522    4.082
  270.330    0.000  105.421    0.247    0.515    4.024
  270.580    0.000  103.473    0.258    0.512    3.903
  270.830    0.000  101.493    0.242    0.515    3.790
  271.080    0.000   99.436    0.249    0.514    3.742
  271.330    0.000   98.134    0.237    0.516    3.752
  271.580    0.000   96.741    0.241    0.508    3.796
  271.830    0.000   94.299    0.223    0.494    3.844
  272.080    0.000   92.018    0.230    0.484    3.987
  272.330    0.000   88.961    0.242    0.482    4.174
  272.580    0.000   86.007    0.217    0.475    4.170
  272.830    0.000   83.200    0.205    0.456    4.280
  273.080    0.000   81.250    0.183    0.437    4.401
  273.330    0.000   78.683    0.153    0.422    4.781
  273.580    0.000   79.417    0.140    0.436    5.083
  273.830    0.000   85.598    0.229    0.437    5.585
  274.080    0.000   89.093    0.275    0.426    6.170
  274.330    0.000   88.233    0.280    0.424    6.842
  274.580    0.000   87.025    0.279    0.437    7.534
  274.830    0.000   87.031    0.282    0.430    7.834
  275.080    0.000   84.693    0.277    0.421    7.934
  275.330    0.000   83.609    0.266    0.420    7.938
  275.580    0.000   84.234    0.262    0.425    7.946
  275.830    0.000   85.818    0.249    0.427    7.814
  276.080    0.000   89.040    0.236    0.435    7.605
  276.330    0.000   93.553    0.256    0.450    7.050
  276.580    0.000   94.539    0.266    0.468    6.534
  276.830    0.000   93.361    0.256    0.472    6.065
  277.080    0.000   92.175    0.253    0.458    5.899
  277.330    0.000   94.385    0.258    0.451    5.705
  277.580    0.000   96.300    0.269    0.441    5.693
  277.830    0.000   96.946    0.263    0.437    5.693
  278.080    0.000   93.600    0.257    0.444    5.619
  278.330    0.000   90.640    0.268    0.452    5.561
  278.580    0.000   87.287    0.259    0.455    5.588
  278.830    0.000   84.282    0.277    0.442    5.756
  279.080    0.000   81.175    0.277    0.430    6.090
  279.330    0.000   78.312    0.276    0.435    6.478
  279.580    0.000   74.740    0.275    0.443    6.958
  279.830    0.000   71.164    0.275    0.447    7.466
  280.080    0.000   68.770    0.275    0.442    7.954
  280.330    0.000   68.757    0.277    0.431    8.164
  280.580    0.000   74.730    0.283    0.435    8.149
  280.830    0.000   79.312    0.259    0.445    7.425
  281.080    0.000   80.469    0.251    0.460    6.583
  281.330    0.000   70.905    0.255    0.462    6.176
  281.580    0.000   61.031    0.292    0.434    7.072
  281.830    0.000   55.533    0.303    0.412    9.068
  282.080    0.000   53.768    0.317    0.410   10.768
  282.330    0.000   55.129    0.307    0.408   12.824
  282.580    0.000   54.918    0.298    0.418   14.533
  282.830    0.000   55.358    0.314    0.431   14.946
  283.080    0.000   58.157    0.324    0.425   14.983
  283.330    0.000   59.353    0.301    0.402   14.324
  283.580    0.000   59.379    0.278    0.392   13.509
  283.830    0.000   58.478    0.282    0.398   12.410
  284.080    0.000   57.495    0.292    0.407   11.944
  284.330    0.000   55.057    0.301    0.413   12.005
  284.580    0.000   52.977    0.324    0.414   12.804
  284.830    0.000   53.261    0.330    0.411   13.631
  285.080    0.000   52.837    0.314    0.397   14.552
  285.330    0.000   53.396    0.306    0.396   14.764
  285.580    0.000   56.043    0.306    0.394   15.039
  285.830    0.000   58.464    0.320    0.379   14.040
  286.080    0.000   60.863    0.293    0.382   13.101
  286.330    0.000   60.478    0.272    0.395   12.493
  286.580    0.000   56.228    0.278    0.407   12.558
  286.830    0.000   55.113    0.312    0.412   12.968
  287.080    0.000   55.012    0.316    0.414   13.560
  287.330    0.000   56.668    0.311    0.423   14.498
  287.580    0.000   62.521    0.294    0.436   15.936
  287.830    0.000   69.693    0.268    0.431   16.119
  288.080    0.000   80.911    0.241    0.429   14.755
  288.330    0.000   87.201    0.225    0.438   13.317
  288.580    0.000   96.026    0.203    0.440   11.299
  288.830    0.000  101.101    0.164    0.446   10.051
  289.080    0.000  106.606    0.156    0.459    8.587
  289.330    0.000  111.181    0.165    0.472    7.701
  289.580    0.000  113.357    0.184    0.475    7.251
  289.830    0.000  114.920    0.190    0.479    6.793
  290.080    0.000  114.377    0.194    0.485    6.464
  290.330    0.000  113.308    0.177    0.491    6.156
  290.580    0.000  116.138    0.181    0.505    5.650
  290.830    0.000  117.667    0.185    0.518    5.129
  291.080    0.000  116.932    0.179    0.527    5.119
  291.330    0.000  114.218    0.177    0.540    5.211
  291.580    0.000  112.079    0.187    0.521    5.669
  291.830    0.000  113.669    0.182    0.504    5.843
  292.080    0.000  120.901    0.174    0.503    5.684
  292.330    0.000  126.264    0.191    0.507    5.377
  292.580    0.000  126.358    0.197    0.506    5.056
  292.830    0.000  124.050    0.185    0.517    4.740
  293.080    0.000  124.924    0.185    0.528    4.322
  293.330    0.000  127.299    0.194    0.536    3.890
  293.580    0.000  129.451    0.196    0.552    3.571
  293.830    0.000  129.797    0.205    0.556    3.473
  294.080    0.000  126.545    0.227    0.512    3.546
  294.330    0.000  124.039    0.235    0.493    4.011
  294.580    0.000  121.438    0.241    0.466    5.784
  294.830    0.000  117.907    0.246    0.448    8.129
  295.080    0.000  112.553    0.263    0.427    9.828
  295.330    0.000  107.849    0.236    0.418   11.483
