~VERSION INFORMATION
 VERS.                 2.0:   CWLS LOG ASCII STANDARD -VERSION 2.0
 WRAP.                  NO:   ONE LINE PER DEPTH STEP
~WELL INFORMATION BLOCK
#MNEM.UNIT           DATA                    DESCRIPTION OF MNEMONIC
#---------    -------------------            -------------------------------
# Generated from Intellog Unique Number	CS_69_70/WELL/644
NULL.         -999.25                        : NULL_VALUE
WELL.         MAYNARD ENERGY                 : Well_name    - WELL              
LOC .         00/05-32-070-14W4/0            : Location     - LOCATION          
UWI .         00/05-32-070-14W4/0            : Uwi          - UNIQUE WELL ID    
ENTR.         SP                             : Entered      - ENTERED BY        
SRVC.         SCHLUMBERGER                   : Scn          - SERVICE COMPANY   
STRT.M        325                            : top_depth    - START DEPTH       
STOP.M        528                            : bot_depth    - STOP DEPTH        
STEP.M        0.25                           : increment    - STEP LENGTH       
~CURVE INFORMATION BLOCK
#MNEM UNIT       ERCB CURVE CODE    CURVE DESCRIPTION
#-----------   ------------------   ----------------------------------
DEPT.M        00 001 00 00         : DEPTH        - DEPTH                       
ILD .OHMM     00 120 00 00         : RESD         - DEEP RESISTIVITY (DIL)      
DPHI.V/V      00 890 00 00         : PHID         - DENSITY POROSITY (LIMESTONE)
NPHI.V/V      00 330 00 00         : PHIN         - NEUTRON POROSITY (LIMESTONE)
GR  .API      00 310 00 00         : GR           - GAMMA RAY                   
~PARAMETER INFORMATION       
#MNEM.UNIT           DATA             DESCRIPTION OF MNEMONIC
#---------         -----------     ------------------------------
GL  .M        631.3                : gl           - GROUND LEVEL ELEVATION      
EREF.M        634.74               : kb           - ELEVATION OF DEPTH REFERENCE
DATM.M        631.3                : datum        - DATUM ELEVATION             
TDD .M        536                  : tdd          - TOTAL DEPTH DRILLER         
RUN .         ONE                  : Run          - RUN NUMBER                  
ENG .         BILL                 : Engineer     - RECORDING ENGINEER          
WIT .         JIM                  : Witness      - WITNESSED BY                
MUD .         GEL                  : Mud_type     - MUD TYPE                    
MATR.         LIMESTONE            : Logunit      - NEUTRON MATRIX              
TMAX.C        25                   : BHT          - MAXIMUM RECORDED TEMPERATURE
BHTD.M        536                  : BHTDEP       - MAXIMUM RECORDED TEMPERATURE
MATR.         1                    : LOGUNIT      - NEUTRON MATRIX              
RMT .C        25                   : MDTP         - TEMPERATURE OF MUD          
NEUT.         1                    : NEUTRON      - NEUTRON TYPE                
RESI.         0                    : RESIST       - RESISTIVITY TYPE            
RMC .OHMM     0.25                 : RMC          - RESISTIVITY OF MUD CAKE     
RMF .OHMM     0.25                 : RMF          - RESISTIVITY OF MUD FILTRATE 
SUFT.C        15                   : SUFT         - SURFACE TEMPERATURE         
~A  DEPTH     RESD     PHID     PHIN       GR
# ...
  499.000    8.102    0.209    0.350   56.131
  499.250    7.754    0.237    0.358   54.509
  499.500    8.193    0.264    0.359   57.044
  499.750    9.190    0.264    0.362   59.579
  500.000   10.308    0.259    0.366   61.270
  500.250   11.321    0.250    0.366   63.022
  500.500   12.043    0.240    0.365   62.726
  500.750   12.464    0.233    0.367   61.646
  501.000   12.870    0.232    0.374   60.867
  501.250   13.025    0.225    0.370   61.174
  501.500   13.204    0.244    0.362   64.492
  501.750   13.301    0.243    0.356   67.267
  502.000   13.399    0.244    0.353   67.694
  502.250   13.902    0.238    0.351   66.253
  502.500   14.429    0.242    0.346   69.029
  502.750   14.883    0.195    0.339   69.395
  503.000   14.957    0.134    0.327   66.689
  503.250   13.775    0.051    0.316   60.910
  503.500   11.070    0.047    0.314   54.047
  503.750    9.450    0.060    0.323   63.028
  504.000    8.139    0.102    0.334   82.612
  504.250    7.394    0.160    0.346   95.568
  504.500    6.957    0.213    0.354   93.164
  504.750    6.593    0.203    0.359   91.542
  505.000    6.383    0.192    0.358   94.559
  505.250    6.351    0.190    0.357  102.274
  505.500    6.474    0.193    0.358  112.339
  505.750    6.661    0.194    0.371  111.923
  506.000    6.864    0.199    0.374  107.650
  506.250    7.261    0.227    0.368  111.330
  506.500    7.715    0.216    0.373  112.599
  506.750    8.243    0.209    0.366  111.881
  507.000    8.834    0.207    0.361  101.645
  507.250    9.426    0.207    0.358   99.601
  507.500   10.310    0.227    0.355   99.606
  507.750   11.015    0.251    0.358   90.815
  508.000   11.275    0.226    0.366   81.844
  508.250   11.252    0.194    0.361   76.668
  508.500   11.058    0.172    0.354   80.047
  508.750   10.264    0.205    0.348   82.461
  509.000    9.609    0.209    0.340   83.971
  509.250    9.188    0.196    0.335   83.434
  509.500    9.027    0.199    0.335   80.125
  509.750    8.938    0.189    0.341   77.781
  510.000    8.826    0.190    0.343   83.328
  510.250    8.680    0.187    0.340   88.333
  510.500    8.576    0.185    0.339   92.434
  510.750    8.422    0.187    0.339   91.896
  511.000    8.277    0.203    0.341   89.913
  511.250    8.245    0.214    0.347   95.761
  511.500    8.602    0.226    0.348  103.839
  511.750    9.292    0.196    0.348   99.626
  512.000    9.819    0.167    0.353  108.908
  512.250   10.791    0.165    0.354  118.250
  512.500   11.699    0.193    0.351  108.857
  512.750   12.445    0.214    0.349   99.465
  513.000   12.786    0.216    0.346   89.891
  513.250   12.746    0.206    0.346   79.534
  513.500   12.593    0.233    0.348   68.936
  513.750   12.391    0.227    0.345   76.531
  514.000   11.930    0.208    0.344   80.933
  514.250   11.566    0.236    0.348   77.023
  514.500   11.089    0.248    0.352   71.365
  514.750   10.781    0.237    0.348   70.586
  515.000   10.425    0.230    0.346   74.386
  515.250    9.924    0.210    0.343   79.632
  515.500    8.936    0.192    0.340   84.034
  515.750    8.062    0.179    0.338   86.087
  516.000    7.244    0.195    0.338   81.875
  516.250    6.467    0.182    0.362   95.796
  516.500    5.901    0.072    0.389  112.909
  516.750    5.448    0.026    0.456  111.107
  517.000    5.246    0.008    0.472  104.906
  517.250    5.182    0.025    0.463  118.285
  517.500    5.774    0.149    0.482  127.989
  517.750    6.552    0.166    0.445  126.608
  518.000    7.322    0.179    0.409  109.203
  518.250    8.125    0.201    0.381   94.569
  518.500    8.709    0.225    0.357   86.019
  518.750    9.195    0.208    0.344   89.397
  519.000    9.544    0.187    0.339   85.004
  519.250    9.650    0.173    0.335   81.576
  519.500    9.578    0.205    0.335   85.014
  519.750    9.457    0.196    0.337   89.598
  520.000    9.085    0.215    0.352   91.228
  520.250    8.705    0.216    0.358   92.799
  520.500    8.454    0.195    0.354   97.322
  520.750    8.220    0.181    0.353  100.941
  521.000    8.131    0.161    0.353   96.368
  521.250    8.156    0.195    0.353   88.963
  521.500    8.165    0.213    0.349   83.485
  521.750    8.214    0.191    0.347   83.310
  522.000    8.239    0.189    0.346   87.953
  522.250    8.353    0.183    0.351   99.705
  522.500    8.483    0.173    0.358  105.975
  522.750    8.565    0.183    0.362  114.775
  523.000    8.768    0.183    0.364  116.105
  523.250    9.060    0.204    0.358  112.556
  523.500    9.741    0.191    0.351  109.127
  523.750   10.998    0.231    0.347  103.227
  524.000   12.748    0.274    0.344   56.243
  524.250   14.012    0.292    0.353   46.007
  524.500   14.369    0.308    0.355   43.481
  524.750   14.499    0.322    0.354   45.715
  525.000   14.524    0.320    0.353   49.817
  525.250   14.452    0.246    0.350   55.363
  525.500   13.610    0.259    0.346   60.609
  525.750   12.566    0.280    0.353   59.529
  526.000   11.295    0.285    0.353   57.064
  526.250   10.007    0.272    0.349   58.635
  526.500    9.190    0.249    0.346   57.495
  526.750    8.923    0.228    0.345   62.380
  527.000    8.859    0.237    0.349   62.384
  527.250    8.924    0.277    0.352   64.257
  527.500    9.071    0.253    0.352   66.069
  527.750    9.274    0.237    0.357   62.941
  528.000    9.307    0.235    0.360   59.994
