~VERSION INFORMATION
 VERS.                 2.0:   CWLS LOG ASCII STANDARD -VERSION 2.0
 WRAP.                  NO:   ONE LINE PER DEPTH STEP
~WELL INFORMATION BLOCK
#MNEM.UNIT           DATA                    DESCRIPTION OF MNEMONIC
#---------    -------------------            -------------------------------
# Generated from Intellog Unique Number	CW_73_75/WELL/199
WELL.         GLEN ISLE ET AL MITSUE 02-01   : Well_name    - WELL
LOC .         00/02-01-074-05W5/0            : Location     - LOCATION
UWI .         00/02-01-074-05W5/0            : Uwi          - UNIQUE WELL ID
ENTR.         JAYE                           : Entered      - ENTERED BY
SRVC.         WESTERN ATLAS                  : Scn          - SERVICE COMPANY
DATE.         8 DEC 88                       : Date         - LOG DATE
STRT.M        370                            : top_depth    - START DEPTH
STOP.M        630                            : bot_depth    - STOP DEPTH
STEP.M        0.25                           : increment    - STEP LENGTH
 NULL. -999.2500:NULL Value
~CURVE INFORMATION BLOCK
#MNEM UNIT       ERCB CURVE CODE    CURVE DESCRIPTION
#-----------   ------------------   ----------------------------------
DEPT.M        00 001 00 00         : DEPTH        - DEPTH
GR  .API      00 310 00 00         : GR           - GAMMA RAY
NPHI.V/V      00 330 00 00         : PHIN         - NEUTRON POROSITY (SANDSTONE)
DPHI.V/V      00 890 00 00         : PHID         - DENSITY POROSITY (SANDSTONE)
ILD .OHMM     00 120 00 00         : RESD         - DEEP RESISTIVITY (DIL)
CALI.MM       00 280 01 00         : CAL          - CALIPER
~PARAMETER INFORMATION
#MNEM.UNIT           DATA             DESCRIPTION OF MNEMONIC
#---------         -----------     ------------------------------
GL  .M        589.5                : gl           - GROUND LEVEL ELEVATION
EREF.M        593.84               : kb           - ELEVATION OF DEPTH REFERENCE
DATM.M        589.5                : datum        - DATUM ELEVATION
TDD .M        1650                 : tdd          - TOTAL DEPTH DRILLER
RUN .         ONE                  : Run          - RUN NUMBER
ENG .         YEAGER               : Engineer     - RECORDING ENGINEER
WIT .         PUTZ                 : Witness      - WITNESSED BY
BASE.         LEDUC                : Branch       - HOME BASE OF LOGGING UNIT
MATR.         SANDSTONE            : Logunit      - NEUTRON MATRIX
TMAX.C        51                   : BHT          - MAXIMUM RECORDED TEMPERATURE
BHTD.M        1650.3               : BHTDEP       - MAXIMUM RECORDED TEMPERATURE
RMT .C        51                   : MDTP         - TEMPERATURE OF MUD
MUDD.KG/M     1125                 : MWT          - MUD DENSITY
NEUT.         1                    : NEUTRON      - NEUTRON TYPE
RESI.         0                    : RESIST       - RESISTIVITY TYPE
RM  .OHMM     6.27                 : RM           - RESISTIVITY OF MUD
RMC .OHMM     4.87                 : RMC          - RESISTIVITY OF MUD CAKE
RMF .OHMM     8.75                 : RMF          - RESISTIVITY OF MUD FILTRATE
SUFT.C        0                    : SUFT         - SURFACE TEMPERATURE
~A  DEPTH       GR     PHIN     PHID     RESD      CAL
# ...
  516.000   70.285    0.333    0.254    4.773  252.142
  516.250   72.542    0.339    0.252    4.850  252.957
  516.500   72.848    0.339    0.252    4.984  254.188
  516.750   77.066    0.332    0.267    5.092  255.912
  517.000   74.007    0.339    0.255    5.146  256.938
  517.250   67.703    0.341    0.226    5.219  257.030
  517.500   62.751    0.323    0.221    5.254  256.722
  517.750   72.471    0.330    0.237    5.184  256.213
  518.000   72.283    0.344    0.252    5.021  255.482
  518.250   71.609    0.346    0.257    4.800  255.281
  518.500   79.438    0.332    0.244    4.717  255.490
  518.750   80.043    0.328    0.252    4.645  255.380
  519.000   75.337    0.345    0.258    4.591  255.367
  519.250   73.853    0.359    0.248    4.529  255.877
  519.500   74.957    0.379    0.229    4.468  256.392
  519.750   75.206    0.372    0.219    4.400  256.791
  520.000   74.104    0.347    0.222    4.397  256.786
  520.250   77.281    0.352    0.228    4.395  256.881
  520.500   81.621    0.373    0.231    4.383  255.967
  520.750   84.615    0.362    0.220    4.373  257.079
  521.000   73.976    0.363    0.205    4.354  257.281
  521.250   73.790    0.383    0.214    4.359  257.260
  521.500   76.540    0.369    0.228    4.365  256.855
  521.750   77.945    0.351    0.232    4.411  256.652
  522.000   71.454    0.333    0.232    4.490  255.741
  522.250   79.098    0.350    0.229    4.631  254.811
  522.500   81.726    0.344    0.227    4.811  254.722
  522.750   79.456    0.345    0.253    5.035  253.388
  523.000   71.880    0.370    0.267    5.212  251.450
  523.250   77.318    0.378    0.253    5.019  251.952
  523.500   76.704    0.360    0.241    4.719  253.994
  523.750   69.182    0.364    0.232    4.479  256.424
  524.000   66.977    0.364    0.222    4.196  258.163
  524.250   76.885    0.363    0.210    3.996  258.968
  524.500   78.164    0.367    0.202    3.870  258.973
  524.750   77.308    0.363    0.199    3.854  258.757
  525.000   85.562    0.352    0.199    4.232  257.934
  525.250   84.215    0.358    0.196    4.769  256.605
  525.500   85.857    0.371    0.259    5.454  254.573
  525.750   85.312    0.376    0.245    6.068  250.804
  526.000   72.955    0.369    0.235    6.775  247.331
  526.250   60.412    0.369    0.244    7.692  244.980
  526.500   63.589    0.368    0.260    7.730  243.450
  526.750   60.715    0.363    0.266    7.188  242.609
  527.000   65.297    0.359    0.257    7.078  242.312
  527.250   73.004    0.351    0.253    7.061  242.001
  527.500   74.595    0.363    0.259    7.639  241.390
  527.750   69.700    0.360    0.266    8.055  240.977
  528.000   75.324    0.330    0.260    8.447  240.677
  528.250   74.893    0.255    0.153    8.425  240.863
  528.500   46.576    0.194    0.113    8.040  240.968
  528.750   42.718    0.182    0.039    7.192  241.057
  529.000   52.746    0.317    0.162    6.165  241.574
  529.250   58.856    0.348    0.205    5.484  243.402
  529.500   69.929    0.367    0.259    4.869  246.558
  529.750   68.754    0.375    0.274    4.461  249.825
  530.000   65.211    0.384    0.266    4.172  253.487
  530.250   70.718    0.359    0.253    3.901  257.256
  530.500   66.252    0.336    0.228    3.750  261.028
  530.750   67.223    0.317    0.209    3.693  263.870
  531.000   72.608    0.328    0.190    3.650  265.406
  531.250   73.577    0.342    0.198    3.620  266.519
  531.500   74.186    0.353    0.267    3.598  267.120
  531.750   74.249    0.341    0.302    3.576  266.921
  532.000   73.687    0.345    0.349    3.547  266.595
  532.250   69.594    0.370    0.395    3.513  266.804
  532.500   72.352    0.342    0.360    3.465  267.512
  532.750   80.054    0.319    0.278    3.387  268.643
  533.000   73.192    0.318    0.187    3.287  269.845
  533.250   75.341    0.323    0.210    3.248  270.064
  533.500   80.352    0.323    0.206    3.264  270.049
  533.750   70.934    0.320    0.213    3.373  269.848
  534.000   73.307    0.337    0.240    3.543  269.741
  534.250   75.885    0.333    0.264    3.756  269.237
  534.500   74.231    0.321    0.250    4.050  268.509
  534.750   73.923    0.310    0.208    4.062  267.979
  535.000   75.081    0.310    0.185    3.763  267.574
  535.250   77.894    0.326    0.174    3.250  267.386
  535.500   81.072    0.322    0.179    2.725  267.483
  535.750   70.795    0.320    0.188    2.341  267.783
  536.000   72.200    0.319    0.186    2.275  267.883
  536.250   71.404    0.320    0.182    2.457  268.293
  536.500   80.082    0.334    0.204    2.884  268.372
  536.750   92.988    0.336    0.220    3.366  268.262
  537.000   78.854    0.331    0.218    4.184  267.863
  537.250   74.698    0.325    0.209    4.299  267.555
  537.500   71.088    0.333    0.241    4.140  267.458
  537.750   61.727    0.349    0.268    3.965  267.842
  538.000   63.133    0.350    0.250    3.840  268.472
  538.250   67.595    0.336    0.230    3.809  269.679
  538.500   73.335    0.321    0.206    3.779  270.387
  538.750   73.523    0.336    0.197    3.721  271.011
  539.000   75.594    0.339    0.199    3.651  271.610
  539.250   74.066    0.348    0.203    3.439  272.310
  539.500   71.683    0.350    0.205    3.312  272.932
  539.750   78.651    0.341    0.203    3.310  273.122
  540.000   84.337    0.333    0.194    3.351  272.820
  540.250   77.545    0.341    0.189    3.540  272.313
  540.500   73.264    0.327    0.198    3.705  272.096
  540.750   69.774    0.337    0.194    3.856  271.896
  541.000   70.506    0.350    0.192    3.984  271.572
  541.250   68.670    0.349    0.212    4.109  271.374
  541.500   74.106    0.355    0.232    4.167  271.379
  541.750   64.689    0.358    0.254    4.219  271.149
  542.000   62.853    0.360    0.266    4.248  270.967
  542.250   62.844    0.363    0.274    4.237  270.954
  542.500   72.329    0.343    0.273    4.204  270.549
  542.750   71.156    0.332    0.265    4.186  270.847
  543.000   74.406    0.325    0.254    4.198  271.054
  543.250   70.979    0.368    0.244    4.180  271.657
  543.500   69.199    0.369    0.230    4.185  271.242
  543.750   65.892    0.358    0.220    4.121  270.835
  544.000   68.586    0.351    0.208    3.955  271.028
  544.250   69.500    0.354    0.200    3.630  271.232
  544.500   73.289    0.386    0.195    3.394  271.948
  544.750   73.351    0.377    0.187    3.221  272.353
  545.000   77.748    0.360    0.177    3.166  272.434
  545.250   74.448    0.344    0.190    3.253  272.338
  545.500   81.172    0.343    0.190    3.411  272.030
  545.750   74.873    0.333    0.178    3.577  271.925
  546.000   79.515    0.348    0.168    3.716  271.829
  546.250   81.409    0.341    0.167    3.839  271.701
  546.500   77.067    0.338    0.179    3.909  271.597
  546.750   71.192    0.339    0.192    4.008  271.715
  547.000   69.660    0.359    0.206    4.103  271.916
  547.250   72.828    0.346    0.203    4.279  272.117
  547.500   81.217    0.338    0.195    4.429  272.311
  547.750   87.997    0.331    0.198    4.509  272.303
  548.000   77.602    0.340    0.196    4.548  272.408
  548.250   68.186    0.330    0.188    4.511  272.797
  548.500   73.318    0.323    0.188    4.434  272.993
  548.750   84.509    0.334    0.191    4.350  273.205
  549.000   81.020    0.331    0.188    4.284  273.208
  549.250   75.638    0.322    0.186    4.164  272.894
  549.500   72.391    0.311    0.194    4.078  273.918
  549.750   77.219    0.371    0.210    3.964  277.277
  550.000   86.336    0.390    0.247    3.562  282.010
  550.250   82.874    0.386    0.296    3.771  283.513
  550.500   76.093    0.382    0.369    4.065  282.971
  550.750   70.910    0.404    0.401    4.358  279.252
  551.000   72.731    0.367    0.393    4.698  276.343
  551.250   72.653    0.344    0.256    5.028  274.566
  551.500   74.103    0.355    0.219    5.292  274.121
  551.750   92.639    0.354    0.208    5.379  274.394
  552.000   89.611    0.323    0.221    5.437  275.180
  552.250   76.498    0.314    0.217    5.506  275.244
