~VERSION INFORMATION
 VERS.                 2.0:   CWLS LOG ASCII STANDARD -VERSION 2.0
 WRAP.                  NO:   ONE LINE PER DEPTH STEP
~WELL INFORMATION BLOCK
#MNEM.UNIT           DATA                    DESCRIPTION OF MNEMONIC
#---------    -------------------            -------------------------------
# Generated from Intellog Unique Number	CS_69_70/WELL/818
WELL.         ET AL TWEEDIE                  : Well_name    - WELL
LOC .         00/07-07-069-13W4/0            : Location     - LOCATION
UWI .         00/07-07-069-13W4/0            : Uwi          - UNIQUE WELL ID
ENTR.         SP                             : Entered      - ENTERED BY
SRVC.         SCHLUMBERGER                   : Scn          - SERVICE COMPANY
STRT.M        243.84                         : top_depth    - START DEPTH
STOP.M        438.59                         : bot_depth    - STOP DEPTH
STEP.M        0.25                           : increment    - STEP LENGTH
 NULL. -999.2500:NULL Value
~CURVE INFORMATION BLOCK
#MNEM UNIT       ERCB CURVE CODE    CURVE DESCRIPTION
#-----------   ------------------   ----------------------------------
DEPT.M        00 001 00 00         : DEPTH        - DEPTH
GR  .API      00 310 00 00         : GR           - GAMMA RAY
DPHI.V/V      00 890 00 00         : PHID         - DENSITY POROSITY (SANDSTONE)
NPHI.V/V      00 330 00 00         : PHIN         - NEUTRON POROSITY (SANDSTONE)
ILD .OHMM     00 120 00 00         : RESD         - DEEP RESISTIVITY (DIL)
~PARAMETER INFORMATION
#MNEM.UNIT           DATA             DESCRIPTION OF MNEMONIC
#---------         -----------     ------------------------------
GL  .M        548.03               : gl           - GROUND LEVEL ELEVATION
EREF.M        551.078              : kb           - ELEVATION OF DEPTH REFERENCE
DATM.M        548.03               : datum        - DATUM ELEVATION
TDD .M        446.532              : tdd          - TOTAL DEPTH DRILLER
RUN .         ONE                  : Run          - RUN NUMBER
ENG .         BILL                 : Engineer     - RECORDING ENGINEER
WIT .         JIM                  : Witness      - WITNESSED BY
MUD .         GEL                  : Mud_type     - MUD TYPE
MATR.         SANDSTONE            : Logunit      - NEUTRON MATRIX
TMAX.C        21.1111              : BHT          - MAXIMUM RECORDED TEMPERATURE
BHTD.M        446.532              : BHTDEP       - MAXIMUM RECORDED TEMPERATURE
MATR.         1                    : LOGUNIT      - NEUTRON MATRIX
RMT .C        25                   : MDTP         - TEMPERATURE OF MUD
NEUT.         1                    : NEUTRON      - NEUTRON TYPE
RESI.         0                    : RESIST       - RESISTIVITY TYPE
RMC .OHMM     0.25                 : RMC          - RESISTIVITY OF MUD CAKE
RMF .OHMM     0.25                 : RMF          - RESISTIVITY OF MUD FILTRATE
SUFT.C        15                   : SUFT         - SURFACE TEMPERATURE
~A  DEPTH       GR     PHID     PHIN     RESD
# ...
  287.340  105.443    0.276    0.426    4.711
  287.590  108.147    0.292    0.448    4.685
  287.840  100.141    0.271    0.466    4.432
  288.090   94.747    0.213    0.450    4.001
  288.340   90.635    0.191    0.441    3.709
  288.590   94.508    0.177    0.429    3.479
  288.840  100.235    0.213    0.420    3.193
  289.090  103.464    0.251    0.437    2.945
  289.340  104.554    0.261    0.462    2.750
  289.590   98.785    0.266    0.473    2.623
  289.840   93.635    0.270    0.477    2.571
  290.090   90.606    0.278    0.483    2.577
  290.340   90.041    0.284    0.464    2.637
  290.590   91.124    0.274    0.456    2.796
  290.840   93.347    0.266    0.444    2.926
  291.090   94.096    0.257    0.435    3.083
  291.340   92.875    0.269    0.436    3.232
  291.590   90.807    0.307    0.436    3.354
  291.840   87.403    0.325    0.429    3.410
  292.090   82.278    0.342    0.425    3.357
  292.340   75.931    0.352    0.433    3.192
  292.590   77.050    0.339    0.447    3.095
  292.840   76.774    0.327    0.462    2.865
  293.090   73.560    0.319    0.480    2.679
  293.340   71.114    0.328    0.482    2.548
  293.590   70.290    0.326    0.485    2.444
  293.840   70.540    0.313    0.493    2.429
  294.090   71.076    0.308    0.494    2.428
  294.340   71.399    0.312    0.483    2.416
  294.590   71.075    0.311    0.475    2.409
  294.840   70.627    0.307    0.481    2.411
  295.090   69.884    0.312    0.493    2.412
  295.340   70.215    0.319    0.501    2.405
  295.590   72.291    0.323    0.509    2.388
  295.840   75.413    0.329    0.500    2.382
  296.090   76.643    0.332    0.502    2.383
  296.340   78.804    0.322    0.501    2.410
  296.590   80.046    0.299    0.496    2.486
  296.840   81.459    0.280    0.482    2.598
  297.090   83.362    0.270    0.472    2.771
  297.340   84.982    0.272    0.465    2.922
  297.590   85.669    0.275    0.469    3.080
  297.840   85.942    0.272    0.471    3.162
  298.090   86.460    0.266    0.472    3.207
  298.340   88.154    0.257    0.475    3.229
  298.590   89.986    0.258    0.480    3.240
  298.840   91.935    0.251    0.485    3.260
  299.090   93.704    0.234    0.478    3.316
  299.340   95.648    0.224    0.478    3.375
  299.590   96.805    0.241    0.486    3.439
  299.840   96.581    0.254    0.492    3.503
  300.090   95.605    0.250    0.495    3.585
  300.340   92.876    0.250    0.495    3.645
  300.590   91.961    0.259    0.493    3.700
  300.840   91.997    0.252    0.488    3.758
  301.090   93.060    0.242    0.476    3.786
  301.340   94.940    0.236    0.463    3.785
  301.590   96.777    0.245    0.465    3.738
  301.840   98.999    0.251    0.473    3.668
  302.090  100.889    0.248    0.483    3.615
  302.340  102.080    0.235    0.504    3.590
  302.590  102.240    0.239    0.528    3.630
  302.840   99.412    0.245    0.520    3.708
  303.090   96.760    0.236    0.489    3.768
  303.340   96.651    0.225    0.474    3.836
  303.590   96.563    0.236    0.471    3.908
  303.840   95.305    0.254    0.459    3.955
  304.090   94.122    0.268    0.446    3.993
  304.340   94.090    0.255    0.439    4.000
  304.590   95.566    0.242    0.448    4.011
  304.840   93.919    0.239    0.450    4.013
  305.090   93.090    0.248    0.434    4.019
  305.340   96.078    0.234    0.423    4.049
  305.590   98.494    0.229    0.412    4.091
  305.840   99.412    0.229    0.398    4.128
  306.090   97.851    0.226    0.402    4.188
  306.340   95.859    0.230    0.421    4.241
  306.590   97.219    0.229    0.437    4.287
  306.840   98.868    0.220    0.447    4.343
  307.090   98.110    0.213    0.457    4.364
  307.340   98.595    0.228    0.463    4.368
  307.590   98.191    0.238    0.460    4.340
  307.840   96.617    0.236    0.457    4.310
  308.090   93.725    0.227    0.461    4.180
  308.340   90.342    0.220    0.470    3.958
  308.590   85.442    0.242    0.478    3.653
  308.840   80.093    0.258    0.471    3.437
  309.090   76.636    0.283    0.466    3.118
  309.340   74.894    0.299    0.463    2.838
  309.590   73.690    0.308    0.462    2.683
  309.840   73.209    0.316    0.469    2.541
  310.090   73.535    0.322    0.475    2.505
  310.340   73.922    0.318    0.479    2.497
  310.590   74.264    0.303    0.481    2.519
  310.840   74.903    0.291    0.481    2.568
  311.090   76.332    0.283    0.474    2.644
  311.340   76.962    0.279    0.465    2.723
  311.590   76.680    0.281    0.459    2.816
  311.840   76.219    0.289    0.452    2.883
  312.090   74.982    0.286    0.446    2.884
  312.340   70.251    0.289    0.438    2.799
  312.590   64.736    0.297    0.440    2.623
  312.840   60.642    0.311    0.447    2.539
  313.090   57.326    0.310    0.448    2.393
  313.340   59.294    0.319    0.445    2.323
  313.590   66.358    0.314    0.443    2.308
  313.840   73.888    0.298    0.445    2.122
  314.090   76.934    0.295    0.449    2.342
  314.340   82.401    0.293    0.453    2.430
  314.590   86.159    0.293    0.450    2.530
  314.840   88.615    0.297    0.445    2.677
  315.090   90.913    0.277    0.443    2.877
  315.340   94.630    0.269    0.447    3.098
  315.590   97.818    0.261    0.450    3.323
  315.840   96.338    0.250    0.455    3.527
  316.090   91.975    0.242    0.461    3.634
  316.340   94.780    0.241    0.469    3.795
  316.590   96.503    0.245    0.457    3.820
  316.840   95.591    0.246    0.451    3.621
  317.090   91.358    0.246    0.452    3.354
  317.340   86.926    0.254    0.450    3.163
  317.590   82.257    0.269    0.446    3.016
  317.840   78.522    0.276    0.442    2.898
  318.090   75.859    0.272    0.434    2.818
  318.340   79.366    0.279    0.427    2.781
  318.590   80.402    0.281    0.434    2.796
  318.840   78.820    0.288    0.443    2.825
  319.090   71.417    0.296    0.448    2.855
  319.340   68.024    0.306    0.449    2.917
  319.590   67.950    0.305    0.444    3.026
  319.840   72.450    0.293    0.440    3.172
  320.090   76.884    0.279    0.439    3.346
  320.340   76.999    0.263    0.438    3.480
  320.590   74.690    0.253    0.439    3.598
  320.840   82.392    0.258    0.441    3.653
  321.090   86.151    0.259    0.448    3.653
  321.340   91.953    0.259    0.466    3.494
  321.590   96.916    0.253    0.500    3.276
  321.840  101.467    0.249    0.536    3.087
  322.090  104.382    0.240    0.562    2.949
  322.340  107.449    0.230    0.583    2.917
  322.590  105.985    0.250    0.601    2.961
  322.840  100.654    0.261    0.603    3.053
  323.090   97.355    0.250    0.555    3.201
  323.340   95.260    0.241    0.538    3.344
  323.590   92.430    0.233    0.539    3.461
  323.840   89.567    0.245    0.544    3.489
  324.090   83.865    0.264    0.549    3.391
  324.340   76.268    0.286    0.534    3.171
  324.590   71.489    0.308    0.520    2.957
  324.840   69.564    0.326    0.509    2.762
  325.090   72.160    0.323    0.504    2.664
  325.340   73.517    0.316    0.505    2.653
  325.590   73.840    0.307    0.496    2.706
  325.840   73.589    0.299    0.491    2.805
  326.090   74.044    0.293    0.491    2.907
  326.340   76.323    0.281    0.483    3.017
  326.590   78.880    0.264    0.477    3.114
  326.840   80.654    0.262    0.481    3.189
  327.090   80.388    0.275    0.500    3.175
  327.340   79.811    0.287    0.514    3.055
  327.590   80.458    0.294    0.527    2.918
  327.840   81.206    0.299    0.519    2.816
  328.090   82.056    0.286    0.512    2.787
  328.340   82.788    0.274    0.510    2.840
  328.590   84.171    0.260    0.528    2.900
  328.840   85.770    0.247    0.544    2.983
  329.090   86.614    0.242    0.554    2.996
  329.340   85.792    0.251    0.563    2.955
  329.590   78.974    0.265    0.568    2.847
  329.840   72.021    0.282    0.548    2.745
  330.090   70.458    0.304    0.531    2.640
  330.340   72.808    0.315    0.513    2.553
  330.590   74.691    0.308    0.497    2.508
