~VERSION INFORMATION
 VERS.                 2.0:   CWLS LOG ASCII STANDARD -VERSION 2.0
 WRAP.                  NO:   ONE LINE PER DEPTH STEP
~WELL INFORMATION BLOCK
#MNEM.UNIT           DATA                    DESCRIPTION OF MNEMONIC
#---------    -------------------            -------------------------------
# Generated from Intellog Unique Number	CC_80_83/WELL/2317
NULL.         -999.25                        : NULL_VALUE
WELL.         CWWE THORNBURY                 : Well_name    - WELL
LOC .         08-02-080-13W4                 : Location     - LOCATION          
UWI .         00/08-02-080-13W4/0            : Uwi          - UNIQUE WELL ID    
ENTR.         DW                             : Entered      - ENTERED BY        
SRVC.         SCHLUMBERGER                   : Scn          - SERVICE COMPANY   
STRT.M        265                            : top_depth    - START DEPTH       
STOP.M        495.091                        : bot_depth    - STOP DEPTH        
STEP.M        0.3                            : increment    - STEP LENGTH       
~CURVE INFORMATION BLOCK
#MNEM UNIT       ERCB CURVE CODE    CURVE DESCRIPTION
#-----------   ------------------   ----------------------------------
DEPT.M        00 001 00 00         : DEPTH        - DEPTH                       
DPHI.V/V      00 890 00 00         : PHID         - DENSITY POROSITY (LIMESTONE)
NPHI.V/V      00 330 00 00         : PHIN         - NEUTRON POROSITY (LIMESTONE)
GR  .API      00 310 00 00         : GR           - GAMMA RAY                   
ILD .OHMM     00 120 00 00         : RESD         - DEEP RESISTIVITY (DIL)      
~PARAMETER INFORMATION       
#MNEM.UNIT           DATA             DESCRIPTION OF MNEMONIC
#---------         -----------     ------------------------------
GL  .M        686.67               : gl           - GROUND LEVEL ELEVATION      
EREF.M        692.7                : kb           - ELEVATION OF DEPTH REFERENCE
DATM.M        692.7                : datum        - DATUM ELEVATION             
TDD .M        502                  : tdd          - TOTAL DEPTH DRILLER         
RUN .         ONE                  : Run          - RUN NUMBER                  
ENG .         BILL                 : Engineer     - RECORDING ENGINEER          
WIT .         JIM                  : Witness      - WITNESSED BY                
MUD .         GEL                  : Mud_type     - MUD TYPE                    
MATR.         LIMESTONE            : Logunit      - NEUTRON MATRIX              
TMAX.C        21                   : BHT          - MAXIMUM RECORDED TEMPERATURE
BHTD.M        503                  : BHTDEP       - MAXIMUM RECORDED TEMPERATURE
MATR.         1                    : LOGUNIT      - NEUTRON MATRIX              
RMT .C        25                   : MDTP         - TEMPERATURE OF MUD          
NEUT.         1                    : NEUTRON      - NEUTRON TYPE                
RESI.         0                    : RESIST       - RESISTIVITY TYPE            
RMC .OHMM     0.25                 : RMC          - RESISTIVITY OF MUD CAKE     
RMF .OHMM     0.25                 : RMF          - RESISTIVITY OF MUD FILTRATE 
SUFT.C        15                   : SUFT         - SURFACE TEMPERATURE         
~A  DEPTH     PHID     PHIN       GR     RESD
  265.000    0.281    0.590  106.030    2.565
  265.300    0.271    0.567  101.694    2.564
  265.600    0.268    0.508   99.837    2.765
  265.900    0.278    0.513   96.741    2.763
  266.200    0.283    0.542   94.885    2.813
  266.500    0.276    0.560   93.649    2.811
  266.800    0.265    0.526   95.513    2.754
  267.100    0.263    0.524  101.096    2.751
  267.400    0.266    0.502   98.621    2.801
  267.700    0.268    0.493   98.625    2.908
  268.000    0.227    0.524  102.969    3.019
  268.300    0.242    0.583  106.073    3.134
  268.600    0.223    0.539  101.736    3.316
  268.900    0.212    0.483   96.160    3.648
  269.200    0.234    0.482  104.845    3.934
  269.500    0.238    0.503  104.229    3.932
  269.800    0.240    0.491  109.193    3.779
  270.100    0.244    0.514  113.537    3.564
  270.400    0.247    0.538  110.441    3.629
  270.700    0.238    0.516  102.384    4.228
  271.000    0.235    0.462  101.768    4.223
  271.300    0.238    0.450  103.014    4.219
  271.600    0.243    0.503  102.397    4.055
  271.900    0.256    0.499   99.920    3.899
  272.200    0.268    0.481  106.124    3.894
  272.500    0.264    0.554  104.888    3.889
  272.800    0.258    0.514  103.651    3.962
  273.100    0.261    0.497  110.476    3.958
  273.400    0.255    0.524  110.481    3.953
  273.700    0.250    0.543  106.764    4.184
  274.000    0.251    0.498   98.087    4.601
  274.300    0.254    0.467   94.990    4.686
  274.600    0.242    0.463   93.135    4.772
  274.900    0.225    0.454   86.937    5.149
  275.200    0.202    0.428   77.021    6.234
  275.500    0.098    0.406   69.584    7.997
  275.800    0.116    0.353   62.767    9.497
  276.100    0.237    0.366   78.893   10.246
  276.400    0.274    0.414   84.477   10.041
  276.700    0.274    0.420   86.342    9.839
  277.000    0.310    0.404   86.965   10.020
  277.299    0.306    0.394   86.349   10.403
  277.599    0.292    0.415   88.214   10.589
  277.899    0.282    0.440   88.217   10.578
  278.199    0.287    0.441   87.601   10.369
  278.499    0.269    0.392   81.404    9.778
  278.799    0.261    0.372   77.068    9.397
  279.099    0.208    0.380   85.752    9.210
  279.399    0.210    0.419   93.197    9.560
  279.699    0.263    0.435   85.141    9.737
  279.999    0.271    0.431   80.804    9.916
  280.299    0.224    0.410   80.188    9.715
  280.599    0.234    0.394   77.711    9.704
  280.899    0.256    0.394   79.576    9.328
  281.199    0.261    0.400   85.781    8.303
  281.499    0.255    0.413   89.505    6.977
  281.799    0.237    0.445  101.289    4.835
  282.099    0.256    0.483  117.415    3.483
  282.399    0.263    0.494  111.839    3.284
  282.699    0.264    0.489  109.362    6.947
  282.999    0.311    0.472   91.384    8.740
  283.299    0.379    0.396   62.865    8.729
  283.599    0.393    0.406   57.289    8.232
  283.899    0.250    0.481   89.535    8.065
  284.199    0.229    0.450   99.461    8.374
  284.499    0.234    0.398   93.884    9.390
  284.799    0.212    0.427   89.547   11.814
  285.099    0.232    0.440   83.351   14.304
  285.399    0.311    0.422   72.814   16.044
  285.699    0.329    0.386   58.556   20.183
  285.999    0.339    0.360   36.858   21.363
  286.299    0.346    0.352   32.522   21.342
  286.599    0.354    0.388   33.147   19.361
  286.899    0.352    0.393   31.290   15.653
  287.199    0.333    0.374   32.534   11.942
  287.499    0.286    0.347   61.060   10.627
  287.799    0.264    0.377   87.107   10.221
  288.099    0.266    0.391   97.652    9.824
  288.399    0.248    0.393  100.135   10.002
  288.699    0.215    0.406   94.559   10.791
  288.999    0.214    0.409   88.983   12.333
  289.299    0.238    0.406   97.047   14.648
  289.599    0.322    0.435   99.532   17.069
  289.899    0.338    0.398   85.274   18.060
  290.199    0.339    0.362   76.597   18.044
  290.499    0.333    0.391   80.942   17.682
  290.799    0.342    0.404   80.326   16.994
  291.099    0.345    0.407   82.810   16.649
  291.399    0.343    0.412   75.993   16.636
  291.699    0.341    0.435   78.477   16.937
  291.999    0.314    0.421   84.061   16.923
  292.299    0.292    0.432   87.165   17.233
  292.599    0.295    0.426   92.749   17.215
  292.899    0.321    0.412   97.714   17.198
  293.199    0.348    0.417   83.457   17.178
  293.499    0.343    0.414   77.261   17.161
  293.799    0.331    0.414   81.604   17.138
  294.099    0.314    0.412   97.110   17.124
  294.399    0.298    0.402  110.755   17.112
  294.699    0.282    0.388   97.737   16.133
  294.999    0.251    0.352   78.520   15.212
  295.299    0.215    0.321   77.284   14.620
  295.599    0.215    0.386   87.829   14.885
  295.899    0.254    0.391   81.012   14.594
  296.199    0.245    0.362   70.475   13.241
  296.499    0.204    0.354   66.758   11.339
  296.799    0.179    0.362   71.723   10.290
  297.099    0.208    0.402   77.927    8.813
  297.399    0.185    0.402   93.432    7.995
  297.699    0.189    0.402   97.157    7.394
  297.999    0.228    0.416  101.501    6.840
  298.299    0.199    0.442  117.007    6.450
  298.599    0.176    0.476  123.831    5.967
  298.899    0.204    0.484  130.656    5.626
  299.199    0.214    0.488  133.760    5.620
  299.499    0.200    0.503  127.563    6.422
  299.799    0.209    0.503  125.088    6.796
  300.099    0.173    0.524  124.471    6.922
  300.399    0.126    0.524  109.593    6.527
  300.699    0.132    0.516  106.497    5.698
  300.999    0.178    0.466  118.282    5.072
  301.299    0.205    0.462  124.486    4.344
  301.599    0.199    0.514  126.352    3.720
  301.898    0.228    0.478  127.595    3.376
  302.198    0.236    0.524  131.939    3.572
  302.498    0.246    0.566  139.383    4.583
  302.798    0.261    0.566  143.728   12.938
  303.098    0.273    0.526  136.291   14.221
  303.398    0.294    0.462  125.135   14.214
  303.698    0.275    0.397  107.156   14.473
  303.998    0.252    0.386  100.340   14.178
  304.298    0.247    0.407  105.924   13.893
  304.598    0.261    0.437  117.089   13.359
  304.898    0.291    0.446  102.211   11.664
  305.198    0.321    0.401   85.474    8.242
  305.498    0.301    0.381   92.919    7.478
  305.798    0.205    0.454  118.345    7.763
  306.098    0.206    0.489  124.549    9.580
  306.398    0.230    0.454  126.414   10.744
  306.698    0.240    0.440  126.417   12.043
  306.998    0.247    0.426  118.361   12.743
  307.298    0.258    0.421  120.224   13.226
  307.598    0.272    0.446  123.329   13.472
  307.898    0.297    0.458  115.272   12.948
  308.198    0.329    0.441   95.434   12.694
  308.498    0.294    0.404   89.237   12.434
  308.798    0.244    0.422  105.983   12.665
  309.098    0.260    0.423  107.228   12.899
  309.398    0.266    0.397  105.991   13.382
  309.698    0.273    0.397  102.275   13.631
  309.998    0.291    0.402   88.637   13.623
  310.298    0.303    0.395   76.860   13.604
  310.598    0.298    0.396   79.345   13.331
  310.898    0.297    0.400   74.388   12.815
  311.198    0.302    0.387   70.051   11.626
  311.498    0.297    0.376   72.536   10.754
  311.798    0.270    0.381   84.320   10.535
  312.098    0.236    0.392   92.385   10.730
  312.398    0.232    0.399   92.390   10.722
  312.698    0.257    0.402   92.393   10.503
  312.998    0.260    0.405   95.498   10.296
  313.298    0.242    0.396  100.462    9.708
  313.598    0.235    0.382  100.466    8.979
  313.898    0.232    0.380   93.649    8.628
  314.198    0.230    0.399   93.033    8.621
  314.498    0.245    0.433   93.656    8.952
  314.798    0.248    0.423   93.041    9.289
  315.098    0.248    0.403   93.664    9.283
  315.398    0.251    0.411   94.289    9.271
  315.698    0.277    0.422   87.472    8.912
  315.998    0.271    0.427   86.235    8.904
  316.298    0.261    0.429   96.780    9.063
  316.598    0.260    0.426   95.544    9.056
  316.898    0.243    0.446   99.888    9.046
