~VERSION INFORMATION
 VERS.                 2.0:   CWLS LOG ASCII STANDARD -VERSION 2.0
 WRAP.                  NO:   ONE LINE PER DEPTH STEP
~WELL INFORMATION BLOCK
#MNEM.UNIT           DATA                    DESCRIPTION OF MNEMONIC
#---------    -------------------            -------------------------------
# Generated from Intellog Unique Number	CW_70_72/WELL/554
NULL.         -999.25                        : NULL_VALUE
WELL.         BOWRIO ET AL SMITH 06-06       : Well_name    - WELL              
LOC .         06-06-071-25W4                 : Location     - LOCATION          
UWI .         00/06-06-071-25W4/0            : Uwi          - UNIQUE WELL ID    
ENTR.         JAYE                           : Entered      - ENTERED BY        
SRVC.         SCHLUMBERGER                   : Scn          - SERVICE COMPANY   
DATE.         25 MAY 80                      : Date         - LOG DATE          
STRT.M        463                            : top_depth    - START DEPTH       
STOP.M        680                            : bot_depth    - STOP DEPTH        
STEP.M        0.25                           : increment    - STEP LENGTH       
~CURVE INFORMATION BLOCK
#MNEM UNIT       ERCB CURVE CODE    CURVE DESCRIPTION
#-----------   ------------------   ----------------------------------
DEPT.M        00 001 00 00         : DEPTH        - DEPTH                       
DPHI.V/V      00 890 00 00         : PHID         - DENSITY POROSITY (SANDSTONE)
NPHI.V/V      00 330 00 00         : PHIN         - NEUTRON POROSITY (SANDSTONE)
GR  .API      00 310 00 00         : GR           - GAMMA RAY                   
CALI.MM       00 280 01 00         : CAL          - CALIPER                     
ILD .OHMM     00 120 00 00         : RESD         - DEEP RESISTIVITY (DIL)      
~PARAMETER INFORMATION       
#MNEM.UNIT           DATA             DESCRIPTION OF MNEMONIC
#---------         -----------     ------------------------------
GL  .M        647.5                : gl           - GROUND LEVEL ELEVATION      
EREF.M        651                  : kb           - ELEVATION OF DEPTH REFERENCE
DATM.M        647.5                : datum        - DATUM ELEVATION             
TDD .M        690                  : tdd          - TOTAL DEPTH DRILLER         
RUN .         ONE                  : Run          - RUN NUMBER                  
ENG .         BRANDSTROM           : Engineer     - RECORDING ENGINEER          
WIT .         GRANT                : Witness      - WITNESSED BY                
BASE.         EDM                  : Branch       - HOME BASE OF LOGGING UNIT   
MUD .         GEL CHEM             : Mud_type     - MUD TYPE                    
MATR.         SANDSTONE            : Logunit      - NEUTRON MATRIX              
TMAX.C        25.4                 : BHT          - MAXIMUM RECORDED TEMPERATURE
BHTD.M        692                  : BHTDEP       - MAXIMUM RECORDED TEMPERATURE
RMT .C        15                   : MDTP         - TEMPERATURE OF MUD          
MUDD.KG/M     1160                 : MWT          - MUD DENSITY                 
NEUT.         1                    : NEUTRON      - NEUTRON TYPE                
RESI.         0                    : RESIST       - RESISTIVITY TYPE            
RM  .OHMM     3.13                 : RM           - RESISTIVITY OF MUD          
RMC .OHMM     0                    : RMC          - RESISTIVITY OF MUD CAKE     
RMF .OHMM     2.62                 : RMF          - RESISTIVITY OF MUD FILTRATE 
SUFT.C        32                   : SUFT         - SURFACE TEMPERATURE         
~A  DEPTH     PHID     PHIN       GR      CAL     RESD
# ...
  536.000    0.196    0.402   79.886  205.677    4.449
  536.250    0.194    0.387   82.203  206.426    4.226
  536.500    0.196    0.401   87.322  206.970    3.954
  536.750    0.186    0.421   91.753  207.105    3.658
  537.000    0.185    0.434   86.232  206.922    3.254
  537.250    0.193    0.423   79.653  206.740    2.999
  537.500    0.198    0.401   72.327  206.040    3.181
  537.750    0.226    0.371   65.501  202.127    3.431
  538.000    0.207    0.324   62.155  198.316    3.750
  538.250    0.181    0.302   61.052  196.993    3.888
  538.500    0.139    0.312   61.813  198.058    3.777
  538.750    0.210    0.352   67.182  199.949    3.593
  539.000    0.243    0.425   70.120  201.742    3.120
  539.250    0.268    0.405   70.323  202.907    2.648
  539.500    0.266    0.409   67.476  203.243    2.414
  539.750    0.255    0.424   63.698  197.983    2.332
  540.000    0.252    0.421   61.785  196.659    2.299
  540.250    0.249    0.425   68.769  196.998    2.275
  540.500    0.258    0.431   69.655  197.334    2.251
  540.750    0.254    0.423   63.075  197.984    2.245
  541.000    0.239    0.417   59.234  199.254    2.242
  541.250    0.228    0.431   58.814  200.108    2.219
  541.500    0.239    0.421   55.470  200.758    2.217
  541.750    0.268    0.406   56.419  201.198    2.202
  542.000    0.269    0.422   59.733  201.641    2.200
  542.250    0.260    0.438   61.678  201.251    2.198
  542.500    0.252    0.446   60.512  200.758    2.163
  542.750    0.266    0.439   61.523  198.712    2.148
  543.000    0.261    0.436   62.659  195.730    2.130
  543.250    0.265    0.434   65.286  194.200    2.124
  543.500    0.284    0.428   69.100  193.606    2.126
  543.750    0.285    0.422   67.559  195.707    2.119
  544.000    0.280    0.442   63.218  198.011    2.129
  544.250    0.277    0.436   61.120  193.372    2.147
  544.500    0.269    0.426   62.691  193.401    2.218
  544.750    0.258    0.428   63.203  196.223    2.330
  545.000    0.254    0.433   60.295  200.087    2.528
  545.250    0.240    0.428   57.697  201.046    3.085
  545.500    0.216    0.406   58.586  199.726    3.771
  545.750    0.177    0.362   61.898  199.441    4.681
  546.000    0.144    0.294   59.861  199.678    5.049
  546.250    0.116    0.275   59.629  200.122    4.941
  546.500    0.097    0.326   60.141  200.146    4.817
  546.750    0.143    0.374   63.330  200.171    4.635
  547.000    0.182    0.404   65.150  200.298    4.248
  547.250    0.143    0.362   63.797  200.224    3.901
  547.500    0.132    0.394   65.554  200.250    3.419
  547.750    0.206    0.440   71.979  200.377    2.996
  548.000    0.253    0.451   76.660  200.402    2.640
  548.250    0.240    0.437   76.738  200.431    2.593
  548.500    0.250    0.428   72.275  200.352    2.620
  548.750    0.252    0.430   76.957  200.384    2.681
  549.000    0.228    0.435   81.452  200.508    2.755
  549.250    0.223    0.443   84.578  200.741    2.809
  549.500    0.202    0.432   84.594  201.293    2.875
  549.750    0.216    0.429   82.308  201.629    2.949
  550.000    0.218    0.441   83.880  201.863    3.052
  550.250    0.207    0.446   85.389  202.310    3.177
  550.500    0.212    0.434   86.650  202.430    3.363
  550.750    0.199    0.417   86.167  202.873    3.547
  551.000    0.188    0.413   84.004  203.113    3.706
  551.250    0.183    0.421   86.695  203.241    3.829
  551.500    0.174    0.426   90.071  203.366    3.904
  551.750    0.164    0.431   90.647  203.285    3.938
  552.000    0.157    0.439   92.093  203.315    3.947
  552.250    0.148    0.450   94.100  203.549    3.958
  552.500    0.180    0.460   93.309  204.201    3.969
  552.750    0.173    0.462   92.576  204.744    4.017
  553.000    0.173    0.441   92.592  205.288    4.028
  553.250    0.167    0.430   92.172  206.143    4.054
  553.500    0.161    0.443   93.183  207.207    4.057
  553.750    0.159    0.437   95.314  207.956    4.031
  554.000    0.155    0.426   93.651  208.611    3.989
  554.250    0.143    0.433   93.604  208.941    3.984
  554.500    0.133    0.449   96.233  209.590    3.973
  554.750    0.131    0.464   97.680  210.029    3.961
  555.000    0.145    0.446   95.580  210.583    3.920
  555.250    0.171    0.451   97.338  210.921    3.901
  555.500    0.160    0.456  101.336  211.050    3.890
  555.750    0.144    0.447  100.107  211.283    3.886
  556.000    0.154    0.428   95.581  211.513    3.831
  556.250    0.166    0.420   97.960  211.745    3.715
  556.500    0.151    0.427   97.355  211.774    3.607
  556.750    0.140    0.446   97.744  211.695    3.357
  557.000    0.139    0.455   98.259  211.203    3.129
  557.250    0.164    0.469   96.406  209.877    2.966
  557.500    0.190    0.435   89.953  207.726    2.780
  557.750    0.255    0.419   82.875  203.816    2.710
  558.000    0.246    0.415   74.741  202.804    2.764
  558.250    0.247    0.425   74.882  201.999    2.899
  558.500    0.244    0.429   77.199  201.921    3.097
  558.750    0.224    0.423   82.005  203.502    3.411
  559.000    0.187    0.421   85.877  205.192    3.603
  559.250    0.167    0.421   89.192  206.255    3.620
  559.500    0.184    0.425   93.189  206.693    3.644
  559.750    0.212    0.447   90.405  206.929    3.785
  560.000    0.241    0.474   86.687  205.813    4.000
  560.250    0.263    0.490   83.094  205.526    4.290
  560.500    0.301    0.519   81.868  205.868    4.714
  560.750    0.339    0.560   80.388  207.141    5.075
  561.000    0.425    0.606   74.619  207.891    4.957
  561.250    0.516    0.642   67.044  208.535    4.595
  561.500    0.425    0.527   60.714  208.773    4.268
  561.750    0.353    0.469   67.200  208.803    4.099
  562.000    0.199    0.435   78.726  208.823    3.989
  562.250    0.178    0.427   85.398  208.540    4.045
  562.500    0.171    0.426   85.476  208.467    4.101
  562.750    0.159    0.432   85.181  208.387    4.158
  563.000    0.153    0.463   86.070  208.515    4.115
  563.250    0.163    0.463   87.452  208.538    4.080
  563.500    0.172    0.433   89.647  208.565    4.031
  563.750    0.177    0.435   91.155  208.591    3.981
  564.000    0.174    0.440   86.380  208.622    3.889
  564.250    0.166    0.443   87.079  208.337    3.756
  564.500    0.161    0.445   89.149  207.949    3.547
  564.750    0.165    0.440   89.788  206.725    3.319
  565.000    0.172    0.420   89.304  204.679    2.947
  565.250    0.182    0.417   88.636  202.944    2.696
  565.500    0.196    0.423   86.414  201.933    2.508
  565.750    0.210    0.429   83.877  201.237    2.396
  566.000    0.224    0.441   80.906  201.156    2.331
  566.250    0.232    0.442   81.420  201.288    2.369
  566.500    0.236    0.443   79.197  201.313    2.488
  566.750    0.236    0.453   76.351  201.234    2.720
  567.000    0.241    0.441   75.681  201.261    2.983
  567.250    0.234    0.418   76.319  201.085    3.152
  567.500    0.221    0.395   77.143  200.795    2.884
  567.750    0.201    0.377   74.422  200.823    2.683
  568.000    0.194    0.384   71.514  200.849    2.601
  568.250    0.228    0.401   70.162  200.567    2.517
  568.500    0.242    0.416   70.303  200.071    2.445
  568.750    0.241    0.433   71.251  200.313    2.410
  569.000    0.246    0.409   74.749  200.332    2.403
  569.250    0.251    0.396   75.263  200.458    2.405
  569.500    0.234    0.392   73.662  200.697    2.421
  569.750    0.232    0.407   71.687  200.926    2.432
  570.000    0.237    0.419   70.333  201.061    2.503
  570.250    0.236    0.418   72.091  201.087    2.630
  570.500    0.236    0.407   73.911  201.430    2.961
  570.750    0.253    0.399   74.424  201.864    3.621
  571.000    0.236    0.411   74.878  202.199    4.468
  571.250    0.216    0.408   75.763  202.329    5.619
  571.500    0.187    0.388   73.726  202.365    6.642
  571.750    0.173    0.370   68.516  202.384    8.122
  572.000    0.144    0.343   64.239  202.718    9.009
  572.250    0.117    0.316   62.138  202.952    8.014
