~VERSION INFORMATION
 VERS.                 2.0:   CWLS LOG ASCII STANDARD -VERSION 2.0
 WRAP.                  NO:   ONE LINE PER DEPTH STEP
~WELL INFORMATION BLOCK
#MNEM.UNIT           DATA                    DESCRIPTION OF MNEMONIC
#---------    -------------------            -------------------------------
# Generated from Intellog Unique Number	CW_76_78/WELL/2563
WELL.         SCURRY ET AL DOUCETTE          : Well_name    - WELL
LOC .         00/02-08-078-02W5/0            : Location     - LOCATION
UWI .         00/02-08-078-02W5/0            : Uwi          - UNIQUE WELL ID
ENTR.         MAX                            : Entered      - ENTERED BY
SRVC.         WESTERN ATLAS                  : Scn          - SERVICE COMPANY
STRT.M        355                            : top_depth    - START DEPTH
STOP.M        605                            : bot_depth    - STOP DEPTH
STEP.M        0.25                           : increment    - STEP LENGTH
 NULL. -999.2500:NULL Value
~CURVE INFORMATION BLOCK
#MNEM UNIT       ERCB CURVE CODE    CURVE DESCRIPTION
#-----------   ------------------   ----------------------------------
DEPT.M        00 001 00 00         : DEPTH        - DEPTH
ILD .OHMM     00 120 00 00         : RESD         - DEEP RESISTIVITY (DIL)
NPHI.V/V      00 330 00 00         : PHIN         - NEUTRON POROSITY (SANDSTONE)
DPHI.V/V      00 890 00 00         : PHID         - DENSITY POROSITY (SANDSTONE)
CALI.MM       00 280 01 00         : CAL          - CALIPER
GR  .API      00 310 00 00         : GR           - GAMMA RAY
~PARAMETER INFORMATION
#MNEM.UNIT           DATA             DESCRIPTION OF MNEMONIC
#---------         -----------     ------------------------------
GL  .M        647.79               : gl           - GROUND LEVEL ELEVATION
EREF.M        652.05               : kb           - ELEVATION OF DEPTH REFERENCE
DATM.M        647.79               : datum        - DATUM ELEVATION
TDD .M        628                  : tdd          - TOTAL DEPTH DRILLER
RUN .         ONE                  : Run          - RUN NUMBER
ENG .         BILL                 : Engineer     - RECORDING ENGINEER
WIT .         JIM                  : Witness      - WITNESSED BY
MUD .         GEL                  : Mud_type     - MUD TYPE
MATR.         SANDSTONE            : Logunit      - NEUTRON MATRIX
TMAX.C        30                   : BHT          - MAXIMUM RECORDED TEMPERATURE
BHTD.M        627.3                : BHTDEP       - MAXIMUM RECORDED TEMPERATURE
RMT .C        13                   : MDTP         - TEMPERATURE OF MUD
MUDD.KG/M     1190                 : MWT          - MUD DENSITY
NEUT.         1                    : NEUTRON      - NEUTRON TYPE
RESI.         0                    : RESIST       - RESISTIVITY TYPE
RM  .OHMM     3.5                  : RM           - RESISTIVITY OF MUD
RMC .OHMM     2.2                  : RMC          - RESISTIVITY OF MUD CAKE
RMF .OHMM     3.9                  : RMF          - RESISTIVITY OF MUD FILTRATE
SUFT.C        -10                  : SUFT         - SURFACE TEMPERATURE
~A  DEPTH     RESD     PHIN     PHID      CAL       GR
# ...
  501.000   14.513    0.351    0.223  202.700   74.060
  501.250   14.508    0.350    0.215  202.194   79.279
  501.500   14.899    0.355    0.217  202.170   85.950
  501.750   15.300    0.361    0.224  201.661   87.385
  502.000   15.430    0.366    0.215  201.633   83.593
  502.250   15.423    0.378    0.215  201.608   81.253
  502.500   15.005    0.387    0.224  201.584   82.982
  502.750   14.599    0.386    0.237  201.559   83.837
  503.000   13.948    0.376    0.240  201.525   84.113
  503.250   13.208    0.370    0.234  201.501   87.587
  503.500   12.620    0.376    0.227  201.964   91.350
  503.750   11.843    0.380    0.215  201.939   92.498
  504.000   11.114    0.372    0.209  201.911   93.937
  504.250   10.151    0.361    0.203  201.405   95.083
  504.500    9.966    0.358    0.202  200.893   93.615
  504.750    9.960    0.361    0.198  200.865   93.600
  505.000    9.955    0.362    0.195  200.841   95.328
  505.250    9.952    0.360    0.193  200.332   96.768
  505.500    9.769    0.358    0.190  200.307   97.040
  505.750    9.764    0.352    0.187  200.282   92.376
  506.000   10.027    0.349    0.182  200.258   83.058
  506.250   10.485    0.349    0.175  202.165   86.243
  506.500   10.767    0.351    0.168  204.084   90.875
  506.750   10.570    0.356    0.180  205.991   93.186
  507.000   10.570    0.360    0.193  205.970   95.207
  507.250   10.371    0.361    0.189  204.492   98.681
  507.500    9.910    0.365    0.176  201.557   99.829
  507.750    9.554    0.362    0.171  200.567   94.578
  508.000    9.464    0.348    0.167  200.542   93.984
  508.250    9.546    0.344    0.167  201.480   93.965
  508.500    9.891    0.338    0.173  201.456   93.662
  508.750   10.436    0.326    0.171  202.403   91.322
  509.000   11.110    0.309    0.158  202.860   84.912
  509.250   12.044    0.296    0.140  202.351   84.603
  509.500   12.369    0.292    0.120  201.354   87.499
  509.750   12.033    0.309    0.119  203.270   95.330
  510.000   11.497    0.332    0.167  204.212  102.291
  510.250   10.222    0.350    0.175  204.671  106.637
  510.500    8.607    0.360    0.180  206.581  107.490
  510.750    8.375    0.359    0.177  208.010  106.315
  511.000    8.074    0.356    0.175  208.954  104.554
  511.250    7.927    0.350    0.176  208.933  103.086
  511.500    8.288    0.347    0.175  207.936  101.329
  511.750    8.823    0.339    0.176  205.005   96.954
  512.000    9.739    0.333    0.179  201.102   90.830
  512.250   10.463    0.327    0.171  199.142   90.817
  512.500   11.342    0.324    0.155  197.661   92.837
  512.750   11.647    0.329    0.159  196.668   93.694
  513.000   11.852    0.335    0.172  195.190   81.180
  513.250   12.618    0.308    0.162  193.221   73.027
  513.500   15.105    0.286    0.123  192.225   66.614
  513.750   15.938    0.266    0.089  193.175   66.019
  514.000   20.502    0.249    0.015  197.992   67.747
  514.250   23.250    0.259    0.042  199.908   67.151
  514.500   29.376    0.274    0.114  200.362   68.297
  514.750   30.441    0.290    0.202  200.334   69.737
  515.000   30.149    0.312    0.214  200.316   73.501
  515.250   28.296    0.324    0.201  200.775   76.102
  515.500   24.264    0.323    0.174  201.232   76.956
  515.750   22.361    0.298    0.145  200.720   80.429
  516.000   21.561    0.296    0.111  200.695   81.284
  516.250   20.789    0.321    0.098  200.674   79.237
  516.500   19.159    0.328    0.145  200.646   78.059
  516.750   17.660    0.339    0.173  200.134   80.661
  517.000   13.713    0.350    0.172  200.594   84.425
  517.250   12.082    0.358    0.171  201.051   87.315
  517.500   10.176    0.359    0.172  201.026   88.463
  517.750    9.127    0.360    0.173  200.523   91.647
  518.000    9.042    0.364    0.171  199.527   92.793
  518.250    9.203    0.366    0.171  198.530   94.230
  518.500    9.708    0.363    0.182  198.024   91.310
  518.750   10.337    0.360    0.199  197.996   84.610
  519.000   11.205    0.360    0.209  197.003   81.975
  519.250   11.507    0.358    0.211  196.491   84.288
  519.500   11.502    0.354    0.217  195.985   88.341
  519.750   11.290    0.355    0.213  194.500   89.489
  520.000   10.984    0.360    0.212  193.991   90.348
  520.250   10.784    0.360    0.210  193.479   89.461
  520.500   10.395    0.360    0.205  193.461   85.956
  520.750   10.299    0.361    0.194  193.917   84.198
  521.000   10.293    0.363    0.181  195.346   85.923
  521.250   10.289    0.364    0.181  199.679   89.109
  521.500   10.101    0.364    0.193  202.076   93.162
  521.750    9.738    0.364    0.189  202.533   93.147
  522.000    9.560    0.367    0.173  204.452   91.968
  522.250    9.556    0.366    0.172  204.906   92.536
  522.500    9.550    0.369    0.172  203.915   91.066
  522.750    9.632    0.366    0.170  202.438   87.271
  523.000    9.716    0.356    0.155  203.379   89.291
  523.250    9.888    0.347    0.145  204.807   90.441
  523.500    9.972    0.347    0.160  204.777   88.676
  523.750    9.878    0.351    0.172  205.724   87.503
  524.000    9.873    0.359    0.180  205.702   87.486
  524.250    9.959    0.361    0.188  205.675   89.217
  524.500   10.044    0.358    0.187  205.163   91.233
  524.750   10.597    0.353    0.173  204.169   90.347
  525.000   11.282    0.346    0.175  203.179   81.323
  525.250   12.680    0.338    0.175  201.216   72.877
  525.500   17.374    0.304    0.159  198.763   65.595
  525.750   20.243    0.288    0.110  198.739   64.122
  526.000   24.450    0.274    0.091  200.649   65.564
  526.250   30.065    0.259    0.085  201.599   68.454
  526.500   33.486    0.262    0.090  201.081   70.765
  526.750   33.468    0.268    0.087  201.062   72.786
  527.000   31.129    0.282    0.084  200.553   76.550
  527.250   24.836    0.288    0.114  200.044   77.985
  527.500   22.080    0.286    0.145  200.501   71.578
  527.750   21.288    0.271    0.133  200.476   68.656
  528.000   22.662    0.247    0.088  200.449   59.630
  528.250   24.343    0.223    0.047  200.905   56.707
  528.500   25.455    0.207    0.040  201.362   54.656
  528.750   25.215    0.199    0.039  201.341   62.199
  529.000   24.534    0.225    0.043  201.319   74.392
  529.250   22.611    0.271    0.090  200.326   82.514
  529.500   18.704    0.315    0.145  199.813   85.408
  529.750   15.058    0.330    0.172  198.817   85.682
  530.000   12.796    0.335    0.174  198.789   84.506
  530.250   12.338    0.336    0.177  198.764   83.620
  530.500   12.112    0.338    0.181  198.262   85.345
  530.750   12.436    0.341    0.181  197.746   87.078
  531.000   12.658    0.338    0.175  197.237   81.244
  531.250   12.882    0.337    0.170  198.182   84.140
  531.500   12.876    0.337    0.171  199.610   89.357
  531.750   12.527    0.339    0.173  199.583   86.726
  532.000   12.527    0.343    0.169  200.042   81.766
  532.250   12.181    0.343    0.160  200.021   83.207
  532.500   11.126    0.342    0.146  199.996   91.912
  532.750   10.535    0.342    0.143  199.972   93.058
  533.000   10.067    0.342    0.145  200.910   91.009
  533.250    9.532    0.344    0.141  201.857   89.248
  533.500    9.026    0.346    0.130  202.314   90.977
  533.750    8.702    0.346    0.126  202.292   98.231
  534.000    8.544    0.346    0.135  199.842  103.449
  534.250    8.544    0.348    0.148  197.395  103.721
  534.500    8.457    0.348    0.155  196.886  101.382
  534.750    8.379    0.345    0.156  198.315   97.589
  535.000    8.528    0.339    0.141  199.256   92.631
  535.250    8.757    0.324    0.147  196.325   92.327
  535.500    9.074    0.310    0.158  192.422   94.344
  535.750    9.489    0.305    0.171  191.916   95.782
  536.000   10.192    0.299    0.175  191.916   87.338
  536.250   10.852    0.286    0.178  191.863   80.347
  536.500   12.990    0.270    0.163  193.286   76.844
  536.750   14.730    0.254    0.136  193.267   71.888
  537.000   17.316    0.249    0.111  192.755   65.475
  537.250   17.783    0.254    0.120  192.755   72.727
