~VERSION INFORMATION
 VERS.                 2.0:   CWLS LOG ASCII STANDARD -VERSION 2.0
 WRAP.                  NO:   ONE LINE PER DEPTH STEP
~WELL INFORMATION BLOCK
#MNEM.UNIT           DATA                    DESCRIPTION OF MNEMONIC
#---------    -------------------            -------------------------------
# Generated from Intellog Unique Number	CS_77_79/WELL/3264
WELL.         NUMAC OIL & GAS LTD.           : Well_name    - WELL
LOC .         00/01-12-079-14W4/0            : Location     - LOCATION
UWI .         00/01-12-079-14W4/0            : Uwi          - UNIQUE WELL ID
ENTR.         JOETTE                         : Entered      - ENTERED BY
SRVC.         SCHLUMBERGER                   : Scn          - SERVICE COMPANY
DATE.         08/24/92                       : Date         - LOG DATE
STRT.M        280                            : top_depth    - START DEPTH
STOP.M        510                            : bot_depth    - STOP DEPTH
STEP.M        0.25                           : increment    - STEP LENGTH
 NULL. -999.2500:NULL Value
~CURVE INFORMATION BLOCK
#MNEM UNIT       ERCB CURVE CODE    CURVE DESCRIPTION
#-----------   ------------------   ----------------------------------
DEPT.M        00 001 00 00         : DEPTH        - DEPTH
ILD .OHMM     00 120 00 00         : RESD         - DEEP RESISTIVITY (DIL)
DPHI.V/V      00 890 00 00         : PHID         - DENSITY POROSITY (SANDSTONE)
NPHI.V/V      00 330 00 00         : PHIN         - NEUTRON POROSITY (SANDSTONE)
GR  .API      00 310 00 00         : GR           - GAMMA RAY
~PARAMETER INFORMATION
#MNEM.UNIT           DATA             DESCRIPTION OF MNEMONIC
#---------         -----------     ------------------------------
GL  .M        688.6                : gl           - GROUND LEVEL ELEVATION
EREF.M        692.05               : kb           - ELEVATION OF DEPTH REFERENCE
DATM.M        692.05               : datum        - DATUM ELEVATION
TDD .M        521                  : tdd          - TOTAL DEPTH DRILLER
RUN .         ONE                  : Run          - RUN NUMBER
ENG .         BILL                 : Engineer     - RECORDING ENGINEER
WIT .         JIM                  : Witness      - WITNESSED BY
MUD .         GEL                  : Mud_type     - MUD TYPE
MATR.         SANDSTONE            : Logunit      - NEUTRON MATRIX
TMAX.C        34                   : BHT          - MAXIMUM RECORDED TEMPERATURE
BHTD.M        521                  : BHTDEP       - MAXIMUM RECORDED TEMPERATURE
RMT .C        22.1                 : MDTP         - TEMPERATURE OF MUD
MUDD.KG/M     1070                 : MWT          - MUD DENSITY
NEUT.         1                    : NEUTRON      - NEUTRON TYPE
RESI.         0                    : RESIST       - RESISTIVITY TYPE
RM  .OHMM     3.4                  : RM           - RESISTIVITY OF MUD
RMC .OHMM     5.1                  : RMC          - RESISTIVITY OF MUD CAKE
RMF .OHMM     2.8                  : RMF          - RESISTIVITY OF MUD FILTRATE
SUFT.C        4                    : SUFT         - SURFACE TEMPERATURE
~A  DEPTH     RESD     PHID     PHIN       GR
# ...
  323.500   12.973    0.334    0.486   80.194
  323.750   12.740    0.327    0.497   89.963
  324.000   12.283    0.299    0.491   91.222
  324.250   11.626    0.300    0.492   94.302
  324.500   11.425    0.331    0.485   88.883
  324.750   11.655    0.349    0.445   80.429
  325.000   12.582    0.322    0.432   74.999
  325.250   13.829    0.313    0.419   68.367
  325.500   14.656    0.298    0.413   70.233
  325.750   14.956    0.294    0.415   73.324
  326.000   14.965    0.300    0.420   69.131
  326.250   14.433    0.306    0.431   67.332
  326.500   15.286    0.331    0.463   62.520
  326.750   18.457    0.336    0.469   61.969
  327.000   26.894    0.343    0.469   63.240
  327.250   29.013    0.354    0.473   63.285
  327.500   31.309    0.360    0.477   62.115
  327.750   34.446    0.368    0.491   60.957
  328.000   35.119    0.375    0.500   60.373
  328.250   36.505    0.374    0.494   59.810
  328.500   44.926    0.369    0.485   59.855
  328.750   50.315    0.367    0.482   59.900
  329.000   56.387    0.364    0.478   60.563
  329.250   54.381    0.364    0.475   61.204
  329.500   50.534    0.366    0.478   63.688
  329.750   48.721    0.369    0.481   63.744
  330.000   46.117    0.373    0.490   63.778
  330.250   50.722    0.371    0.486   63.205
  330.500   55.753    0.362    0.483   61.428
  330.750   60.165    0.362    0.485   60.270
  331.000   60.277    0.363    0.474   60.315
  331.250   60.333    0.368    0.475   60.956
  331.500   58.169    0.375    0.498   61.034
  331.750   56.100    0.379    0.499   60.450
  332.000   54.104    0.380    0.499   58.673
  332.250   50.261    0.380    0.505   59.932
  332.500   47.574    0.374    0.500   63.024
  332.750   45.031    0.337    0.470   61.236
  333.000   40.307    0.314    0.439   61.292
  333.250   36.738    0.305    0.401   60.719
  333.500   31.675    0.282    0.377   58.336
  333.750   28.870    0.278    0.362   56.582
  334.000   24.422    0.270    0.381   55.997
  334.250   20.276    0.260    0.413   56.042
  334.500   18.144    0.300    0.443   57.301
  334.750   15.934    0.334    0.462   55.536
  335.000   14.532    0.364    0.456   53.153
  335.250   14.011    0.365    0.460   50.769
  335.500   13.525    0.366    0.473   52.028
  335.750   13.533    0.366    0.486   53.894
  336.000   13.806    0.360    0.497   55.760
  336.250   13.823    0.328    0.508   58.233
  336.500   14.102    0.315    0.515   55.254
  336.750   14.115    0.301    0.514   54.074
  337.000   14.137    0.360    0.506   52.297
  337.250   13.896    0.366    0.504   54.175
  337.500   13.905    0.363    0.504   55.422
  337.750   13.419    0.357    0.502   55.490
  338.000   13.427    0.354    0.494   54.905
  338.250   13.198    0.354    0.473   52.522
  338.500   13.211    0.359    0.456   50.757
  338.750   12.986    0.361    0.456   50.801
  339.000   13.002    0.364    0.458   50.228
  339.250   13.018    0.367    0.463   49.677
  339.500   12.792    0.368    0.468   49.722
  339.750   12.808    0.367    0.475   49.778
  340.000   12.586    0.362    0.483   49.800
  340.250   12.598    0.362    0.488   51.071
  340.500   12.617    0.363    0.487   51.711
  340.750   12.637    0.364    0.474   51.767
  341.000   12.422    0.364    0.462   51.217
  341.250   12.433    0.369    0.468   50.666
  341.500   12.452    0.365    0.479   50.092
  341.750   12.460    0.362    0.468   48.923
  342.000   12.248    0.360    0.468   48.968
  342.250   12.263    0.362    0.473   47.798
  342.500   12.278    0.362    0.470   45.415
  342.750   12.293    0.360    0.455   46.056
  343.000   12.084    0.360    0.443   47.922
  343.250   12.092    0.361    0.435   52.227
  343.500   12.107    0.363    0.441   53.486
  343.750   12.122    0.363    0.447   53.531
  344.000   11.911    0.365    0.442   51.755
  344.250   11.934    0.367    0.434   49.372
  344.500   11.945    0.365    0.439   49.416
  344.750   11.945    0.361    0.445   50.057
  345.000   11.327    0.361    0.455   50.113
  345.250   13.423    0.362    0.458   50.147
  345.500   13.432    0.362    0.470   50.214
  345.750   13.457    0.363    0.480   50.248
  346.000   13.469    0.364    0.471   50.304
  346.250   13.469    0.365    0.462   50.338
  346.500   12.296    0.368    0.470   50.989
  346.750   12.777    0.368    0.478   51.034
  347.000   12.793    0.365    0.492   51.697
  347.250   12.808    0.369    0.489   52.338
  347.500   12.824    0.369    0.479   53.620
  347.750   12.844    0.367    0.484   54.856
  348.000   12.860    0.366    0.474   56.115
  348.250   12.880    0.366    0.462   54.957
  348.500   12.649    0.367    0.481   52.574
  348.750   12.433    0.367    0.483   50.797
  349.000   12.222    0.357    0.481   50.831
  349.250   12.233    0.346    0.479   56.351
  349.500   12.244    0.353    0.466   56.396
  349.750   12.040    0.358    0.444   54.619
  350.000   12.047    0.354    0.438   53.450
  350.250   12.069    0.349    0.432   57.149
  350.500   12.081    0.336    0.390   57.205
  350.750   13.041    0.295    0.359   57.227
  351.000   14.334    0.110    0.287   57.272
  351.250   16.059    0.051    0.259   55.496
  351.500   20.131    0.015    0.218   52.505
  351.750   23.856   -0.020    0.195   45.265
  352.000   31.056   -0.033    0.169   43.489
  352.250   37.510   -0.027    0.151   42.938
  352.500   37.545   -0.024    0.139   42.972
  352.750   36.221   -0.028    0.263   42.421
  353.000   33.638    0.005    0.363   40.644
  353.250   27.936    0.032    0.388   41.285
  353.500   24.990    0.062    0.419   51.650
  353.750   20.747    0.132    0.435   58.395
  354.000   17.883    0.323    0.444   59.036
  354.250   15.700    0.333    0.449   59.081
  354.500   13.788    0.334    0.457   57.316
  354.750   12.813    0.339    0.487   59.182
  355.000   12.587    0.341    0.506   60.441
  355.250   12.143    0.345    0.510   59.271
  355.500   11.932    0.347    0.505   58.102
  355.750   11.511    0.347    0.496   62.396
  356.000   10.893    0.348    0.486   64.870
  356.250    9.937    0.341    0.483   63.093
  356.500    9.759    0.333    0.486   61.317
  356.750    9.593    0.327    0.498   65.611
  357.000   10.355    0.331    0.509   69.298
  357.250   10.964    0.338    0.474   60.237
  357.500   12.055    0.339    0.453   53.616
  357.750   13.263    0.340    0.457   52.424
  358.000   13.782    0.341    0.456   53.087
  358.250   14.321    0.344    0.454   53.143
  358.500   14.891    0.345    0.467   53.177
  358.750   14.900    0.345    0.473   53.244
  359.000   14.923    0.343    0.474   53.278
  359.250   14.664    0.343    0.473   53.312
  359.500   14.410    0.342    0.470   52.165
  359.750   14.428    0.341    0.467   51.580
  360.000   14.178    0.334    0.460   50.411
  360.250   14.200    0.332    0.458   48.635
  360.500   14.217    0.328    0.471   48.679
  360.750   14.239    0.328    0.480   48.129
  361.000   14.253    0.328    0.495   47.566
  361.250   14.270    0.324    0.501   50.028
  361.500   14.293    0.319    0.484   52.524
  361.750   14.301    0.313    0.452   53.176
  362.000   14.324    0.311    0.432   53.839
  362.250   14.075    0.315    0.430   54.468
  362.500   14.088    0.320    0.438   56.334
  362.750   14.114    0.322    0.448   55.165
  363.000   14.671    0.323    0.452   55.817
  363.250   13.629    0.322    0.445   58.301
  363.500   13.638    0.320    0.434   60.775
  363.750   13.655    0.317    0.435   63.236
  364.000   13.426    0.316    0.445   63.888
  364.250   13.185    0.312    0.451   65.147
  364.500   13.202    0.311    0.457   65.799
  364.750   12.977    0.309    0.458   65.867
  365.000   12.993    0.309    0.464   64.697
  365.250   12.768    0.309    0.475   62.314
  365.500   12.784    0.311    0.479   61.133
  365.750   12.562    0.310    0.470   60.583
  366.000   12.348    0.308    0.474   60.020
  366.250   12.130    0.306    0.485   60.054
  366.500   11.927    0.312    0.488   60.706
  366.750   11.938    0.315    0.489   60.751
