~VERSION INFORMATION
 VERS.                 2.0:   CWLS LOG ASCII STANDARD -VERSION 2.0
 WRAP.                  NO:   ONE LINE PER DEPTH STEP
~WELL INFORMATION BLOCK
#MNEM.UNIT           DATA                    DESCRIPTION OF MNEMONIC
#---------    -------------------            -------------------------------
# Generated from Intellog Unique Number	CS_77_79/WELL/887
WELL.         MESA PORTAGE                   : Well_name    - WELL
LOC .         00/06-33-078-18W4/0            : Location     - LOCATION
UWI .         00/06-33-078-18W4/0            : Uwi          - UNIQUE WELL ID
ENTR.         JHS                            : Entered      - ENTERED BY
SRVC.         SCHLUMBERGER                   : Scn          - SERVICE COMPANY
STRT.M        213.360                        : top_depth    - START DEPTH
STOP.M        396.110                        : bot_depth    - STOP DEPTH
STEP.M        0.25                           : increment    - STEP LENGTH
 NULL. -999.2500:NULL Value
~CURVE INFORMATION BLOCK
#MNEM UNIT       ERCB CURVE CODE    CURVE DESCRIPTION
#-----------   ------------------   ----------------------------------
DEPT.M        00 001 00 00         : DEPTH        - DEPTH
RHOB.KG/M3    00 350 00 00         : DENS         - BULK DENSITY
GR  .API      00 310 00 00         : GR           - GAMMA RAY
DPHI.V/V      00 890 00 00         : PHID         - DENSITY POROSITY (SANDSTONE)
NPHI.V/V      00 330 00 00         : PHIN         - NEUTRON POROSITY (SANDSTONE)
ILD .OHMM     00 120 00 00         : RESD         - DEEP RESISTIVITY (DIL)
~PARAMETER INFORMATION
#MNEM.UNIT           DATA             DESCRIPTION OF MNEMONIC
#---------         -----------     ------------------------------
GL  .M        552.816              : gl           - GROUND LEVEL ELEVATION
EREF.M        555.955              : kb           - ELEVATION OF DEPTH REFERENCE
DATM.M        555.955              : datum        - DATUM ELEVATION
TDD .M        422.148              : tdd          - TOTAL DEPTH DRILLER
RUN .         ONE                  : Run          - RUN NUMBER
ENG .         BILL                 : Engineer     - RECORDING ENGINEER
WIT .         JIM                  : Witness      - WITNESSED BY
MUD .         GEL                  : Mud_type     - MUD TYPE
MATR.         SANDSTONE            : Logunit      - NEUTRON MATRIX
TMAX.C        21.1111              : BHT          - MAXIMUM RECORDED TEMPERATURE
BHTD.M        422.148              : BHTDEP       - MAXIMUM RECORDED TEMPERATURE
MATR.         1                    : LOGUNIT      - NEUTRON MATRIX
RMT .C        25                   : MDTP         - TEMPERATURE OF MUD
NEUT.         1                    : NEUTRON      - NEUTRON TYPE
RESI.         0                    : RESIST       - RESISTIVITY TYPE
RMC .OHMM     0.25                 : RMC          - RESISTIVITY OF MUD CAKE
RMF .OHMM     0.25                 : RMF          - RESISTIVITY OF MUD FILTRATE
SUFT.C        15                   : SUFT         - SURFACE TEMPERATURE
~A  DEPTH     DENS       GR     PHID     PHIN     RESD
# ...
  286.360   -0.000   82.982    0.247    0.437    9.024
  286.610   -0.000   85.646    0.264    0.440    8.336
  286.860   -0.000   81.979    0.257    0.448    7.890
  287.110    0.000   85.172    0.273    0.460    7.535
  287.360    0.000   89.026    0.244    0.473    7.311
  287.610    0.000   89.550    0.217    0.485    7.109
  287.860   -0.000   84.249    0.237    0.486    7.029
  288.110   -0.000   83.078    0.244    0.473    6.746
  288.360   -0.000   84.552    0.228    0.470    6.337
  288.610    0.000   88.257    0.224    0.470    5.788
  288.860    0.000   88.331    0.235    0.492    5.406
  289.110    0.000   88.007    0.233    0.514    4.930
  289.360   -0.000   88.939    0.230    0.515    4.488
  289.610   -0.000   86.829    0.234    0.521    4.287
  289.860    0.000   85.012    0.229    0.527    3.902
  290.110    0.000   84.880    0.232    0.528    3.593
  290.360    0.000   86.253    0.238    0.515    3.575
  290.610   -0.000   85.126    0.230    0.496    3.871
  290.860   -0.000   84.648    0.246    0.485    4.448
  291.110   -0.000   86.573    0.236    0.494    5.105
  291.360    0.000   88.215    0.220    0.507    5.785
  291.610    0.000   87.321    0.211    0.490    6.178
  291.860    0.000   85.686    0.224    0.483    6.429
  292.110   -0.000   85.257    0.217    0.476    6.521
  292.360   -0.000   86.055    0.226    0.482    6.551
  292.610    0.000   85.761    0.211    0.496    6.558
  292.860    0.000   82.552    0.222    0.488    6.639
  293.110    0.000   83.821    0.247    0.478    6.653
  293.360   -0.000   85.113    0.236    0.478    6.569
  293.610   -0.000   87.674    0.226    0.469    6.315
  293.860   -0.000   85.462    0.213    0.469    6.076
  294.110    0.000   85.089    0.217    0.480    5.636
  294.360    0.000   85.747    0.244    0.507    5.089
  294.610    0.000   84.066    0.265    0.537    4.611
  294.860   -0.000   87.434    0.250    0.542    4.301
  295.110   -0.000   91.189    0.283    0.558    3.983
  295.360   -0.000   88.209    0.330    0.574    4.171
  295.610    0.000   83.422    0.403    0.556    4.836
  295.860    0.000   77.051    0.324    0.510    5.681
  296.110   -0.000   65.081    0.255    0.472    6.826
  296.360   -0.000   61.121    0.191    0.439    9.258
  296.610   -0.000   66.331    0.168    0.385   11.162
  296.860    0.000   71.150    0.150    0.343   11.312
  297.110    0.000   76.991    0.153    0.381   10.686
  297.360    0.000   78.818    0.251    0.465    9.836
  297.610   -0.000   78.367    0.281    0.497    9.131
  297.860   -0.000   77.706    0.281    0.491    8.673
  298.110   -0.000   79.447    0.287    0.486    8.262
  298.360    0.000   78.889    0.293    0.484    8.287
  298.610    0.000   77.038    0.287    0.476    8.307
  298.860    0.000   74.057    0.269    0.492    7.989
  299.110   -0.000   75.329    0.256    0.481    7.667
  299.360   -0.000   75.927    0.233    0.466    7.421
  299.610    0.000   74.776    0.191    0.467    7.548
  299.860    0.000   72.865    0.149    0.446    8.616
  300.110    0.000   69.672    0.125    0.388    9.537
  300.360   -0.000   70.995    0.069    0.315    9.991
  300.610   -0.000   81.507    0.071    0.282    9.650
  300.860   -0.000   85.088    0.158    0.345    9.072
  301.110    0.000   85.107    0.223    0.423    8.266
  301.360    0.000   83.305    0.217    0.499    7.717
  301.610    0.000   82.058    0.256    0.477    7.185
  301.860   -0.000   82.702    0.237    0.467    7.065
  302.110   -0.000   82.573    0.224    0.486    7.113
  302.360    0.000   80.919    0.208    0.478    7.206
  302.610    0.000   81.183    0.209    0.482    7.357
  302.860    0.000   84.930    0.226    0.474    7.349
  303.110   -0.000   86.350    0.249    0.477    7.351
  303.360   -0.000   85.713    0.225    0.481    7.352
  303.610   -0.000   85.869    0.258    0.473    7.341
  303.860    0.000   86.288    0.227    0.468    7.232
  304.110    0.000   88.862    0.225    0.472    7.027
  304.360    0.000   89.207    0.200    0.464    6.974
  304.610   -0.000   84.310    0.227    0.467    7.081
  304.860   -0.000   83.519    0.227    0.469    7.143
  305.110   -0.000   81.620    0.220    0.472    7.383
  305.360    0.000   79.820    0.234    0.465    7.478
  305.610    0.000   83.372    0.218    0.453    7.516
  305.860   -0.000   87.666    0.241    0.464    7.666
  306.110   -0.000   87.798    0.214    0.471    7.674
  306.360   -0.000   86.249    0.247    0.484    7.683
  306.610    0.000   84.299    0.247    0.476    7.672
  306.860    0.000   83.932    0.226    0.450    7.776
  307.110    0.000   86.701    0.218    0.435    7.694
  307.360   -0.000   85.686    0.215    0.444    7.709
  307.610   -0.000   83.873    0.218    0.472    7.542
  307.860   -0.000   83.646    0.213    0.465    7.558
  308.110    0.000   85.625    0.221    0.462    7.423
  308.360    0.000   88.428    0.211    0.466    7.443
  308.610   -0.000   88.483    0.201    0.469    7.304
  308.860   -0.000   87.840    0.216    0.477    7.309
  309.110   -0.000   89.031    0.202    0.495    7.310
  309.360    0.000   92.508    0.185    0.475    7.314
  309.610    0.000   95.254    0.213    0.464    7.318
  309.860    0.000   91.900    0.215    0.469    7.325
  310.110   -0.000   91.135    0.200    0.478    7.228
  310.360   -0.000   89.604    0.224    0.496    6.826
  310.610   -0.000   90.424    0.236    0.508    6.296
  310.860    0.000   89.973    0.252    0.517    6.017
  311.110    0.000   86.013    0.243    0.498    5.852
  311.360    0.000   80.145    0.273    0.475    6.231
  311.610   -0.000   78.873    0.262    0.454    6.688
  311.860   -0.000   79.753    0.233    0.437    7.308
  312.110    0.000   81.902    0.216    0.427    7.762
  312.360    0.000   85.010    0.218    0.426    7.939
  312.610    0.000   85.190    0.224    0.442    7.717
  312.860   -0.000   85.285    0.294    0.466    7.409
  313.110   -0.000   83.205    0.249    0.480    6.424
  313.360   -0.000   82.686    0.281    0.485    6.275
  313.610    0.000   79.209    0.219    0.498    6.684
  313.860    0.000   77.031    0.253    0.428    6.824
  314.110    0.000   76.725    0.197    0.390    6.607
  314.360   -0.000   74.528    0.201    0.390    6.423
  314.610   -0.000   70.841    0.218    0.400    6.084
  314.860    0.000   68.940    0.239    0.473    6.154
  315.110    0.000   68.736    0.272    0.471    6.273
  315.360    0.000   66.131    0.288    0.469    6.834
  315.610   -0.000   64.808    0.308    0.478    7.249
  315.860   -0.000   63.832    0.288    0.473    7.637
  316.110   -0.000   62.850    0.277    0.466    7.851
  316.360    0.000   62.344    0.282    0.449    7.842
  316.610    0.000   61.752    0.283    0.441    7.794
  316.860    0.000   62.611    0.283    0.453    7.563
  317.110   -0.000   66.079    0.284    0.471    7.578
  317.360   -0.000   67.784    0.286    0.466    7.629
  317.610   -0.000   65.360    0.261    0.461    7.721
  317.860    0.000   59.612    0.291    0.459    7.844
  318.110    0.000   62.254    0.291    0.465    7.721
  318.360   -0.000   66.054    0.290    0.473    7.599
  318.610   -0.000   67.772    0.304    0.469    7.600
  318.860   -0.000   67.871    0.303    0.458    7.595
  319.110    0.000   65.916    0.294    0.465    7.727
  319.360    0.000   60.833    0.259    0.452    8.017
  319.610    0.000   58.917    0.233    0.370    8.719
  319.860   -0.000   58.082    0.201    0.339    9.380
  320.110   -0.000   54.736    0.177    0.322   10.669
  320.360   -0.000   50.449    0.151    0.295   11.903
  320.610    0.000   48.075    0.130    0.279   12.526
  320.860    0.000   48.906    0.108    0.271   12.222
  321.110    0.000   53.622    0.221    0.376   12.105
  321.360   -0.000   52.955    0.234    0.442   12.495
  321.610   -0.000   51.185    0.225    0.416   12.969
  321.860    0.000   50.693    0.171    0.314   14.244
  322.110    0.000   50.951    0.097    0.277   15.359
  322.360    0.000   53.935    0.087    0.259   14.983
  322.610   -0.000   60.523    0.143    0.308   12.963
