~VERSION INFORMATION
 VERS.                 2.0:   CWLS LOG ASCII STANDARD -VERSION 2.0
 WRAP.                  NO:   ONE LINE PER DEPTH STEP
~WELL INFORMATION BLOCK
#MNEM.UNIT           DATA                    DESCRIPTION OF MNEMONIC
#---------    -------------------            -------------------------------
# Generated from Intellog Unique Number	CS_69_70/WELL/702
NULL.         -999.25                        : NULL_VALUE
WELL.         HUSKY OIL OPERATION LTD        : Well_name    - WELL              
LOC .         00/05-23-070-06W4/0            : Location     - LOCATION          
UWI .         00/05-23-070-06W4/0            : Uwi          - UNIQUE WELL ID    
ENTR.         SP                             : Entered      - ENTERED BY        
SRVC.         SCHLUMBERGER                   : Scn          - SERVICE COMPANY   
STRT.M        300                            : top_depth    - START DEPTH       
STOP.M        540                            : bot_depth    - STOP DEPTH        
STEP.M        0.25                           : increment    - STEP LENGTH       
~CURVE INFORMATION BLOCK
#MNEM UNIT       ERCB CURVE CODE    CURVE DESCRIPTION
#-----------   ------------------   ----------------------------------
DEPT.M        00 001 00 00         : DEPTH        - DEPTH                       
ILD .OHMM     00 120 00 00         : RESD         - DEEP RESISTIVITY (DIL)      
DPHI.V/V      00 890 00 00         : PHID         - DENSITY POROSITY (LIMESTONE)
NPHI.V/V      00 330 00 00         : PHIN         - NEUTRON POROSITY (LIMESTONE)
GR  .API      00 310 00 00         : GR           - GAMMA RAY                   
~PARAMETER INFORMATION       
#MNEM.UNIT           DATA             DESCRIPTION OF MNEMONIC
#---------         -----------     ------------------------------
GL  .M        657                  : gl           - GROUND LEVEL ELEVATION      
EREF.M        660.6                : kb           - ELEVATION OF DEPTH REFERENCE
DATM.M        657                  : datum        - DATUM ELEVATION             
TDD .M        545                  : tdd          - TOTAL DEPTH DRILLER         
RUN .         ONE                  : Run          - RUN NUMBER                  
ENG .         BILL                 : Engineer     - RECORDING ENGINEER          
WIT .         JIM                  : Witness      - WITNESSED BY                
MUD .         GEL                  : Mud_type     - MUD TYPE                    
MATR.         LIMESTONE            : Logunit      - NEUTRON MATRIX              
TMAX.C        25                   : BHT          - MAXIMUM RECORDED TEMPERATURE
BHTD.M        545                  : BHTDEP       - MAXIMUM RECORDED TEMPERATURE
MATR.         1                    : LOGUNIT      - NEUTRON MATRIX              
RMT .C        25                   : MDTP         - TEMPERATURE OF MUD          
NEUT.         1                    : NEUTRON      - NEUTRON TYPE                
RESI.         0                    : RESIST       - RESISTIVITY TYPE            
RMC .OHMM     0.25                 : RMC          - RESISTIVITY OF MUD CAKE     
RMF .OHMM     0.25                 : RMF          - RESISTIVITY OF MUD FILTRATE 
SUFT.C        15                   : SUFT         - SURFACE TEMPERATURE         
~A  DEPTH     RESD     PHID     PHIN       GR
# ...
  474.000   84.328    0.307    0.322   50.093
  474.250  101.558    0.306    0.327   57.358
  474.500  120.057    0.306    0.360   60.994
  474.750  131.768    0.306    0.370   36.808
  475.000  139.344    0.306    0.353   29.555
  475.250  136.815    0.304    0.344   25.933
  475.500  129.420    0.300    0.327   34.411
  475.750  115.804    0.301    0.342   39.860
  476.000  115.825    0.304    0.359   39.260
  476.250  127.117    0.308    0.372   25.962
  476.500  134.430    0.311    0.356   21.734
  476.750  129.569    0.313    0.333   22.346
  477.000  124.870    0.314    0.327   24.171
  477.250  122.587    0.312    0.323   25.387
  477.500  127.269    0.311    0.322   25.389
  477.750  132.106    0.313    0.324   18.745
  478.000  137.126    0.313    0.324   20.566
  478.250  137.157    0.313    0.319   25.412
  478.500  132.181    0.313    0.336   27.837
  478.750  125.042    0.314    0.346   30.868
  479.000  116.118    0.317    0.341   32.084
  479.250  107.833    0.318    0.339   28.463
  479.500  105.868    0.319    0.340   27.260
  479.750  105.890    0.320    0.339   25.451
  480.000  109.917    0.322    0.334   27.273
  480.250  114.103    0.320    0.333   28.489
  480.500  116.258    0.316    0.339   26.682
  480.750  112.051    0.316    0.342   27.293
  481.000  112.066    0.317    0.346   29.719
  481.250  116.337    0.317    0.348   30.935
  481.500  120.777    0.315    0.339   26.708
  481.750  123.064    0.313    0.332   25.506
  482.000  123.087    0.313    0.320   26.117
  482.250  123.099    0.314    0.331   26.123
  482.500  108.125    0.315    0.340   23.711
  482.750   96.742    0.319    0.351   28.560
  483.000   89.834    0.321    0.354   30.984
  483.250   89.851    0.325    0.346   32.199
  483.500   95.018    0.325    0.351   31.603
  483.750  106.246    0.323    0.353   29.190
  484.000  116.606    0.321    0.338   29.195
  484.250  118.810    0.318    0.323   41.904
  484.500   78.982    0.307    0.329   55.218
  484.750   64.402    0.280    0.371   57.039
  485.000   58.706    0.300    0.380   41.926
  485.250   74.753    0.325    0.375   38.302
  485.500   95.185    0.341    0.370   36.495
  485.750  110.447    0.352    0.372   37.110
  486.000  121.213    0.347    0.382   37.114
  486.250  119.018    0.343    0.389   40.751
  486.500  112.593    0.342    0.395   43.175
  486.750  106.508    0.340    0.399   48.020
  487.000   91.831    0.337    0.411   50.449
  487.250   85.267    0.336    0.416   50.453
  487.500   74.891    0.336    0.404   51.065
  487.750   67.010    0.335    0.399   52.889
  488.000   58.856    0.332    0.388   54.104
  488.250   52.660    0.320    0.383   57.743
  488.500   47.118    0.309    0.386   58.955
  488.750   42.159    0.304    0.386   62.593
  489.000   37.027    0.303    0.393   65.625
  489.250   30.759    0.301    0.399   67.444
  489.500   27.520    0.293    0.399   70.474
  489.750   23.727    0.291    0.376   74.110
  490.000   20.081    0.285    0.352   78.350
  490.250   18.646    0.275    0.338   85.012
  490.500   16.076    0.246    0.350   91.067
  490.750   13.859    0.235    0.366   95.912
  491.000   12.633    0.241    0.358  101.363
  491.250   11.303    0.232    0.348  103.789
  491.500   11.518    0.225    0.373   97.142
  491.750   11.521    0.235    0.385   86.866
  492.000   11.524    0.251    0.351   83.244
  492.250   11.526    0.247    0.323   91.114
  492.500   11.527    0.147    0.342  103.218
  492.750   11.109    0.138    0.351  110.483
  493.000   10.908    0.150    0.361  111.698
  493.250   10.909    0.159    0.353   89.326
  493.500   11.753    0.166    0.337   80.263
  493.750   12.429    0.157    0.316   75.429
  494.000   13.144    0.057    0.282   69.387
  494.250   13.393    0.031    0.250   68.185
  494.500   13.646    0.084    0.300   77.871
  494.750   12.911    0.157    0.344   81.504
  495.000   12.213    0.190    0.311   88.770
  495.250   12.215    0.170    0.343   93.009
  495.500   14.441    0.159    0.360   74.268
  495.750   18.049    0.167    0.373   64.596
  496.000   23.850    0.248    0.378   48.877
  496.250   28.195    0.292    0.380   45.257
  496.500   30.376    0.323    0.385   48.286
  496.750   30.383    0.331    0.391   51.317
  497.000   28.215    0.323    0.384   50.718
  497.250   25.717    0.320    0.372   51.330
  497.500   21.363    0.312    0.366   54.967
  497.750   16.476    0.304    0.358   61.022
  498.000   13.943    0.290    0.354   69.498
  498.250   12.948    0.270    0.341   76.761
  498.500   12.248    0.227    0.332   88.864
  498.750   12.026    0.194    0.322  102.178
  499.000   11.591    0.190    0.372  108.233
  499.250   11.171    0.204    0.396  110.053
  499.500   10.967    0.199    0.381   96.151
  499.750   10.768    0.182    0.370   91.318
  500.000    9.695    0.142    0.345  110.246
  500.250    9.878    0.140    0.339  110.858
  500.500   10.065    0.140    0.331  110.268
  500.750   10.066    0.140    0.327  103.652
  501.000   10.068    0.134    0.318   97.637
  501.250   10.258    0.132    0.317   92.228
  501.500   10.259    0.133    0.313   95.859
  501.750   10.260    0.138    0.331   97.672
  502.000   10.072    0.139    0.343  102.505
  502.250    9.887    0.139    0.338  105.525
  502.500    9.706    0.138    0.332   95.299
  502.750    9.890    0.145    0.330   88.681
  503.000   10.077    0.159    0.327   82.066
  503.250   10.460    0.163    0.326   83.887
  503.500   10.858    0.154    0.319   87.511
  503.750   11.063    0.159    0.307   88.123
  504.000   11.065    0.158    0.297   91.147
  504.250   11.486    0.143    0.303   95.376
  504.500   11.703    0.139    0.312   99.606
  504.750   11.924    0.131    0.309  102.632
  505.000   11.926    0.119    0.307  103.844
  505.250   11.707    0.114    0.320  102.047
  505.500   11.492    0.152    0.326   87.599
  505.750   11.073    0.187    0.320   77.971
  506.000   10.473    0.194    0.319   74.969
  506.250   10.092    0.202    0.323   77.391
  506.500   10.093    0.208    0.317   78.004
  506.750    9.908    0.200    0.314   72.596
  507.000   10.095    0.191    0.306   75.015
  507.250   10.676    0.175    0.303   79.242
  507.500   11.082    0.149    0.299   79.254
  507.750   11.084    0.136    0.298   79.265
  508.000   11.085    0.160    0.299   82.892
  508.250   10.681    0.179    0.314   82.902
  508.500    9.916    0.191    0.323   90.143
  508.750    9.205    0.205    0.326  100.997
  509.000    8.388    0.223    0.365   98.599
  509.250    7.643    0.293    0.379   88.972
  509.500    6.964    0.318    0.382   90.792
  509.750    6.966    0.290    0.380   98.635
  510.000    7.097    0.259    0.376   95.633
  510.250    7.231    0.241    0.363   83.597
  510.500    7.647    0.246    0.350   75.171
  510.750    7.939    0.235    0.324   75.185
  511.000    7.939    0.219    0.357   84.235
  511.250    7.650    0.225    0.374   75.206
  511.500    7.236    0.256    0.368   59.553
  511.750    7.103    0.278    0.359   51.134
  512.000    6.594    0.282    0.354   54.156
  512.250    6.236    0.285    0.370   57.782
  512.500    5.898    0.306    0.371   46.950
  512.750    5.375    0.312    0.358   37.925
  513.000    5.276    0.320    0.348   36.129
  513.250    5.179    0.326    0.350   36.743
  513.500    5.180    0.331    0.362   42.175
  513.750    5.377    0.312    0.362   51.222
  514.000    5.581    0.292    0.358   62.681
  514.250    6.242    0.269    0.347   66.305
  514.500    6.480    0.258    0.337   66.917
  514.750    7.113    0.247    0.351   62.713
  515.000    7.383    0.232    0.354   63.928
  515.250    7.523    0.215    0.365   68.159
  515.500    7.385    0.207    0.377   66.962
  515.750    6.483    0.244    0.376   59.142
  516.000    5.908    0.274    0.368   53.733
  516.250    5.692    0.292    0.361   51.938
  516.500    5.485    0.283    0.371   48.936
  516.750    5.384    0.287    0.381   43.527
  517.000    5.487    0.304    0.372   42.331
  517.250    5.487    0.294    0.364   45.958
