~VERSION INFORMATION
 VERS.                 2.0:   CWLS LOG ASCII STANDARD -VERSION 2.0
 WRAP.                  NO:   ONE LINE PER DEPTH STEP
~WELL INFORMATION BLOCK
#MNEM.UNIT           DATA                    DESCRIPTION OF MNEMONIC
#---------    -------------------            -------------------------------
# Generated from Intellog Unique Number	CS_67_68/WELL/768
WELL.         FISHER CREEK                   : Well_name    - WELL
LOC .         00/07-01-068-06W4/0            : Location     - LOCATION
UWI .         00/07-01-068-06W4/0            : Uwi          - UNIQUE WELL ID
ENTR.         SP                             : Entered      - ENTERED BY
SRVC.         SCHLUMBERGER                   : Scn          - SERVICE COMPANY
STRT.M        335                            : top_depth    - START DEPTH
STOP.M        550                            : bot_depth    - STOP DEPTH
STEP.M        0.25                           : increment    - STEP LENGTH
 NULL. -999.2500:NULL Value
~CURVE INFORMATION BLOCK
#MNEM UNIT       ERCB CURVE CODE    CURVE DESCRIPTION
#-----------   ------------------   ----------------------------------
DEPT.M        00 001 00 00         : DEPTH        - DEPTH
ILD .OHMM     00 120 00 00         : RESD         - DEEP RESISTIVITY (DIL)
DPHI.V/V      00 890 00 00         : PHID         - DENSITY POROSITY (LIMESTONE)
NPHI.V/V      00 330 00 00         : PHIN         - NEUTRON POROSITY (LIMESTONE)
GR  .API      00 310 00 00         : GR           - GAMMA RAY
~PARAMETER INFORMATION
#MNEM.UNIT           DATA             DESCRIPTION OF MNEMONIC
#---------         -----------     ------------------------------
GL  .M        672.57               : gl           - GROUND LEVEL ELEVATION
EREF.M        675.6                : kb           - ELEVATION OF DEPTH REFERENCE
DATM.M        672.57               : datum        - DATUM ELEVATION
TDD .M        554                  : tdd          - TOTAL DEPTH DRILLER
RUN .         ONE                  : Run          - RUN NUMBER
ENG .         BILL                 : Engineer     - RECORDING ENGINEER
WIT .         JIM                  : Witness      - WITNESSED BY
MUD .         GEL                  : Mud_type     - MUD TYPE
MATR.         LIMESTONE            : Logunit      - NEUTRON MATRIX
TMAX.C        20                   : BHT          - MAXIMUM RECORDED TEMPERATURE
BHTD.M        554                  : BHTDEP       - MAXIMUM RECORDED TEMPERATURE
MATR.         1                    : LOGUNIT      - NEUTRON MATRIX
RMT .C        25                   : MDTP         - TEMPERATURE OF MUD
NEUT.         1                    : NEUTRON      - NEUTRON TYPE
RESI.         0                    : RESIST       - RESISTIVITY TYPE
RMC .OHMM     0.25                 : RMC          - RESISTIVITY OF MUD CAKE
RMF .OHMM     0.25                 : RMF          - RESISTIVITY OF MUD FILTRATE
SUFT.C        15                   : SUFT         - SURFACE TEMPERATURE
~A  DEPTH     RESD     PHID     PHIN       GR
# ...
  509.000    9.176    0.294    0.448   69.101
  509.250   10.498    0.312    0.426   66.404
  509.500   12.217    0.324    0.435   72.050
  509.750   14.933    0.326    0.441   72.302
  510.000   19.100    0.324    0.444   73.996
  510.250   20.884    0.314    0.445   76.506
  510.500   16.881    0.295    0.437   75.127
  510.750   13.801    0.283    0.418   74.375
  511.000   15.795    0.268    0.398   79.206
  511.250   12.479    0.250    0.389   82.782
  511.500   11.402    0.104    0.368   87.865
  511.750   10.055    0.136    0.326   94.452
  512.000    9.188    0.177    0.359   97.903
  512.250    8.557    0.211    0.385   98.719
  512.500    7.805    0.225    0.398  100.414
  512.750    7.214    0.227    0.392  104.241
  513.000    6.338    0.220    0.382  104.744
  513.250    6.209    0.230    0.376   98.910
  513.500    6.017    0.237    0.388   89.751
  513.750    6.077    0.255    0.422   78.899
  514.000    7.167    0.277    0.457   65.599
  514.250    9.519    0.300    0.445   59.703
  514.500   12.525    0.324    0.432   60.581
  514.750   14.278    0.311    0.421   64.033
  515.000   15.089    0.304    0.420   68.801
  515.250   14.322    0.295    0.429   72.440
  515.500   13.113    0.287    0.427   75.640
  515.750   12.028    0.281    0.415   79.342
  516.000   10.310    0.285    0.401   82.919
  516.250    8.970    0.312    0.390   86.997
  516.500    8.028    0.330    0.425   91.076
  516.750    7.159    0.277    0.439   96.660
  517.000    6.444    0.243    0.424  101.491
  517.250    5.979    0.224    0.409  106.573
  517.500    5.772    0.212    0.389   85.055
  517.750    6.020    0.197    0.364   76.524
  518.000    6.545    0.209    0.354   81.669
  518.250    7.050    0.235    0.346   93.401
  518.500    7.666    0.206    0.369   99.424
  518.750    7.965    0.190    0.409   67.555
  519.000    9.182    0.221    0.457   50.994
  519.250   10.665    0.248    0.389   43.027
  519.500   12.894    0.229    0.360   56.515
  519.750   13.243    0.200    0.356   69.126
  520.000   13.027    0.207    0.381   81.360
  520.250   11.145    0.231    0.404   92.841
  520.500    9.660    0.216    0.377  101.624
  520.750    9.030    0.190    0.342  101.939
  521.000    8.459    0.168    0.376   81.739
  521.250    8.057    0.201    0.401   65.302
  521.500    7.590    0.243    0.434   71.200
  521.750    7.121    0.240    0.403   75.341
  522.000    7.006    0.227    0.376   77.851
  522.250    6.997    0.217    0.366   83.686
  522.500    7.161    0.204    0.361   93.097
  522.750    7.343    0.193    0.363   99.810
  523.000    7.632    0.178    0.382  105.206
  523.250    7.723    0.164    0.395  100.815
  523.500    7.755    0.174    0.373   92.974
  523.750    7.790    0.215    0.360   88.646
  524.000    7.751    0.241    0.379   88.646
  524.250    7.683    0.254    0.369   92.160
  524.500    7.657    0.229    0.356   95.423
  524.750    7.763    0.204    0.359   91.283
  525.000    8.236    0.177    0.353   85.512
  525.250    8.431    0.162    0.337   84.132
  525.500    8.499    0.174    0.331   88.399
  525.750    8.569    0.187    0.339   87.082
  526.000    8.656    0.192    0.348   83.256
  526.250    8.709    0.198    0.365   76.105
  526.500    8.698    0.211    0.390   69.518
  526.750    8.869    0.231    0.401   62.931
  527.000   10.303    0.255    0.411   58.854
  527.250   12.240    0.278    0.424   59.043
  527.500   16.076    0.303    0.425   84.514
  527.750   18.531    0.207    0.408  103.147
  528.000   15.099    0.174    0.389  109.735
  528.250   14.541    0.162    0.371  103.713
  528.500   12.138    0.163    0.358   97.189
  528.750   10.403    0.171    0.344   93.174
  529.000    8.916    0.183    0.359   87.529
  529.250    8.116    0.194    0.375   82.134
  529.500    8.031    0.213    0.387   77.430
  529.750    8.126    0.224    0.396   71.345
  530.000    8.193    0.244    0.385   64.005
  530.250    8.419    0.260    0.374   60.179
  530.500    8.567    0.271    0.368   65.136
  530.750    8.920    0.280    0.394   67.395
  531.000    9.232    0.272    0.398   67.897
  531.250    9.521    0.265    0.392   69.717
  531.500    9.635    0.263    0.399   78.375
  531.750    9.496    0.232    0.384   84.085
  532.000    9.115    0.176    0.382   91.237
  532.250    8.716    0.158    0.401   98.076
  532.500    8.179    0.184    0.418   88.666
  532.750    7.617    0.205    0.432   73.046
  533.000    6.962    0.197    0.411   62.820
  533.250    6.594    0.206    0.395   54.791
  533.500    6.222    0.265    0.392   47.640
  533.750    5.773    0.295    0.387   45.319
  534.000    5.256    0.294    0.384   49.084
  534.250    4.914    0.300    0.394   45.885
  534.500    4.585    0.315    0.401   40.239
  534.750    4.384    0.324    0.402   38.546
  535.000    4.107    0.329    0.407   37.982
  535.250    3.971    0.337    0.403   37.794
  535.500    3.870    0.339    0.388   39.928
  535.750    3.821    0.330    0.372   40.556
  536.000    3.795    0.318    0.373   36.228
  536.250    3.891    0.308    0.392   35.475
  536.500    3.990    0.313    0.402   37.295
  536.750    4.033    0.321    0.405   38.488
  537.000    4.026    0.320    0.404   40.057
  537.250    4.005    0.319    0.398   35.540
  537.500    3.977    0.321    0.394   30.334
  537.750    3.949    0.326    0.390   29.456
  538.000    4.014    0.330    0.387   29.771
  538.250    3.491    0.330    0.393   30.085
  538.500    3.338    0.323    0.396   32.218
  538.750    3.223    0.316    0.401   35.607
  539.000    3.188    0.322    0.406   38.054
  539.250    3.136    0.322    0.395   40.062
  539.500    3.132    0.311    0.388   39.686
  539.750    3.188    0.304    0.395   37.617
  540.000    3.269    0.310    0.390   35.359
  540.250    3.301    0.318    0.380   33.414
  540.500    3.341    0.325    0.380   33.415
  540.750    3.355    0.323    0.380   34.984
  541.000    3.333    0.314    0.379   35.926
  541.250    3.334    0.312    0.389   36.993
  541.500    3.342    0.308    0.401   37.432
  541.750    3.232    0.305    0.404   37.370
  542.000    3.242    0.311    0.395   36.743
  542.250    3.249    0.308    0.396   36.054
  542.500    3.288    0.306    0.403   36.243
  542.750    3.359    0.306    0.404   36.055
  543.000    3.438    0.309    0.400   35.366
  543.250    3.486    0.315    0.397   31.790
  543.500    3.488    0.322    0.393   29.470
  543.750    3.490    0.332    0.390   28.153
  544.000    3.413    0.339    0.400   27.965
  544.250    3.252    0.341    0.408   27.966
  544.500    3.098    0.349    0.416   27.966
  544.750    2.979    0.354    0.426   28.218
  545.000    2.897    0.360    0.413   28.407
  545.250    2.850    0.358    0.401   29.348
  545.500    2.863    0.345    0.408   30.666
  545.750    2.908    0.337    0.407   31.545
  546.000    3.016    0.340    0.401   31.107
  546.250    3.093    0.342    0.396   30.229
  546.500    3.189    0.335    0.382   29.979
  546.750    3.289    0.325    0.396   29.979
  547.000    3.405    0.319    0.406   30.168
  547.250    3.572    0.331    0.414   30.419
  547.500    3.995    0.238    0.412   30.859
  547.750    6.148    0.203    0.388   19.003
  548.000   12.164    0.080    0.205   18.941
  548.250   17.757    0.058    0.183   19.129
  548.500   24.494    0.055    0.168   19.130
  548.750   30.801    0.060    0.160   19.131
  549.000   36.735    0.070    0.155   19.131
  549.250   37.528    0.079    0.160   19.383
  549.500   36.295    0.085    0.164   19.446
  549.750   35.304    0.105    0.164   19.133
  550.000   34.597    0.108    0.158   18.632
