~VERSION INFORMATION
 VERS.                 2.0:   CWLS LOG ASCII STANDARD -VERSION 2.0
 WRAP.                  NO:   ONE LINE PER DEPTH STEP
~WELL INFORMATION BLOCK
#MNEM.UNIT           DATA                    DESCRIPTION OF MNEMONIC
#---------    -------------------            -------------------------------
# Generated from Intellog Unique Number	CS_73_76/WELL/662
WELL.         AMOCO KIRBY                    : Well_name    - WELL
LOC .         00/06-31-073-04W4/0            : Location     - LOCATION
UWI .         00/06-31-073-04W4/0            : Uwi          - UNIQUE WELL ID
ENTR.         SP                             : Entered      - ENTERED BY
SRVC.         SCHLUMBERGER                   : Scn          - SERVICE COMPANY
STRT.M        270                            : top_depth    - START DEPTH
STOP.M        485                            : bot_depth    - STOP DEPTH
STEP.M        0.25                           : increment    - STEP LENGTH
 NULL. -999.2500:NULL Value
~CURVE INFORMATION BLOCK
#MNEM UNIT       ERCB CURVE CODE    CURVE DESCRIPTION
#-----------   ------------------   ----------------------------------
DEPT.M        00 001 00 00         : DEPTH        - DEPTH
DPHI.V/V      00 890 00 00         : PHID         - DENSITY POROSITY (LIMESTONE)
NPHI.V/V      00 330 00 00         : PHIN         - NEUTRON POROSITY (LIMESTONE)
GR  .API      00 310 00 00         : GR           - GAMMA RAY
ILD .OHMM     00 120 00 00         : RESD         - DEEP RESISTIVITY (DIL)
~PARAMETER INFORMATION
#MNEM.UNIT           DATA             DESCRIPTION OF MNEMONIC
#---------         -----------     ------------------------------
GL  .M        664.1                : gl           - GROUND LEVEL ELEVATION
EREF.M        669.1                : kb           - ELEVATION OF DEPTH REFERENCE
DATM.M        664.1                : datum        - DATUM ELEVATION
TDD .M        490                  : tdd          - TOTAL DEPTH DRILLER
RUN .         ONE                  : Run          - RUN NUMBER
ENG .         BILL                 : Engineer     - RECORDING ENGINEER
WIT .         JIM                  : Witness      - WITNESSED BY
MUD .         GEL                  : Mud_type     - MUD TYPE
MATR.         LIMESTONE            : Logunit      - NEUTRON MATRIX
TMAX.C        23                   : BHT          - MAXIMUM RECORDED TEMPERATURE
BHTD.M        490                  : BHTDEP       - MAXIMUM RECORDED TEMPERATURE
MATR.         1                    : LOGUNIT      - NEUTRON MATRIX
RMT .C        25                   : MDTP         - TEMPERATURE OF MUD
NEUT.         1                    : NEUTRON      - NEUTRON TYPE
RESI.         0                    : RESIST       - RESISTIVITY TYPE
RMC .OHMM     0.25                 : RMC          - RESISTIVITY OF MUD CAKE
RMF .OHMM     0.25                 : RMF          - RESISTIVITY OF MUD FILTRATE
SUFT.C        15                   : SUFT         - SURFACE TEMPERATURE
~A  DEPTH     PHID     PHIN       GR     RESD
  270.000    0.229    0.528  104.380    3.590
  270.250    0.225    0.520  103.163    3.727
  270.500    0.246    0.517  101.949    3.798
  270.750    0.238    0.524  100.735    3.529
  271.000    0.241    0.538  101.320    3.278
  271.250    0.251    0.521  101.906    2.935
  271.500    0.269    0.530  103.690    2.882
  271.750    0.256    0.547  105.476    2.883
  272.000    0.246    0.543  106.657    2.939
  272.250    0.239    0.511  106.044    3.108
  272.500    0.238    0.501  106.029    3.288
  272.750    0.240    0.495  105.413    3.350
  273.000    0.244    0.503  104.195    3.352
  273.250    0.248    0.503  104.182    3.353
  273.500    0.251    0.490  105.362    3.233
  273.750    0.256    0.497  105.353    3.117
  274.000    0.251    0.503  104.737    3.061
  274.250    0.239    0.509  104.118    3.062
  274.500    0.225    0.494  104.702    3.179
  274.750    0.224    0.474  104.686    3.362
  275.000    0.243    0.506  103.477    3.490
  275.250    0.259    0.518   98.660    3.428
  275.500    0.279    0.506   93.847    3.366
  275.750    0.302    0.494   87.231    4.054
  276.000    0.318    0.479   81.814    4.449
  276.250    0.331    0.471   78.805    5.357
  276.500    0.305    0.479   78.789    6.331
  276.750    0.253    0.469   83.574    7.345
  277.000    0.235    0.440   87.755    7.626
  277.250    0.219    0.413   82.343    7.918
  277.500    0.252    0.405   72.727    8.221
  277.750    0.282    0.403   64.313    8.377
  278.000    0.305    0.398   58.900    8.537
  278.250    0.296    0.398   55.283    8.542
  278.500    0.294    0.412   55.270    8.546
  278.750    0.295    0.423   56.453    8.240
  279.000    0.294    0.394   60.630    8.242
  279.250    0.274    0.399   62.423    7.946
  279.500    0.269    0.413   66.006    7.661
  279.750    0.276    0.419   70.786    7.385
  280.000    0.259    0.431   74.373    6.989
  280.250    0.253    0.434   79.755    7.123
  280.500    0.264    0.439   82.142    7.820
  280.750    0.269    0.449   78.524    8.117
  281.000    0.230    0.428   76.112    8.426
  281.250    0.203    0.398   74.295    8.588
  281.500    0.237    0.403   77.882    7.979
  281.750    0.267    0.419   85.063    7.691
  282.000    0.278    0.434   91.650    7.415
  282.250    0.277    0.435   96.432    7.017
  282.500    0.271    0.433   97.019    7.021
  282.750    0.277    0.447   95.200    7.156
  283.000    0.284    0.435   91.586    7.159
  283.250    0.295    0.427   88.568    7.031
  283.500    0.301    0.430   88.555    7.033
  283.750    0.277    0.431   91.540    6.909
  284.000    0.243    0.441   99.922    6.784
  284.250    0.232    0.453  104.106    6.421
  284.500    0.241    0.462  105.292    6.305
  284.750    0.251    0.469  104.078    6.192
  285.000    0.276    0.425   97.466    6.082
  285.250    0.288    0.417   88.452    6.084
  285.500    0.237    0.409   80.037    6.088
  285.750    0.199    0.392   74.023    6.089
  286.000    0.201    0.383   77.608    6.094
  286.250    0.224    0.395   81.791    6.095
  286.500    0.250    0.409   84.174    5.986
  286.750    0.268    0.415   79.961    5.771
  287.000    0.288    0.418   70.347    5.362
  287.250    0.305    0.423   60.134    5.074
  287.500    0.318    0.424   50.518    4.891
  287.750    0.327    0.429   45.106    4.545
  288.000    0.327    0.437   37.886    4.463
  288.250    0.330    0.428   35.475    4.303
  288.500    0.341    0.416   39.657    4.386
  288.750    0.294    0.405   43.843    4.388
  289.000    0.251    0.402   51.025    4.472
  289.250    0.234    0.396   62.408    4.558
  289.500    0.225    0.426   71.394    4.645
  289.750    0.201    0.439   82.773    4.646
  290.000    0.171    0.439   94.757    4.734
  290.250    0.159    0.457  103.142    4.826
  290.500    0.143    0.485  106.727    4.828
  290.750    0.139    0.502  109.713    4.655
  291.000    0.178    0.516  117.494    4.571
  291.250    0.188    0.493  124.077    4.246
  291.500    0.205    0.485  128.262    3.873
  291.750    0.226    0.503  131.243    3.665
  292.000    0.212    0.520  131.229    3.343
  292.250    0.205    0.536  131.216    3.222
  292.500    0.198    0.537  128.798    3.106
  292.750    0.199    0.526  126.384    3.051
  293.000    0.208    0.519  123.968    3.052
  293.250    0.221    0.509  121.553    3.111
  293.500    0.230    0.512  122.137    3.055
  293.750    0.235    0.514  123.920    3.172
  294.000    0.241    0.497  125.110    3.546
  294.250    0.240    0.481  119.694    4.039
  294.500    0.236    0.463  111.280    4.600
  294.750    0.236    0.430  101.064    5.238
  295.000    0.295    0.387   95.051    7.049
  295.250    0.322    0.346   89.637    8.487
  295.500    0.344    0.317   81.824   10.031
  295.750    0.359    0.317   76.410   11.010
  296.000    0.368    0.325   77.593   11.863
  296.250    0.367    0.327   83.574   12.088
  296.500    0.351    0.332   86.560   12.095
  296.750    0.341    0.345   85.346   11.445
  297.000    0.329    0.354   81.127   10.633
  297.250    0.315    0.363   80.519    9.878
  297.500    0.305    0.373   80.503    9.177
  297.750    0.320    0.363   79.281    8.847
  298.000    0.310    0.395   78.072   10.078
  298.250    0.273    0.332   73.855   11.267
  298.500    0.143    0.261   69.039   13.073
  298.750    0.182    0.252   64.828   13.824
  299.000    0.225    0.253   64.211   15.174
  299.250    0.379    0.275   72.597   15.463
  299.500    0.376    0.323   83.980   14.364
  299.750    0.355    0.341   91.764   10.886
  300.000    0.335    0.364   96.546    9.218
  300.250    0.326    0.376   98.932    7.385
  300.500    0.323    0.362   94.717    6.860
  300.750    0.331    0.355   84.499    7.123
  301.000    0.318    0.337   83.887    7.395
  301.250    0.292    0.310   85.070    7.677
  301.500    0.278    0.280   83.258    7.682
  301.750    0.267    0.264   81.440    7.686
  302.000    0.253    0.252   81.425    7.548
  302.250    0.235    0.353   83.808    7.551
  302.500    0.221    0.354   85.596    7.695
  302.750    0.215    0.330   83.775    8.137
  303.000    0.275    0.311   79.563    9.442
  303.250    0.317    0.273   74.752   10.753
  303.500    0.353    0.227   68.138   14.204
  303.750    0.370    0.185   63.324   17.422
  304.000    0.390    0.191   56.704   19.122
  304.250    0.384    0.197   52.489   19.849
  304.500    0.379    0.196   49.480   19.496
  304.750    0.346    0.171   52.459   19.146
  305.000    0.315    0.153   54.847   22.218
  305.250    0.335    0.136   56.031   24.380
  305.500    0.359    0.120   49.419   31.614
  305.750    0.366    0.111   45.802   36.679
  306.000    0.389    0.113   44.588   42.554
  306.250    0.405    0.124   41.567   44.182
  306.500    0.416    0.136   39.758   43.391
  306.750    0.420    0.141   36.736   42.613
  307.000    0.408    0.132   36.123   41.086
  307.250    0.399    0.125   34.910   38.884
  307.500    0.388    0.135   33.694   38.181
  307.750    0.398    0.141   32.473   35.476
  308.000    0.395    0.148   30.658   33.570
  308.250    0.392    0.133   29.445   31.769
  308.500    0.401    0.125   28.833   28.973
  308.750    0.410    0.112   27.619   26.917
  309.000    0.415    0.109   26.407   24.548
  309.250    0.401    0.109   25.186   22.805
  309.500    0.410    0.117   25.177   20.797
  309.750    0.408    0.135   26.357   18.964
  310.000    0.403    0.162   27.542   13.594
  310.250    0.396    0.204   26.924    9.049
  310.500    0.385    0.242   26.315    5.593
  310.750    0.374    0.282   25.093    3.457
  311.000    0.367    0.313   24.482    2.571
  311.250    0.357    0.336   23.862    2.178
  311.500    0.353    0.348   23.251    1.914
  311.750    0.353    0.354   22.633    1.845
  312.000    0.351    0.350   22.026    1.746
  312.250    0.352    0.353   22.601    1.652
  312.500    0.355    0.346   23.190    1.593
  312.750    0.336    0.336   25.578    1.565
  313.000    0.329    0.327   23.757    1.565
  313.250    0.320    0.362   23.745    1.625
