~VERSION INFORMATION
 VERS.                 2.0:   CWLS LOG ASCII STANDARD -VERSION 2.0
 WRAP.                  NO:   ONE LINE PER DEPTH STEP
~WELL INFORMATION BLOCK
#MNEM.UNIT           DATA                    DESCRIPTION OF MNEMONIC
#---------    -------------------            -------------------------------
# Generated from Intellog Unique Number	CS_71_72/WELL/702
WELL.         PROVIDENT RESOURCES  LTD       : Well_name    - WELL
LOC .         00/06-03-071-17W4/0            : Location     - LOCATION
UWI .         00/06-03-071-17W4/0            : Uwi          - UNIQUE WELL ID
ENTR.         SP                             : Entered      - ENTERED BY
SRVC.         SCHLUMBERGER                   : Scn          - SERVICE COMPANY
STRT.M        277.368                        : top_depth    - START DEPTH
STOP.M        479.618                        : bot_depth    - STOP DEPTH
STEP.M        0.25                           : increment    - STEP LENGTH
 NULL. -999.2500:NULL Value
~CURVE INFORMATION BLOCK
#MNEM UNIT       ERCB CURVE CODE    CURVE DESCRIPTION
#-----------   ------------------   ----------------------------------
DEPT.M        00 001 00 00         : DEPTH        - DEPTH
GR  .API      00 310 00 00         : GR           - GAMMA RAY
DPHI.V/V      00 890 00 00         : PHID         - DENSITY POROSITY (SANDSTONE)
NPHI.V/V      00 330 00 00         : PHIN         - NEUTRON POROSITY (SANDSTONE)
ILD .OHMM     00 120 00 00         : RESD         - DEEP RESISTIVITY (DIL)
~PARAMETER INFORMATION
#MNEM.UNIT           DATA             DESCRIPTION OF MNEMONIC
#---------         -----------     ------------------------------
GL  .M        558.851              : gl           - GROUND LEVEL ELEVATION
EREF.M        562.356              : kb           - ELEVATION OF DEPTH REFERENCE
DATM.M        558.851              : datum        - DATUM ELEVATION
TDD .M        481.584              : tdd          - TOTAL DEPTH DRILLER
RUN .         ONE                  : Run          - RUN NUMBER
ENG .         BILL                 : Engineer     - RECORDING ENGINEER
WIT .         JIM                  : Witness      - WITNESSED BY
MUD .         GEL                  : Mud_type     - MUD TYPE
MATR.         SANDSTONE            : Logunit      - NEUTRON MATRIX
TMAX.C        23.3333              : BHT          - MAXIMUM RECORDED TEMPERATURE
BHTD.M        481.584              : BHTDEP       - MAXIMUM RECORDED TEMPERATURE
MATR.         1                    : LOGUNIT      - NEUTRON MATRIX
RMT .C        25                   : MDTP         - TEMPERATURE OF MUD
NEUT.         1                    : NEUTRON      - NEUTRON TYPE
RESI.         0                    : RESIST       - RESISTIVITY TYPE
RMC .OHMM     0.25                 : RMC          - RESISTIVITY OF MUD CAKE
RMF .OHMM     0.25                 : RMF          - RESISTIVITY OF MUD FILTRATE
SUFT.C        15                   : SUFT         - SURFACE TEMPERATURE
~A  DEPTH       GR     PHID     PHIN     RESD
# ...
  451.368  104.468    0.151    0.379    9.774
  451.618   89.859    0.193    0.403   12.503
  451.868   72.831    0.213    0.416   14.791
  452.118   59.639    0.254    0.385   16.016
  452.368   48.219    0.261    0.362   16.485
  452.618   39.451    0.265    0.345   16.369
  452.868   37.169    0.271    0.334   15.882
  453.118   36.094    0.267    0.324   15.108
  453.368   35.480    0.263    0.331   14.483
  453.618   34.156    0.260    0.342   13.539
  453.868   31.925    0.264    0.350   12.740
  454.118   29.767    0.280    0.354   11.034
  454.368   28.274    0.298    0.358    9.797
  454.618   30.241    0.292    0.371    8.680
  454.868   34.745    0.273    0.379    7.840
  455.118   43.236    0.258    0.409    7.062
  455.368   49.129    0.264    0.421    6.926
  455.618   52.812    0.277    0.387    8.710
  455.868   48.909    0.308    0.357   10.153
  456.118   52.514    0.349    0.396   11.569
  456.368   57.167    0.484    0.511   12.798
  456.618   60.968    0.552    0.580   14.162
  456.868   53.615    0.606    0.622   15.120
  457.118   50.621    0.555    0.631   15.297
  457.368   51.150    0.582    0.612   14.619
  457.618   53.194    0.631    0.618   13.418
  457.868   67.158    0.650    0.626   12.339
  458.118   87.045    0.587    0.608   11.343
  458.368  115.093    0.240    0.489   10.329
  458.618  140.498    0.115    0.466    9.631
  458.868  147.724    0.102    0.448    9.215
  459.118  150.226    0.095    0.430    8.886
  459.368  135.595    0.081    0.414    8.605
  459.618  118.812    0.090    0.397    8.276
  459.868  112.252    0.091    0.390    7.842
  460.118  110.233    0.098    0.398    7.258
  460.368  111.308    0.123    0.396    6.526
  460.618  103.988    0.148    0.370    6.096
  460.868   94.943    0.161    0.356    5.616
  461.118   87.808    0.186    0.339    5.645
  461.368   81.708    0.125    0.330    5.857
  461.618   94.003    0.116    0.359    6.131
  461.868  106.493    0.116    0.387    6.201
  462.118  116.063    0.101    0.397    5.971
  462.368  120.381    0.117    0.405    5.513
  462.618  123.519    0.139    0.423    5.260
  462.868  126.679    0.153    0.445    5.342
  463.118  120.151    0.161    0.466    5.622
  463.368  107.161    0.183    0.480    5.972
  463.618   99.882    0.204    0.432    6.221
  463.868   90.593    0.222    0.391    6.566
  464.118   81.076    0.232    0.363    6.837
  464.368   81.674    0.228    0.343    7.035
  464.618   90.306    0.147    0.338    7.199
  464.868   96.735    0.138    0.330    7.268
  465.118  102.469    0.137    0.321    7.303
  465.368  108.757    0.116    0.325    7.297
  465.618  116.132    0.106    0.344    7.309
  465.868  121.115    0.099    0.364    7.286
  466.118  118.118    0.112    0.368    7.152
  466.368  113.741    0.108    0.358    6.853
  466.618  118.526    0.109    0.361    6.490
  466.868  126.931    0.129    0.375    6.273
  467.118  134.012    0.147    0.403    6.368
  467.368  140.351    0.143    0.429    6.478
  467.618  126.540    0.122    0.426    6.518
  467.868  118.047    0.127    0.375    6.451
  468.118  118.679    0.139    0.318    6.215
  468.368  127.904    0.148    0.327    5.603
  468.618  136.534    0.155    0.370    5.067
  468.868  138.783    0.144    0.413    5.432
  469.118  120.521    0.126    0.441    6.202
  469.368  109.331    0.083    0.436    6.746
  469.618   96.041    0.036    0.389    7.012
  469.868   89.198    0.027    0.362    6.877
  470.118   87.872    0.018    0.371    6.675
  470.368   89.379    0.021    0.417    6.807
  470.618   88.091    0.045    0.445    7.620
  470.868   69.457   -0.004    0.474    8.686
  471.118   53.004   -0.007    0.234    9.538
  471.368   50.802    0.020    0.257   10.910
  471.618   56.648    0.041    0.290   11.613
  471.868   61.343    0.040    0.312   11.846
  472.118   58.735    0.023    0.294   11.839
  472.368   62.438    0.014    0.283   11.246
  472.618   71.585    0.007    0.279    8.837
  472.868   92.281    0.074    0.298    6.330
  473.118  106.303    0.130    0.331    5.247
  473.368  115.861    0.163    0.359    5.151
  473.618  115.152    0.165    0.373    5.232
  473.868   92.224    0.148    0.386    5.345
  474.118   77.747    0.132    0.389    5.367
  474.368   60.973    0.068    0.372    5.700
  474.618   34.017    0.070    0.358    6.100
  474.868   11.901    0.106    0.345    6.498
  475.118   10.202    0.107    0.350    6.789
  475.368   11.006    0.125    0.367    6.896
  475.618   11.493    0.141    0.376    6.927
  475.868   11.956    0.144    0.342    6.730
  476.118   12.400    0.113    0.318    6.576
  476.368   12.714    0.111    0.295    6.622
  476.618   13.257    0.118    0.296    6.903
  476.868   13.659    0.134    0.115    7.336
  477.118   14.093    0.145   -0.011    7.843
  477.368   14.256    0.132   -0.008    8.217
  477.618   14.326    0.115   -0.008    8.626
  477.868   12.725    0.107   -0.008    8.862
  478.118   12.862    0.105   -0.005    9.040
  478.368   13.268    0.096   -0.004    9.165
  478.618   13.629    0.103   -0.004    9.103
  478.868   13.988    0.111   -0.005    8.720
  479.118   14.665    0.117   -0.006    8.216
  479.368   15.405    0.122   -0.006    7.891
  479.618   15.592    0.111   -0.007    7.306
