~VERSION INFORMATION
 VERS.                 2.0:   CWLS LOG ASCII STANDARD -VERSION 2.0
 WRAP.                  NO:   ONE LINE PER DEPTH STEP
~WELL INFORMATION BLOCK
#MNEM.UNIT           DATA                    DESCRIPTION OF MNEMONIC
#---------    -------------------            -------------------------------
# Generated from Intellog Unique Number	CW_79_81/WELL/185
WELL.         01-27-079-23W4                 : Well_name    - WELL
LOC .         00/01-27-079-23W4/0            : Location     - LOCATION
UWI .         00/01-27-079-23W4/0            : Uwi          - UNIQUE WELL ID
ENTR.         MAX                            : Entered      - ENTERED BY
SRVC.         COMPUTALOG                     : Scn          - SERVICE COMPANY
STRT.M        225                            : top_depth    - START DEPTH
STOP.M        465                            : bot_depth    - STOP DEPTH
STEP.M        0.25                           : increment    - STEP LENGTH
 NULL. -999.2500:NULL Value
~CURVE INFORMATION BLOCK
#MNEM UNIT       ERCB CURVE CODE    CURVE DESCRIPTION
#-----------   ------------------   ----------------------------------
DEPT.M        00 001 00 00         : DEPTH        - DEPTH
GR  .API      00 310 00 00         : GR           - GAMMA RAY
ILD .OHMM     00 120 00 00         : RESD         - DEEP RESISTIVITY (DIL)
NPHI.V/V      00 330 00 00         : PHIN         - NEUTRON POROSITY (SANDSTONE)
DPHI.V/V      00 890 00 00         : PHID         - DENSITY POROSITY (SANDSTONE)
CALI.MM       00 280 01 00         : CAL          - CALIPER
~PARAMETER INFORMATION
#MNEM.UNIT           DATA             DESCRIPTION OF MNEMONIC
#---------         -----------     ------------------------------
GL  .M        563.6                : gl           - GROUND LEVEL ELEVATION
EREF.M        568.6                : kb           - ELEVATION OF DEPTH REFERENCE
DATM.M        563.6                : datum        - DATUM ELEVATION
TDD .M        580                  : tdd          - TOTAL DEPTH DRILLER
RUN .         ONE                  : Run          - RUN NUMBER
ENG .         BILL                 : Engineer     - RECORDING ENGINEER
WIT .         JIM                  : Witness      - WITNESSED BY
MUD .         GEL                  : Mud_type     - MUD TYPE
MATR.         SANDSTONE            : Logunit      - NEUTRON MATRIX
TMAX.C        28                   : BHT          - MAXIMUM RECORDED TEMPERATURE
BHTD.M        580                  : BHTDEP       - MAXIMUM RECORDED TEMPERATURE
RMT .C        15.6                 : MDTP         - TEMPERATURE OF MUD
MUDD.KG/M     1180                 : MWT          - MUD DENSITY
NEUT.         1                    : NEUTRON      - NEUTRON TYPE
RESI.         0                    : RESIST       - RESISTIVITY TYPE
RM  .OHMM     6.3                  : RM           - RESISTIVITY OF MUD
RMC .OHMM     4.7                  : RMC          - RESISTIVITY OF MUD CAKE
RMF .OHMM     7                    : RMF          - RESISTIVITY OF MUD FILTRATE
SUFT.C        -10                  : SUFT         - SURFACE TEMPERATURE
~A  DEPTH       GR     RESD     PHIN     PHID      CAL
# ...
  261.500   84.284    8.580    0.407    0.250  223.380
  261.750   91.781    7.965    0.416    0.235  223.339
  262.000   94.467    7.531    0.424    0.225  223.315
  262.250   90.840    7.321    0.432    0.239  223.776
  262.500   86.008    7.183    0.442    0.266  223.744
  262.750   85.686    7.113    0.450    0.251  224.718
  263.000   87.172    6.850    0.463    0.223  225.688
  263.250   98.276    6.359    0.473    0.189  226.649
  263.500   98.254    5.743    0.469    0.154  228.124
  263.750   96.732    4.599    0.472    0.132  228.593
  264.000   98.516    3.930    0.486    0.128  229.559
  264.250  104.507    3.614    0.483    0.175  231.531
  264.500  106.290    3.679    0.475    0.195  233.507
  264.750  107.478    3.850    0.474    0.198  235.479
  265.000  109.560    3.813    0.487    0.172  235.944
  265.250  112.545    3.605    0.492    0.191  236.910
  265.500  113.430    3.378    0.488    0.227  237.379
  265.750  113.108    3.194    0.477    0.244  236.849
  266.000  110.385    3.134    0.453    0.294  236.316
  266.250  101.043    3.310    0.455    0.301  234.271
  266.500   92.303    3.764    0.452    0.299  232.732
  266.750   91.981    4.608    0.429    0.280  232.207
  267.000   90.458    5.907    0.411    0.273  232.676
  267.250   88.034    6.905    0.390    0.267  233.140
  267.500   90.422    7.293    0.380    0.259  233.104
  267.750   89.500    7.919    0.379    0.246  232.575
  268.000   70.538    9.874    0.383    0.252  227.027
  268.250   60.295   13.256    0.389    0.283  222.982
  268.500   57.567   18.292    0.408    0.305  222.453
  268.750   56.947   25.248    0.417    0.315  222.421
  269.000   55.727   36.824    0.426    0.318  221.386
  269.250   53.601   40.356    0.431    0.318  223.354
  269.500   53.279   41.847    0.428    0.322  228.329
  269.750   54.459   41.821    0.417    0.327  230.305
  270.000   55.643   41.406    0.401    0.330  230.268
  270.250   56.828   40.628    0.395    0.323  229.739
  270.500   57.410   40.628    0.405    0.315  228.697
  270.750   57.088   39.468    0.417    0.323  226.656
  271.000   57.371   35.642    0.418    0.329  224.123
  271.250   55.546   32.182    0.419    0.327  223.092
  271.500   53.117   30.150    0.418    0.330  223.092
  271.750   52.801   29.307    0.412    0.333  223.016
  272.000   53.083   28.758    0.407    0.332  223.493
  272.250   53.359   28.477    0.402    0.336  224.458
  272.500   54.540   28.721    0.394    0.340  224.923
  272.750   54.526   28.436    0.389    0.339  225.893
  273.000   50.896   27.901    0.392    0.334  227.368
  273.250   49.369   27.628    0.401    0.337  228.338
  273.500   50.254   27.870    0.398    0.348  228.306
  273.750   52.943   27.848    0.393    0.351  228.265
  274.000   52.319   27.834    0.392    0.341  228.738
  274.250   51.398   27.561    0.409    0.345  229.708
  274.500   50.176   26.793    0.419    0.352  230.674
  274.750   49.253   25.805    0.424    0.353  231.139
  275.000   51.037   25.084    0.423    0.352  231.612
  275.250   52.824   24.608    0.420    0.358  231.575
  275.500   55.510   24.368    0.415    0.358  230.044
  275.750   54.885   25.036    0.412    0.357  227.494
  276.000   53.663   25.725    0.411    0.350  226.965
  276.250   54.543   26.424    0.404    0.340  228.436
  276.500   54.529   26.414    0.413    0.339  230.408
  276.750   53.901   26.154    0.422    0.345  233.378
  277.000   54.788   25.423    0.421    0.353  235.354
  277.250   57.174   25.174    0.422    0.359  235.318
  277.500   58.057   24.699    0.427    0.365  229.778
  277.750   57.130   24.233    0.427    0.356  224.226
  278.000   57.109   23.772    0.427    0.352  223.192
  278.250   57.691   23.772    0.424    0.352  222.662
  278.500   57.977   23.529    0.420    0.352  222.630
  278.750   58.859   22.873    0.410    0.349  223.099
  279.000   55.528   22.233    0.407    0.341  223.059
  279.250   56.714   21.614    0.413    0.339  223.026
  279.500   60.300   21.202    0.422    0.336  222.998
  279.750   62.387   21.584    0.420    0.327  222.966
  280.000   60.860   22.177    0.405    0.312  222.922
  280.250   58.135   23.423    0.403    0.291  222.893
  280.500   58.113   23.846    0.411    0.254  223.366
  280.750   59.000   24.498    0.424    0.260  223.330
  281.000   61.081   24.483    0.418    0.303  222.797
  281.250   62.261   24.021    0.404    0.320  222.756
  281.500   61.646   23.566    0.397    0.328  222.732
  281.750   62.225   23.122    0.396    0.335  222.696
  282.000   65.215   22.687    0.411    0.338  222.664
  282.250   69.104   22.462    0.419    0.333  222.631
  282.500   69.079   22.658    0.427    0.331  223.096
  282.750   66.054   23.064    0.431    0.338  223.068
  283.000   60.926   23.480    0.422    0.349  223.537
  283.250   58.198   23.480    0.410    0.349  225.000
  283.500   58.475   23.883    0.416    0.346  224.972
  283.750   58.157   24.316    0.423    0.343  224.939
  284.000   59.035   24.981    0.422    0.344  224.402
  284.250   59.023   25.429    0.423    0.346  224.867
  284.500   58.996   25.651    0.422    0.348  225.340
  284.750   59.884   26.114    0.426    0.350  225.299
  285.000   61.365   26.828    0.430    0.350  225.275
  285.250   59.542   27.817    0.432    0.347  225.243
  285.500   58.318   28.058    0.429    0.340  225.203
  285.750   58.895   27.783    0.419    0.335  225.170
  286.000   58.880   26.272    0.405    0.343  224.637
  286.250   58.861   24.841    0.398    0.342  224.605
  286.500   59.140   23.491    0.399    0.334  224.573
  286.750   59.423   22.419    0.416    0.336  224.536
  287.000   60.306   21.393    0.425    0.348  224.508
  287.250   60.888   20.796    0.440    0.351  224.472
  287.500   59.964   20.218    0.440    0.335  224.444
  287.750   59.043   18.766    0.437    0.320  224.407
  288.000   60.825   17.104    0.429    0.304  224.375
  288.250   60.508   15.162    0.430    0.298  224.339
  288.500   60.188   13.441    0.429    0.293  224.307
  288.750   61.669   11.805    0.427    0.289  224.270
  289.000   63.148   10.958    0.429    0.284  224.238
  289.250   64.033   10.554    0.428    0.283  224.210
  289.500   64.617   10.356    0.420    0.283  224.178
  289.750   65.495   10.350    0.416    0.275  224.141
  290.000   66.676   10.438    0.408    0.265  224.109
  290.250   68.460   10.824    0.406    0.257  224.073
  290.500   69.047   11.433    0.409    0.265  224.041
  290.750   69.329   12.188    0.414    0.289  224.012
  291.000   66.002   13.860    0.417    0.310  223.475
  291.250   60.867   16.202    0.418    0.320  221.936
  291.500   63.255   17.921    0.421    0.317  220.905
  291.750   65.939   19.278    0.428    0.301  221.370
  292.000   66.223   20.741    0.433    0.255  223.342
  292.250   64.092   21.509    0.434    0.272  224.308
  292.500   61.372   21.494    0.442    0.295  223.779
  292.750   57.742   20.897    0.439    0.329  223.746
  293.000   57.422   20.311    0.437    0.343  223.706
  293.250   58.302   20.300    0.437    0.343  223.678
  293.500   57.982   20.100    0.433    0.346  223.642
  293.750   57.064   19.540    0.421    0.351  222.607
  294.000   55.238   19.171    0.403    0.352  222.575
  294.250   52.811   18.983    0.397    0.343  222.034
  294.500   51.286   19.146    0.400    0.338  222.009
  294.750   52.166   19.313    0.410    0.338  221.977
  295.000   53.657   19.123    0.406    0.338  221.941
  295.250   55.134   17.109    0.400    0.335  221.905
  295.500   56.021   15.448    0.392    0.336  221.876
  295.750   56.002   14.080    0.391    0.340  221.836
  296.000   54.477   12.950    0.403    0.341  221.812
  296.250   54.455   12.472    0.414    0.337  221.768
  296.500   54.739   12.466    0.410    0.337  222.241
  296.750   55.920   12.343    0.410    0.342  222.713
  297.000   53.498   11.888    0.419    0.345  222.677
  297.250   48.666   11.992    0.435    0.344  222.641
  297.500   49.849   11.657    0.434    0.337  222.609
  297.750   54.638   10.239    0.420    0.335  222.576
