~VERSION INFORMATION
 VERS.                 2.0:   CWLS LOG ASCII STANDARD -VERSION 2.0
 WRAP.                  NO:   ONE LINE PER DEPTH STEP
~WELL INFORMATION BLOCK
#MNEM.UNIT           DATA                    DESCRIPTION OF MNEMONIC
#---------    -------------------            -------------------------------
# Generated from Intellog Unique Number	CX_WELLS/WELL/3196
WELL.         HB HORSER                      : Well_name    - WELL
LOC .         00/06-16-083-13W4/0            : Location     - LOCATION
UWI .         00/06-16-083-13W400            : Uwi          - UNIQUE WELL ID
ENTR.         T                              : Entered      - ENTERED BY
SRVC.         SCHLUMBERGER                   : Scn          - SERVICE COMPANY
STRT.F        400                            : top_depth    - START DEPTH
STOP.F        1199.7                         : bot_depth    - STOP DEPTH
STEP.F        0.82                           : increment    - STEP LENGTH
 NULL. -999.2500:NULL Value
~CURVE INFORMATION BLOCK
#MNEM UNIT       ERCB CURVE CODE    CURVE DESCRIPTION
#-----------   ------------------   ----------------------------------
DEPT.F        00 001 00 00         : DEPTH        - DEPTH
GR  .API      00 310 00 00         : GR           - GAMMA RAY
NPHI.V/V      00 330 00 00         : PHIN         - NEUTRON POROSITY (SANDSTONE)
DPHI.V/V      00 890 00 00         : PHID         - DENSITY POROSITY (SANDSTONE)
ILD .OHMM     00 120 00 00         : RESD         - DEEP RESISTIVITY (DIL)
~PARAMETER INFORMATION
#MNEM.UNIT           DATA             DESCRIPTION OF MNEMONIC
#---------         -----------     ------------------------------
GL  .F        1876                 : gl           - GROUND LEVEL ELEVATION
EREF.F        1884                 : kb           - ELEVATION OF DEPTH REFERENCE
DATM.F        1884                 : datum        - DATUM ELEVATION
TDD .F        1204                 : tdd          - TOTAL DEPTH DRILLER
RUN .         ONE                  : Run          - RUN NUMBER
ENG .         BILL                 : Engineer     - RECORDING ENGINEER
WIT .         JIM                  : Witness      - WITNESSED BY
MUD .         GEL                  : Mud_type     - MUD TYPE
MATR.         SANDSTONE            : Logunit      - NEUTRON MATRIX
TMAX.F        78                   : BHT          - MAXIMUM RECORDED TEMPERATURE
BHTD.F        1204                 : BHTDEP       - MAXIMUM RECORDED TEMPERATURE
MATR.         1                    : LOGUNIT      - NEUTRON MATRIX
RMT .F        77                   : MDTP         - TEMPERATURE OF MUD
NEUT.         1                    : NEUTRON      - NEUTRON TYPE
RESI.         5.25                 : RESIST       - RESISTIVITY TYPE
RMC .OHMM     2.8                  : RMC          - RESISTIVITY OF MUD CAKE
RMF .OHMM     3.02                 : RMF          - RESISTIVITY OF MUD FILTRATE
SUFT.F        32                   : SUFT         - SURFACE TEMPERATURE
~A  DEPTH       GR     PHIN     PHID     RESD
# ...
  828.150   96.397    0.482    0.265    6.942
  828.970   95.891    0.479    0.254    6.849
  829.790   94.178    0.473    0.239    6.866
  830.610   92.489    0.472    0.244    6.894
  831.430   91.984    0.469    0.247    6.905
  832.251   91.453    0.470    0.252    6.813
  833.071   91.551    0.474    0.256    6.705
  833.891   91.649    0.479    0.261    6.605
  834.711   93.583    0.468    0.262    6.506
  835.531   97.931    0.469    0.261    6.298
  836.352   99.816    0.492    0.261    5.980
  837.172  103.585    0.498    0.261    5.576
  837.992  105.494    0.523    0.261    5.199
  838.812  106.171    0.528    0.262    4.933
  839.633  105.715    0.534    0.259    4.953
  840.453  103.373    0.500    0.254    4.965
  841.273  100.428    0.469    0.248    5.271
  842.093   99.971    0.449    0.241    5.695
  842.913  102.460    0.444    0.238    5.810
  843.734  104.972    0.451    0.239    6.163
  844.554  107.534    0.467    0.241    6.425
  845.374  108.260    0.472    0.240    6.440
  846.194  108.309    0.479    0.239    6.229
  847.014  108.407    0.488    0.236    5.712
  847.835  109.713    0.495    0.234    5.519
  848.655  111.646    0.501    0.232    5.334
  849.475  111.769    0.504    0.231    5.159
  850.295  111.238    0.504    0.232    5.271
  851.115  110.782    0.504    0.233    5.386
  851.936  110.855    0.489    0.234    5.615
  852.756  111.606    0.476    0.231    5.732
  853.576  111.655    0.467    0.227    5.966
  854.396  112.381    0.432    0.222    6.101
  855.217  113.083    0.424    0.214    6.461
  856.037  111.369    0.428    0.208    7.242
  856.857  110.235    0.426    0.199    7.818
  857.677  107.943    0.424    0.203    8.447
  858.497  107.437    0.421    0.202    8.638
  859.318  108.188    0.422    0.197    8.652
  860.138  108.865    0.431    0.197    8.236
  860.958  110.799    0.437    0.201    8.100
  861.778  111.476    0.449    0.209    7.698
  862.598  112.178    0.471    0.217    7.445
  863.419  111.093    0.479    0.220    7.195
  864.239  110.008    0.489    0.225    6.958
  865.059  110.057    0.492    0.232    6.735
  865.879  110.179    0.475    0.240    6.763
  866.699  109.673    0.463    0.248    6.910
  867.520  109.168    0.451    0.251    7.055
  868.340  108.058    0.444    0.245    7.478
  869.160  106.998    0.436    0.237    7.933
  869.980  106.443    0.428    0.230    8.409
  870.801  105.937    0.422    0.229    8.592
  871.621  104.224    0.424    0.228    8.794
  872.441  101.956    0.447    0.228    8.816
  873.261  101.401    0.448    0.225    8.677
  874.081   99.688    0.448    0.224    8.554
  874.902   98.579    0.446    0.221    8.273
  875.722   96.890    0.436    0.220    8.001
  876.542   95.781    0.432    0.217    7.882
  877.362   94.067    0.426    0.210    7.770
  878.182   92.958    0.410    0.194    8.087
  879.003   90.037    0.399    0.164    8.730
  879.823   87.117    0.375    0.144    9.599
  880.643   89.050    0.404    0.190    9.989
  881.463   90.935    0.420    0.218   10.216
  882.283   94.729    0.439    0.223   10.241
  883.104   96.613    0.439    0.207    9.732
  883.924   97.894    0.436    0.210    9.420
  884.744   99.224    0.435    0.211    8.946
  885.564   99.926    0.430    0.215    8.805
  886.385  100.627    0.426    0.219    8.375
  887.205  101.982    0.420    0.226    8.243
  888.025  102.683    0.425    0.240    8.126
  888.845  103.361    0.437    0.234    8.146
  889.665  104.087    0.444    0.230    8.173
  890.486  104.185    0.452    0.229    8.057
  891.306  103.654    0.458    0.232    8.083
  892.126  102.618    0.463    0.239    8.110
  892.946  100.881    0.465    0.242    8.136
  893.766   99.143    0.469    0.242    8.014
  894.587   96.223    0.464    0.241    7.901
  895.407   93.906    0.454    0.242    7.914
  896.227   92.821    0.452    0.243    7.802
  897.047   92.894    0.462    0.243    7.685
  897.867   92.992    0.463    0.247    7.570
  898.688   93.139    0.460    0.254    7.322
  899.508   93.816    0.460    0.264    7.212
  900.328   95.146    0.461    0.279    7.110
  901.148   95.823    0.470    0.259    7.004
  901.969   97.129    0.489    0.254    6.893
  902.789   99.062    0.509    0.277    6.667
  903.609  101.599    0.523    0.286    6.226
  904.429  102.905    0.538    0.299    6.123
  905.249  103.631    0.544    0.306    5.815
  906.070  104.284    0.544    0.297    5.421
  906.890  104.406    0.543    0.290    5.059
  907.710  104.529    0.543    0.282    4.804
  908.530  104.047    0.535    0.257    4.562
  909.350  103.517    0.505    0.245    4.751
  910.171  101.828    0.462    0.237    5.321
  910.991  101.274    0.457    0.222    5.744
  911.811   98.957    0.448    0.202    6.201
  912.631   96.640    0.438    0.184    6.944
  913.451   93.116    0.418    0.171    8.080
  914.272   96.860    0.386    0.198    8.723
  915.092  100.581    0.414    0.205    9.078
  915.912  104.325    0.430    0.204    9.276
  916.732  103.820    0.433    0.201    9.306
  917.552  103.338    0.429    0.199    9.352
  918.373  102.253    0.433    0.202    9.382
  919.193  101.119    0.439    0.208    9.227
  920.013  100.034    0.442    0.209    9.096
  920.833   99.504    0.445    0.211    8.967
  921.654   98.974    0.450    0.208    8.833
  922.474   99.145    0.460    0.208    8.701
  923.294   99.194    0.485    0.204    8.578
  924.114   99.896    0.494    0.197    8.436
  924.934   99.994    0.462    0.200    8.317
  925.755  101.324    0.452    0.203    8.192
  926.575  102.050    0.448    0.205    8.063
  927.395  102.752    0.452    0.209    7.669
  928.215  102.246    0.457    0.221    7.412
  929.035  100.533    0.495    0.231    6.662
  929.856   96.405    0.537    0.241    6.093
  930.676   91.649    0.547    0.251    4.907
  931.496   83.295    0.520    0.276    4.098
  932.316   80.953    0.494    0.289    4.344
  933.136   80.521    0.484    0.308    5.148
  933.957   80.594    0.461    0.298    5.553
  934.777   82.528    0.450    0.286    6.219
  935.597   83.181    0.477    0.285    6.975
  936.417   86.950    0.484    0.287    7.530
  937.238   88.231    0.490    0.298    7.555
  938.058   90.744    0.499    0.315    7.044
  938.878   93.909    0.508    0.318    6.807
  939.698   95.818    0.513    0.312    6.464
  940.518   96.520    0.515    0.299    6.143
  941.339   97.197    0.507    0.289    5.521
  942.159   96.136    0.491    0.284    5.055
  942.979   94.399    0.467    0.279    4.709
  943.799   90.874    0.458    0.285    4.638
  944.619   89.186    0.477    0.289    4.831
  945.440   90.516    0.485    0.300    5.125
  946.260   92.376    0.493    0.308    5.237
  947.080   95.492    0.498    0.303    5.254
  947.900  100.469    0.499    0.282    5.085
  948.720  102.353    0.501    0.279    4.914
  949.541  105.494    0.503    0.272    4.757
  950.361  107.404    0.507    0.263    4.517
  951.181  109.313    0.508    0.255    4.369
  952.001  110.642    0.501    0.256    4.225
  952.822  112.576    0.491    0.251    4.162
  953.642  113.302    0.486    0.227    4.097
  954.462  113.351    0.477    0.213    4.110
  955.282  112.894    0.491    0.211    4.052
  956.102  111.785    0.517    0.224    3.916
  956.923  109.468    0.528    0.220    3.863
  957.743  106.547    0.527    0.217    3.873
  958.563  103.602    0.502    0.216    3.885
  959.383   99.450    0.484    0.215    3.977
  960.203   90.492    0.463    0.217    4.135
  961.024   85.761    0.447    0.226    4.387
  961.844   90.085    0.440    0.239    4.908
  962.664   98.659    0.444    0.249    9.716
  963.484  101.172    0.448    0.254   11.505
  964.304  103.130    0.455    0.231   10.934
  965.125  100.234    0.461    0.220   10.203
  965.945   99.075    0.464    0.213    9.688
  966.765   95.551    0.463    0.235    9.355
  967.585   90.216    0.455    0.243    8.884
  968.406   84.252    0.435    0.257    8.436
  969.226   78.313    0.418    0.264    8.627
  970.046   72.978    0.413    0.257    9.306
