~VERSION INFORMATION
 VERS.                 2.0:   CWLS LOG ASCII STANDARD -VERSION 2.0
 WRAP.                  NO:   ONE LINE PER DEPTH STEP
~WELL INFORMATION BLOCK
#MNEM.UNIT           DATA                    DESCRIPTION OF MNEMONIC
#---------    -------------------            -------------------------------
# Generated from Intellog Unique Number	CS_77_79/WELL/840
WELL.         DOME COWPAR                    : Well_name    - WELL
LOC .         00/02-17-079-03W4/0            : Location     - LOCATION
UWI .         00/02-17-079-03W4/0            : Uwi          - UNIQUE WELL ID
ENTR.         JHS                            : Entered      - ENTERED BY
SRVC.         SCHLUMBERGER                   : Scn          - SERVICE COMPANY
STRT.M        140                            : top_depth    - START DEPTH
STOP.M        400                            : bot_depth    - STOP DEPTH
STEP.M        0.25                           : increment    - STEP LENGTH
 NULL. -999.2500:NULL Value
~CURVE INFORMATION BLOCK
#MNEM UNIT       ERCB CURVE CODE    CURVE DESCRIPTION
#-----------   ------------------   ----------------------------------
DEPT.M        00 001 00 00         : DEPTH        - DEPTH
DPHI.V/V      00 890 00 00         : PHID         - DENSITY POROSITY (LIMESTONE)
NPHI.V/V      00 330 00 00         : PHIN         - NEUTRON POROSITY (LIMESTONE)
GR  .API      00 310 00 00         : GR           - GAMMA RAY
ILD .OHMM     00 120 00 00         : RESD         - DEEP RESISTIVITY (DIL)
RHOB.KG/M3    00 350 00 00         : DENS         - BULK DENSITY
~PARAMETER INFORMATION
#MNEM.UNIT           DATA             DESCRIPTION OF MNEMONIC
#---------         -----------     ------------------------------
GL  .M        549.2                : gl           - GROUND LEVEL ELEVATION
EREF.M        553.1                : kb           - ELEVATION OF DEPTH REFERENCE
DATM.M        553.1                : datum        - DATUM ELEVATION
TDD .M        402                  : tdd          - TOTAL DEPTH DRILLER
RUN .         ONE                  : Run          - RUN NUMBER
ENG .         BILL                 : Engineer     - RECORDING ENGINEER
WIT .         JIM                  : Witness      - WITNESSED BY
MUD .         GEL                  : Mud_type     - MUD TYPE
MATR.         LIMESTONE            : Logunit      - NEUTRON MATRIX
TMAX.C        24.4                 : BHT          - MAXIMUM RECORDED TEMPERATURE
BHTD.M        402                  : BHTDEP       - MAXIMUM RECORDED TEMPERATURE
MATR.         1                    : LOGUNIT      - NEUTRON MATRIX
RMT .C        25                   : MDTP         - TEMPERATURE OF MUD
NEUT.         1                    : NEUTRON      - NEUTRON TYPE
RESI.         0                    : RESIST       - RESISTIVITY TYPE
RMC .OHMM     0.25                 : RMC          - RESISTIVITY OF MUD CAKE
RMF .OHMM     0.25                 : RMF          - RESISTIVITY OF MUD FILTRATE
SUFT.C        15                   : SUFT         - SURFACE TEMPERATURE
~A  DEPTH     PHID     PHIN       GR     RESD     DENS
# ...
  359.000    0.222    0.440   87.070    5.619 2330.680
  359.250    0.214    0.440   87.095    5.944 2343.270
  359.500    0.213    0.450   88.951    6.058 2345.440
  359.750    0.214    0.457   91.408    5.948 2343.460
  360.000    0.211    0.451   94.479    5.524 2349.800
  360.250    0.206    0.455   95.125    4.673 2358.230
  360.500    0.200    0.445   93.326    3.953 2368.750
  360.750    0.208    0.434   88.498    2.882 2354.280
  361.000    0.243    0.425   74.562    2.101 2294.170
  361.250    0.287    0.412   52.737    1.712 2219.500
  361.500    0.315    0.400   45.477    1.396 2171.850
  361.750    0.306    0.391   42.476    1.226 2186.500
  362.000    0.313    0.391   41.291    1.203 2174.140
  362.250    0.340    0.412   36.462    1.227 2128.560
  362.500    0.348    0.431   35.892    1.227 2114.120
  362.750    0.363    0.443   40.175    1.274 2089.310
  363.000    0.340    0.450   42.632    1.274 2128.890
  363.250    0.328    0.453   40.842    1.275 2149.760
  363.500    0.328    0.432   39.050    1.299 2149.880
  363.750    0.320    0.430   40.905    1.276 2162.450
  364.000    0.326    0.427   40.334    1.253 2152.170
  364.250    0.332    0.428   37.330    1.230 2141.890
  364.500    0.349    0.423   38.576    1.208 2112.910
  364.750    0.327    0.424   40.427    1.208 2150.410
  365.000    0.324    0.421   39.852    1.232 2156.760
  365.250    0.337    0.428   38.075    1.232 2134.020
  365.500    0.351    0.435   38.097    1.256 2109.210
  365.750    0.337    0.435   38.734    1.280 2134.240
  366.000    0.328    0.440   39.370    1.280 2148.890
  366.250    0.323    0.433   40.617    1.257 2157.290
  366.500    0.316    0.434   41.863    1.257 2169.880
  366.750    0.328    0.445   43.717    1.306 2149.210
  367.000    0.345    0.446   46.179    1.407 2120.250
  367.250    0.317    0.443   49.856    1.461 2168.110
  367.500    0.305    0.442   52.311    1.489 2188.990
  367.750    0.290    0.444   55.383    1.517 2214.020
  368.000    0.313    0.438   53.593    1.490 2174.670
  368.250    0.330    0.426   49.370    1.410 2145.730
  368.500    0.325    0.420   42.733    1.359 2154.120
  368.750    0.327    0.429   41.545    1.262 2150.070
  369.000    0.343    0.426   38.534    1.193 2123.180
  369.250    0.348    0.417   31.891    1.108 2115.000
  369.500    0.350    0.421   29.491    1.088 2110.950
  369.750    0.362    0.430   29.523    1.089 2090.280
  370.000    0.343    0.434   30.163    1.110 2123.630
  370.250    0.338    0.436   32.630    1.131 2132.040
  370.500    0.337    0.441   35.092    1.196 2134.220
  370.750    0.328    0.433   35.117    1.265 2148.870
  371.000    0.327    0.431   33.933    1.364 2151.070
  371.250    0.326    0.431   33.971    1.526 2153.240
  371.500    0.311    0.423   35.211    1.584 2178.280
  371.750    0.298    0.408   38.277    1.675 2201.230
  372.000    0.293    0.399   44.991    1.645 2209.650
  372.250    0.301    0.418   46.243    1.557 2195.230
  372.500    0.346    0.426   40.200    1.528 2118.470
  372.750    0.325    0.425   37.800    1.529 2153.890
  373.000    0.311    0.420   39.045    1.420 2178.950
  373.250    0.304    0.430   40.298    1.294 2189.420
  373.500    0.330    0.442   37.902    1.294 2145.910
  373.750    0.318    0.423   36.710    1.421 2166.790
  374.000    0.301    0.407   42.817    1.476 2195.970
  374.250    0.284    0.398   50.136    1.561 2225.170
  374.500    0.274    0.401   55.025    1.533 2241.950
  374.750    0.274    0.408   52.028    1.450 2242.020
  375.000    0.315    0.417   44.156    1.322 2171.480
  375.250    0.340    0.419   37.517    1.227 2127.970
  375.500    0.339    0.434   36.326    1.119 2130.170
  375.750    0.345    0.451   36.974    1.099 2119.890
  376.000    0.344    0.437   36.405    1.099 2122.080
  376.250    0.352    0.436   35.813    1.162 2107.650
  376.500    0.336    0.437   35.850    1.230 2134.770
  376.750    0.341    0.442   38.313    1.325 2126.570
  377.000    0.340    0.454   40.777    1.376 2128.740
  377.250    0.319    0.448   41.413    1.326 2164.180
  377.500    0.313    0.439   40.840    1.302 2174.660
  377.750    0.312    0.431   39.041    1.232 2176.830
  378.000    0.340    0.432   36.644    1.165 2129.170
  378.250    0.343    0.438   34.249    1.144 2123.060
  378.500    0.341    0.445   34.280    1.124 2127.330
  378.750    0.344    0.450   36.138    1.124 2121.200
  379.000    0.354    0.445   35.559    1.167 2104.700
  379.250    0.361    0.433   33.774    1.190 2092.350
  379.500    0.353    0.428   33.189    1.125 2106.980
  379.750    0.348    0.421   33.837    1.085 2115.410
  380.000    0.327    0.405   36.295    1.085 2150.820
  380.250    0.303    0.400   41.790    1.148 2192.460
  380.500    0.300    0.405   53.968    1.308 2196.730
  380.750    0.276    0.422   64.931    1.463 2238.370
  381.000    0.210    0.453   75.891    2.331 2350.630
  381.250    0.182    0.468  109.935    2.657 2398.530
  381.500    0.188    0.528  117.860    3.084 2388.250
  381.750    0.217    0.556  120.938    3.451 2338.490
  382.000    0.232    0.565  120.354    3.517 2313.700
  382.250    0.244    0.573  116.748    3.453 2293.030
  382.500    0.277    0.591  111.913    3.391 2237.050
  382.750    0.281    0.608  108.908    3.392 2228.860
  383.000    0.228    0.591  116.228    3.457 2320.340
  383.250    0.207    0.579  121.117    3.657 2355.800
  383.500    0.213    0.576  120.543    3.797 2345.510
  383.750    0.235    0.585  113.896    3.870 2308.230
  384.000    0.275    0.609  104.819    3.800 2239.780
  384.250    0.296    0.619   98.174    3.663 2204.600
  384.500    0.302    0.620   96.380    3.664 2194.330
  384.750    0.321    0.620   96.417    3.597 2161.200
  385.000    0.359    0.612   95.833    3.404 2096.920
  385.250    0.337    0.603  102.554    3.342 2134.400
  385.500    0.298    0.588  107.436    3.103 2200.980
  385.750    0.238    0.565  116.579    2.936 2302.860
  386.000    0.239    0.588  115.398    2.830 2300.900
  386.250    0.238    0.574  109.963    2.830 2303.080
  386.500    0.234    0.573  108.178    2.728 2309.420
  386.750    0.254    0.600  106.994    2.780 2276.290
  387.000    0.244    0.589  103.386    2.887 2293.040
  387.250    0.224    0.578   98.554    2.997 2326.360
  387.500    0.199    0.592   96.762    3.230 2370.070
  387.750    0.193    0.585   94.362    3.481 2380.570
  388.000    0.177    0.584   91.970    3.822 2407.700
  388.250    0.184    0.488   92.615    4.276 2395.360
  388.500    0.143    0.355   95.069    4.523 2466.040
  388.750    0.133    0.345   95.109    4.875 2482.780
  389.000    0.146    0.347   95.735    4.877 2460.030
  389.250    0.142    0.353   97.593    4.700 2466.420
  389.500    0.147    0.374   96.411    4.447 2458.180
  389.750    0.154    0.419   92.802    4.129 2445.830
  390.000    0.152    0.414   88.576    3.906 2450.110
  390.250    0.158    0.390   78.894    3.836 2439.810
  390.500    0.176    0.378   69.206    3.629 2408.760
  390.750    0.187    0.379   63.771    3.432 2390.220
  391.000    0.194    0.390   57.735    3.128 2377.860
  391.250    0.201    0.375   55.336    2.851 2365.470
  391.500    0.205    0.357   53.551    2.749 2359.410
  391.750    0.199    0.351   55.398    2.801 2369.850
  392.000    0.194    0.354   60.893    2.750 2378.280
  392.250    0.210    0.363   60.926    2.461 2351.370
  392.500    0.246    0.368   56.099    2.327 2289.180
  392.750    0.272    0.405   47.633    2.162 2245.670
  393.000    0.309    0.427   42.197    2.122 2181.390
  393.250    0.284    0.410   39.811    2.330 2225.120
  393.500    0.254    0.364   40.446    2.756 2275.070
  393.750    0.258    0.365   41.684    3.200 2268.960
  394.000    0.281    0.382   46.578    3.647 2229.600
  394.250    0.297    0.411   59.358    3.648 2202.700
  394.500    0.293    0.456   69.719    3.145 2209.060
  394.750    0.273    0.479   71.578    2.813 2242.390
  395.000    0.265    0.503   69.777    2.612 2257.030
  395.250    0.219    0.516   61.309    2.713 2336.070
