~VERSION INFORMATION
 VERS.                 2.0:   CWLS LOG ASCII STANDARD -VERSION 2.0
 WRAP.                  NO:   ONE LINE PER DEPTH STEP
~WELL INFORMATION BLOCK
#MNEM.UNIT           DATA                    DESCRIPTION OF MNEMONIC
#---------    -------------------            -------------------------------
# Generated from Intellog Unique Number	CS_67_68/WELL/2400
WELL.         BVI ET AL TOUCHWOOD            : Well_name    - WELL
LOC .         00/06-27-067-10W4/0            : Location     - LOCATION
UWI .         00/06-27-067-10W4/0            : Uwi          - UNIQUE WELL ID
ENTR.         ANDERSEN                       : Entered      - ENTERED BY
SRVC.         COMPUTALOG                     : Scn          - SERVICE COMPANY
STRT.M        355                            : top_depth    - START DEPTH
STOP.M        570                            : bot_depth    - STOP DEPTH
STEP.M        0.25                           : increment    - STEP LENGTH
 NULL. -999.2500:NULL Value
~CURVE INFORMATION BLOCK
#MNEM UNIT       ERCB CURVE CODE    CURVE DESCRIPTION
#-----------   ------------------   ----------------------------------
DEPT.M        00 001 00 00         : DEPTH        - DEPTH
GR  .API      00 310 00 00         : GR           - GAMMA RAY
CALI.MM       00 280 01 00         : CAL          - CALIPER
NPHI.V/V      00 330 00 00         : PHIN         - NEUTRON POROSITY (SANDSTONE)
DPHI.V/V      00 890 00 00         : PHID         - DENSITY POROSITY (SANDSTONE)
ILD .OHMM     00 120 00 00         : RESD         - DEEP RESISTIVITY (DIL)
~PARAMETER INFORMATION
#MNEM.UNIT           DATA             DESCRIPTION OF MNEMONIC
#---------         -----------     ------------------------------
GL  .M        645                  : gl           - GROUND LEVEL ELEVATION
EREF.M        649.15               : kb           - ELEVATION OF DEPTH REFERENCE
DATM.M        649.15               : datum        - DATUM ELEVATION
TDD .M        583                  : tdd          - TOTAL DEPTH DRILLER
RUN .         ONE                  : Run          - RUN NUMBER
ENG .         BILL                 : Engineer     - RECORDING ENGINEER
WIT .         JIM                  : Witness      - WITNESSED BY
MUD .         GEL                  : Mud_type     - MUD TYPE
MATR.         SANDSTONE            : Logunit      - NEUTRON MATRIX
TMAX.C        28                   : BHT          - MAXIMUM RECORDED TEMPERATURE
BHTD.M        583                  : BHTDEP       - MAXIMUM RECORDED TEMPERATURE
MATR.         1                    : LOGUNIT      - NEUTRON MATRIX
RMT .C        18                   : MDTP         - TEMPERATURE OF MUD
NEUT.         1                    : NEUTRON      - NEUTRON TYPE
RESI.         0                    : RESIST       - RESISTIVITY TYPE
RMC .OHMM     3.2                  : RMC          - RESISTIVITY OF MUD CAKE
RMF .OHMM     2.8                  : RMF          - RESISTIVITY OF MUD FILTRATE
SUFT.C        15                   : SUFT         - SURFACE TEMPERATURE
~A  DEPTH       GR      CAL     PHIN     PHID     RESD
# ...
  428.000   74.319  180.789    0.498    0.258    3.485
  428.250   68.964  179.756    0.427    0.259    3.483
  428.500   67.154  178.712    0.384    0.253    3.417
  428.750   68.310  178.655    0.391    0.234    3.172
  429.000   71.235  178.632    0.380    0.224    2.838
  429.250   71.813  178.574    0.388    0.250    2.634
  429.500   71.194  177.542    0.395    0.264    2.445
  429.750   67.615  176.510    0.398    0.277    2.356
  430.000   56.934  175.466    0.403    0.295    2.227
  430.250   52.763  175.443    0.404    0.300    2.186
  430.500   55.688  176.372    0.401    0.298    2.144
  430.750   58.035  176.349    0.388    0.304    2.184
  431.000   59.783  177.277    0.381    0.300    2.307
  431.250   60.347  177.220    0.386    0.302    2.482
  431.500   62.095  177.197    0.377    0.303    2.671
  431.750   61.469  178.137    0.382    0.308    2.928
  432.000   59.081  178.080    0.393    0.302    3.094
  432.250   55.502  178.034    0.403    0.298    3.329
  432.500   58.440  177.999    0.394    0.293    3.517
  432.750   63.148  177.953    0.390    0.293    3.581
  433.000   59.562  177.907    0.381    0.301    3.448
  433.250   56.575  177.850    0.380    0.302    3.201
  433.500   54.779  177.804    0.387    0.305    3.027
  433.750   54.744  176.771    0.405    0.312    2.970
  434.000   53.533  175.750    0.408    0.318    3.023
  434.250   51.730  174.718    0.396    0.324    3.022
  434.500   50.525  173.686    0.384    0.319    3.077
  434.750   52.865  173.640    0.388    0.288    3.191
  435.000   55.205  173.594    0.374    0.248    3.249
  435.250   61.096  175.520    0.354    0.247    3.307
  435.500   65.803  176.472    0.381    0.300    3.368
  435.750   65.776  176.426    0.392    0.300    3.366
  436.000   64.557  177.344    0.401    0.287    3.427
  436.250   66.312  177.321    0.400    0.263    3.489
  436.500   71.618  178.261    0.412    0.255    3.487
  436.750   73.366  178.204    0.406    0.263    3.421
  437.000   73.339  178.158    0.397    0.266    3.420
  437.250   72.127  179.098    0.404    0.275    3.355
  437.500   70.317  179.052    0.412    0.287    3.353
  437.750   67.922  179.018    0.423    0.279    3.478
  438.000   68.493  178.960    0.406    0.272    3.607
  438.250   74.377  178.914    0.401    0.275    3.605
  438.500   71.976  178.868    0.415    0.268    3.603
  438.750   70.778  178.834    0.413    0.256    3.471
  439.000   70.159  178.776    0.421    0.243    3.282
  439.250   74.267  178.730    0.412    0.229    3.161
  439.500   71.287  177.698    0.396    0.221    3.160
  439.750   67.117  176.665    0.394    0.221    3.217
  440.000   63.531  176.631    0.394    0.223    3.275
  440.250   62.319  176.585    0.392    0.247    3.397
  440.500   66.442  178.512    0.407    0.271    3.522
  440.750   71.142  179.452    0.407    0.281    3.586
  441.000   73.496  180.404    0.402    0.252    3.652
  441.250   72.278  181.333    0.399    0.222    3.787
  441.500   70.474  182.285    0.388    0.194    3.928
  441.750   75.781  182.239    0.362    0.193    4.073
  442.000   76.338  182.193    0.372    0.202    4.147
  442.250   76.310  182.147    0.387    0.210    4.222
  442.500   76.283  182.101    0.385    0.203    4.219
  442.750   76.847  183.041    0.381    0.193    4.139
  443.000   74.459  182.995    0.380    0.198    4.137
  443.250   71.465  182.949    0.385    0.182    4.060
  443.500   71.444  183.878    0.383    0.174    4.057
  443.750   71.995  183.821    0.384    0.165    4.131
  444.000   73.158  183.798    0.375    0.156    4.285
  444.250   74.321  183.740    0.375    0.162    4.444
  444.500   73.701  183.717    0.378    0.171    4.609
  444.750   79.000  183.671    0.374    0.178    4.779
  445.000   81.925  183.614    0.370    0.186    4.957
  445.250   83.088  183.567    0.367    0.185    5.141
  445.500   81.877  183.521    0.370    0.176    5.331
  445.750   80.666  182.489    0.383    0.176    5.529
  446.000   78.277  182.455    0.393    0.186    5.629
  446.250   73.508  182.409    0.386    0.189    5.731
  446.500   72.297  181.376    0.393    0.195    5.835
  446.750   74.052  180.344    0.398    0.207    5.940
  447.000   79.943  180.298    0.400    0.197    5.938
  447.250   79.908  180.240    0.406    0.182    6.045
  447.500   77.520  180.194    0.411    0.184    6.041
  447.750   76.309  180.160    0.407    0.192    6.151
  448.000   84.567  180.102    0.403    0.190    6.148
  448.250   82.764  180.068    0.410    0.187    5.922
  448.500   80.369  180.010    0.416    0.192    5.600
  448.750   80.334  179.976    0.410    0.190    5.394
  449.000   82.667  179.907    0.406    0.183    5.292
  449.250   82.062  179.884    0.416    0.182    5.192
  449.500   79.660  179.849    0.431    0.186    5.094
  449.750   82.598  179.780    0.431    0.194    4.999
  450.000   84.938  179.757    0.421    0.198    4.905
  450.250   84.917  179.700    0.406    0.199    4.638
  450.500   84.876  179.642    0.398    0.193    4.073
  450.750   84.862  179.608    0.395    0.178    3.782
  451.000   87.787  179.550    0.405    0.183    3.383
  451.250   86.582  179.516    0.405    0.190    3.259
  451.500   82.412  179.481    0.419    0.195    3.443
  451.750   85.344  179.435    0.412    0.199    3.989
  452.000   88.860  179.389    0.412    0.200    4.454
  452.250   89.424  179.343    0.430    0.200    4.705
  452.500   87.621  179.297    0.438    0.200    4.449
  452.750   82.274  179.251    0.430    0.204    4.285
  453.000   76.919  179.205    0.427    0.199    4.363
  453.250   74.518  179.159    0.452    0.205    4.202
  453.500   72.714  179.113    0.462    0.220    3.901
  453.750   73.877  179.067    0.434    0.233    3.757
  454.000   84.503  177.037    0.412    0.232    3.687
  454.250   80.924  175.029    0.415    0.242    3.551
  454.500   76.747  173.997    0.405    0.259    3.485
  454.750   75.543  173.962    0.407    0.262    3.419
  455.000   70.780  173.905    0.393    0.234    3.355
  455.250   76.086  174.857    0.388    0.211    3.292
  455.500   80.201  175.786    0.398    0.209    3.230
  455.750   80.174  175.751    0.400    0.205    3.228
  456.000   79.548  175.694    0.396    0.200    3.226
  456.250   76.561  175.648    0.400    0.220    3.225
  456.500   73.574  175.602    0.408    0.231    3.223
  456.750   71.179  175.556    0.415    0.223    3.342
  457.000   68.199  174.535    0.432    0.230    3.402
  457.250   64.021  173.491    0.441    0.248    3.464
  457.500   60.442  173.433    0.440    0.267    3.527
  457.750   59.224  173.410    0.431    0.280    3.591
  458.000   57.428  173.364    0.408    0.286    3.656
  458.250   55.033  173.307    0.406    0.279    3.722
  458.500   52.645  173.261    0.409    0.283    3.721
  458.750   50.835  173.226    0.419    0.293    3.651
  459.000   51.399  173.169    0.434    0.304    3.516
  459.250   53.154  173.111    0.433    0.311    3.387
  459.500   55.487  174.075    0.425    0.300    3.263
  459.750   55.459  175.026    0.408    0.289    3.201
  460.000   58.983  176.953    0.394    0.280    3.027
  460.250   57.771  177.882    0.389    0.273    2.916
  460.500   56.560  177.836    0.390    0.275    2.809
  460.750   60.090  177.790    0.391    0.280    2.705
  461.000   61.246  177.756    0.387    0.288    2.606
  461.250   60.035  177.698    0.380    0.294    2.509
  461.500   61.790  177.641    0.369    0.300    2.555
  461.750   62.354  177.618    0.365    0.304    2.601
  462.000   64.095  177.560    0.370    0.311    2.648
  462.250   68.810  177.514    0.380    0.317    2.696
  462.500   68.183  177.468    0.389    0.303    2.745
  462.750   67.557  177.422    0.396    0.285    2.795
  463.000   68.135  177.388    0.403    0.261    2.793
  463.250   66.924  178.317    0.396    0.236    2.844
  463.500   59.202  178.271    0.387    0.188    2.843
  463.750   52.664  179.200    0.365    0.150    2.841
  464.000   54.412  179.177    0.297    0.129    2.840
  464.250   70.358  180.117    0.297    0.153    2.838
