~VERSION INFORMATION
 VERS.                 2.0:   CWLS LOG ASCII STANDARD -VERSION 2.0
 WRAP.                  NO:   ONE LINE PER DEPTH STEP
~WELL INFORMATION BLOCK
#MNEM.UNIT           DATA                    DESCRIPTION OF MNEMONIC
#---------    -------------------            -------------------------------
# Generated from Intellog Unique Number	CX_WELLS/WELL/4078
WELL.         BANKENO                        : Well_name    - WELL
LOC .         00/05-33-081-12W4/0            : Location     - LOCATION
UWI .         00/05-33-081-12W400            : Uwi          - UNIQUE WELL ID
ENTR.         T                              : Entered      - ENTERED BY
SRVC.         SCHLUMBERGER                   : Scn          - SERVICE COMPANY
STRT.M        300                            : top_depth    - START DEPTH
STOP.M        535                            : bot_depth    - STOP DEPTH
STEP.M        0.25                           : increment    - STEP LENGTH
 NULL. -999.2500:NULL Value
~CURVE INFORMATION BLOCK
#MNEM UNIT       ERCB CURVE CODE    CURVE DESCRIPTION
#-----------   ------------------   ----------------------------------
DEPT.M        00 001 00 00         : DEPTH        - DEPTH
GR  .API      00 310 00 00         : GR           - GAMMA RAY
NPHI.V/V      00 330 00 00         : PHIN         - NEUTRON POROSITY (SANDSTONE)
DPHI.V/V      00 890 00 00         : PHID         - DENSITY POROSITY (SANDSTONE)
ILD .OHMM     00 120 00 00         : RESD         - DEEP RESISTIVITY (DIL)
~PARAMETER INFORMATION
#MNEM.UNIT           DATA             DESCRIPTION OF MNEMONIC
#---------         -----------     ------------------------------
GL  .M        744                  : gl           - GROUND LEVEL ELEVATION
EREF.M        748                  : kb           - ELEVATION OF DEPTH REFERENCE
DATM.M        748                  : datum        - DATUM ELEVATION
TDD .M        548                  : tdd          - TOTAL DEPTH DRILLER
RUN .         ONE                  : Run          - RUN NUMBER
ENG .         BILL                 : Engineer     - RECORDING ENGINEER
WIT .         JIM                  : Witness      - WITNESSED BY
MUD .         GEL                  : Mud_type     - MUD TYPE
MATR.         SANDSTONE            : Logunit      - NEUTRON MATRIX
TMAX.C        15                   : BHT          - MAXIMUM RECORDED TEMPERATURE
BHTD.M        548                  : BHTDEP       - MAXIMUM RECORDED TEMPERATURE
MATR.         1                    : LOGUNIT      - NEUTRON MATRIX
RMT .C        25                   : MDTP         - TEMPERATURE OF MUD
NEUT.         1                    : NEUTRON      - NEUTRON TYPE
RESI.         0                    : RESIST       - RESISTIVITY TYPE
RMC .OHMM     0.25                 : RMC          - RESISTIVITY OF MUD CAKE
RMF .OHMM     0.25                 : RMF          - RESISTIVITY OF MUD FILTRATE
SUFT.C        4                    : SUFT         - SURFACE TEMPERATURE
~A  DEPTH       GR     PHIN     PHID     RESD
# ...
  430.500   91.028    0.501    0.255    5.342
  430.750   87.351    0.509    0.251    5.079
  431.000   84.895    0.512    0.259    4.992
  431.250   83.686    0.506    0.277    4.744
  431.500   81.866    0.485    0.279    4.666
  431.750   80.058    0.483    0.283    4.512
  432.000   79.472    0.481    0.288    4.288
  432.250   77.677    0.480    0.291    4.146
  432.500   77.103    0.479    0.293    4.078
  432.750   76.504    0.474    0.287    4.013
  433.000   76.554    0.462    0.268    4.315
  433.250   77.850    0.459    0.244    4.636
  433.500   79.782    0.467    0.240    5.069
  433.750   82.337    0.473    0.236    5.350
  434.000   83.621    0.467    0.240    7.099
  434.250   84.941    0.465    0.246    6.631
  434.500   84.343    0.462    0.250    6.407
  434.750   83.782    0.459    0.249    6.091
  435.000   83.819    0.452    0.248    5.991
  435.250   84.492    0.447    0.249    5.896
  435.500   85.189    0.453    0.254    5.906
  435.750   85.214    0.473    0.257    6.018
  436.000   83.406    0.475    0.258    6.243
  436.250   82.197    0.472    0.261    6.254
  436.500   81.013    0.466    0.263    6.261
  436.750   81.062    0.466    0.268    6.275
  437.000   84.240    0.468    0.263    6.172
  437.250   86.758    0.477    0.258    6.179
  437.500   89.313    0.488    0.254    5.976
  437.750   87.505    0.495    0.252    5.879
  438.000   86.296    0.505    0.254    5.686
  438.250   84.476    0.514    0.256    5.495
  438.500   83.279    0.515    0.259    4.956
  438.750   83.341    0.512    0.260    4.706
  439.000   83.366    0.505    0.261    4.549
  439.250   85.921    0.488    0.262    4.249
  439.500   88.488    0.484    0.265    4.178
  439.750   89.149    0.484    0.269    4.184
  440.000   87.964    0.485    0.270    4.577
  440.250   87.366    0.480    0.261    4.831
  440.500   89.310    0.483    0.245    5.190
  440.750   89.958    0.489    0.237    5.200
  441.000   92.500    0.489    0.242    5.031
  441.250   93.173    0.486    0.248    4.947
  441.500   93.235    0.482    0.253    4.785
  441.750   92.662    0.479    0.255    4.708
  442.000   92.711    0.475    0.255    4.715
  442.250   92.138    0.456    0.253    4.806
  442.500   92.175    0.436    0.246    4.900
  442.750   90.355    0.436    0.227    4.991
  443.000   85.418    0.429    0.212    5.362
  443.250   77.989    0.325    0.184    5.866
  443.500   78.051    0.313    0.157    6.191
  443.750   80.581    0.382    0.123    6.652
  444.000   83.747    0.414    0.119    7.406
  444.250   85.666    0.432    0.173    7.682
  444.500   86.975    0.443    0.214    8.116
  444.750   86.389    0.445    0.248    8.266
  445.000   85.815    0.438    0.243    8.578
  445.250   86.500    0.433    0.240    8.743
  445.500   88.432    0.435    0.239    8.752
  445.750   90.364    0.436    0.240    8.318
  446.000   91.012    0.436    0.242    7.629
  446.250   92.308    0.432    0.245    7.119
  446.500   92.993    0.427    0.247    6.534
  446.750   89.914    0.426    0.249    6.312
  447.000   84.355    0.422    0.265    6.103
  447.250   80.042    0.417    0.288    6.008
  447.500   77.611    0.409    0.310    5.912
  447.750   77.648    0.409    0.311    5.921
  448.000   79.579    0.410    0.304    6.034
  448.250   80.876    0.407    0.302    6.716
  448.500   80.925    0.405    0.307    7.344
  448.750   80.364    0.399    0.295    7.756
  449.000   81.648    0.393    0.283    7.765
  449.250   82.944    0.394    0.276    7.776
  449.500   84.863    0.417    0.264    7.521
  449.750   85.536    0.425    0.256    7.398
  450.000   86.196    0.442    0.256    7.036
  450.250   83.765    0.449    0.259    6.800
  450.500   81.322    0.444    0.261    6.689
  450.750   78.879    0.439    0.263    6.580
  451.000   76.448    0.434    0.268    6.479
  451.250   75.849    0.434    0.272    6.371
  451.500   75.899    0.437    0.276    6.383
  451.750   78.441    0.441    0.271    6.390
  452.000   79.750    0.443    0.259    6.401
  452.250   79.176    0.436    0.258    6.522
  452.500   79.226    0.424    0.261    6.650
  452.750   79.288    0.418    0.267    6.546
  453.000   78.714    0.425    0.262    6.553
  453.250   77.505    0.451    0.262    6.566
  453.500   76.308    0.455    0.263    6.578
  453.750   75.124    0.446    0.267    6.699
  454.000   75.784    0.428    0.273    6.831
  454.250   77.728    0.421    0.279    6.962
  454.500   79.024    0.425    0.283    6.970
  454.750   78.438    0.430    0.281    7.109
  455.000   75.995    0.425    0.233    7.243
  455.250   71.669    0.411    0.215    7.380
  455.500   67.369    0.401    0.193    7.655
  455.750   71.158    0.430    0.219    7.944
  456.000   73.713    0.450    0.248    8.386
  456.250   74.984    0.458    0.270    8.703
  456.500   75.058    0.464    0.275    8.867
  456.750   75.096    0.464    0.285    9.044
  457.000   75.133    0.459    0.291    9.051
  457.250   75.182    0.458    0.299    8.909
  457.500   74.609    0.456    0.303    8.467
  457.750   73.424    0.457    0.301    8.038
  458.000   72.863    0.458    0.298    7.117
  458.250   72.888    0.458    0.293    6.530
  458.500   72.937    0.451    0.290    5.991
  458.750   75.492    0.449    0.288    5.891
  459.000   79.904    0.448    0.284    5.696
  459.250   84.329    0.454    0.279    5.507
  459.500   88.106    0.460    0.275    5.234
  459.750   92.518    0.469    0.268    5.058
  460.000   96.307    0.465    0.256    4.723
  460.250   96.980    0.459    0.251    4.409
  460.500   82.707    0.454    0.249    4.117
  460.750   79.628    0.445    0.255    3.978
  461.000   77.185    0.437    0.271    3.779
  461.250   77.858    0.438    0.271    4.132
  461.500   78.543    0.438    0.266    4.519
  461.750   79.216    0.437    0.258    4.943
  462.000   79.889    0.433    0.255    5.126
  462.250   79.938    0.431    0.251    5.507
  462.500   79.976    0.452    0.248    5.920
  462.750   80.025    0.463    0.240    6.034
  463.000   80.075    0.468    0.237    5.939
  463.250   79.538    0.462    0.233    5.946
  463.500   78.940    0.437    0.227    5.855
  463.750   76.484    0.429    0.224    5.861
  464.000   72.184    0.422    0.217    5.868
  464.250   72.844    0.416    0.215    5.983
  464.500   76.035    0.439    0.216    6.098
  464.750   77.318    0.448    0.222    6.105
  465.000   78.004    0.457    0.228    6.118
  465.250   79.312    0.458    0.229    6.123
  465.500   79.960    0.447    0.228    6.132
  465.750   81.256    0.447    0.228    6.141
  466.000   82.552    0.456    0.227    6.154
  466.250   84.484    0.451    0.227    6.161
  466.500   85.780    0.429    0.228    6.168
  466.750   87.712    0.430    0.230    6.289
  467.000   88.360    0.436    0.233    6.296
  467.250   90.279    0.459    0.236    6.310
  467.500   89.718    0.485    0.243    6.101
  467.750   86.651    0.513    0.249    5.500
  468.000   84.195    0.546    0.264    5.221
  468.250   81.141    0.546    0.294    4.788
  468.500   78.062    0.518    0.307    4.317
  468.750   74.397    0.512    0.307    4.098
  469.000   73.175    0.497    0.301    3.827
  469.250   72.614    0.487    0.290    3.571
  469.500   72.651    0.480    0.275    3.162
  469.750   73.337    0.455    0.257    2.801
  470.000   74.010    0.451    0.254    2.523
  470.250   74.682    0.428    0.258    2.439
  470.500   75.368    0.419    0.263    2.913
  470.750   76.040    0.413    0.258    3.868
  471.000   76.065    0.408    0.248    4.156
  471.250   76.751    0.440    0.241    4.309
  471.500   78.046    0.456    0.249    4.549
  471.750   81.848    0.463    0.262    4.805
  472.000   83.767    0.463    0.261    5.072
  472.250   83.181    0.468    0.251    4.906
  472.500   81.374    0.470    0.239    4.740
  472.750   80.164    0.459    0.236    4.347
  473.000   78.980    0.439    0.232    3.987
  473.250   79.017    0.461    0.235    3.531
  473.500   82.818    0.490    0.257    3.729
  473.750   86.595    0.516    0.259    4.077
