~VERSION INFORMATION
 VERS.                 2.0:   CWLS LOG ASCII STANDARD -VERSION 2.0
 WRAP.                  NO:   ONE LINE PER DEPTH STEP
~WELL INFORMATION BLOCK
#MNEM.UNIT           DATA                    DESCRIPTION OF MNEMONIC
#---------    -------------------            -------------------------------
# Generated from Intellog Unique Number	CW_82_90/WELL/529
WELL.         ANDEX WABASCA 06-23            : Well_name    - WELL
LOC .         00/06-23-082-22W4/0            : Location     - LOCATION
UWI .         00/06-23-082-22W4/0            : Uwi          - UNIQUE WELL ID
ENTR.         JAYE                           : Entered      - ENTERED BY
SRVC.         SCHLUMBERGER                   : Scn          - SERVICE COMPANY
DATE.         30 JAN 74                      : Date         - LOG DATE
STRT.M        228.6                          : top_depth    - START DEPTH
STOP.M        435.85                         : bot_depth    - STOP DEPTH
STEP.M        0.25                           : increment    - STEP LENGTH
 NULL. -999.2500:NULL Value
~CURVE INFORMATION BLOCK
#MNEM UNIT       ERCB CURVE CODE    CURVE DESCRIPTION
#-----------   ------------------   ----------------------------------
DEPT.M        00 001 00 00         : DEPTH        - DEPTH
GR  .API      00 310 00 00         : GR           - GAMMA RAY
NPHI.V/V      00 330 00 00         : PHIN         - NEUTRON POROSITY (SANDSTONE)
DPHI.V/V      00 890 00 00         : PHID         - DENSITY POROSITY (SANDSTONE)
CALI.MM       00 280 01 00         : CAL          - CALIPER
ILD .OHMM     00 120 00 00         : RESD         - DEEP RESISTIVITY (DIL)
~PARAMETER INFORMATION
#MNEM.UNIT           DATA             DESCRIPTION OF MNEMONIC
#---------         -----------     ------------------------------
GL  .M        622.554              : gl           - GROUND LEVEL ELEVATION
EREF.M        626.364              : kb           - ELEVATION OF DEPTH REFERENCE
DATM.M        622.554              : datum        - DATUM ELEVATION
TDD .M        448.97               : tdd          - TOTAL DEPTH DRILLER
RUN .         ONE                  : Run          - RUN NUMBER
ENG .         HITCHNER             : Engineer     - RECORDING ENGINEER
WIT .         SAYERS               : Witness      - WITNESSED BY
BASE.         EDMONTON             : Branch       - HOME BASE OF LOGGING UNIT
MUD .         GEL CHEM             : Mud_type     - MUD TYPE
MATR.         SANDSTONE            : Logunit      - NEUTRON MATRIX
TMAX.C        21.6667              : BHT          - MAXIMUM RECORDED TEMPERATURE
BHTD.M        448.97               : BHTDEP       - MAXIMUM RECORDED TEMPERATURE
RMT .C        15                   : MDTP         - TEMPERATURE OF MUD
MUDD.KG/M     1000                 : MWT          - MUD DENSITY
NEUT.         1                    : NEUTRON      - NEUTRON TYPE
RESI.         0                    : RESIST       - RESISTIVITY TYPE
RM  .OHMM     7.42                 : RM           - RESISTIVITY OF MUD
RMC .OHMM     0.25                 : RMC          - RESISTIVITY OF MUD CAKE
RMF .OHMM     7.35                 : RMF          - RESISTIVITY OF MUD FILTRATE
SUFT.C        4                    : SUFT         - SURFACE TEMPERATURE
~A  DEPTH       GR     PHIN     PHID      CAL     RESD
# ...
  411.100   35.431    0.368    0.295  154.779   27.842
  411.350   31.240    0.387    0.313  154.700   34.827
  411.600   30.643    0.413    0.329  154.826   46.277
  411.850   31.999    0.403    0.333  155.163   65.565
  412.100   34.694    0.398    0.324  155.494   77.632
  412.350   37.390    0.400    0.317  155.724   79.388
  412.600   40.394    0.415    0.313  155.544   78.408
  412.850   42.172    0.430    0.309  154.952   64.243
  413.100   44.746    0.446    0.305  154.361   57.582
  413.350   48.904    0.417    0.310  153.254   53.830
  413.600   55.928    0.408    0.327  151.835   52.392
  413.850   64.719    0.387    0.314  152.066   47.567
  414.100   72.657    0.370    0.261  151.782   43.261
  414.350   81.996    0.349    0.142  157.265   33.246
  414.600   87.374    0.343    0.143  162.751   20.773
  414.850   86.839    0.355    0.182  161.743   17.052
  415.100   85.695    0.384    0.191  162.284   14.127
  415.350   86.562    0.382    0.195  162.107   12.028
  415.600   90.600    0.377    0.192  162.436   10.355
  415.850  106.095    0.383    0.188  163.388    8.737
  416.100  105.255    0.490    0.199  158.984    5.632
  416.350   97.468    0.492    0.203  156.950    5.313
  416.600   91.631    0.469    0.194  158.004    5.836
  416.850   82.136    0.438    0.166  155.352    7.024
  417.100   76.115    0.348    0.127  154.862    8.771
  417.350   77.410    0.326    0.084  157.360   12.633
  417.600   87.359    0.336    0.095  160.479   14.419
  417.850   96.211    0.354    0.117  161.218   15.268
  418.100  100.248    0.394    0.180  161.450   14.860
  418.350  102.638    0.451    0.182  160.346   10.849
  418.600  107.955    0.471    0.194  157.074    8.523
  418.850  103.642    0.499    0.212  155.145    8.356
  419.100   92.745    0.510    0.220  156.198    9.228
  419.350   78.316    0.454    0.234  156.941   10.866
  419.600   69.733    0.400    0.252  156.768   13.518
  419.850   64.445    0.403    0.261  156.684   16.755
  420.100   62.448    0.407    0.265  157.948   21.229
  420.350   62.828    0.394    0.254  159.926   28.158
  420.600   65.466    0.385    0.247  161.808   32.977
  420.850   67.671    0.385    0.242  161.829   30.884
  421.100   72.195    0.392    0.242  160.620   29.676
  421.350   78.734    0.442    0.263  159.098   28.777
  421.600   80.945    0.465    0.272  162.431   27.351
  421.850   81.380    0.478    0.273  163.164   26.233
  422.100   83.344    0.462    0.262  162.885   25.673
  422.350   85.247    0.440    0.273  161.775   26.062
  422.600   84.225    0.428    0.265  160.463   26.506
  422.850   77.473    0.429    0.259  161.618   26.421
  423.100   73.586    0.436    0.247  161.952   25.808
  423.350   75.063    0.427    0.247  156.932   18.265
  423.600   80.867    0.425    0.229  155.309   14.613
  423.850   82.649    0.481    0.213  159.659   12.039
  424.100   83.702    0.465    0.208  160.920   10.751
  424.350   86.097    0.452    0.208  161.254    9.514
  424.600   89.152    0.467    0.205  160.660    8.388
  424.850   93.676    0.494    0.205  161.514    7.395
  425.100   93.087    0.491    0.194  163.389    6.751
  425.350   91.997    0.456    0.174  164.445    6.334
  425.600   93.535    0.425    0.159  166.635    7.722
  425.850   99.644    0.442    0.192  167.790    8.162
  426.100   99.172    0.442    0.193  167.709    9.031
  426.350   98.210    0.536    0.214  164.336    9.388
  426.600   98.346    0.552    0.243  162.303    8.649
  426.850  100.797    0.564    0.281  160.680    7.795
  427.100   96.912    0.547    0.302  159.780    7.642
  427.350   91.012    0.478    0.301  158.982    8.197
  427.600   64.939    0.432    0.320  157.666   10.030
  427.850   62.636    0.371    0.286  156.560   12.252
  428.100   76.669    0.340    0.267  156.583   14.828
  428.350   95.883    0.362    0.200  159.905   17.915
  428.600   99.371    0.365    0.193  163.433   18.187
  428.850   91.583    0.388    0.247  162.734   17.507
  429.100   83.978    0.380    0.277  158.126   16.915
  429.350   85.028    0.364    0.261  158.776   17.015
  429.600   93.332    0.353    0.213  159.822   17.884
  429.850   93.712    0.349    0.216  160.879   17.311
  430.100   79.402    0.351    0.212  157.815   15.978
  430.350   70.700    0.344    0.276  155.883   15.465
  430.600   63.156    0.336    0.307  155.807   16.168
  430.850   54.698    0.338    0.326  155.624   17.758
  431.100   54.224    0.378    0.338  156.888   19.326
  431.350   59.054    0.364    0.340  157.837   21.189
  431.600   59.798    0.356    0.338  158.171   23.963
  431.850   57.801    0.367    0.327  159.124   30.924
  432.100   56.169    0.361    0.311  159.665   43.332
  432.350   56.366    0.353    0.283  158.864   27.474
  432.600   53.394    0.359    0.198  158.889   11.495
  432.850   40.424    0.371    0.109  159.943    6.376
  433.100   27.761    0.384    0.011  160.381    3.841
  433.350   19.546    0.337    0.072  162.158    4.015
  433.600   20.657    0.276    0.074  159.297    5.059
  433.850   28.229    0.256    0.067  158.189    6.649
  434.100   40.982    0.265    0.098  160.791   14.567
  434.350   49.834    0.283    0.132  158.654   22.166
  434.600   56.979    0.320    0.198  158.677   43.190
  434.850   63.271    0.322    0.169  160.762   33.805
  435.100   64.261    0.334    0.129  163.466   42.440
  435.350   65.554    0.350    0.162  162.562   48.621
  435.600   56.486    0.361    0.127  158.574   45.871
  435.850   51.259    0.362    0.115  157.877   45.722
