~V
VERS. 2.00: Ver 2.00
WRAP. NO:
VEND. PRIZM:GeoGraphix
~W
STRT.M 125.0000:START DEPTH
STOP.M 325.0000:STOP DEPTH
STEP.M 0.2500:STEP
NULL. -999.2500:NULL VALUE
WELL. 00/06-21-082-05W4/0 :WELL
COMP. :COMPANY
UWI. 00_06-21-082-05W4_0:UNIQUE WELL ID
FLD. :FIELD
CNTY. :COUNTY
STAT. :STATE
CTRY. :COUNTRY
PDAT. :PERMANENT DATUM
LMF. :LOG MEASURED FROM
DMF. :DRILLING MEASURED FROM
LOC1. :LOCATION LINE 1
LOC2. :LOCATION LINE 2
LOC3. :LOCATION LINE 3
SEC. :SECTION
TWP. :TOWNSHIP
RAN. :RANGE
SRVC. :Logging Company
BASE. :Logging Unit Location
ENG. :Logging Engineer
WITN. :Witnessed By
RUN. :Run No.
MUD_TYPE. :Type Fluid in Hole
MUDS. :Source of Mud Sample
RMFS. :Source of Mud Filtrate
RMCS. :Source of Mud Cake
LOC. :LOCATION
DATE. :LOG DATE
~C
DEPT.M :DEPTH
NPHI. :NPHI
GR.API :GR
DPHI. :Created by graphical digitiser entry.
ILD.Ohmm :ILD
~P
EKB. -999.2500:ELEVATION OF KELLY BUSHING
EDF. -999.2500:ELEVATION OF DRILLING FLOOR
EGL. -999.2500:ELEVATION OF GROUND LEVEL
EPD. -999.2500:ELEVATION OF PERMANENT DATUM
APD. -999.2500:LMF DISTANCE ABOVE PERMANENT DATUM
LAT. -999.2500:LATITUDE OF WELL LOCATION
LONG. -999.2500:LONGITUDE OF WELL LOCATION
TDD. -999.2500:Total Depth Driller
TDL. -999.2500:Total Depth Logger
LCSG1. -999.2500:Depth of Casing from Logger
CSIZE. -999.2500:Casing Size
CWT. -999.2500:Casing Weight
BS. -999.2500:Bit Size
TLI. 125.1000:Top Logged Interval
BLI. 324.9000:Bottom Logged Interval
MRT. 0.0000:Maximum Recorded Temperature
WMUD. -999.2500:Drilling Mud Density
DFV. -999.2500:Drilling Mud Viscosity
PH. -999.2500:Drilling Mud pH
DFL. -999.2500:Drilling Mud Fluid Loss
RM. -999.2500:Resistivity of Drilling Fluid
RMT. -999.2500:Measured Temp. of Drilling Fluid
RMF. -999.2500:Resistivity of Drilling Fluid Filtrate
RMFT. -999.2500:Measured Temp. of Drilling Fluid Filtrate
RMC. -999.2500:Resistivity of Mud Cake
RMCT. -999.2500:Measured Temp. of Mud Cake
PHImax.V/V 0.3900:Maximum allowable Porosity
RwBnd.OHMM 0.1500:Bound Water Resistivity
RhoHy.KG/MT 1000.0000:Hydrocarbon Bulk density
SwCutoff.V/V 0.7000:Water Saturation Cutoff
PHINsh.V/V 0.4800:New Description
Rw.OHMM 1.0000:Formation Water Resistivity
Rshl.OHMM 5.0000:Resistivity shale
Trw.DEGC 25.0000:Rw measured at Lab conditions
ShaleCutoff.V/V 0.4000:New Description
GRcln.API 45.0000:Gamma Ray clean
RhoM.KG/MT 2650.0000:Bulk Density Matrix
GRshl.API 90.0000:Gamma Ray shale
m. 2.0000:Archie "m"
n. 2.0000:Archie "n"
GasTol.V/V 0.0500:Gas Tollerance
BHTemp.DEGC 25.0000:Bottom Hole Temperature
BHTDepth.M 1000.0000:Bottom Hole Depth
PHIDsh.US/MT 0.1800:New Description
a. 1.0000:Archie "a"
Gas Tol.V/V 0.0500:Gas Tollerance
RhoF.KG/MT 1000.0000:Bulk Density Fluid
RhoShl.KG/MT 2300.0000:Bulk Density Shale
TarCutoff.V/V 0.0300:New Description
SurfTemp.DEGC 10.0000:New Description
HIshl.V/V 0.4000:Neutron Hydrogen Index shale
NULL. -999.2500:
~A
# ...
  160.7500     0.5721    84.0407     0.3047     2.7124 
  161.0000     0.5867    86.6483     0.2887     2.5417 
  161.2500     0.5674    87.6459     0.2816     2.4123 
  161.5000     0.5444    87.1272     0.2938     2.3334 
  161.7500     0.5483    85.6665     0.3339     2.2818 
  162.0000     0.5624    84.1551     0.4012     2.1971 
  162.2500     0.5834    83.2623     0.4365     2.0622 
  162.5000     0.6105    83.1966     0.4565     1.8866 
  162.7500     0.6158    83.3774     0.4541     1.7160 
  163.0000     0.6046    83.5596     0.4383     1.5816 
  163.2500     0.5920    83.6619     0.4231     1.4971 
  163.5000     0.5793    83.5951     0.4155     1.4563 
  163.7500     0.5828    83.7344     0.4245     1.4896 
  164.0000     0.5880    84.6721     0.4252     1.5465 
  164.2500     0.5867    86.1724     0.3970     1.6459 
  164.5000     0.5762    87.7505     0.3606     1.7714 
  164.7500     0.5612    88.8584     0.3408     1.9004 
  165.0000     0.5564    89.0712     0.3286     2.0328 
  165.2500     0.5628    89.7348     0.3056     2.1871 
  165.5000     0.5498    90.2362     0.2861     2.3627 
  165.7500     0.5398    90.0993     0.2708     2.5365 
  166.0000     0.5371    89.1543     0.2645     2.6923 
  166.2500     0.5338    87.5603     0.2677     2.8195 
  166.5000     0.5162    85.8277     0.2686     2.9127 
  166.7500     0.5108    85.4430     0.2784     2.9222 
  167.0000     0.5014    85.8265     0.2844     2.8852 
  167.2500     0.4947    85.4393     0.2912     2.8628 
  167.5000     0.4889    84.1136     0.3005     2.8658 
  167.7500     0.4788    82.7985     0.3117     2.8861 
  168.0000     0.4603    83.3057     0.3241     2.9270 
  168.2500     0.4394    82.8978     0.3294     2.9902 
  168.5000     0.4329    81.6602     0.3309     3.0159 
  168.7500     0.4362    80.0305     0.3297     2.9794 
  169.0000     0.4446    79.0727     0.3228     2.9106 
  169.2500     0.4541    79.8070     0.3065     2.8502 
  169.5000     0.4598    82.5402     0.2799     2.8055 
  169.7500     0.4659    86.2566     0.2658     2.7747 
  170.0000     0.4750    88.9220     0.2638     2.8041 
  170.2500     0.4861    90.3859     0.2662     2.9307 
  170.5000     0.4898    91.0603     0.2691     3.1107 
  170.7500     0.4809    91.5215     0.2723     3.2758 
  171.0000     0.4700    92.1100     0.2795     3.3900 
  171.2500     0.4737    92.4707     0.2815     3.3907 
  171.5000     0.4757    92.3756     0.2710     3.3584 
  171.7500     0.4735    91.6624     0.2631     3.2685 
  172.0000     0.4737    90.8152     0.2613     3.1523 
  172.2500     0.4830    90.3230     0.2624     3.0539 
  172.5000     0.4993    90.0393     0.2620     2.9858 
  172.7500     0.4998    90.3897     0.2638     2.9445 
  173.0000     0.4918    90.8757     0.2626     2.9325 
  173.2500     0.4827    91.2367     0.2564     2.9175 
  173.5000     0.4794    91.3042     0.2485     2.8828 
  173.7500     0.4821    90.9393     0.2450     2.8294 
  174.0000     0.4789    89.9702     0.2530     2.7773 
  174.2500     0.4801    88.5237     0.2707     2.7285 
  174.5000     0.4778    87.8654     0.2811     2.6752 
  174.7500     0.4779    87.6217     0.2866     2.6112 
  175.0000     0.4795    87.3603     0.2906     2.5375 
  175.2500     0.4787    86.9975     0.2968     2.4573 
  175.5000     0.4716    87.2053     0.3081     2.3712 
  175.7500     0.4955    88.5308     0.3417     2.2679 
  176.0000     0.5201    87.7682     0.3581     2.1746 
  176.2500     0.5394    86.8323     0.3494     2.1037 
  176.5000     0.5510    86.7295     0.3236     2.0581 
  176.7500     0.5537    87.8174     0.2971     2.0405 
  177.0000     0.5452    90.0635     0.2872     2.0642 
  177.2500     0.5459    90.2493     0.2914     2.0694 
  177.5000     0.5545    88.5691     0.3092     2.0724 
  177.7500     0.5558    86.1839     0.3259     2.1023 
  178.0000     0.5513    83.8386     0.3320     2.1794 
  178.2500     0.5446    82.1000     0.3247     2.2939 
  178.5000     0.5285    81.5953     0.3100     2.3870 
  178.7500     0.5268    81.6546     0.3199     2.2747 
  179.0000     0.5294    81.9372     0.3438     2.0569 
  179.2500     0.5470    82.5704     0.3724     1.8455 
  179.5000     0.5691    83.2981     0.3868     1.7270 
  179.7500     0.5824    83.8179     0.3756     1.7573 
  180.0000     0.5895    84.1165     0.3529     1.9569 
  180.2500     0.5522    84.4305     0.3296     2.2211 
  180.5000     0.5243    84.1319     0.3101     2.4633 
  180.7500     0.4950    82.3953     0.3014     2.6366 
  181.0000     0.4720    79.5512     0.3090     2.6777 
  181.2500     0.4657    76.6133     0.3243     2.5694 
  181.5000     0.4746    74.8061     0.3123     2.4034 
  181.7500     0.4824    73.5993     0.3077     2.2795 
  182.0000     0.4850    72.1847     0.3153     2.1573 
  182.2500     0.4924    71.4447     0.3170     2.0473 
  182.5000     0.5015    71.6837     0.3119     1.9575 
  182.7500     0.5063    72.2160     0.3057     1.8909 
  183.0000     0.5064    70.9539     0.2993     1.8441 
  183.2500     0.5005    68.3978     0.2954     1.8552 
  183.5000     0.5049    67.4657     0.2841     1.9159 
  183.7500     0.5064    67.4565     0.2684     2.0428 
  184.0000     0.5032    68.2251     0.2516     2.2017 
  184.2500     0.4958    69.9994     0.2397     2.3496 
  184.5000     0.4779    73.1973     0.2422     2.4762 
  184.7500     0.4581    77.6991     0.2670     2.5866 
  185.0000     0.4492    81.2055     0.2990     2.6586 
  185.2500     0.4508    82.1919     0.3196     2.6609 
  185.5000     0.4707    81.4425     0.3262     2.6203 
  185.7500     0.5095    80.5879     0.3237     2.5800 
  186.0000     0.5442    80.6428     0.3171     2.5572 
  186.2500     0.5519    80.7654     0.3067     2.5706 
  186.5000     0.5334    80.1876     0.2999     2.5840 
  186.7500     0.5152    80.1524     0.3062     2.6137 
  187.0000     0.5043    81.1025     0.3216     2.6764 
  187.2500     0.4950    83.0266     0.3345     2.7730 
  187.5000     0.4758    85.8044     0.3293     2.8722 
  187.7500     0.4700    89.0394     0.3150     2.9437 
  188.0000     0.4781    89.5943     0.2902     2.9583 
  188.2500     0.4871    87.0820     0.2749     2.9392 
  188.5000     0.4921    83.6165     0.2800     2.8878 
  188.7500     0.4930    81.2235     0.3050     2.7847 
  189.0000     0.4918    79.2521     0.3361     2.5920 
  189.2500     0.5077    76.8171     0.3623     2.3421 
  189.5000     0.5296    74.0315     0.3896     2.0604 
  189.7500     0.5572    71.8413     0.4074     1.7988 
  190.0000     0.5819    70.9861     0.4103     1.5817 
  190.2500     0.5935    71.4787     0.3999     1.4293 
  190.5000     0.5871    72.0853     0.3882     1.3796 
  190.7500     0.5929    73.0415     0.3925     1.4605 
  191.0000     0.5849    73.6801     0.3949     1.5992 
  191.2500     0.5658    73.9344     0.3878     1.7980 
  191.5000     0.5399    74.3074     0.3756     2.0350 
  191.7500     0.5173    75.2125     0.3625     2.2799 
  192.0000     0.5199    76.3145     0.3401     2.5088 
  192.2500     0.5244    77.1610     0.3294     2.6945 
  192.5000     0.5058    77.2849     0.3372     2.8440 
  192.7500     0.4906    77.0203     0.3453     2.9234 
  193.0000     0.4785    76.5600     0.3464     2.9196 
  193.2500     0.4656    76.2846     0.3446     2.8291 
  193.5000     0.4664    77.0925     0.3539     2.6472 
  193.7500     0.4891    78.8394     0.3369     2.4657 
  194.0000     0.5333    79.0321     0.3140     2.2979 
  194.2500     0.5446    79.5758     0.2950     2.1580 
  194.5000     0.5267    79.6850     0.2843     2.0457 
  194.7500     0.5102    78.5130     0.2817     1.9615 
  195.0000     0.5215    77.7813     0.2822     1.9232 
  195.2500     0.5313    78.6816     0.2829     1.9485 
  195.5000     0.5440    79.4162     0.2745     1.9939 
  195.7500     0.5504    79.3758     0.2705     2.0518 
  196.0000     0.5485    78.9106     0.2726     2.1108 
  196.2500     0.5392    78.7524     0.2747     2.1570 
