~VERSION INFORMATION
 VERS.                 2.0:   CWLS LOG ASCII STANDARD -VERSION 2.0
 WRAP.                  NO:   ONE LINE PER DEPTH STEP
~WELL INFORMATION BLOCK
#MNEM.UNIT           DATA                    DESCRIPTION OF MNEMONIC
#---------    -------------------            -------------------------------
# Generated from Intellog Unique Number	CS_77_79/WELL/902
WELL.         ICGR GRAHAM                    : Well_name    - WELL
LOC .         00/07-20-079-04W4/0            : Location     - LOCATION
UWI .         00/07-20-079-04W4/0            : Uwi          - UNIQUE WELL ID
ENTR.         JHS                            : Entered      - ENTERED BY
SRVC.         SCHLUMBERGER                   : Scn          - SERVICE COMPANY
STRT.M        130                            : top_depth    - START DEPTH
STOP.M        355                            : bot_depth    - STOP DEPTH
STEP.M        0.25                           : increment    - STEP LENGTH
 NULL. -999.2500:NULL Value
~CURVE INFORMATION BLOCK
#MNEM UNIT       ERCB CURVE CODE    CURVE DESCRIPTION
#-----------   ------------------   ----------------------------------
DEPT.M        00 001 00 00         : DEPTH        - DEPTH
DPHI.V/V      00 890 00 00         : PHID         - DENSITY POROSITY (LIMESTONE)
NPHI.V/V      00 330 00 00         : PHIN         - NEUTRON POROSITY (LIMESTONE)
GR  .API      00 310 00 00         : GR           - GAMMA RAY
ILD .OHMM     00 120 00 00         : RESD         - DEEP RESISTIVITY (DIL)
RHOB.KG/M3    00 350 00 00         : DENS         - BULK DENSITY
~PARAMETER INFORMATION
#MNEM.UNIT           DATA             DESCRIPTION OF MNEMONIC
#---------         -----------     ------------------------------
GL  .M        503                  : gl           - GROUND LEVEL ELEVATION
EREF.M        506.6                : kb           - ELEVATION OF DEPTH REFERENCE
DATM.M        506.6                : datum        - DATUM ELEVATION
TDD .M        355                  : tdd          - TOTAL DEPTH DRILLER
RUN .         ONE                  : Run          - RUN NUMBER
ENG .         BILL                 : Engineer     - RECORDING ENGINEER
WIT .         JIM                  : Witness      - WITNESSED BY
MUD .         GEL                  : Mud_type     - MUD TYPE
MATR.         LIMESTONE            : Logunit      - NEUTRON MATRIX
TMAX.C        19                   : BHT          - MAXIMUM RECORDED TEMPERATURE
BHTD.M        355                  : BHTDEP       - MAXIMUM RECORDED TEMPERATURE
MATR.         1                    : LOGUNIT      - NEUTRON MATRIX
RMT .C        25                   : MDTP         - TEMPERATURE OF MUD
NEUT.         1                    : NEUTRON      - NEUTRON TYPE
RESI.         0                    : RESIST       - RESISTIVITY TYPE
RMC .OHMM     0.25                 : RMC          - RESISTIVITY OF MUD CAKE
RMF .OHMM     0.25                 : RMF          - RESISTIVITY OF MUD FILTRATE
SUFT.C        15                   : SUFT         - SURFACE TEMPERATURE
~A  DEPTH     PHID     PHIN       GR     RESD     DENS
# ...
  166.500    0.247    0.406   83.018   11.430    0.000
  166.750    0.242    0.414   86.681   11.444    0.000
  167.000    0.246    0.405   92.168   11.450    0.000
  167.250    0.229    0.398   94.007   11.682    0.000
  167.500    0.223    0.405   80.059   11.912    0.000
  167.750    0.236    0.409   79.476   12.617    0.000
  168.000    0.257    0.406   83.744   12.634    0.000
  168.250    0.272    0.398   76.475   12.885    0.000
  168.500    0.286    0.404   72.243   12.655    0.000
  168.750    0.279    0.399   76.517   12.436    0.000
  169.000    0.273    0.391   81.395   11.988    0.000
  169.250    0.268    0.402   83.238   11.558    0.000
  169.500    0.238    0.402   81.431   11.145    0.000
  169.750    0.226    0.386   86.308   11.150    0.000
  170.000    0.232    0.386   90.578   10.959    0.000
  170.250    0.231    0.399   87.563   10.970    0.000
  170.500    0.233    0.422   88.189   11.187    0.000
  170.750    0.254    0.429   84.566   11.196    0.000
  171.000    0.264    0.419   79.119   10.797    0.000
  171.250    0.259    0.403   84.603   10.604    0.000
  171.500    0.232    0.390   94.950   10.223    0.000
  171.750    0.206    0.396  102.254   10.236    0.000
  172.000    0.207    0.444   91.951   10.636    0.000
  172.250    0.267    0.446   65.857   11.477    0.000
  172.500    0.319    0.395   58.594   12.624    0.000
  172.750    0.322    0.400   58.610   13.114    0.000
  173.000    0.318    0.407   59.840   13.889    0.000
  173.250    0.306    0.404   61.688   13.645    0.000
  173.500    0.300    0.400   64.133   13.156    0.000
  173.750    0.299    0.406   70.832   12.217    0.000
  174.000    0.298    0.411   78.141   11.345    0.000
  174.250    0.252    0.390   79.985   10.734    0.000
  174.500    0.196    0.386   82.428   10.346    0.000
  174.750    0.197    0.422   89.738    9.084    0.000
  175.000    0.237    0.433   93.400    8.596    0.000
  175.250    0.248    0.440   94.638    8.444    0.000
  175.500    0.259    0.450   96.477    8.453    0.000
  175.750    0.254    0.447   95.886    8.461    0.000
  176.000    0.247    0.424   89.838    8.467    0.000
  176.250    0.240    0.404   95.323    8.480    0.000
  176.500    0.233    0.415  100.805    8.330    0.000
  176.750    0.236    0.440  104.466    8.028    0.000
  177.000    0.241    0.440   98.416    7.455    0.000
  177.250    0.232    0.441   96.614    7.326    0.000
  177.500    0.217    0.472   99.059    7.331    0.000
  177.750    0.237    0.488   98.476    7.764    0.000
  178.000    0.256    0.446   99.104    7.629    0.000
  178.250    0.237    0.427  103.983    7.354    0.000
  178.500    0.224    0.431  105.817    7.088    0.000
  178.750    0.233    0.454  102.199    6.712    0.000
  179.000    0.250    0.462   94.320    6.591    0.000
  179.250    0.256    0.494   87.054    6.598    0.000
  179.500    0.260    0.497   82.822    6.482    0.000
  179.750    0.264    0.458   84.660    6.249    0.000
  180.000    0.271    0.445   91.970    5.803    0.000
  180.250    0.259    0.463   97.456    5.490    0.000
  180.500    0.244    0.482  100.511    5.002    0.000
  180.750    0.242    0.506  101.135    4.474    0.000
  181.000    0.231    0.519   99.336    4.396    0.000
  181.250    0.224    0.461   96.322    4.483    0.000
  181.500    0.231    0.426   94.517    4.660    0.000
  181.750    0.240    0.407   93.930    4.843    0.000
  182.000    0.241    0.422   93.951    4.847    0.000
  182.250    0.230    0.467   94.575    4.761    0.000
  182.500    0.237    0.470   98.844    4.593    0.000
  182.750    0.257    0.465  103.113    4.510    0.000
  183.000    0.257    0.520  103.742    4.269    0.000
  183.250    0.249    0.538  100.118    4.039    0.000
  183.500    0.243    0.533   94.673    3.894    0.000
  183.750    0.244    0.535  101.979    3.824    0.000
  184.000    0.254    0.568  106.247    3.975    0.000
  184.250    0.265    0.603  103.843    4.453    0.000
  184.500    0.269    0.548   94.143    4.805    0.000
  184.750    0.282    0.464   78.375    5.091    0.000
  185.000    0.261    0.424   80.820    5.093    0.000
  185.250    0.233    0.436   92.383    5.005    0.000
  185.500    0.215    0.491   96.648    4.825    0.000
  185.750    0.221    0.472   99.103    4.566    0.000
  186.000    0.251    0.497   96.690    4.569    0.000
  186.250    0.259    0.481   93.675    4.573    0.000
  186.500    0.251    0.455   96.735    4.328    0.000
  186.750    0.235    0.465   96.747    4.252    0.000
  187.000    0.227    0.500   96.164    4.502    0.000
  187.250    0.241    0.508   94.964    4.951    0.000
  187.500    0.251    0.486   94.985    5.651    0.000
  187.750    0.245    0.485   91.966    6.452    0.000
  188.000    0.261    0.477   84.702    7.226    0.000
  188.250    0.276    0.448   81.684    8.097    0.000
  188.500    0.271    0.435   76.235    8.574    0.000
  188.750    0.269    0.439   78.076    8.911    0.000
  189.000    0.276    0.474   78.096    9.089    0.000
  189.250    0.282    0.467   76.296    9.098    0.000
  189.500    0.287    0.448   75.102    9.109    0.000
  189.750    0.285    0.438   74.517    9.118    0.000
  190.000    0.290    0.428   74.535    9.300    0.000
  190.250    0.291    0.417   76.378    9.666    0.000
  190.500    0.284    0.415   77.615    9.857    0.000
  190.750    0.283    0.433   77.627   10.245    0.000
  191.000    0.288    0.435   77.041   10.450    0.000
  191.250    0.290    0.440   75.236   10.661    0.000
  191.500    0.289    0.447   71.006   10.668    0.000
  191.750    0.279    0.442   72.852   10.480    0.000
  192.000    0.275    0.425   73.472   10.297    0.000
  192.250    0.285    0.413   73.499    9.928    0.000
  192.500    0.293    0.399   75.338    9.572    0.000
  192.750    0.296    0.418   78.393    9.230    0.000
  193.000    0.279    0.432   78.410    8.733    0.000
  193.250    0.263    0.421   77.215    8.419    0.000
  193.500    0.260    0.429   84.525    7.968    0.000
  193.750    0.263    0.436   86.970    7.825    0.000
  194.000    0.265    0.437   80.918    7.547    0.000
  194.250    0.264    0.433   80.944    7.551    0.000
  194.500    0.259    0.428   80.349    7.422    0.000
  194.750    0.243    0.436   77.939    7.426    0.000
  195.000    0.251    0.470   75.535    7.432    0.000
  195.250    0.267    0.486   76.765    7.442    0.000
  195.500    0.270    0.463   81.040    7.446    0.000
  195.750    0.266    0.454   84.702    7.317    0.000
  196.000    0.256    0.451   87.149    7.327    0.000
  196.250    0.244    0.417   87.170    7.331    0.000
  196.500    0.230    0.407   82.935    7.339    0.000
  196.750    0.224    0.416   81.738    7.210    0.000
  197.000    0.248    0.435   81.152    6.823    0.000
  197.250    0.255    0.435   82.993    6.456    0.000
  197.500    0.242    0.435   89.695    6.107    0.000
  197.750    0.245    0.457   94.575    5.889    0.000
  198.000    0.263    0.487   97.023    6.007    0.000
  198.250    0.268    0.477   94.610    6.126    0.000
  198.500    0.253    0.450   87.949    6.488    0.000
  198.750    0.235    0.439   84.329    6.743    0.000
  199.000    0.236    0.444   84.954    6.879    0.000
  199.250    0.244    0.436   85.580    7.012    0.000
  199.500    0.254    0.430   83.168    7.289    0.000
  199.750    0.252    0.443   79.544    7.438    0.000
  200.000    0.253    0.458   79.565    7.441    0.000
  200.250    0.260    0.457   80.800    7.589    0.000
  200.500    0.244    0.459   81.427    8.191    0.000
  200.750    0.236    0.517   81.444    8.841    0.000
  201.000    0.298    0.511   83.285    9.185    0.000
  201.250    0.336    0.469   85.126    9.730    0.000
  201.500    0.328    0.460   85.755    9.922    0.000
  201.750    0.320    0.462   82.132   10.123    0.000
  202.000    0.321    0.450   76.075    9.757    0.000
  202.250    0.324    0.446   70.025    9.231    0.000
  202.500    0.324    0.445   72.472    8.733    0.000
  202.750    0.314    0.449   76.134    8.110    0.000
