~VERSION INFORMATION
 VERS.                 2.0:   CWLS LOG ASCII STANDARD -VERSION 2.0
 WRAP.                  NO:   ONE LINE PER DEPTH STEP
~WELL INFORMATION BLOCK
#MNEM.UNIT           DATA                    DESCRIPTION OF MNEMONIC
#---------    -------------------            -------------------------------
# Generated from Intellog Unique Number	CS_69_70/WELL/772
WELL.         ALGAS MINERAL ENTERPRISES      : Well_name    - WELL
LOC .         00/06-20-069-16W4/0            : Location     - LOCATION
UWI .         00/06-20-069-16W4/0            : Uwi          - UNIQUE WELL ID
ENTR.         SP                             : Entered      - ENTERED BY
SRVC.         SCHLUMBERGER                   : Scn          - SERVICE COMPANY
STRT.M        283.464                        : top_depth    - START DEPTH
STOP.M        481.214                        : bot_depth    - STOP DEPTH
STEP.M        0.25                           : increment    - STEP LENGTH
 NULL. -999.2500:NULL Value
~CURVE INFORMATION BLOCK
#MNEM UNIT       ERCB CURVE CODE    CURVE DESCRIPTION
#-----------   ------------------   ----------------------------------
DEPT.M        00 001 00 00         : DEPTH        - DEPTH
GR  .API      00 310 00 00         : GR           - GAMMA RAY
DPHI.V/V      00 890 00 00         : PHID         - DENSITY POROSITY (SANDSTONE)
NPHI.V/V      00 330 00 00         : PHIN         - NEUTRON POROSITY (SANDSTONE)
ILD .OHMM     00 120 00 00         : RESD         - DEEP RESISTIVITY (DIL)
~PARAMETER INFORMATION
#MNEM.UNIT           DATA             DESCRIPTION OF MNEMONIC
#---------         -----------     ------------------------------
GL  .M        561.899              : gl           - GROUND LEVEL ELEVATION
EREF.M        565.252              : kb           - ELEVATION OF DEPTH REFERENCE
DATM.M        561.899              : datum        - DATUM ELEVATION
TDD .M        493.166              : tdd          - TOTAL DEPTH DRILLER
RUN .         ONE                  : Run          - RUN NUMBER
ENG .         BILL                 : Engineer     - RECORDING ENGINEER
WIT .         JIM                  : Witness      - WITNESSED BY
MUD .         GEL                  : Mud_type     - MUD TYPE
MATR.         SANDSTONE            : Logunit      - NEUTRON MATRIX
TMAX.C        25.5556              : BHT          - MAXIMUM RECORDED TEMPERATURE
BHTD.M        493.166              : BHTDEP       - MAXIMUM RECORDED TEMPERATURE
MATR.         1                    : LOGUNIT      - NEUTRON MATRIX
RMT .C        25                   : MDTP         - TEMPERATURE OF MUD
NEUT.         1                    : NEUTRON      - NEUTRON TYPE
RESI.         0                    : RESIST       - RESISTIVITY TYPE
RMC .OHMM     0.25                 : RMC          - RESISTIVITY OF MUD CAKE
RMF .OHMM     0.25                 : RMF          - RESISTIVITY OF MUD FILTRATE
SUFT.C        15                   : SUFT         - SURFACE TEMPERATURE
~A  DEPTH       GR     PHID     PHIN     RESD
  283.464  116.847    0.192    0.519    2.136
  283.714  118.390    0.187    0.518    2.187
  283.964  119.165    0.186    0.526    2.237
  284.214  119.298    0.187    0.533    2.303
  284.464  116.537    0.190    0.519    2.380
  284.714  114.667    0.187    0.508    2.476
  284.964  114.463    0.181    0.506    2.554
  285.214  115.344    0.182    0.507    2.629
  285.464  116.136    0.187    0.527    2.705
  285.714  116.117    0.187    0.537    2.751
  285.964  116.057    0.185    0.530    2.770
  286.214  116.281    0.184    0.528    2.761
  286.464  117.828    0.187    0.523    2.743
  286.714  118.739    0.193    0.528    2.695
  286.964  117.665    0.191    0.535    2.626
  287.214  116.161    0.185    0.526    2.511
  287.464  115.698    0.188    0.504    2.394
  287.714  117.150    0.186    0.503    2.298
  287.964  115.057    0.185    0.515    2.240
  288.214  113.017    0.178    0.523    2.226
  288.464  111.971    0.173    0.512    2.233
  288.714  111.444    0.166    0.503    2.257
  288.964  111.641    0.160    0.493    2.299
  289.214  112.365    0.155    0.491    2.369
  289.464  112.791    0.149    0.475    2.512
  289.714  112.371    0.144    0.437    2.670
  289.964  105.274    0.157    0.419    2.816
  290.214   99.922    0.185    0.438    2.834
  290.464   97.517    0.177    0.457    2.793
  290.714   97.188    0.216    0.466    2.713
  290.964   98.093    0.241    0.491    2.575
  291.214  102.493    0.252    0.462    2.476
  291.464  104.451    0.260    0.429    2.371
  291.714  102.588    0.249    0.409    2.308
  291.964   99.311    0.240    0.398    2.318
  292.214   97.405    0.245    0.398    2.403
  292.464   96.908    0.244    0.407    2.471
  292.714   99.478    0.241    0.409    2.562
  292.964  102.633    0.239    0.410    2.662
  293.214  105.047    0.238    0.420    2.799
  293.464  109.671    0.239    0.426    2.984
  293.714  112.033    0.243    0.423    3.114
  293.964  115.309    0.252    0.405    3.259
  294.214  115.871    0.261    0.401    3.420
  294.464  113.335    0.262    0.401    3.580
  294.714  110.173    0.262    0.393    3.694
  294.964  106.002    0.262    0.381    3.536
  295.214  101.306    0.258    0.379    3.133
  295.464   95.765    0.265    0.374    2.690
  295.714   90.145    0.271    0.370    2.375
  295.964   85.409    0.269    0.368    2.196
  296.214   83.159    0.264    0.380    2.084
  296.464   84.401    0.259    0.381    2.004
  296.714   86.160    0.257    0.380    1.918
  296.964   87.926    0.252    0.379    1.901
  297.214   89.706    0.244    0.384    2.009
  297.464   90.867    0.241    0.380    2.182
  297.714   94.446    0.234    0.376    2.349
  297.964   97.409    0.228    0.377    2.682
  298.214  100.846    0.226    0.408    3.161
  298.464  104.085    0.241    0.422    3.605
  298.714  105.852    0.252    0.424    4.003
  298.964  103.756    0.264    0.425    4.005
  299.214  103.694    0.275    0.449    3.725
  299.464  104.761    0.288    0.479    3.484
  299.714  105.291    0.299    0.500    3.293
  299.964  104.758    0.303    0.510    3.034
  300.214  104.233    0.306    0.502    2.898
  300.464  102.215    0.287    0.484    2.744
  300.714   99.670    0.275    0.451    2.670
  300.964   96.533    0.261    0.449    2.624
  301.214   94.744    0.256    0.442    2.606
  301.464   92.886    0.247    0.432    2.540
  301.714   89.387    0.239    0.422    2.539
  301.964   86.163    0.230    0.417    2.594
  302.214   83.375    0.220    0.406    2.786
  302.464   81.729    0.211    0.391    2.944
  302.714   81.042    0.197    0.376    3.149
  302.964   81.861    0.194    0.364    3.318
  303.214   83.358    0.213    0.375    3.400
  303.464   86.967    0.221    0.410    3.435
  303.714   89.212    0.225    0.423    3.341
  303.964   91.157    0.225    0.418    3.197
  304.214   92.137    0.219    0.416    3.009
  304.464   95.122    0.213    0.417    2.883
  304.714   97.605    0.209    0.419    2.819
  304.964  100.022    0.209    0.421    2.802
  305.214  100.926    0.210    0.406    2.729
  305.464  100.884    0.212    0.401    2.682
  305.714  101.141    0.220    0.399    2.659
  305.964  103.435    0.231    0.398    2.666
  306.214  104.150    0.237    0.387    2.772
  306.464  103.077    0.242    0.378    3.001
  306.714  101.199    0.244    0.365    3.371
  306.964   98.902    0.242    0.351    3.704
  307.214   97.342    0.238    0.347    4.110
  307.464   94.864    0.230    0.344    4.711
  307.714   90.965    0.221    0.348    5.080
  307.964   86.992    0.215    0.357    5.262
  308.214   86.085    0.208    0.362    5.279
  308.464   85.494    0.197    0.351    5.486
  308.714   84.042    0.180    0.342    5.918
  308.964   81.856    0.162    0.332    7.113
  309.214   79.332    0.150    0.320    8.257
  309.464   76.963    0.156    0.296   10.240
  309.714   74.956    0.183    0.301   12.498
  309.964   73.278    0.212    0.309   15.598
  310.214   72.200    0.232    0.319   18.317
  310.464   72.107    0.250    0.329   20.444
  310.714   72.955    0.262    0.351   13.376
  310.964   74.441    0.273    0.381    7.897
  311.214   76.575    0.283    0.419    6.302
  311.464   78.482    0.283    0.448    5.536
  311.714   80.608    0.278    0.433    4.853
  311.964   82.588    0.273    0.427    4.295
  312.214   83.567    0.268    0.424    3.860
  312.464   84.054    0.266    0.455    3.547
  312.714   84.128    0.267    0.449    3.305
  312.964   84.182    0.263    0.442    3.091
  313.214   84.228    0.259    0.439    2.942
  313.464   83.803    0.257    0.446    2.857
  313.714   83.527    0.258    0.445    2.798
  313.964   83.188    0.257    0.441    2.766
  314.214   83.162    0.261    0.431    2.738
  314.464   83.660    0.265    0.435    2.722
  314.714   84.689    0.256    0.427    2.755
  314.964   87.236    0.246    0.414    2.799
  315.214   90.016    0.235    0.404    2.880
  315.464   92.760    0.218    0.394    3.015
  315.714   95.017    0.206    0.388    3.198
  315.964   97.683    0.195    0.384    3.349
  316.214  103.666    0.189    0.378    3.457
  316.464  110.769    0.188    0.373    3.561
  316.714  114.189    0.193    0.375    3.624
  316.964  115.006    0.195    0.404    3.622
  317.214  115.038    0.197    0.417    3.535
  317.464  115.699    0.202    0.420    3.475
  317.714  116.971    0.204    0.414    3.411
  317.964  119.047    0.206    0.407    3.337
  318.214  121.636    0.200    0.406    3.231
  318.464  123.140    0.194    0.411    3.158
  318.714  124.347    0.190    0.418    3.116
  318.964  126.387    0.188    0.420    3.082
  319.214  129.967    0.201    0.420    3.133
  319.464  131.653    0.202    0.426    3.205
  319.714  131.655    0.207    0.441    3.252
  319.964  128.384    0.211    0.430    3.330
  320.214  125.505    0.202    0.414    3.453
  320.464  122.009    0.191    0.407    3.575
  320.714  121.600    0.184    0.407    3.671
  320.964  123.776    0.183    0.415    3.696
  321.214  125.019    0.188    0.417    3.651
  321.464  126.299    0.199    0.417    3.479
  321.714  127.685    0.209    0.429    3.221
  321.964  129.972    0.224    0.450    2.989
  322.214  131.666    0.213    0.461    2.774
  322.464  133.193    0.233    0.469    2.606
  322.714  133.456    0.203    0.453    2.487
  322.964  131.027    0.190    0.439    2.395
  323.214  127.702    0.203    0.430    2.335
  323.464  124.289    0.205    0.423    2.308
  323.714  121.517    0.205    0.425    2.302
  323.964  116.986    0.194    0.435    2.302
  324.214  112.602    0.187    0.413    2.301
  324.464  109.661    0.198    0.399    2.298
  324.714  106.805    0.226    0.386    2.293
  324.964  103.876    0.236    0.383    2.295
  325.214  102.885    0.241    0.392    2.356
  325.464  103.016    0.249    0.397    2.432
  325.714  101.908    0.253    0.404    2.551
  325.964  100.605    0.256    0.415    2.680
  326.214   99.075    0.260    0.425    2.760
  326.464   97.199    0.266    0.437    2.839
  326.714   96.671    0.268    0.421    2.887
