~VERSION INFORMATION
 VERS.                 2.0:   CWLS LOG ASCII STANDARD -VERSION 2.0
 WRAP.                  NO:   ONE LINE PER DEPTH STEP
~WELL INFORMATION BLOCK
#MNEM.UNIT           DATA                    DESCRIPTION OF MNEMONIC
#---------    -------------------            -------------------------------
# Generated from Intellog Unique Number	CS_67_68/WELL/2188
WELL.         DOME AEC MEDLEY                : Well_name    - WELL
LOC .         00/09-11-067-02W4/0            : Location     - LOCATION
UWI .         00/09-11-067-02W4/0            : Uwi          - UNIQUE WELL ID
ENTR.         SP                             : Entered      - ENTERED BY
SRVC.         SCHLUMBERGER                   : Scn          - SERVICE COMPANY
STRT.M        310                            : top_depth    - START DEPTH
STOP.M        565                            : bot_depth    - STOP DEPTH
STEP.M        0.25                           : increment    - STEP LENGTH
 NULL. -999.2500:NULL Value
~CURVE INFORMATION BLOCK
#MNEM UNIT       ERCB CURVE CODE    CURVE DESCRIPTION
#-----------   ------------------   ----------------------------------
DEPT.M        00 001 00 00         : DEPTH        - DEPTH
ILD .OHMM     00 120 00 00         : RESD         - DEEP RESISTIVITY (DIL)
DPHI.V/V      00 890 00 00         : PHID         - DENSITY POROSITY (LIMESTONE)
GR  .API      00 310 00 00         : GR           - GAMMA RAY
CALI.MM       00 280 01 00         : CAL          - CALIPER
NPHI.V/V      00 330 00 00         : PHIN         - NEUTRON POROSITY (LIMESTONE)
~PARAMETER INFORMATION
#MNEM.UNIT           DATA             DESCRIPTION OF MNEMONIC
#---------         -----------     ------------------------------
GL  .M        619.09               : gl           - GROUND LEVEL ELEVATION
EREF.M        623                  : kb           - ELEVATION OF DEPTH REFERENCE
DATM.M        623                  : datum        - DATUM ELEVATION
TDD .M        571                  : tdd          - TOTAL DEPTH DRILLER
RUN .         ONE                  : Run          - RUN NUMBER
ENG .         BILL                 : Engineer     - RECORDING ENGINEER
WIT .         JIM                  : Witness      - WITNESSED BY
MUD .         GEL                  : Mud_type     - MUD TYPE
MATR.         LIMESTONE            : Logunit      - NEUTRON MATRIX
TMAX.C        25.5                 : BHT          - MAXIMUM RECORDED TEMPERATURE
BHTD.M        573                  : BHTDEP       - MAXIMUM RECORDED TEMPERATURE
MATR.         1                    : LOGUNIT      - NEUTRON MATRIX
RMT .C        25                   : MDTP         - TEMPERATURE OF MUD
NEUT.         1                    : NEUTRON      - NEUTRON TYPE
RESI.         0                    : RESIST       - RESISTIVITY TYPE
RMC .OHMM     0.25                 : RMC          - RESISTIVITY OF MUD CAKE
RMF .OHMM     0.25                 : RMF          - RESISTIVITY OF MUD FILTRATE
SUFT.C        15                   : SUFT         - SURFACE TEMPERATURE
~A  DEPTH     RESD     PHID       GR      CAL     PHIN
# ...
  529.000    6.709    0.282   49.569  155.815    0.403
  529.250    6.607    0.299   40.968  155.611    0.374
  529.500    6.445    0.322   33.397  155.407    0.360
  529.750    6.347    0.331   31.824  155.303    0.348
  530.000    6.286    0.330   32.795  155.200    0.341
  530.250    6.237    0.316   30.434  154.894    0.354
  530.500    6.259    0.326   30.133  154.790    0.365
  530.750    6.435    0.324   34.012  154.990    0.359
  531.000    6.665    0.314   36.619  154.988    0.356
  531.250    6.803    0.298   39.165  155.087    0.355
  531.500    6.916    0.281   50.496  154.882    0.338
  531.750    7.005    0.253   57.465  154.880    0.324
  532.000    7.095    0.227   60.678  154.776    0.354
  532.250    7.107    0.252   54.379  154.673    0.375
  532.500    6.933    0.275   38.569  154.366    0.395
  532.750    6.739    0.303   32.997  154.263    0.373
  533.000    6.636    0.313   32.575  154.261    0.354
  533.250    6.535    0.322   31.426  154.157    0.374
  533.500    6.459    0.329   40.636  153.953    0.367
  533.750    6.446    0.306   50.271  153.950    0.340
  534.000    6.408    0.281   56.513  153.847    0.352
  534.250    6.346    0.287   49.790  153.642    0.377
  534.500    6.391    0.306   37.978  153.437    0.382
  534.750    6.462    0.322   35.193  153.536    0.376
  535.000    6.663    0.333   43.169  161.550    0.370
  535.250    6.953    0.334   64.980  161.405    0.360
  535.500    7.447    0.321   79.008  161.061    0.349
  535.750    7.901    0.240   90.057  160.910    0.339
  536.000    8.091    0.205   96.121  160.878    0.331
  536.250    8.271    0.190   96.956  160.532    0.358
  536.500    7.715    0.184   77.970  160.086    0.386
  536.750    7.223    0.243   59.711  159.330    0.400
  537.000    6.776    0.303   39.813  158.781    0.382
  537.250    6.368    0.332   33.169  158.228    0.369
  537.500    5.984    0.328   38.198  157.995    0.360
  537.750    5.709    0.316   40.615  157.445    0.363
  538.000    5.558    0.306   39.869  156.998    0.374
  538.250    5.587    0.313   35.717  156.956    0.385
  538.500    5.700    0.327   32.114  158.127    0.386
  538.750    5.740    0.337   29.240  160.103    0.383
  539.000    5.663    0.344   27.094  161.789    0.382
  539.250    5.473    0.351   26.045  163.264    0.381
  539.500    5.399    0.362   26.576  164.241    0.390
  539.750    5.397    0.371   28.991  163.893    0.395
  540.000    5.465    0.344   32.805  162.126    0.381
  540.250    5.565    0.334   35.585  160.978    0.370
  540.500    5.720    0.335   39.944  159.515    0.362
  540.750    5.924    0.320   44.550  158.059    0.361
  541.000    6.169    0.307   48.486  157.003    0.368
  541.250    6.437    0.296   49.929  156.253    0.375
  541.500    6.654    0.285   52.890  157.015    0.363
  541.750    6.788    0.265   56.341  157.790    0.351
  542.000    6.647    0.295   47.933  159.263    0.356
  542.250    6.188    0.328   37.093  160.225    0.357
  542.500    5.925    0.343   32.092  161.310    0.348
  542.750    5.846    0.352   30.068  162.170    0.364
  543.000    5.898    0.355   28.774  162.639    0.380
  543.250    6.006    0.346   27.238  162.600    0.390
  543.500    6.082    0.341   26.794  161.548    0.377
  543.750    6.194    0.339   28.907  160.288    0.366
  544.000    6.284    0.336   30.229  159.636    0.356
  544.250    6.387    0.333   26.808  159.391    0.351
  544.500    6.348    0.332   29.283  159.150    0.351
  544.750    6.192    0.338   31.395  159.313    0.358
  545.000    6.019    0.346   31.622  159.265    0.366
  545.250    5.893    0.350   29.779  159.332    0.375
  545.500    5.771    0.354   28.607  159.186    0.383
  545.750    5.704    0.356   28.775  158.945    0.392
  546.000    5.680    0.357   29.244  158.597    0.379
  546.250    5.720    0.357   29.893  158.245    0.370
  546.500    5.728    0.357   30.247  158.206    0.375
  546.750    5.779    0.354   30.230  157.766    0.379
  547.000    5.841    0.350   29.848  157.015    0.381
  547.250    5.904    0.356   28.919  156.669    0.381
  547.500    5.989    0.352   28.234  156.728    0.389
  547.750    6.145    0.344   27.366  156.985    0.399
  548.000    6.340    0.338   26.498  157.450    0.389
  548.250    6.603    0.330   30.433  157.819    0.377
  548.500    6.812    0.326   34.916  158.480    0.368
  548.750    6.963    0.313   41.893  159.144    0.350
  549.000    6.908    0.301   47.288  159.715    0.334
  549.250    6.840    0.295   43.072  159.676    0.340
  549.500    6.774    0.301   39.836  159.418    0.365
  549.750    6.694    0.315   40.733  159.493    0.370
  550.000    6.629    0.323   44.358  159.347    0.358
  550.250    6.626    0.323   45.564  158.902    0.360
  550.500    6.647    0.314   46.214  158.855    0.371
  550.750    6.619    0.310   47.537  158.813    0.374
  551.000    6.542    0.305   49.951  158.773    0.367
  551.250    6.479    0.298   51.274  158.932    0.380
  551.500    6.440    0.290   56.547  159.097    0.385
  551.750    6.388    0.276   61.211  159.360    0.370
  552.000    6.505    0.263   63.323  159.713    0.359
  552.250    6.737    0.250   65.739  159.682    0.380
  552.500    7.082    0.238   69.184  160.039    0.392
  552.750    7.431    0.227   71.725  160.296    0.364
  553.000    7.454    0.213   74.505  160.671    0.351
  553.250    7.178    0.206   71.691  160.830    0.362
  553.500    6.911    0.251   60.122  160.788    0.375
  553.750    6.642    0.283   45.877  160.743    0.390
  554.000    6.492    0.300   31.939  160.908    0.379
  554.250    6.416    0.315   31.192  161.068    0.363
  554.500    6.437    0.326   30.264  161.324    0.356
  554.750    6.482    0.336   32.192  161.790    0.347
  555.000    6.528    0.330   35.094  161.651    0.352
  555.250    6.635    0.325   37.571  161.201    0.364
  555.500    6.707    0.323   38.770  160.857    0.373
  555.750    6.855    0.328   37.051  160.311    0.373
  556.000    6.994    0.319   37.335  159.753    0.373
  556.250    7.003    0.312   39.512  159.723    0.366
  556.500    6.987    0.308   39.616  159.475    0.361
  556.750    6.997    0.318   31.452  159.327    0.350
  557.000    7.006    0.324   22.619  158.883    0.340
  557.250    6.990    0.326   25.703  158.847    0.340
  557.500    6.896    0.324   29.821  158.602    0.346
  557.750    6.627    0.314   26.886  158.354    0.349
  558.000    6.394    0.317   22.918  158.111    0.350
  558.250    6.065    0.324   24.968  157.967    0.354
  558.500    5.850    0.328   29.452  157.726    0.362
  558.750    5.815    0.333   36.914  157.482    0.371
  559.000    5.779    0.336   42.551  157.137    0.380
  559.250    5.799    0.324   46.121  156.690    0.390
  559.500    5.710    0.310   41.059  156.238    0.405
  559.750    5.581    0.329   32.410  155.680    0.401
  560.000    5.526    0.345   25.096  155.755    0.393
  560.250    5.482    0.346   21.553  155.806    0.387
  560.500    5.500    0.353   19.166  155.973    0.385
  560.750    5.559    0.354   19.757  156.332    0.372
  561.000    5.629    0.353   21.504  156.395    0.360
  561.250    5.743    0.337   24.588  156.353    0.344
  561.500    5.893    0.331   27.611  156.311    0.334
  561.750    6.114    0.335   40.485  156.371    0.347
  562.000    6.261    0.191   69.471  156.332    0.342
  562.250    6.305    0.134  106.665  156.594    0.353
  562.500    6.348    0.099  122.153  156.856    0.390
  562.750    6.774    0.102  123.653  157.316    0.425
  563.000    7.730    0.107  120.658  157.679    0.439
  563.250    8.805    0.050  121.797  157.841    0.349
  563.500    9.771    0.082  116.370  157.802    0.330
  563.750   10.642    0.105  108.996  157.654    0.329
  564.000   11.920    0.120   98.217  157.710    0.340
  564.250   13.911    0.101   87.135  157.668    0.318
  564.500   15.964    0.066   78.669  157.834    0.280
  564.750   17.715    0.050   70.443  157.695    0.252
  565.000   19.257    0.035   65.320  157.247    0.238
