~VERSION INFORMATION
 VERS.                 2.0:   CWLS LOG ASCII STANDARD -VERSION 2.0
 WRAP.                  NO:   ONE LINE PER DEPTH STEP
~WELL INFORMATION BLOCK
#MNEM.UNIT           DATA                    DESCRIPTION OF MNEMONIC
#---------    -------------------            -------------------------------
# Generated from Intellog Unique Number	CS_77_79/WELL/870
WELL.         NORCEN                         : Well_name    - WELL
LOC .         00/06-11-077-13W4/0            : Location     - LOCATION
UWI .         00/06-11-077-13W4/0            : Uwi          - UNIQUE WELL ID
ENTR.         SP                             : Entered      - ENTERED BY
SRVC.         SCHLUMBERGER                   : Scn          - SERVICE COMPANY
STRT.M        274.32                         : top_depth    - START DEPTH
STOP.M        517.82                         : bot_depth    - STOP DEPTH
STEP.M        0.25                           : increment    - STEP LENGTH
 NULL. -999.2500:NULL Value
~CURVE INFORMATION BLOCK
#MNEM UNIT       ERCB CURVE CODE    CURVE DESCRIPTION
#-----------   ------------------   ----------------------------------
DEPT.M        00 001 00 00         : DEPTH        - DEPTH
GR  .API      00 310 00 00         : GR           - GAMMA RAY
DPHI.V/V      00 890 00 00         : PHID         - DENSITY POROSITY (SANDSTONE)
NPHI.V/V      00 330 00 00         : PHIN         - NEUTRON POROSITY (SANDSTONE)
ILD .OHMM     00 120 00 00         : RESD         - DEEP RESISTIVITY (DIL)
~PARAMETER INFORMATION
#MNEM.UNIT           DATA             DESCRIPTION OF MNEMONIC
#---------         -----------     ------------------------------
GL  .M        677.692              : gl           - GROUND LEVEL ELEVATION
EREF.M        681.045              : kb           - ELEVATION OF DEPTH REFERENCE
DATM.M        677.692              : datum        - DATUM ELEVATION
TDD .M        524.256              : tdd          - TOTAL DEPTH DRILLER
RUN .         ONE                  : Run          - RUN NUMBER
ENG .         BILL                 : Engineer     - RECORDING ENGINEER
WIT .         JIM                  : Witness      - WITNESSED BY
MUD .         GEL                  : Mud_type     - MUD TYPE
MATR.         SANDSTONE            : Logunit      - NEUTRON MATRIX
TMAX.C        23.8889              : BHT          - MAXIMUM RECORDED TEMPERATURE
BHTD.M        524.256              : BHTDEP       - MAXIMUM RECORDED TEMPERATURE
MATR.         1                    : LOGUNIT      - NEUTRON MATRIX
RMT .C        25                   : MDTP         - TEMPERATURE OF MUD
NEUT.         1                    : NEUTRON      - NEUTRON TYPE
RESI.         0                    : RESIST       - RESISTIVITY TYPE
RMC .OHMM     0.25                 : RMC          - RESISTIVITY OF MUD CAKE
RMF .OHMM     0.25                 : RMF          - RESISTIVITY OF MUD FILTRATE
SUFT.C        15                   : SUFT         - SURFACE TEMPERATURE
~A  DEPTH       GR     PHID     PHIN     RESD
  274.320   98.373    0.219    0.534    3.376
  274.570  101.302    0.214    0.531    3.311
  274.820  101.749    0.243    0.528    3.316
  275.070   99.040    0.254    0.546    3.253
  275.320   99.322    0.255    0.558    3.216
  275.570   99.518    0.244    0.563    3.183
  275.820   99.556    0.247    0.560    3.080
  276.070  100.298    0.256    0.574    2.981
  276.320  102.692    0.253    0.589    2.953
  276.570  104.156    0.253    0.581    2.905
  276.820  105.575    0.262    0.554    2.842
  277.070  106.798    0.270    0.547    2.848
  277.320  108.568    0.248    0.562    2.849
  277.570  110.697    0.244    0.570    2.864
  277.820  109.816    0.257    0.562    2.900
  278.070  106.469    0.249    0.539    2.996
  278.320  103.415    0.233    0.528    3.018
  278.570  100.221    0.244    0.533    3.122
  278.820   99.023    0.225    0.550    3.148
  279.070   99.507    0.222    0.565    3.246
  279.320  100.465    0.230    0.563    3.237
  279.570  101.317    0.229    0.574    3.309
  279.820   99.833    0.236    0.584    3.303
  280.070   98.648    0.231    0.575    3.302
  280.320   99.730    0.225    0.557    3.302
  280.570  101.755    0.220    0.530    3.301
  280.820  101.953    0.216    0.523    3.293
  281.070  102.876    0.210    0.533    3.364
  281.320  101.258    0.217    0.522    3.422
  281.570   99.843    0.214    0.512    3.454
  281.820   98.548    0.215    0.514    3.560
  282.070   97.916    0.227    0.513    3.549
  282.320  100.679    0.206    0.521    3.623
  282.570  105.056    0.188    0.527    3.701
  282.820  106.614    0.185    0.527    3.753
  283.070  105.679    0.188    0.514    3.830
  283.320  103.993    0.182    0.510    3.903
  283.570  102.234    0.174    0.497    3.888
  283.820  103.864    0.186    0.486    3.951
  284.070  105.827    0.201    0.481    3.971
  284.320  106.912    0.205    0.496    3.850
  284.570  106.241    0.195    0.522    3.737
  284.820  105.766    0.204    0.549    3.619
  285.070  105.939    0.206    0.570    3.587
  285.320  103.900    0.210    0.545    3.477
  285.570  104.367    0.214    0.521    3.483
  285.820  107.068    0.215    0.511    3.512
  286.070  108.272    0.205    0.514    3.549
  286.320  108.350    0.195    0.519    3.622
  286.570  108.176    0.205    0.527    3.687
  286.820  108.797    0.214    0.532    3.819
  287.070  109.665    0.212    0.533    3.795
  287.320  109.670    0.206    0.525    3.532
  287.570  111.156    0.200    0.530    3.417
  287.820  109.126    0.211    0.529    3.372
  288.070  107.595    0.216    0.529    3.426
  288.320  108.231    0.211    0.525    3.588
  288.570  105.778    0.218    0.523    3.819
  288.820  101.767    0.205    0.514    3.962
  289.070  100.446    0.209    0.499    3.971
  289.320   99.330    0.218    0.488    3.775
  289.570   99.042    0.232    0.487    3.670
  289.820  102.336    0.207    0.493    3.745
  290.070  101.826    0.208    0.501    4.310
  290.320   98.936    0.229    0.500    5.322
  290.570   92.721    0.250    0.495    7.177
  290.820   87.032    0.300    0.457   10.297
  291.070   78.766    0.325    0.320   17.336
  291.320   69.600    0.350    0.284   27.572
  291.570   68.661    0.356    0.288   39.953
  291.820   72.879    0.359    0.298   49.404
  292.070   70.396    0.361    0.305   42.185
  292.320   65.797    0.351    0.327   34.913
  292.570   62.425    0.342    0.347   28.808
  292.820   71.515    0.339    0.364   23.892
  293.070   75.744    0.319    0.374   20.082
  293.320   75.837    0.278    0.378   17.803
  293.570   80.403    0.203    0.400   15.277
  293.820   87.033    0.217    0.417   13.868
  294.070   90.813    0.204    0.420   12.761
  294.320   92.129    0.192    0.438   12.390
  294.570   90.982    0.212    0.446   12.788
  294.820   89.944    0.209    0.439   13.452
  295.070   88.985    0.226    0.444   13.767
  295.320   88.008    0.238    0.446   12.671
  295.570   89.991    0.239    0.460   11.909
  295.820   95.773    0.230    0.463   10.182
  296.070   96.999    0.219    0.455    9.157
  296.320   95.360    0.212    0.450    8.744
  296.570   93.790    0.239    0.457    8.979
  296.820   91.570    0.266    0.457    9.525
  297.070   86.994    0.254    0.439   10.372
  297.320   85.803    0.239    0.425   10.806
  297.570   88.171    0.256    0.415   10.871
  297.820   88.738    0.226    0.406    9.959
  298.070   88.589    0.211    0.397    8.493
  298.320   93.567    0.212    0.421    7.714
  298.570   99.458    0.235    0.440    7.772
  298.820  102.139    0.246    0.453    8.386
  299.070   98.250    0.276    0.461    9.408
  299.320   92.895    0.300    0.452   10.855
  299.570   85.936    0.306    0.441   12.519
  299.820   81.811    0.307    0.429   14.290
  300.070   80.803    0.296    0.439   16.292
  300.320   82.239    0.288    0.445   17.365
  300.570   79.317    0.292    0.447   17.496
  300.820   77.343    0.293    0.445   17.264
  301.070   75.262    0.294    0.432   16.928
  301.320   79.566    0.284    0.428   16.594
  301.570   84.912    0.263    0.425   16.383
  301.820   90.711    0.265    0.425   16.003
  302.070   94.897    0.256    0.442   15.688
  302.320   96.522    0.248    0.444   15.472
  302.570   95.774    0.223    0.444   15.309
  302.820   92.908    0.208    0.451   15.113
  303.070   83.632    0.199    0.455   14.656
  303.320   77.714    0.202    0.405   14.274
  303.570   76.904    0.206    0.405   14.041
  303.820   77.149    0.222    0.407   13.609
  304.070   75.409    0.206    0.415   13.180
  304.320   78.630    0.196    0.429   13.045
  304.570   80.240    0.166    0.441   12.156
  304.820   79.454    0.179    0.418   11.312
  305.070   81.366    0.189    0.402   10.305
  305.320   85.221    0.167    0.422    9.592
  305.570   90.552    0.183    0.437    8.909
  305.820   97.540    0.179    0.441    8.069
  306.070  103.351    0.147    0.448    7.433
  306.320  110.812    0.152    0.463    7.011
  306.570  116.854    0.162    0.487    6.873
  306.820  121.033    0.155    0.493    7.141
  307.070  122.962    0.154    0.494    6.922
  307.320  123.440    0.163    0.503    6.117
  307.570  122.338    0.158    0.517    5.699
  307.820  119.225    0.156    0.520    5.919
  308.070  117.190    0.151    0.508    5.871
  308.320  117.620    0.139    0.507    5.683
  308.570  119.472    0.165    0.515    5.435
  308.820  121.452    0.159    0.510    5.065
  309.070  122.405    0.164    0.518    4.803
  309.320  123.045    0.162    0.526    4.342
  309.570  123.146    0.184    0.541    3.990
  309.820  124.075    0.197    0.554    3.700
  310.070  128.714    0.207    0.566    3.661
  310.320  132.701    0.213    0.578    3.646
  310.570  133.162    0.217    0.559    4.292
  310.820  126.637    0.219    0.512    5.491
  311.070  123.152    0.225    0.479    7.937
  311.320  119.608    0.241    0.453   10.713
  311.570  115.319    0.228    0.431   12.259
  311.820  112.486    0.226    0.440   12.697
  312.070  112.692    0.227    0.438   12.445
  312.320  114.463    0.237    0.433   12.481
  312.570  113.787    0.251    0.432   13.413
  312.820  109.761    0.267    0.436   13.958
  313.070  105.722    0.265    0.443   14.226
  313.320  100.605    0.249    0.446   11.276
  313.570   99.069    0.224    0.426    9.464
  313.820  102.037    0.183    0.432    7.990
  314.070  113.899    0.164    0.452    6.954
  314.320  120.550    0.174    0.473    6.518
  314.570  122.958    0.197    0.492    7.122
  314.820  126.322    0.210    0.481    7.805
  315.070  128.510    0.215    0.457    8.873
  315.320  123.900    0.230    0.439   10.523
  315.570  119.378    0.238    0.426   11.883
  315.820  116.720    0.219    0.418   13.265
  316.070  111.912    0.216    0.431   13.891
  316.320  108.191    0.230    0.440   14.044
  316.570  104.759    0.236    0.447   14.107
  316.820  100.576    0.227    0.455   13.920
  317.070   97.261    0.209    0.445   13.011
  317.320   95.092    0.212    0.448   12.149
  317.570  103.841    0.203    0.449   11.801
