~VERSION INFORMATION
 VERS.                 2.0:   CWLS LOG ASCII STANDARD -VERSION 2.0
 WRAP.                  NO:   ONE LINE PER DEPTH STEP
~WELL INFORMATION BLOCK
#MNEM.UNIT           DATA                    DESCRIPTION OF MNEMONIC
#---------    -------------------            -------------------------------
# Generated from Intellog Unique Number	CW_76_78/WELL/2800
WELL.         07-25-076-26W4                 : Well_name    - WELL
LOC .         00/07-25-076-26W4/0            : Location     - LOCATION
UWI .         00/07-25-076-26W4/0            : Uwi          - UNIQUE WELL ID
ENTR.         JJ                             : Entered      - ENTERED BY
SRVC.         SCHLUMBERGER                   : Scn          - SERVICE COMPANY
DATE.         22 NOV 68                      : Date         - LOG DATE
STRT.M        591.312                        : top_depth    - START DEPTH
STOP.M        719.312                        : bot_depth    - STOP DEPTH
STEP.M        0.25                           : increment    - STEP LENGTH
 NULL. -999.2500:NULL Value
~CURVE INFORMATION BLOCK
#MNEM UNIT       ERCB CURVE CODE    CURVE DESCRIPTION
#-----------   ------------------   ----------------------------------
DEPT.M        00 001 00 00         : DEPTH        - DEPTH
DELT.US/F     00 520 00 00         : DELT         - SONIC TRAVEL TIME
GR  .API      00 310 00 00         : GR           - GAMMA RAY
ILD .OHMM     00 120 00 00         : RESD         - DEEP RESISTIVITY (DIL)
~PARAMETER INFORMATION
#MNEM.UNIT           DATA             DESCRIPTION OF MNEMONIC
#---------         -----------     ------------------------------
GL  .M        832.805              : gl           - GROUND LEVEL ELEVATION
EREF.M        836.28               : kb           - ELEVATION OF DEPTH REFERENCE
DATM.M        836.28               : datum        - DATUM ELEVATION
TDD .M        720.547              : tdd          - TOTAL DEPTH DRILLER
RUN .         ONE                  : Run          - RUN NUMBER
ENG .         LANG                 : Engineer     - RECORDING ENGINEER
BASE.         EDM                  : Branch       - HOME BASE OF LOGGING UNIT
MUD .         GEL                  : Mud_type     - MUD TYPE
MATR.         SANDSTONE            : Logunit      - NEUTRON MATRIX
TMAX.C        21.1111              : BHT          - MAXIMUM RECORDED TEMPERATURE
BHTD.M        721.157              : BHTDEP       - MAXIMUM RECORDED TEMPERATURE
RMT .C        19.4444              : MDTP         - TEMPERATURE OF MUD
MUDD.KG/M     960                  : MWT          - MUD DENSITY
NEUT.         1                    : NEUTRON      - NEUTRON TYPE
RESI.         0                    : RESIST       - RESISTIVITY TYPE
RM  .OHMM     5.67                 : RM           - RESISTIVITY OF MUD
RMC .OHMM     0                    : RMC          - RESISTIVITY OF MUD CAKE
RMF .OHMM     0                    : RMF          - RESISTIVITY OF MUD FILTRATE
SUFT.C        5                    : SUFT         - SURFACE TEMPERATURE
~A  DEPTH     DELT       GR     RESD
# ...
  645.562  283.834   59.359    7.383
  645.812  327.869   63.417    6.317
  646.062  359.485   67.131    6.037
  646.312  366.791   69.014    6.319
  646.562  371.288   73.121    7.205
  646.812  384.476   77.917   10.142
  647.062  400.213   79.357   12.998
  647.312  390.985   69.194   16.217
  647.562  263.206   59.770   19.134
  647.812  247.640   52.817   24.304
  648.062  252.919   49.219   27.603
  648.312  245.586   45.723   29.092
  648.562  230.216   42.866   30.682
  648.812  211.773   40.258   31.748
  649.062  253.389   42.340   24.750
  649.312  245.861   45.855   19.723
  649.562  225.523   48.926   16.083
  649.812  336.935   51.648   13.871
  650.062  409.857   54.569   11.358
  650.312  425.398   58.133    9.931
  650.562  381.270   58.932   10.515
  650.812  358.446   58.989   11.602
  651.062  340.987   57.714   12.930
  651.312  321.564   55.401   14.077
  651.562  305.668   52.544   15.446
  651.812  292.912   53.787   16.392
  652.062  264.013   53.056   16.714
  652.312  253.151   51.681   15.951
  652.562  243.400   49.763   15.811
  652.812  234.106   47.946   16.616
  653.062  239.322   47.213   18.246
  653.312  262.705   46.382   19.916
  653.562  267.528   46.192   20.962
  653.812  259.475   46.053   22.532
  654.062  246.522   46.109   23.619
  654.312  241.935   46.415   23.941
  654.562  241.462   46.471   23.922
  654.812  241.908   46.630   23.601
  655.062  241.044   46.391   23.823
  655.312  252.600   46.248   24.085
  655.562  247.422   46.652   24.166
  655.812  234.732   47.697   23.664
  656.062  228.445   49.285   22.901
  656.312  240.522   51.319   20.508
  656.562  249.068   53.056   17.854
  656.812  250.754   54.941   14.114
  657.062  258.519   56.132   11.942
  657.312  282.164   58.610   10.274
  657.562  340.315   61.136    8.987
  657.812  342.653   66.181    7.600
  658.062  339.373   67.572    7.400
  658.312  339.621   66.692    7.561
  658.562  321.765   65.812    7.864
  658.812  312.733   66.364    8.046
  659.062  294.684   67.754    8.268
  659.312  322.771   68.946    8.510
  659.562  337.461   68.905    8.913
  659.812  315.099   67.037    9.296
  660.062  305.349   64.429    9.598
  660.312  297.493   64.190    9.760
  660.562  323.555   66.322    9.821
  660.812  315.959   67.020    9.661
  661.062  302.943   68.066    9.159
  661.312  315.411   69.704    8.817
  661.562  332.521   73.563    8.577
  661.812  349.238   72.929    8.517
  662.062  321.449   69.086    8.518
  662.312  316.273   66.082    8.519
  662.562  333.249   67.375    8.479
  662.812  338.531   71.036    8.480
  663.062  339.563   70.946    8.400
  663.312  339.813   68.781    8.220
  663.562  322.742   67.457    8.181
  663.812  327.434   66.082    8.141
  664.062  331.538   63.721    8.082
  664.312  304.011   63.581    8.123
  664.562  293.672   65.069    8.284
  664.812  306.141   67.350    8.486
  665.062  328.085   65.679    8.809
  665.312  311.666   61.836    9.191
  665.562  318.451   59.819    9.635
  665.812  343.273   64.271    9.877
  666.062  322.672   68.526    9.958
  666.312  319.130   71.102   10.039
  666.562  327.484   70.814   10.181
  666.812  318.125   67.069   10.483
  667.062  303.014   63.621   10.424
  667.312  276.662   65.308    9.821
  667.562  317.365   70.501    8.917
  667.812  333.299   74.854    7.892
  668.062  343.478   78.913    6.947
  668.312  345.820   81.440    6.184
  668.562  341.751   83.669    6.788
  668.812  336.840   82.590    7.794
  669.062  324.083   78.007    8.740
  669.312  290.478   74.410    9.586
  669.562  274.323   69.085   10.411
  669.812  288.949   70.575   11.277
  670.062  312.266   73.053   10.654
  670.312  333.884   74.048    9.830
  670.562  343.479   74.057    9.730
  670.812  323.009   73.423    9.972
  671.062  308.030   72.443   10.617
  671.312  312.854   70.526   11.482
  671.562  334.276   68.412   12.348
  671.812  335.567   66.740   13.495
  672.062  332.549   63.391   15.245
  672.312  302.344   59.745   17.177
  672.562  256.584   52.988   18.163
  672.812  295.455   49.984   19.250
  673.062  363.932   52.856   20.236
  673.312  350.064   55.679   18.809
  673.562  310.184   58.207   16.638
  673.812  283.311   59.448   14.185
  674.062  312.184   63.111   12.717
  674.312  322.625   64.551   11.149
  674.562  311.699   63.522   10.104
  674.812  308.418   64.272    9.481
  675.062  330.429   65.861    8.798
  675.312  338.978   67.892    8.417
  675.562  338.442   70.764    8.377
  675.812  334.312   70.032    8.197
  676.062  326.063   68.016    8.198
  676.312  338.402   66.297    8.380
  676.562  341.852   65.612    8.622
  676.812  331.381   65.622    9.105
  677.062  325.095   65.233    9.488
  677.312  323.317   64.403   10.012
  677.562  311.997   63.818   10.736
  677.812  294.338   62.691   10.999
  678.062  283.412   62.699   10.638
  678.312  301.828   64.386   10.336
  678.562  308.283   66.123    9.935
  678.812  313.302   68.156    9.755
  679.062  320.283   69.891    9.695
  679.312  326.022   68.122    9.857
  679.562  321.238   61.267   10.220
  679.812  284.104   58.757   10.441
  680.062  276.640   59.802   10.181
  680.312  291.787   63.119    9.659
  680.562  319.550   65.991    9.157
  680.812  327.770   65.851    8.815
  681.062  324.164   62.106    8.716
  681.312  337.546   60.733    8.897
  681.562  325.182   60.987    9.220
  681.812  298.831   60.254    9.603
  682.062  298.427   60.756   10.227
  682.312  328.736   64.518   11.072
  682.562  333.886   66.650   12.421
  682.812  343.022   65.570   14.030
  683.062  350.656   62.418   16.787
  683.312  345.938   60.451   19.422
  683.562  346.969   58.288   21.112
  683.812  353.032   57.506   22.058
  684.062  357.529   58.304   22.944
  684.312  327.259   57.769   23.890
  684.562  242.482   52.740   25.983
  684.812  222.209   48.058   29.805
  685.062  207.035   43.177   32.862
  685.312  197.675   38.988   36.765
  685.562  192.955   39.787   36.203
  685.812  237.449   46.215   29.104
  686.062  272.661   49.383   18.344
  686.312  287.090   54.378   15.891
  686.562  287.535   56.016   12.976
  686.812  293.599   55.234   11.187
  687.062  313.258   58.502    9.659
  687.312  302.264   60.731    8.855
  687.562  293.427   60.888    8.293
  687.812  300.931   62.871    8.012
  688.062  319.739   64.459    7.630
  688.312  315.674   65.010    7.309
  688.562  319.646   68.328    6.807
  688.812  327.475   73.915    6.386
  689.062  332.821   77.232    6.809
  689.312  334.896   77.784    7.815
  689.562  335.797   76.705    9.224
  689.812  331.671   73.159   11.336
  690.062  300.746   69.266   14.716
  690.312  240.542   61.274   25.336
  690.562  219.551   55.258   28.776
  690.812  222.935   52.995   30.486
  691.062  232.334   54.880   29.863
  691.312  242.189   54.889   28.215
  691.562  275.244   55.735   27.814
  691.812  317.645   58.410   27.814
  692.062  310.506   56.295   25.422
  692.312  298.143   55.069   23.250
  692.562  296.952   57.201   21.079
  692.812  308.964   60.912   18.908
  693.062  322.088   63.587   16.616
  693.312  318.415   65.620   14.927
  693.562  306.703   66.320   14.465
  693.812  290.285   67.167   13.862
  694.062  268.053   69.644   12.938
  694.312  275.946   72.763   11.853
  694.562  291.880   71.389   11.029
  694.812  304.347   70.657    9.903
  695.062  309.693   72.887    8.999
  695.312  314.648   75.759    8.115
  695.562  318.753   78.829    7.874
  695.812  291.421   77.750    7.975
  696.062  285.329   72.920    8.479
  696.312  310.282   67.644    8.982
  696.562  312.424   62.665    9.788
  696.812  306.596   57.883   10.875
  697.062  275.931   52.559   12.162
  697.312  228.407   48.518   11.781
  697.562  255.385   56.377   10.495
  697.812  302.621   62.459    9.570
  698.062  319.076   67.603    8.726
  698.312  314.227   65.339    7.661
  698.562  315.521   63.472    6.998
  698.812  319.753   64.812    6.355
  699.062  323.663   67.044    6.034
  699.312  327.438   68.285    5.854
  699.562  328.604   69.579    5.754
