~VERSION INFORMATION
 VERS.                 2.0:   CWLS LOG ASCII STANDARD -VERSION 2.0
 WRAP.                  NO:   ONE LINE PER DEPTH STEP
~WELL INFORMATION BLOCK
#MNEM.UNIT           DATA                    DESCRIPTION OF MNEMONIC
#---------    -------------------            -------------------------------
# Generated from Intellog Unique Number	CW_79_81/WELL/549
WELL.         07-16-079-24W4                 : Well_name    - WELL
LOC .         00/07-16-079-24W4/0            : Location     - LOCATION
UWI .         00/07-16-079-24W4/0            : Uwi          - UNIQUE WELL ID
ENTR.         MAX                            : Entered      - ENTERED BY
SRVC.         SCHLUMBERGER                   : Scn          - SERVICE COMPANY
STRT.M        198.12                         : top_depth    - START DEPTH
STOP.M        457.12                         : bot_depth    - STOP DEPTH
STEP.M        0.25                           : increment    - STEP LENGTH
 NULL. -999.2500:NULL Value
~CURVE INFORMATION BLOCK
#MNEM UNIT       ERCB CURVE CODE    CURVE DESCRIPTION
#-----------   ------------------   ----------------------------------
DEPT.M        00 001 00 00         : DEPTH        - DEPTH
ILD .OHMM     00 120 00 00         : RESD         - DEEP RESISTIVITY (DIL)
NPHI.V/V      00 330 00 00         : PHIN         - NEUTRON POROSITY (SANDSTONE)
DPHI.V/V      00 890 00 00         : PHID         - DENSITY POROSITY (SANDSTONE)
CALI.MM       00 280 01 00         : CAL          - CALIPER
GR  .API      00 310 00 00         : GR           - GAMMA RAY
~PARAMETER INFORMATION
#MNEM.UNIT           DATA             DESCRIPTION OF MNEMONIC
#---------         -----------     ------------------------------
GL  .M        557.479              : gl           - GROUND LEVEL ELEVATION
EREF.M        561.137              : kb           - ELEVATION OF DEPTH REFERENCE
DATM.M        557.479              : datum        - DATUM ELEVATION
TDD .M        353.568              : tdd          - TOTAL DEPTH DRILLER
RUN .         ONE                  : Run          - RUN NUMBER
ENG .         BILL                 : Engineer     - RECORDING ENGINEER
WIT .         JIM                  : Witness      - WITNESSED BY
MUD .         GEL                  : Mud_type     - MUD TYPE
MATR.         SANDSTONE            : Logunit      - NEUTRON MATRIX
TMAX.C        20                   : BHT          - MAXIMUM RECORDED TEMPERATURE
BHTD.M        445.008              : BHTDEP       - MAXIMUM RECORDED TEMPERATURE
RMT .C        17.7778              : MDTP         - TEMPERATURE OF MUD
MUDD.KG/M     10400                : MWT          - MUD DENSITY
NEUT.         1                    : NEUTRON      - NEUTRON TYPE
RESI.         0                    : RESIST       - RESISTIVITY TYPE
RM  .OHMM     10.7                 : RM           - RESISTIVITY OF MUD
RMC .OHMM     0.25                 : RMC          - RESISTIVITY OF MUD CAKE
RMF .OHMM     0.25                 : RMF          - RESISTIVITY OF MUD FILTRATE
SUFT.C        -23.3333             : SUFT         - SURFACE TEMPERATURE
~A  DEPTH     RESD     PHIN     PHID      CAL       GR
# ...
  417.120   27.585    0.376    0.206  216.980   64.601
  417.370   26.441    0.327    0.174  218.121   65.853
  417.620   24.474    0.279    0.072  218.253   66.510
  417.870   22.648    0.280    0.068  218.853   65.707
  418.120   22.097    0.317    0.119  221.472   62.856
  418.370   21.959    0.336    0.147  222.584   62.321
  418.620   22.609    0.349    0.162  222.701   62.399
  418.870   23.921    0.352    0.172  222.335   61.311
  419.120   25.273    0.355    0.180  220.961   59.911
  419.370   27.438    0.357    0.174  219.586   57.026
  419.620   30.062    0.370    0.200  218.723   51.524
  419.870   32.062    0.382    0.241  218.841   49.244
  420.120   31.870    0.387    0.253  218.958   47.551
  420.370   30.812    0.387    0.250  218.592   47.041
  420.620   29.290    0.377    0.246  218.724   48.277
  420.870   27.835    0.373    0.230  218.827   51.015
  421.120   27.166    0.381    0.229  218.974   52.553
  421.370   26.287    0.387    0.236  219.106   54.980
  421.620   25.655    0.381    0.237  219.208   56.216
  421.870   25.487    0.376    0.232  219.852   57.166
  422.120   24.882    0.376    0.225  220.935   58.125
  422.370   24.277    0.372    0.210  222.076   60.251
  422.620   22.867    0.368    0.197  222.179   63.568
  422.870   21.349    0.361    0.179  221.316   65.978
  423.120   19.237    0.349    0.161  221.433   69.287
  423.370   15.861    0.319    0.140  222.560   75.247
  423.620   14.166    0.313    0.121  224.169   81.199
  423.870   12.429    0.344    0.123  224.799   85.380
  424.120   11.100    0.351    0.128  223.921   98.675
  424.370   10.094    0.362    0.108  223.073  106.691
  424.620    9.340    0.363    0.091  221.684  111.771
  424.870    8.874    0.370    0.104  220.792  111.244
  425.120    8.433    0.394    0.126  219.944  106.908
  425.370    8.158    0.396    0.146  219.564  105.509
  425.620    8.477    0.394    0.161  223.177  105.872
  425.870    8.801    0.401    0.170  223.792  107.427
  426.120    9.224    0.424    0.171  221.422  107.790
  426.370    9.754    0.433    0.153  221.539  104.619
  426.620   10.592    0.421    0.133  224.143   87.939
  426.870   11.394    0.393    0.120  223.778   79.197
  427.120   12.935    0.357    0.111  223.413   70.447
  427.370   13.927    0.314    0.086  223.018   61.126
  427.620   14.213    0.302    0.061  223.150   61.489
  427.870   14.120    0.300    0.059  222.302   62.440
  428.120   13.534    0.364    0.088  222.404   64.271
  428.370   12.528    0.429    0.076  222.536   69.636
  428.620   11.188    0.422    0.091  222.171   72.668
  428.870   10.350    0.400    0.115  221.762   71.839
  429.120    9.493    0.359    0.133  221.923   68.384
  429.370    8.561    0.346    0.143  222.040   70.224
  429.620    8.498    0.394    0.151  222.158   78.525
  429.870    8.675    0.407    0.154  221.778   83.907
  430.120    8.929    0.405    0.168  221.880   83.087
  430.370    9.353    0.399    0.170  222.012   79.925
  430.620   10.070    0.388    0.169  221.647   72.643
  430.870   11.030    0.359    0.175  221.764   61.543
  431.120   11.557    0.357    0.143  221.881   52.793
  431.370   11.694    0.372    0.124  221.999   51.117
  431.620   11.518    0.396    0.104  221.648   53.242
  431.870   11.235    0.395    0.095  221.780   57.130
  432.120   10.585    0.420    0.153  221.882   59.860
  432.370   10.349    0.440    0.215  222.000   68.446
  432.620    9.560    0.516    0.280  222.614   72.351
  432.870    8.617    0.556    0.333  223.273   74.761
  433.120    7.971    0.596    0.336  223.361   74.839
  433.370    7.184    0.598    0.321  223.990   72.853
  433.620    6.533    0.549    0.298  224.122   70.287
  433.870    6.152    0.528    0.281  223.728   71.238
  434.120    5.795    0.509    0.253  222.865   76.593
  434.370    5.757    0.504    0.250  222.485   81.958
  434.620    5.820    0.556    0.245  222.119   85.578
  434.870    5.994    0.588    0.230  222.222   85.042
  435.120    6.170    0.588    0.212  221.374   88.645
  435.370    6.465    0.572    0.189  220.994   94.009
  435.620    7.085    0.475    0.122  220.643   96.143
  435.870    7.622    0.442    0.098  220.746   88.567
  436.120    8.131    0.425    0.092  220.848   71.006
  436.370    8.370    0.414    0.105  220.498   67.853
  436.620    8.171    0.410    0.168  220.600   68.803
  436.870    7.563    0.409    0.189  220.732   82.115
  437.120    6.999    0.433    0.198  220.864   89.812
  437.370    6.892    0.470    0.187  220.982   99.591
  437.620    6.906    0.489    0.174  220.090  102.018
  437.870    7.110    0.477    0.164  219.242   95.030
  438.120    7.516    0.464    0.158  218.847   88.647
  438.370    8.235    0.428    0.165  218.979   84.595
  438.620    9.103    0.406    0.188  219.125   79.369
  438.870    9.709    0.398    0.184  219.228   73.288
  439.120    9.731    0.378    0.175  219.360   75.698
  439.370    9.088    0.363    0.189  219.463   81.072
  439.620    8.718    0.342    0.202  219.595   81.426
  439.870    8.892    0.334    0.208  219.712   82.117
  440.120    9.317    0.342    0.219  219.829   82.748
  440.370    9.940    0.351    0.222  219.478   84.294
  440.620   10.891    0.336    0.206  219.610   84.070
  440.870   11.820    0.322    0.189  219.216   81.798
  441.120   12.610    0.304    0.158  218.850   79.216
  441.370   12.992    0.313    0.092  218.968   71.942
  441.620   13.014    0.311    0.067  219.070   60.557
  441.870   12.818    0.296    0.086  218.705   60.920
  442.120   12.618    0.299    0.180  218.325   67.753
  442.370   12.322    0.304    0.263  218.457   77.230
  442.620   11.603    0.319    0.242  218.091   81.419
  442.870   10.839    0.343    0.233  217.697   84.132
  443.120   10.298    0.358    0.238  217.346   87.147
  443.370    9.526    0.414    0.321  216.966   90.171
  443.620    9.221    0.412    0.305  216.586   82.301
  443.870    9.322    0.394    0.280  216.206   77.956
  444.120    9.343    0.377    0.271  216.338   68.921
  444.370    9.205    0.392    0.278  215.958   64.299
  444.620    9.145    0.437    0.278  215.578   65.250
  444.870    9.327    0.471    0.269  215.198   72.964
  445.120    9.601    0.485    0.232  216.822   79.201
  445.370    9.459    0.461    0.215  223.404   86.328
  445.620    8.910    0.415    0.305  241.455   88.168
  445.870    9.251    0.394    0.337  254.532   83.244
  446.120   10.502    0.333    0.344  255.132   76.861
  446.370   12.356    0.281    0.331  250.291   69.579
  446.620   13.062    0.295    0.320  234.479   67.290
  446.870   12.861    0.309    0.316  219.691   69.735
  447.120   12.226    0.324    0.306  216.312   74.788
  447.370   11.953    0.326    0.295  215.449   83.383
  447.620   11.236    0.325    0.282  215.552   99.632
  447.870    8.408    0.331    0.269  215.684  108.513
  448.120    7.574    0.334    0.258  216.796  117.704
  448.370    7.132    0.336    0.245  217.454  128.070
  448.620    6.963    0.353    0.241  217.060  133.720
  448.870    6.854    0.378    0.258  216.665  129.383
  449.120    6.751    0.351    0.242  215.802  124.460
  449.370    6.530    0.325    0.209  214.428  115.718
  449.620    6.097    0.279    0.184  213.565  112.548
  449.870    5.796    0.302    0.173  212.205  109.093
  450.120    5.807    0.304    0.177  211.313  110.069
  450.370    5.928    0.290    0.157  210.947  116.315
  450.620    6.102    0.278    0.175  211.079  117.844
  450.870    6.337    0.290    0.190  211.197  121.153
  451.120    6.699    0.315    0.201  211.826  125.049
  451.370    6.699    0.327    0.218  212.455  125.705
  451.620    7.168    0.343    0.217  213.041  124.012
  451.870    7.575    0.347    0.214  213.670  119.978
  452.120    6.827    0.359    0.217  213.816  118.882
  452.370    6.152    0.371    0.216  213.934  118.640
  452.620    5.641    0.375    0.201  214.036  118.433
  452.870    5.174    0.383    0.177  214.168  117.318
  453.120    4.830    0.396    0.143  213.788  114.157
  453.370    4.830    0.409    0.100  213.423  113.345
