~VERSION INFORMATION
 VERS.                 2.0:   CWLS LOG ASCII STANDARD -VERSION 2.0
 WRAP.                  NO:   ONE LINE PER DEPTH STEP
~WELL INFORMATION BLOCK
#MNEM.UNIT           DATA                    DESCRIPTION OF MNEMONIC
#---------    -------------------            -------------------------------
# Generated from Intellog Unique Number	CS_69_70/WELL/810
WELL.         HUSKY OIL OPERATIONS           : Well_name    - WELL
LOC .         00/06-36-069-06W4/0            : Location     - LOCATION
UWI .         00/06-36-069-06W4/0            : Uwi          - UNIQUE WELL ID
ENTR.         SP                             : Entered      - ENTERED BY
SRVC.         SCHLUMBERGER                   : Scn          - SERVICE COMPANY
STRT.M        340                            : top_depth    - START DEPTH
STOP.M        585                            : bot_depth    - STOP DEPTH
STEP.M        0.25                           : increment    - STEP LENGTH
 NULL. -999.2500:NULL Value
~CURVE INFORMATION BLOCK
#MNEM UNIT       ERCB CURVE CODE    CURVE DESCRIPTION
#-----------   ------------------   ----------------------------------
DEPT.M        00 001 00 00         : DEPTH        - DEPTH
ILD .OHMM     00 120 00 00         : RESD         - DEEP RESISTIVITY (DIL)
DPHI.V/V      00 890 00 00         : PHID         - DENSITY POROSITY (LIMESTONE)
NPHI.V/V      00 330 00 00         : PHIN         - NEUTRON POROSITY (LIMESTONE)
GR  .API      00 310 00 00         : GR           - GAMMA RAY
~PARAMETER INFORMATION
#MNEM.UNIT           DATA             DESCRIPTION OF MNEMONIC
#---------         -----------     ------------------------------
GL  .M        692.4                : gl           - GROUND LEVEL ELEVATION
EREF.M        696                  : kb           - ELEVATION OF DEPTH REFERENCE
DATM.M        692.4                : datum        - DATUM ELEVATION
TDD .M        592                  : tdd          - TOTAL DEPTH DRILLER
RUN .         ONE                  : Run          - RUN NUMBER
ENG .         BILL                 : Engineer     - RECORDING ENGINEER
WIT .         JIM                  : Witness      - WITNESSED BY
MUD .         GEL                  : Mud_type     - MUD TYPE
MATR.         LIMESTONE            : Logunit      - NEUTRON MATRIX
TMAX.C        25                   : BHT          - MAXIMUM RECORDED TEMPERATURE
BHTD.M        592                  : BHTDEP       - MAXIMUM RECORDED TEMPERATURE
MATR.         1                    : LOGUNIT      - NEUTRON MATRIX
RMT .C        25                   : MDTP         - TEMPERATURE OF MUD
NEUT.         1                    : NEUTRON      - NEUTRON TYPE
RESI.         0                    : RESIST       - RESISTIVITY TYPE
RMC .OHMM     0.25                 : RMC          - RESISTIVITY OF MUD CAKE
RMF .OHMM     0.25                 : RMF          - RESISTIVITY OF MUD FILTRATE
SUFT.C        15                   : SUFT         - SURFACE TEMPERATURE
~A  DEPTH     RESD     PHID     PHIN       GR
# ...
  557.500    6.628    0.331    0.401   46.178
  557.750    6.520    0.341    0.407   44.962
  558.000    6.572    0.348    0.377   40.522
  558.250    6.687    0.351    0.366   40.219
  558.500    6.715    0.348    0.382   45.455
  558.750    6.756    0.350    0.399   49.533
  559.000    6.760    0.345    0.413   48.744
  559.250    6.688    0.339    0.410   45.034
  559.500    6.591    0.334    0.380   42.054
  559.750    6.401    0.334    0.388   40.047
  560.000    6.297    0.338    0.396   37.919
  560.250    6.253    0.325    0.368   40.598
  560.500    6.315    0.320    0.350   49.241
  560.750    6.365    0.323    0.366   50.703
  561.000    6.416    0.329    0.377   43.585
  561.250    6.432    0.328    0.363   39.449
  561.500    6.471    0.313    0.374   48.700
  561.750    6.572    0.301    0.381   52.962
  562.000    6.698    0.294    0.385   50.529
  562.250    6.828    0.291    0.390   43.898
  562.500    6.896    0.298    0.370   38.362
  562.750    6.926    0.299    0.348   32.948
  563.000    6.941    0.285    0.338   37.940
  563.250    6.854    0.268    0.326   40.193
  563.500    6.706    0.266    0.338   36.239
  563.750    6.548    0.287    0.348   29.913
  564.000    6.527    0.302    0.341   26.628
  564.250    6.603    0.271    0.321   57.117
  564.500    6.682    0.244    0.382   68.437
  564.750    6.697    0.230    0.403   66.491
  565.000    6.700    0.250    0.386   57.426
  565.250    6.616    0.282    0.366   50.004
  565.500    6.401    0.288    0.360   41.669
  565.750    6.112    0.295    0.364   34.490
  566.000    5.879    0.315    0.341   45.506
  566.250    5.687    0.277    0.328   49.767
  566.500    5.543    0.264    0.362   49.526
  566.750    5.484    0.272    0.382   55.004
  567.000    5.446    0.276    0.368   60.117
  567.250    5.348    0.262    0.376   47.097
  567.500    5.202    0.290    0.383   35.658
  567.750    4.977    0.323    0.371   23.246
  568.000    4.716    0.347    0.361   15.946
  568.250    4.512    0.352    0.354   20.390
  568.500    4.522    0.338    0.346   28.667
  568.750    4.706    0.320    0.335   36.762
  569.000    5.008    0.284    0.326   46.805
  569.250    5.076    0.228    0.327   57.273
  569.500    5.088    0.208    0.388   51.250
  569.750    5.053    0.269    0.408   39.264
  570.000    4.980    0.297    0.375   35.736
  570.250    4.881    0.332    0.352   41.276
  570.500    4.784    0.334    0.361   37.261
  570.750    4.698    0.336    0.359   26.371
  571.000    4.596    0.345    0.364   21.443
  571.250    4.488    0.351    0.383   19.437
  571.500    4.342    0.352    0.390   19.986
  571.750    4.287    0.349    0.376   21.753
  572.000    4.218    0.349    0.370   24.310
  572.250    4.196    0.352    0.368   22.121
  572.500    4.183    0.354    0.364   18.228
  572.750    4.177    0.353    0.359   15.918
  573.000    4.109    0.354    0.361   16.467
  573.250    4.027    0.351    0.364   19.329
  573.500    3.984    0.349    0.358   20.852
  573.750    3.964    0.351    0.359   20.610
  574.000    3.959    0.357    0.371   19.943
  574.250    3.968    0.361    0.379   19.944
  574.500    3.978    0.359    0.372   20.555
  574.750    3.979    0.352    0.360   20.313
  575.000    3.989    0.353    0.375   19.585
  575.250    3.990    0.363    0.383   19.647
  575.500    4.022    0.365    0.374   21.109
  575.750    4.062    0.360    0.365   24.093
  576.000    4.110    0.356    0.371   26.042
  576.250    4.166    0.359    0.362   27.869
  576.500    4.271    0.352    0.356   47.708
  576.750    4.411    0.339    0.364   55.438
  577.000    4.530    0.329    0.376   58.787
  577.250    4.661    0.324    0.390   52.643
  577.500    4.923    0.332    0.390   45.281
  577.750    5.469    0.328    0.351   44.127
  578.000    6.075    0.293    0.330   54.534
  578.250    6.812    0.257    0.317   61.351
  578.500    7.358    0.247    0.310   66.343
  578.750    7.816    0.249    0.315   65.310
  579.000    7.967    0.253    0.326   63.182
  579.250    7.867    0.255    0.321   60.445
  579.500    7.512    0.253    0.321   57.587
  579.750    7.160    0.272    0.332   55.459
  580.000    6.977    0.281    0.335   53.818
  580.250    6.788    0.287    0.336   52.115
  580.500    6.641    0.289    0.337   50.353
  580.750    6.582    0.280    0.337   49.807
  581.000    6.648    0.272    0.348   61.675
  581.250    6.802    0.273    0.349   63.928
  581.500    6.998    0.261    0.330   63.929
  581.750    7.255    0.243    0.331   64.479
  582.000    7.493    0.243    0.335   67.523
  582.250    7.724    0.246    0.336   69.533
  582.500    8.052    0.246    0.342   70.995
  582.750    8.505    0.240    0.333   66.312
  583.000    9.000    0.223    0.319   60.532
  583.250   10.167    0.204    0.301   55.483
  583.500   13.565    0.158    0.283   50.252
  583.750   17.208    0.060    0.280   46.785
  584.000   21.503    0.026    0.298   45.691
  584.250   27.024    0.003    0.313   44.172
  584.500   30.418    0.001    0.277   42.469
  584.750   32.548    0.001    0.208   40.950
  585.000   34.508   -0.000    0.110   41.073
