~VERSION INFORMATION
 VERS.                 2.0:   CWLS LOG ASCII STANDARD -VERSION 2.0
 WRAP.                  NO:   ONE LINE PER DEPTH STEP
~WELL INFORMATION BLOCK
#MNEM.UNIT           DATA                    DESCRIPTION OF MNEMONIC
#---------    -------------------            -------------------------------
# Generated from Intellog Unique Number	CW_70_72/WELL/993
NULL.         -999.25                        : NULL_VALUE
WELL.         NORCEN ET AL VICTOR 08-01      : Well_name    - WELL              
LOC .         08-01-071-02W5                 : Location     - LOCATION          
UWI .         00/08-01-071-02W5/0            : Uwi          - UNIQUE WELL ID    
ENTR.         JAYE                           : Entered      - ENTERED BY        
SRVC.         COMPUTALOG                     : Scn          - SERVICE COMPANY   
DATE.         7 JUNE 82                      : Date         - LOG DATE          
STRT.M        375                            : top_depth    - START DEPTH       
STOP.M        625                            : bot_depth    - STOP DEPTH        
STEP.M        0.25                           : increment    - STEP LENGTH       
~CURVE INFORMATION BLOCK
#MNEM UNIT       ERCB CURVE CODE    CURVE DESCRIPTION
#-----------   ------------------   ----------------------------------
DEPT.M        00 001 00 00         : DEPTH        - DEPTH                       
DPHI.V/V      00 890 00 00         : PHID         - DENSITY POROSITY (SANDSTONE)
NPHI.V/V      00 330 00 00         : PHIN         - NEUTRON POROSITY (SANDSTONE)
GR  .API      00 310 00 00         : GR           - GAMMA RAY                   
CALI.MM       00 280 01 00         : CAL          - CALIPER                     
ILD .OHMM     00 120 00 00         : RESD         - DEEP RESISTIVITY (DIL)      
~PARAMETER INFORMATION       
#MNEM.UNIT           DATA             DESCRIPTION OF MNEMONIC
#---------         -----------     ------------------------------
GL  .M        593.49               : gl           - GROUND LEVEL ELEVATION      
EREF.M        597.61               : kb           - ELEVATION OF DEPTH REFERENCE
DATM.M        593.49               : datum        - DATUM ELEVATION             
TDD .M        655                  : tdd          - TOTAL DEPTH DRILLER         
RUN .         ONE                  : Run          - RUN NUMBER                  
ENG .         SVRCEK               : Engineer     - RECORDING ENGINEER          
WIT .         BOGNER/MOORE         : Witness      - WITNESSED BY                
BASE.         EDM                  : Branch       - HOME BASE OF LOGGING UNIT   
MUD .         GEL CHEM             : Mud_type     - MUD TYPE                    
MATR.         SANDSTONE            : Logunit      - NEUTRON MATRIX              
TMAX.C        31                   : BHT          - MAXIMUM RECORDED TEMPERATURE
BHTD.M        654.7                : BHTDEP       - MAXIMUM RECORDED TEMPERATURE
RMT .C        15.5                 : MDTP         - TEMPERATURE OF MUD          
MUDD.KG/M     1130                 : MWT          - MUD DENSITY                 
NEUT.         1                    : NEUTRON      - NEUTRON TYPE                
RESI.         0                    : RESIST       - RESISTIVITY TYPE            
RM  .OHMM     2.4                  : RM           - RESISTIVITY OF MUD          
RMC .OHMM     2.1                  : RMC          - RESISTIVITY OF MUD CAKE     
RMF .OHMM     2.05                 : RMF          - RESISTIVITY OF MUD FILTRATE 
SUFT.C        0                    : SUFT         - SURFACE TEMPERATURE         
~A  DEPTH     PHID     PHIN       GR      CAL     RESD
# ...
  448.000    0.216    0.361   88.292  194.829    2.933
  448.250    0.198    0.345   83.003  194.631    2.931
  448.500    0.272    0.377   80.521  194.963    2.912
  448.750    0.312    0.411   78.100  195.588    2.898
  449.000    0.332    0.394   75.677  196.120    2.940
  449.250    0.277    0.372   72.810  196.130    2.999
  449.500    0.254    0.374   71.143  195.627    3.053
  449.750    0.239    0.405   71.961  195.323    3.121
  450.000    0.246    0.417   75.329  195.644    3.214
  450.250    0.249    0.370   80.007  195.966    3.247
  450.500    0.241    0.327   84.684  196.393    3.269
  450.750    0.230    0.352   91.045  196.836    3.273
  451.000    0.214    0.384   91.235  197.043    3.269
  451.250    0.214    0.413   87.633  197.583    3.292
  451.500    0.237    0.412   84.284  200.079    3.339
  451.750    0.263    0.376   81.920  201.440    3.419
  452.000    0.247    0.348   84.730  202.590    3.494
  452.250    0.215    0.399   91.526  205.513    3.551
  452.500    0.195    0.452   94.833  209.686    3.582
  452.750    0.197    0.492   92.158  212.786    3.565
  453.000    0.210    0.434   89.184  213.648    3.489
  453.250    0.225    0.406   85.386  210.749    3.313
  453.500    0.238    0.386   82.659  205.680    3.151
  453.750    0.248    0.371   78.432  199.052    2.959
  454.000    0.264    0.364   73.020  195.837    2.762
  454.250    0.277    0.377   62.007  195.231    2.588
  454.500    0.287    0.404   54.852  194.205    2.486
  454.750    0.297    0.445   58.967  187.469    2.428
  455.000    0.282    0.408   60.717  185.204    2.431
  455.250    0.275    0.394   61.531  184.070    2.565
  455.500    0.273    0.389   62.165  183.452    2.779
  455.750    0.273    0.375   61.115  182.747    3.075
  456.000    0.272    0.323   60.187  181.509    3.573
  456.250    0.254    0.302   65.613  180.382    4.036
  456.500    0.225    0.285   73.589  180.502    4.743
  456.750    0.396    0.292   85.804  182.593    6.289
  457.000    0.532    0.317   79.458  188.831    7.419
  457.250    0.621    0.622   58.667  197.353    9.350
  457.500    0.746    0.891   48.838  205.241   11.091
  457.750    0.850    1.016   36.758  200.698   11.816
  458.000    1.003    1.026   28.365  197.286   10.209
  458.250    1.034    1.030   16.537  195.933    8.990
  458.500    0.995    1.030   15.801  195.334    7.340
  458.750    0.351    1.024   42.770  195.659    6.107
  459.000    0.599    1.017   55.420  196.192    5.005
  459.250    0.284    0.958   59.350  196.307    4.559
  459.500    0.218    0.388   58.412  196.425    4.344
  459.750    0.219    0.369   55.502  196.741    4.212
  460.000    0.234    0.347   55.199  197.695    4.061
  460.250    0.243    0.361   57.820  200.506    3.870
  460.500    0.248    0.376   59.137  205.284    3.709
  460.750    0.251    0.376   58.574  208.629    3.522
  461.000    0.254    0.367   58.280  205.414    3.338
  461.250    0.262    0.407   55.793  201.168    3.224
  461.500    0.267    0.431   56.673  199.319    3.161
  461.750    0.264    0.405   61.225  201.929    3.158
  462.000    0.258    0.374   60.237  201.830    3.132
  462.250    0.260    0.345   59.622  198.734    3.082
  462.500    0.270    0.334   64.110  192.830    3.039
  462.750    0.272    0.322   67.667  190.458    3.008
  463.000    0.271    0.313   62.758  190.048    2.988
  463.250    0.266    0.358   57.469  190.267    2.975
  463.500    0.263    0.348   58.041  190.076    2.989
  463.750    0.263    0.336   60.217  189.571    2.975
  464.000    0.265    0.344   61.286  189.168    2.945
  464.250    0.279    0.373   61.790  189.069    2.909
  464.500    0.291    0.396   62.361  189.498    2.858
  464.750    0.305    0.415   63.367  190.026    2.834
  465.000    0.313    0.413   63.876  190.672    2.810
  465.250    0.303    0.423   63.260  192.239    2.776
  465.500    0.297    0.438   62.082  194.731    2.753
  465.750    0.291    0.448   60.720  196.725    2.735
  466.000    0.286    0.429   59.482  198.189    2.733
  466.250    0.285    0.412   60.111  198.816    2.730
  466.500    0.287    0.390   61.984  199.038    2.717
  466.750    0.292    0.373   63.176  198.955    2.700
  467.000    0.298    0.379   64.797  198.741    2.667
  467.250    0.302    0.391   67.053  198.453    2.650
  467.500    0.305    0.411   66.181  198.054    2.653
  467.750    0.308    0.403   63.763  197.754    2.666
  468.000    0.307    0.398   62.716  197.448    2.668
  468.250    0.309    0.413   63.218  197.264    2.641
  468.500    0.309    0.438   60.857  197.368    2.595
  468.750    0.306    0.408   57.690  197.589    2.549
  469.000    0.299    0.389   56.270  197.709    2.489
  469.250    0.303    0.412   56.264  197.518    2.432
  469.500    0.300    0.391   57.588  197.313    2.362
  469.750    0.290    0.354   60.457  197.424    2.290
  470.000    0.287    0.383   62.710  198.800    2.216
  470.250    0.291    0.390   63.342  204.833    2.168
  470.500    0.299    0.367   62.538  207.539    2.122
  470.750    0.307    0.369   60.677  205.674    2.088
  471.000    0.312    0.385   58.992  203.000    2.134
  471.250    0.314    0.377   58.631  198.653    2.313
  471.500    0.305    0.406   59.078  196.682    2.578
  471.750    0.284    0.391   61.078  196.394    2.884
  472.000    0.252    0.252   58.965  196.712    3.044
  472.250    0.173    0.245   54.492  197.743    3.041
  472.500    0.216    0.348   54.565  198.186    2.921
  472.750    0.248    0.385   57.994  198.513    2.621
  473.000    0.287    0.390   63.668  198.525    2.401
  473.250    0.304    0.403   74.326  198.430    2.179
  473.500    0.296    0.428   74.018  198.218    2.128
  473.750    0.298    0.471   67.677  197.939    2.122
  474.000    0.301    0.425   61.826  197.744    2.145
  474.250    0.313    0.400   57.844  197.532    2.188
  474.500    0.319    0.384   56.924  197.866    2.253
  474.750    0.316    0.371   63.907  198.198    2.320
  475.000    0.309    0.385   69.891  198.415    2.393
  475.250    0.310    0.392   66.719  199.051    2.437
  475.500    0.310    0.374   68.973  199.582    2.472
  475.750    0.307    0.379   74.643  197.728    2.503
  476.000    0.304    0.396   78.827  195.965    2.505
  476.250    0.309    0.419   77.461  195.470    2.489
  476.500    0.311    0.419   71.555  195.889    2.449
  476.750    0.299    0.387   70.684  196.318    2.411
  477.000    0.298    0.373   71.630  196.733    2.364
  477.250    0.300    0.402   70.579  197.282    2.326
  477.500    0.303    0.441   70.147  198.010    2.294
  477.750    0.300    0.424   70.347  198.854    2.249
  478.000    0.296    0.401   71.594  200.108    2.218
  478.250    0.307    0.422   70.982  200.961    2.199
  478.500    0.319    0.421   60.902  201.591    2.206
  478.750    0.331    0.403   63.086  202.329    2.212
  479.000    0.335    0.392   67.701  203.170    2.198
  479.250    0.335    0.399   67.207  204.641    2.147
  479.500    0.323    0.419   64.104  206.202    2.069
  479.750    0.319    0.437   63.415  207.154    2.014
  480.000    0.322    0.462   63.996  207.481    1.967
  480.250    0.327    0.464   67.303  206.246    1.910
  480.500    0.324    0.426   71.981  204.600    1.856
  480.750    0.315    0.400   69.621  204.091    1.795
  481.000    0.307    0.435   66.266  205.237    1.754
  481.250    0.310    0.462   65.403  206.604    1.726
  481.500    0.317    0.491   64.784  205.887    1.718
  481.750    0.322    0.483   63.728  204.442    1.723
  482.000    0.325    0.430   62.744  202.992    1.725
  482.250    0.327    0.436   61.627  202.376    1.743
  482.500    0.327    0.449   60.455  201.671    1.758
  482.750    0.326    0.401   59.278  201.367    1.776
  483.000    0.322    0.352   60.153  201.190    1.792
  483.250    0.317    0.357   62.971  200.985    1.804
  483.500    0.307    0.378   63.781  200.678    1.812
  483.750    0.299    0.401   64.725  200.798    1.818
  484.000    0.305    0.422   67.100  200.805    1.813
  484.250    0.311    0.440   65.860  200.715    1.797
