~VERSION INFORMATION
 VERS.                 2.0:   CWLS LOG ASCII STANDARD -VERSION 2.0
 WRAP.                  NO:   ONE LINE PER DEPTH STEP
~WELL INFORMATION BLOCK
#MNEM.UNIT           DATA                    DESCRIPTION OF MNEMONIC
#---------    -------------------            -------------------------------
# Generated from Intellog Unique Number	CW_70_72/WELL/3007
NULL.         -999.25                        : NULL_VALUE
WELL.         SULPETRO ET AL PARKER 06-17    : Well_name    - WELL              
LOC .         06-17-070-04W5                 : Location     - LOCATION          
UWI .         00/06-17-070-04W5/0            : Uwi          - UNIQUE WELL ID    
ENTR.         J                              : Entered      - ENTERED BY        
SRVC.         WESTERN ATLAS                  : Scn          - SERVICE COMPANY   
DATE.         4 JUNE 83                      : Date         - LOG DATE          
STRT.M        600                            : top_depth    - START DEPTH       
STOP.M        840                            : bot_depth    - STOP DEPTH        
STEP.M        0.25                           : increment    - STEP LENGTH       
~CURVE INFORMATION BLOCK
#MNEM UNIT       ERCB CURVE CODE    CURVE DESCRIPTION
#-----------   ------------------   ----------------------------------
DEPT.M        00 001 00 00         : DEPTH        - DEPTH                       
ILD .OHMM     00 120 00 00         : RESD         - DEEP RESISTIVITY (DIL)      
CALI.MM       00 280 01 00         : CAL          - CALIPER                     
GR  .API      00 310 00 00         : GR           - GAMMA RAY                   
NPHI.V/V      00 330 00 00         : PHIN         - NEUTRON POROSITY (SANDSTONE)
DPHI.V/V      00 890 00 00         : PHID         - DENSITY POROSITY (SANDSTONE)
~PARAMETER INFORMATION       
#MNEM.UNIT           DATA             DESCRIPTION OF MNEMONIC
#---------         -----------     ------------------------------
GL  .M        710.35               : gl           - GROUND LEVEL ELEVATION      
EREF.M        714.05               : kb           - ELEVATION OF DEPTH REFERENCE
DATM.M        710.35               : datum        - DATUM ELEVATION             
TDD .M        905                  : tdd          - TOTAL DEPTH DRILLER         
RUN .         ONE                  : Run          - RUN NUMBER                  
ENG .         ADAMOWSKI            : Engineer     - RECORDING ENGINEER          
WIT .         DAVID                : Witness      - WITNESSED BY                
BASE.         EDM                  : Branch       - HOME BASE OF LOGGING UNIT   
MUD .         GEL CHEM             : Mud_type     - MUD TYPE                    
MATR.         SANDSTONE            : Logunit      - NEUTRON MATRIX              
TMAX.C        33                   : BHT          - MAXIMUM RECORDED TEMPERATURE
BHTD.M        902.5                : BHTDEP       - MAXIMUM RECORDED TEMPERATURE
RMT .C        17                   : MDTP         - TEMPERATURE OF MUD          
MUDD.KG/M     1150                 : MWT          - MUD DENSITY                 
NEUT.         1                    : NEUTRON      - NEUTRON TYPE                
RESI.         0                    : RESIST       - RESISTIVITY TYPE            
RM  .OHMM     2.3                  : RM           - RESISTIVITY OF MUD          
RMC .OHMM     2.5                  : RMC          - RESISTIVITY OF MUD CAKE     
RMF .OHMM     1.9                  : RMF          - RESISTIVITY OF MUD FILTRATE 
SUFT.C        0                    : SUFT         - SURFACE TEMPERATURE         
~A  DEPTH     RESD      CAL       GR     PHIN     PHID
# ...
  709.500    1.294  156.570   60.798    0.373    0.280
  709.750    1.350  156.280   63.193    0.376    0.290
  710.000    1.387  156.093   64.584    0.363    0.301
  710.250    1.384  155.068   63.971    0.344    0.309
  710.500    1.310  154.570   64.487    0.341    0.310
  710.750    1.228  153.756   66.002    0.344    0.305
  711.000    1.260  153.358   64.575    0.342    0.297
  711.250    1.329  153.903   60.704    0.336    0.288
  711.500    1.489  154.761   57.836    0.322    0.273
  711.750    1.821  156.768   55.590    0.286    0.226
  712.000    2.105  158.771   54.600    0.253    0.145
  712.250    2.570  160.569   55.554    0.218    0.147
  712.500    2.948  160.593   57.072    0.228    0.210
  712.750    2.817  159.254   59.214    0.246    0.260
  713.000    2.447  158.650   62.487    0.288    0.294
  713.250    2.013  159.195   64.190    0.320    0.307
  713.500    1.478  159.739   63.388    0.344    0.315
  713.750    1.296  159.761   61.711    0.361    0.317
  714.000    1.220  159.578   61.973    0.373    0.314
  714.250    1.263  159.388   62.237    0.374    0.306
  714.500    1.353  159.202   61.748    0.355    0.293
  714.750    1.416  159.326   60.132    0.334    0.280
  715.000    1.467  159.662   61.151    0.333    0.264
  715.250    1.502  159.681   62.353    0.345    0.265
  715.500    1.512  159.603   62.741    0.358    0.280
  715.750    1.503  159.101   63.321    0.366    0.285
  716.000    1.507  159.645   63.581    0.364    0.274
  716.250    1.529  159.769   63.284    0.353    0.271
  716.500    1.595  159.687   62.981    0.343    0.272
  716.750    1.757  159.395   62.745    0.329    0.260
  717.000    1.949  159.419   62.760    0.305    0.234
  717.250    2.099  160.587   63.459    0.284    0.196
  717.500    2.202  159.879   65.665    0.266    0.249
  717.750    2.132  158.965   68.122    0.285    0.276
  718.000    1.897  158.464   70.203    0.334    0.291
  718.250    1.623  158.480   68.212    0.373    0.303
  718.500    1.450  158.612   66.407    0.385    0.307
  718.750    1.320  158.942   69.114    0.382    0.302
  719.000    1.254  158.651   73.827    0.364    0.302
  719.250    1.226  158.464   74.405    0.373    0.306
  719.500    1.209  158.589   71.411    0.376    0.306
  719.750    1.199  159.237   68.414    0.362    0.302
  720.000    1.198  160.514   66.359    0.350    0.298
  720.250    1.220  161.579   63.616    0.378    0.302
  720.500    1.261  163.483   65.070    0.394    0.306
  720.750    1.360  164.862   67.465    0.389    0.303
  721.000    1.527  166.136   67.415    0.391    0.291
  721.250    1.660  166.887   71.503    0.383    0.272
  721.500    1.817  167.431   75.085    0.372    0.240
  721.750    2.032  168.079   81.364    0.365    0.211
  722.000    2.200  168.835   90.525    0.366    0.215
  722.250    2.179  169.064   81.515    0.353    0.254
  722.500    2.035  168.877   76.016    0.346    0.270
  722.750    1.808  168.903   73.585    0.361    0.268
  723.000    1.699  168.608   75.478    0.369    0.262
  723.250    1.641  168.631   77.245    0.367    0.261
  723.500    1.662  168.963   74.814    0.364    0.264
  723.750    1.747  169.820   70.316    0.360    0.268
  724.000    1.836  170.993   69.263    0.351    0.261
  724.250    1.944  171.952   70.342    0.347    0.247
  724.500    2.028  173.229   76.746    0.353    0.235
  724.750    2.100  174.714   79.955    0.351    0.216
  725.000    2.166  175.884   76.709    0.347    0.226
  725.250    2.214  176.845   74.342    0.344    0.246
  725.500    2.301  178.228   76.924    0.345    0.229
  725.750    2.437  179.396   80.885    0.353    0.203
  726.000    2.708  179.832   83.404    0.349    0.178
  726.250    3.063  180.480   86.925    0.340    0.154
  726.500    3.366  181.341   90.071    0.330    0.149
  726.750    3.728  181.571   88.456    0.323    0.148
  727.000    4.090  181.283   83.580    0.314    0.146
  727.250    4.447  181.196   76.264    0.300    0.132
  727.500    4.691  181.320   70.323    0.285    0.117
  727.750    4.857  180.825   66.389    0.266    0.117
  728.000    4.854  180.528   70.161    0.254    0.148
  728.250    4.647  179.924   74.750    0.267    0.172
  728.500    4.374  180.260   78.397    0.286    0.190
  728.750    3.842  180.701   80.852    0.332    0.192
  729.000    3.504  182.185   82.874    0.338    0.176
  729.250    3.541  183.355   84.263    0.332    0.165
  729.500    3.695  184.315   86.910    0.320    0.156
  729.750    3.979  185.176   88.361    0.310    0.147
  730.000    4.111  185.197   90.066    0.305    0.144
  730.250    4.195  185.219   90.894    0.305    0.150
  730.500    4.191  185.028   90.092    0.317    0.147
  730.750    4.150  184.423   87.223    0.320    0.142
  731.000    4.085  183.820   86.860    0.335    0.143
  731.250    4.059  183.526   89.945    0.360    0.151
  731.500    4.005  182.714   91.712    0.372    0.163
  731.750    3.979  182.318   92.414    0.349    0.164
  732.000    3.897  181.608   93.304    0.335    0.160
  732.250    3.830  181.111   93.065    0.331    0.158
  732.500    3.770  180.295   90.447    0.330    0.159
  732.750    3.711  180.002   92.778    0.332    0.148
  733.000    3.606  179.191   90.411    0.347    0.139
  733.250    3.536  178.798   88.669    0.340    0.145
  733.500    3.436  178.401   89.372    0.333    0.163
  733.750    3.376  177.897   91.078    0.333    0.164
  734.000    3.269  177.609   94.097    0.329    0.157
  734.250    3.118  177.003   95.301    0.325    0.161
  734.500    2.984  177.127   91.179    0.329    0.172
  734.750    2.889  177.568   85.365    0.337    0.181
  735.000    2.781  178.530   80.051    0.344    0.191
  735.250    2.779  180.118   81.756    0.344    0.201
  735.500    2.819  181.184   85.905    0.340    0.185
  735.750    2.882  181.204   89.992    0.343    0.165
  736.000    2.956  182.275   93.888    0.341    0.160
  736.250    3.032  183.865   92.211    0.339    0.156
  736.500    3.175  185.348   90.972    0.354    0.149
  736.750    3.263  186.199   91.170    0.350    0.143
  737.000    3.353  186.851   88.051    0.326    0.141
  737.250    3.473  187.603   84.680    0.322    0.139
  737.500    3.555  188.251   88.517    0.322    0.138
  737.750    3.634  187.959   91.662    0.321    0.142
  738.000    3.672  186.311   94.810    0.322    0.151
  738.250    3.602  185.077   97.201    0.328    0.159
  738.500    3.340  182.072   94.332    0.337    0.184
  738.750    3.149  179.587   87.829    0.354    0.209
  739.000    2.910  177.415   82.704    0.370    0.228
  739.250    2.745  176.288   85.097    0.367    0.224
  739.500    2.712  176.310   86.991    0.353    0.192
  739.750    2.731  176.646   87.442    0.346    0.152
  740.000    2.749  176.563   86.766    0.344    0.138
  740.250    2.768  175.854   84.086    0.342    0.121
  740.500    2.787  174.622   83.911    0.345    0.140
  740.750    2.764  172.138   84.801    0.354    0.173
  741.000    2.622  168.607   86.004    0.363    0.210
  741.250    2.528  163.724   77.495    0.367    0.249
  741.500    2.394  160.404   68.736    0.364    0.276
  741.750    2.283  158.229   62.922    0.366    0.285
  742.000    2.193  156.479   57.796    0.370    0.288
  742.250    2.107  155.141   55.617    0.377    0.289
  742.500    2.075  153.806   55.943    0.379    0.288
  742.750    2.089  152.782   57.336    0.364    0.288
  743.000    2.127  152.595   59.041    0.338    0.287
  743.250    2.198  152.093   60.117    0.333    0.285
  743.500    2.289  151.702   60.133    0.339    0.283
  743.750    2.424  151.722   59.331    0.352    0.278
  744.000    2.715  151.741   58.215    0.348    0.269
  744.250    2.984  151.972   57.601    0.324    0.257
  744.500    3.262  152.206   57.552    0.317    0.253
  744.750    3.586  152.958   59.257    0.309    0.251
  745.000    4.039  152.980   62.466    0.303    0.251
  745.250    4.424  153.421   64.922    0.311    0.247
  745.500    4.339  153.964   64.183    0.327    0.239
  745.750    3.948  153.879   59.997    0.336    0.217
