~VERSION INFORMATION
 VERS.                 2.0:   CWLS LOG ASCII STANDARD -VERSION 2.0
 WRAP.                  NO:   ONE LINE PER DEPTH STEP
~WELL INFORMATION BLOCK
#MNEM.UNIT           DATA                    DESCRIPTION OF MNEMONIC
#---------    -------------------            -------------------------------
# Generated from Intellog Unique Number	CW_82_90/WELL/2587
WELL.         IOE MUSKWA 06-13               : Well_name    - WELL
LOC .         00/06-13-082-03W5/0            : Location     - LOCATION
UWI .         00/06-13-082-03W5/0            : Uwi          - UNIQUE WELL ID
ENTR.         JJ                             : Entered      - ENTERED BY
SRVC.         SCHLUMBERGER                   : Scn          - SERVICE COMPANY
DATE.         22 MAR 66                      : Date         - LOG DATE
STRT.M        347.472                        : top_depth    - START DEPTH
STOP.M        475.472                        : bot_depth    - STOP DEPTH
STEP.M        0.25                           : increment    - STEP LENGTH
 NULL. -999.2500:NULL Value
~CURVE INFORMATION BLOCK
#MNEM UNIT       ERCB CURVE CODE    CURVE DESCRIPTION
#-----------   ------------------   ----------------------------------
DEPT.M        00 001 00 00         : DEPTH        - DEPTH
ILD .OHMM     00 120 00 00         : RESD         - DEEP RESISTIVITY (DIL)
GR  .API      00 310 00 00         : GR           - GAMMA RAY
DELT.US/F     00 520 00 00         : DELT         - SONIC TRAVEL TIME
CALI.MM       00 280 01 00         : CAL          - CALIPER
~PARAMETER INFORMATION
#MNEM.UNIT           DATA             DESCRIPTION OF MNEMONIC
#---------         -----------     ------------------------------
GL  .M        580.034              : gl           - GROUND LEVEL ELEVATION
EREF.M        583.387              : kb           - ELEVATION OF DEPTH REFERENCE
DATM.M        580.034              : datum        - DATUM ELEVATION
TDD .M        495.3                : tdd          - TOTAL DEPTH DRILLER
RUN .         ONE                  : Run          - RUN NUMBER
ENG .         MOORE                : Engineer     - RECORDING ENGINEER
WIT .         BYNRE                : Witness      - WITNESSED BY
BASE.         V.V.                 : Branch       - HOME BASE OF LOGGING UNIT
MUD .         GEL                  : Mud_type     - MUD TYPE
MATR.         SANDSTONE            : Logunit      - NEUTRON MATRIX
TMAX.C        38.8889              : BHT          - MAXIMUM RECORDED TEMPERATURE
BHTD.M        493.776              : BHTDEP       - MAXIMUM RECORDED TEMPERATURE
RMT .C        8.88889              : MDTP         - TEMPERATURE OF MUD
MUDD.KG/M     1128                 : MWT          - MUD DENSITY
NEUT.         1                    : NEUTRON      - NEUTRON TYPE
RESI.         0                    : RESIST       - RESISTIVITY TYPE
RM  .OHMM     4.04                 : RM           - RESISTIVITY OF MUD
RMC .OHMM     3.46                 : RMC          - RESISTIVITY OF MUD CAKE
RMF .OHMM     0                    : RMF          - RESISTIVITY OF MUD FILTRATE
SUFT.C        5                    : SUFT         - SURFACE TEMPERATURE
~A  DEPTH     RESD       GR     DELT      CAL
# ...
  390.972   11.754   50.947  242.541  169.587
  391.222   11.905   38.647  209.782  169.387
  391.472   10.927   46.276  258.324  170.197
  391.722    9.968   59.157  281.526  169.834
  391.972    8.951   64.216  325.187  170.381
  392.222    8.182   68.673  364.101  171.277
  392.472    7.902   74.600  380.751  172.430
  392.722    7.874   80.894  383.561  173.252
  392.972    7.877   85.036  380.487  174.767
  393.222    7.837   80.367  373.335  176.955
  393.472    7.967   75.116  365.782  176.317
  393.722    8.110   75.634  373.472  177.478
  393.972    8.215   73.376  385.308  178.419
  394.222    8.361   71.530  383.572  179.577
  394.472    8.482   73.735  375.417  180.815
  394.722    8.510   79.215  365.724  179.913
  394.972    8.413   83.820  357.034  180.178
  395.222    8.238   82.118  365.460  180.659
  395.472    8.030   80.317  377.965  180.636
  395.722    7.998   84.872  386.123  181.297
  395.972    8.175   85.958  389.469  181.865
  396.222    8.298   83.204  387.598  181.739
  396.472    8.200   78.337  385.327  181.611
  396.722    8.277   75.635  386.599  180.468
  396.972    8.391   74.266  389.877  179.207
  397.222    8.475   76.982  390.681  180.190
  397.472    8.523   85.259  388.877  180.416
  397.722    8.532   83.933  386.539  181.721
  397.972    8.539   77.870  385.873  182.494
  398.222    8.538   73.430  380.994  182.640
  398.472    8.651   75.651  384.940  184.097
  398.722    8.898   79.844  390.090  183.949
  398.972    9.148   85.474  390.894  181.876
  399.222    9.102   83.341  387.954  181.681
  399.472    8.914   80.791  383.811  181.992
  399.722    8.786   83.164  375.856  182.239
  399.972    8.638   84.322  376.594  181.986
  400.222    8.504   81.760  384.485  181.354
  400.472    8.448   84.040  390.237  180.623
  400.722    8.448   90.242  390.907  179.325
  400.972    8.540   94.163  394.319  178.244
  401.222    8.789   92.610  396.661  177.773
  401.472    9.236   87.276  399.203  175.900
  401.722    9.846   81.831  394.458  175.850
  401.972   10.763   76.334  370.390  173.875
  402.222   13.821   70.497  365.177  170.688
  402.472   16.205   64.882  373.068  168.630
  402.722   19.352   62.035  370.195  166.974
  402.972   23.217   59.129  331.352  167.065
  403.222   28.486   59.407  314.772  168.499
  403.472   32.349   53.360  336.102  168.997
  403.722   33.116   49.370  352.017  167.253
  403.972   31.582   50.395  348.007  167.282
  404.222   29.666   51.012  289.239  166.565
  404.472   29.677   52.578  270.052  166.104
  404.722   30.549   56.164  300.475  166.535
  404.972   29.460   60.203  329.962  167.866
  405.222   27.087   54.045  261.299  168.601
  405.472   23.418   51.314  231.882  166.891
  405.722   20.092   61.719  277.950  167.026
  405.972   16.741   68.836  311.315  167.419
  406.222   14.378   74.657  347.488  168.172
  406.472   12.930   73.167  357.252  168.661
  406.722   12.853   67.080  359.728  169.752
  406.972   14.215   69.172  362.537  170.271
  407.222   15.800   64.665  365.681  169.205
  407.472   17.463   58.582  369.427  170.556
  407.722   18.818   55.342  359.935  171.106
  407.972   18.447   56.203  340.347  170.914
  408.222   15.079   55.655  328.649  169.792
  408.472   12.266   63.311  329.386  171.505
  408.722   10.484   72.817  345.969  173.638
  408.972    9.298   84.119  363.087  175.412
  409.222    8.522   87.460  369.975  176.725
  409.472    7.978   85.987  365.230  178.109
  409.722    7.519   84.149  367.305  179.048
  409.972    7.047   84.759  372.187  179.720
  410.222    6.692   96.870  385.360  179.705
  410.472    6.455  103.912  392.917  180.216
  410.722    6.521   98.181  392.785  180.447
  410.972    6.704   83.218  387.705  178.457
  411.222    6.947   87.854  382.158  175.402
  411.472    7.037   91.552  382.427  175.373
  411.722    7.250   90.173  390.586  174.894
  411.972    7.596   92.175  403.291  173.602
  412.222    8.136   97.908  397.810  171.675
  412.472    8.665   92.171  390.592  170.317
  412.722    9.392   77.406  388.587  169.803
  412.972   10.360   69.592  376.822  168.672
  413.222   12.361   68.005  367.798  166.233
  413.472   14.986   65.616  360.646  163.143
  413.722   17.415   62.793  361.182  161.221
  413.972   18.778   57.835  326.684  160.760
  414.222   15.695   53.044  283.495  161.224
  414.472   12.781   63.050  261.166  162.276
  414.722   10.287   74.533  252.075  162.521
  414.972    8.825   81.447  304.695  163.149
  415.222    8.158   88.963  334.717  164.849
  415.472    7.981   93.529  377.977  165.896
  415.722    8.182   87.724  383.662  167.083
  415.972    8.149   81.710  381.123  168.383
  416.222    8.174   74.730  385.069  169.263
  416.472    8.299   69.353  379.255  169.873
  416.722    8.475   64.916  375.980  171.580
  416.972    8.585   63.690  370.700  173.608
  417.222    8.594   74.825  372.641  175.301
  417.472    8.446   75.726  373.579  175.996
  417.722    8.290   74.395  374.450  176.683
  417.972    8.156   75.907  370.708  176.850
  418.222    8.202   75.699  374.587  177.027
  418.472    8.484   76.872  379.670  177.465
  418.722    8.867   79.110  380.675  177.737
  418.972    9.067   77.386  379.807  177.844
  419.222    9.221   73.721  375.530  177.908
  419.472    9.317   73.220  369.582  177.791
  419.722    9.307   80.145  376.203  177.841
  419.972    8.930   87.704  384.027  177.739
  420.222    8.756   89.656  391.049  177.579
  420.472    9.022   86.123  386.304  177.505
  420.722    8.809   80.581  384.634  177.491
  420.972    8.804   76.206  383.098  177.034
  421.222    8.739   66.248  380.024  175.672
  421.472    8.710   92.648  376.015  174.274
  421.722    8.879  103.351  373.944  172.912
  421.972    9.298  101.098  367.661  171.717
  422.222    9.969   92.266  370.805  170.971
  422.472   10.849   84.481  358.839  170.056
  422.722   12.274   75.345  345.202  168.811
  422.972   14.909   75.722  333.102  167.437
  423.222   18.450   74.299  324.211  165.979
  423.472   20.800   69.079  316.658  164.090
  423.722   23.322   64.447  307.901  162.460
  423.972   25.039   62.862  301.351  160.871
  424.222   26.956   57.380  290.789  160.207
  424.472   26.224   53.028  242.317  159.760
  424.722   23.988   58.567  231.755  159.128
  424.972   20.511   62.801  292.466  159.325
  425.222   17.767   64.892  312.525  159.559
  425.472   14.856   66.253  337.533  159.891
  425.722   13.128   69.401  353.313  160.202
  425.972   12.641   71.504  373.975  160.227
  426.222   12.778   65.951  380.663  160.468
  426.472   13.230   59.925  343.089  160.814
  426.722   14.124   55.397  337.475  161.175
  426.972   15.197   55.362  330.791  161.434
  427.222   16.102   52.330  311.804  161.599
  427.472   16.251   54.017  282.990  161.460
  427.722   15.002   54.385  291.817  161.515
  427.972   13.665   52.758  284.866  161.450
  428.222   12.460   57.218  276.309  161.465
  428.472   11.391   62.149  270.962  161.338
  428.722   10.402   71.961  285.540  161.164
  428.972    9.550   81.443  305.131  161.455
  429.222    8.909   86.472  353.339  161.379
  429.472    8.591   83.251  364.506  161.743
  429.722    8.472   77.058  358.424  162.239
  429.972    8.582   72.183  364.109  162.798
  430.222    8.953   72.444  353.881  163.281
  430.472    8.935   80.638  338.706  163.643
  430.722    8.798   88.309  338.641  163.917
  430.972    8.646   88.081  348.872  164.227
  431.222    8.390   92.098  345.330  164.234
  431.472    8.273   85.137  350.079  164.214
  431.722    8.271   78.739  367.866  163.974
  431.972    8.282   78.463  353.225  163.701
  432.222    8.413   86.653  347.812  163.155
  432.472    8.674   85.092  350.889  162.282
  432.722    9.095   76.767  364.196  161.515
  432.972    9.632   70.869  361.590  160.908
  433.222   10.006   66.623  316.863  160.522
  433.472   10.222   62.050  308.775  160.403
  433.722   10.046   71.109  297.276  161.121
  433.972    9.475   79.755  307.708  161.257
  434.222    9.082   84.123  325.161  161.014
