~VERSION INFORMATION
 VERS.                 2.0:   CWLS LOG ASCII STANDARD -VERSION 2.0
 WRAP.                  NO:   ONE LINE PER DEPTH STEP
~WELL INFORMATION BLOCK
#MNEM.UNIT           DATA                    DESCRIPTION OF MNEMONIC
#---------    -------------------            -------------------------------
# Generated from Intellog Unique Number	CS_71_72/WELL/844
WELL.         AEC IPIATIK KIRBY              : Well_name    - WELL
LOC .         00/09-24-071-06W4/0            : Location     - LOCATION
UWI .         00/09-24-071-06W4/0            : Uwi          - UNIQUE WELL ID
ENTR.         SP                             : Entered      - ENTERED BY
SRVC.         SCHLUMBERGER                   : Scn          - SERVICE COMPANY
STRT.M        315                            : top_depth    - START DEPTH
STOP.M        550                            : bot_depth    - STOP DEPTH
STEP.M        0.25                           : increment    - STEP LENGTH
 NULL. -999.2500:NULL Value
~CURVE INFORMATION BLOCK
#MNEM UNIT       ERCB CURVE CODE    CURVE DESCRIPTION
#-----------   ------------------   ----------------------------------
DEPT.M        00 001 00 00         : DEPTH        - DEPTH
ILD .OHMM     00 120 00 00         : RESD         - DEEP RESISTIVITY (DIL)
DPHI.V/V      00 890 00 00         : PHID         - DENSITY POROSITY (LIMESTONE)
NPHI.V/V      00 330 00 00         : PHIN         - NEUTRON POROSITY (LIMESTONE)
GR  .API      00 310 00 00         : GR           - GAMMA RAY
~PARAMETER INFORMATION
#MNEM.UNIT           DATA             DESCRIPTION OF MNEMONIC
#---------         -----------     ------------------------------
GL  .M        676.91               : gl           - GROUND LEVEL ELEVATION
EREF.M        681.65               : kb           - ELEVATION OF DEPTH REFERENCE
DATM.M        676.91               : datum        - DATUM ELEVATION
TDD .M        572                  : tdd          - TOTAL DEPTH DRILLER
RUN .         ONE                  : Run          - RUN NUMBER
ENG .         BILL                 : Engineer     - RECORDING ENGINEER
WIT .         JIM                  : Witness      - WITNESSED BY
MUD .         GEL                  : Mud_type     - MUD TYPE
MATR.         LIMESTONE            : Logunit      - NEUTRON MATRIX
TMAX.C        15                   : BHT          - MAXIMUM RECORDED TEMPERATURE
BHTD.M        572                  : BHTDEP       - MAXIMUM RECORDED TEMPERATURE
MATR.         1                    : LOGUNIT      - NEUTRON MATRIX
RMT .C        25                   : MDTP         - TEMPERATURE OF MUD
NEUT.         1                    : NEUTRON      - NEUTRON TYPE
RESI.         0                    : RESIST       - RESISTIVITY TYPE
RMC .OHMM     0.25                 : RMC          - RESISTIVITY OF MUD CAKE
RMF .OHMM     0.25                 : RMF          - RESISTIVITY OF MUD FILTRATE
SUFT.C        15                   : SUFT         - SURFACE TEMPERATURE
~A  DEPTH     RESD     PHID     PHIN       GR
# ...
  489.000   14.293    0.257    0.367   78.285
  489.250   14.733    0.271    0.364   76.962
  489.500   15.332    0.279    0.357   72.058
  489.750   15.838    0.270    0.369   70.008
  490.000   15.992    0.256    0.380   71.361
  490.250   16.183    0.255    0.385   71.916
  490.500   16.436    0.274    0.382   70.715
  490.750   16.381    0.286    0.377   68.421
  491.000   16.056    0.278    0.371   71.895
  491.250   16.064    0.260    0.368   74.579
  491.500   16.718    0.249    0.376   75.198
  491.750   17.793    0.260    0.387   66.714
  492.000   18.377    0.273    0.397   62.416
  492.250   18.490    0.280    0.382   62.551
  492.500   17.920    0.273    0.372   65.296
  492.750   16.390    0.260    0.372   70.956
  493.000   15.245    0.253    0.383   75.522
  493.250   14.913    0.249    0.386   77.598
  493.500   15.345    0.260    0.383   74.757
  493.750   17.537    0.266    0.384   71.857
  494.000   19.484    0.268    0.370   69.443
  494.250   22.857    0.276    0.368   65.812
  494.500   26.412    0.285    0.384   59.816
  494.750   33.518    0.044    0.399   52.726
  495.000   40.360   -0.002    0.268   49.947
  495.250   44.676   -0.012    0.229   50.870
  495.500   44.701    0.008    0.221   56.166
  495.750   37.090    0.068    0.267   63.829
  496.000   29.149    0.204    0.309   68.940
  496.250   22.994    0.243    0.331   72.535
  496.500   19.733    0.261    0.355   73.155
  496.750   18.947    0.279    0.367   70.802
  497.000   19.352    0.296    0.378   70.267
  497.250   19.989    0.300    0.385   73.133
  497.500   20.186    0.294    0.393   75.333
  497.750   18.601    0.289    0.407   75.284
  498.000   17.300    0.281    0.412   77.120
  498.250   15.883    0.274    0.399   78.588
  498.500   14.938    0.263    0.389   80.362
  498.750   13.765    0.249    0.383   83.835
  499.000   11.993    0.234    0.388   88.463
  499.250   10.988    0.221    0.384   91.996
  499.500   10.067    0.230    0.389   96.016
  499.750    9.003    0.235    0.394  102.525
  500.000    8.547    0.213    0.397  109.277
  500.250    8.101    0.193    0.391  112.143
  500.500    7.880    0.180    0.371  109.485
  500.750    7.738    0.171    0.359  103.914
  501.000    7.742    0.183    0.366   94.335
  501.250    7.907    0.202    0.356   82.632
  501.500    8.182    0.208    0.346   86.837
  501.750    8.579    0.195    0.353   90.185
  502.000    9.097    0.178    0.346   94.874
  502.250    9.378    0.171    0.329   97.557
  502.500    9.632    0.183    0.336   97.752
  502.750    9.783    0.230    0.353   87.688
  503.000    9.805    0.257    0.366   65.361
  503.250    9.611    0.264    0.354   65.253
  503.500    9.280    0.255    0.344   65.327
  503.750    8.729    0.252    0.337   69.407
  504.000    8.413    0.216    0.326   81.320
  504.250    8.528    0.180    0.323   90.498
  504.500    9.196    0.154    0.343   97.857
  504.750    9.972    0.198    0.360   89.250
  505.000   10.612    0.246    0.353   78.579
  505.250   11.445    0.251    0.340   71.246
  505.500   12.065    0.240    0.335   66.646
  505.750   13.257    0.230    0.355   61.499
  506.000   14.375    0.247    0.352   57.263
  506.250   15.588    0.261    0.357   59.947
  506.500   16.040    0.275    0.376   67.733
  506.750   14.752    0.284    0.388   76.063
  507.000   12.448    0.258    0.357   84.878
  507.250   10.844    0.159    0.329   95.088
  507.500    9.844    0.138    0.312  103.904
  507.750    9.190    0.139    0.338  100.092
  508.000    8.858    0.166    0.350   89.423
  508.250    8.812    0.193    0.330   82.150
  508.500    8.817    0.211    0.319   78.156
  508.750    8.756    0.217    0.334   86.669
  509.000    8.727    0.197    0.346   92.022
  509.250    8.430    0.178    0.359   96.286
  509.500    8.214    0.172    0.356  101.702
  509.750    7.485    0.167    0.350  107.484
  510.000    7.185    0.159    0.364  110.287
  510.250    7.030    0.147    0.358  105.201
  510.500    7.020    0.143    0.359  103.697
  510.750    6.984    0.155    0.375  111.966
  511.000    6.744    0.171    0.390  119.567
  511.250    6.261    0.190    0.441  123.586
  511.500    6.183    0.193    0.480  117.044
  511.750    6.999    0.202    0.446  105.158
  512.000    8.303    0.239    0.411   68.808
  512.250   10.716    0.305    0.403   53.402
  512.500   14.384    0.326    0.397   52.567
  512.750   17.223    0.288    0.383   54.463
  513.000   17.624    0.258    0.356   54.110
  513.250   15.411    0.225    0.331   60.557
  513.500   13.053    0.133    0.323   77.811
  513.750   10.355    0.113    0.347   94.154
  514.000    9.242    0.104    0.360   99.995
  514.250    8.469    0.128    0.338  103.347
  514.500    8.086    0.166    0.361  100.628
  514.750    8.351    0.201    0.403   84.736
  515.000    8.691    0.227    0.362   78.679
  515.250    9.372    0.198    0.357   96.479
  515.500    9.881    0.177    0.367  109.301
  515.750   10.092    0.167    0.387  114.900
  516.000    9.636    0.169    0.384  116.065
  516.250    9.444    0.180    0.367  116.813
  516.500    9.592    0.186    0.360  117.246
  516.750    9.815    0.178    0.374  117.988
  517.000   10.007    0.174    0.387  118.790
  517.250   10.124    0.183    0.388  119.045
  517.500   10.170    0.191    0.379  118.392
  517.750   10.134    0.200    0.370  116.948
  518.000    9.897    0.198    0.367  116.171
  518.250    9.593    0.207    0.362  115.516
  518.500    9.246    0.221    0.363  113.465
  518.750    9.061    0.220    0.362  108.743
  519.000    8.781    0.213    0.359  103.355
  519.250    8.447    0.212    0.358   99.969
  519.500    8.141    0.223    0.361   97.251
  519.750    7.744    0.228    0.366   95.623
  520.000    7.312    0.215    0.366   97.458
  520.250    7.139    0.205    0.366  100.567
  520.500    6.818    0.200    0.367  101.672
  520.750    6.707    0.206    0.368  102.231
  521.000    6.441    0.220    0.373  101.032
  521.250    6.394    0.232    0.382   97.160
  521.500    6.152    0.247    0.395   91.407
  521.750    5.798    0.256    0.393   88.201
  522.000    5.639    0.261    0.380   86.636
  522.250    5.276    0.274    0.373   85.252
  522.500    5.160    0.278    0.372   76.887
  522.750    4.955    0.274    0.371   71.013
  523.000    4.749    0.276    0.368   70.480
  523.250    4.611    0.281    0.364   82.756
  523.500    4.460    0.286    0.362   90.964
  523.750    4.332    0.291    0.380   88.730
  524.000    4.269    0.298    0.397   78.970
  524.250    4.223    0.302    0.376   67.752
  524.500    4.110    0.296    0.375   62.909
  524.750    4.065    0.294    0.377   60.009
  525.000    4.352    0.276    0.357   60.073
  525.250    4.295    0.272    0.356   58.808
  525.500    4.262    0.280    0.371   57.495
  525.750    4.238    0.288    0.381   57.144
  526.000    4.206    0.298    0.389   59.095
  526.250    4.143    0.304    0.383   54.330
  526.500    4.088    0.308    0.377   47.511
  526.750    3.997    0.300    0.376   47.889
  527.000    3.922    0.308    0.372   45.544
  527.250    3.842    0.309    0.364   44.471
  527.500    3.770    0.300    0.357   45.575
  527.750    3.713    0.293    0.364   44.985
  528.000    3.664    0.303    0.373   42.399
  528.250    3.609    0.307    0.380   42.960
  528.500    3.589    0.299    0.384   46.423
  528.750    3.595    0.292    0.381   50.073
  529.000    3.615    0.291    0.379   50.865
  529.250    3.670    0.294    0.375   50.397
  529.500    3.690    0.292    0.366   48.235
  529.750    3.642    0.295    0.363   44.984
  530.000    3.501    0.301    0.371   41.612
  530.250    3.371    0.302    0.366   38.122
  530.500    3.302    0.301    0.364   36.378
  530.750    3.283    0.301    0.358   34.217
  531.000    3.289    0.302    0.340   34.596
  531.250    3.320    0.310    0.333   35.820
  531.500    3.389    0.319    0.347   37.648
  531.750    3.499    0.313    0.341   38.691
  532.000    3.646    0.235    0.297   40.037
  532.250    3.953    0.211    0.278   44.649
