~VERSION INFORMATION
 VERS.                 2.0:   CWLS LOG ASCII STANDARD -VERSION 2.0
 WRAP.                  NO:   ONE LINE PER DEPTH STEP
~WELL INFORMATION BLOCK
#MNEM.UNIT           DATA                    DESCRIPTION OF MNEMONIC
#---------    -------------------            -------------------------------
# Generated from Intellog Unique Number	CS_73_76/WELL/2161
WELL.         MANY ISLANDS PIPELINES         : Well_name    - WELL
LOC .         00/06-08-074-11W4/0            : Location     - LOCATION
UWI .         00/06-08-074-11W4/0            : Uwi          - UNIQUE WELL ID
ENTR.         SP                             : Entered      - ENTERED BY
SRVC.         SCHLUMBERGER                   : Scn          - SERVICE COMPANY
STRT.M        298.704                        : top_depth    - START DEPTH
STOP.M        536.204                        : bot_depth    - STOP DEPTH
STEP.M        0.25                           : increment    - STEP LENGTH
 NULL. -999.2500:NULL Value
~CURVE INFORMATION BLOCK
#MNEM UNIT       ERCB CURVE CODE    CURVE DESCRIPTION
#-----------   ------------------   ----------------------------------
DEPT.M        00 001 00 00         : DEPTH        - DEPTH
GR  .API      00 310 00 00         : GR           - GAMMA RAY
DPHI.V/V      00 890 00 00         : PHID         - DENSITY POROSITY (SANDSTONE)
NPHI.V/V      00 330 00 00         : PHIN         - NEUTRON POROSITY (SANDSTONE)
ILD .OHMM     00 120 00 00         : RESD         - DEEP RESISTIVITY (DIL)
~PARAMETER INFORMATION
#MNEM.UNIT           DATA             DESCRIPTION OF MNEMONIC
#---------         -----------     ------------------------------
GL  .M        661.416              : gl           - GROUND LEVEL ELEVATION
EREF.M        664.891              : kb           - ELEVATION OF DEPTH REFERENCE
DATM.M        661.416              : datum        - DATUM ELEVATION
TDD .M        553.517              : tdd          - TOTAL DEPTH DRILLER
RUN .         ONE                  : Run          - RUN NUMBER
ENG .         BILL                 : Engineer     - RECORDING ENGINEER
WIT .         JIM                  : Witness      - WITNESSED BY
MUD .         GEL                  : Mud_type     - MUD TYPE
MATR.         SANDSTONE            : Logunit      - NEUTRON MATRIX
TMAX.C        26.6667              : BHT          - MAXIMUM RECORDED TEMPERATURE
BHTD.M        553.517              : BHTDEP       - MAXIMUM RECORDED TEMPERATURE
MATR.         1                    : LOGUNIT      - NEUTRON MATRIX
RMT .C        25                   : MDTP         - TEMPERATURE OF MUD
NEUT.         1                    : NEUTRON      - NEUTRON TYPE
RESI.         0                    : RESIST       - RESISTIVITY TYPE
RMC .OHMM     0.25                 : RMC          - RESISTIVITY OF MUD CAKE
RMF .OHMM     0.25                 : RMF          - RESISTIVITY OF MUD FILTRATE
SUFT.C        15                   : SUFT         - SURFACE TEMPERATURE
~A  DEPTH       GR     PHID     PHIN     RESD
# ...
  342.204  111.808    0.225    0.428    9.164
  342.454  111.772    0.215    0.444    8.707
  342.704  113.310    0.212    0.457    8.487
  342.954  114.379    0.222    0.471    8.414
  343.204  110.090    0.270    0.478    8.396
  343.454  101.886    0.285    0.480    8.818
  343.704   95.206    0.275    0.478    9.319
  343.954   91.987    0.260    0.466    9.713
  344.204   92.931    0.258    0.467   10.219
  344.454   93.911    0.263    0.474   10.498
  344.704   94.420    0.268    0.484   10.483
  344.954   94.866    0.254    0.483   10.497
  345.204   96.971    0.266    0.492   10.265
  345.454   99.637    0.270    0.491   10.115
  345.704   99.815    0.276    0.482    9.899
  345.954   99.175    0.272    0.487    9.920
  346.204   97.704    0.264    0.485    9.920
  346.454   95.398    0.266    0.478    9.920
  346.704   96.168    0.265    0.468    9.921
  346.954   96.516    0.251    0.461    9.920
  347.204   96.423    0.237    0.468    9.918
  347.454   98.852    0.244    0.481    9.934
  347.704  103.616    0.259    0.489    9.741
  347.954  106.053    0.264    0.483    9.552
  348.204  109.347    0.264    0.491    9.433
  348.454  113.910    0.254    0.502    9.154
  348.704  116.723    0.251    0.465    8.693
  348.954  114.237    0.261    0.437    8.289
  349.204  111.589    0.272    0.438    8.088
  349.454  107.095    0.272    0.440    8.098
  349.704  105.809    0.261    0.439    8.250
  349.954  107.977    0.253    0.452    8.458
  350.204  112.434    0.242    0.465    8.564
  350.454  111.862    0.238    0.475    8.651
  350.704  110.657    0.236    0.476    8.710
  350.954  111.186    0.237    0.477    8.864
  351.204  111.995    0.251    0.469    8.896
  351.454  112.042    0.242    0.477    8.715
  351.704  112.346    0.221    0.487    8.594
  351.954  110.663    0.221    0.499    8.515
  352.204  110.757    0.231    0.499    8.243
  352.454  113.270    0.226    0.492    7.745
  352.704  116.591    0.213    0.501    7.525
  352.954  116.163    0.231    0.511    7.390
  353.204  114.516    0.243    0.505    7.374
  353.454  110.149    0.229    0.500    7.532
  353.704  103.151    0.247    0.506    7.647
  353.954  100.655    0.254    0.506    7.960
  354.204  100.544    0.253    0.521    8.275
  354.454   99.417    0.282    0.492    8.537
  354.704   99.668    0.295    0.474    8.862
  354.954   96.122    0.292    0.476    9.223
  355.204   94.609    0.279    0.491    9.332
  355.454   93.370    0.272    0.495    9.585
  355.704   89.032    0.264    0.453    9.569
  355.954   83.293    0.261    0.423    9.865
  356.204   84.877    0.269    0.407   10.156
  356.454   88.894    0.256    0.407   10.665
  356.704   92.869    0.244    0.414   10.900
  356.954   96.947    0.253    0.422   10.895
  357.204   99.914    0.248    0.433   10.743
  357.454   99.716    0.242    0.442   10.285
  357.704   97.940    0.245    0.465   10.089
  357.954   96.487    0.262    0.470    9.781
  358.204   93.340    0.267    0.460    9.808
  358.454   89.027    0.274    0.458   10.119
  358.704   87.429    0.280    0.468   10.228
  358.954   84.161    0.265    0.481   10.495
  359.204   86.603    0.249    0.469   10.693
  359.454   89.943    0.239    0.461   10.477
  359.704   94.397    0.247    0.467   10.496
  359.954   90.009    0.287    0.476   10.502
  360.204   82.954    0.317    0.478   10.608
  360.454   79.898    0.314    0.474   10.712
  360.704   77.936    0.327    0.461   11.065
  360.954   77.126    0.334    0.454   11.489
  361.204   81.976    0.329    0.462   11.952
  361.454   79.984    0.331    0.477   12.095
  361.704   75.732    0.331    0.470   12.417
  361.954   71.640    0.317    0.469   12.399
  362.204   72.683    0.315    0.467   12.401
  362.454   73.747    0.323    0.474   12.415
  362.704   76.318    0.320    0.483   12.182
  362.954   81.624    0.287    0.488   12.060
  363.204   86.958    0.258    0.463   11.647
  363.454   93.001    0.235    0.445   11.135
  363.704   93.913    0.265    0.434   10.501
  363.954   90.006    0.284    0.446    9.902
  364.204   83.524    0.302    0.462    9.604
  364.454   76.889    0.306    0.456    9.568
  364.704   75.370    0.281    0.455    9.767
  364.954   79.994    0.247    0.435   10.066
  365.204   86.554    0.221    0.415   10.388
  365.454   92.697    0.202    0.424   10.504
  365.704  100.002    0.216    0.434   10.398
  365.954  107.055    0.229    0.441   10.074
  366.204  107.987    0.238    0.448    9.783
  366.454  107.228    0.243    0.453    9.293
  366.704  107.296    0.237    0.462    9.031
  366.954  108.337    0.225    0.463    8.764
  367.204  107.671    0.217    0.452    8.549
  367.454  105.252    0.237    0.435    8.751
  367.704  103.895    0.228    0.425    9.018
  367.954  105.692    0.232    0.418    9.279
  368.204  106.641    0.230    0.427    9.761
  368.454  105.252    0.225    0.434    9.858
  368.704  103.264    0.232    0.429   10.139
  368.954  101.303    0.225    0.421   10.126
  369.204   99.781    0.239    0.417   10.126
  369.454   98.638    0.233    0.415   10.127
  369.704  104.722    0.230    0.420   10.123
  369.954  103.651    0.235    0.431   10.029
  370.204  105.496    0.225    0.443    9.930
  370.454  105.666    0.226    0.431    9.604
  370.704  101.279    0.231    0.429    9.574
  370.954  101.927    0.237    0.440    9.776
  371.204  102.227    0.248    0.446    9.930
  371.454   98.707    0.257    0.457   10.134
  371.704   95.856    0.262    0.462   10.316
  371.954   92.341    0.247    0.432   10.350
  372.204   90.170    0.228    0.428    9.873
  372.454   93.339    0.230    0.429    9.593
  372.704   92.969    0.242    0.416    9.583
  372.954   87.969    0.253    0.431    9.562
  373.204   82.313    0.268    0.444    9.263
  373.454   82.534    0.250    0.434    8.967
  373.704   83.763    0.241    0.436    8.876
  373.954   80.722    0.255    0.455    8.572
  374.204   76.962    0.280    0.469    8.342
  374.454   73.522    0.298    0.482    8.266
  374.704   73.069    0.309    0.489    8.101
  374.954   74.296    0.287    0.500    8.071
  375.204   76.442    0.278    0.510    7.972
  375.454   81.423    0.276    0.479    7.822
  375.704   85.420    0.278    0.474    7.641
  375.954   92.939    0.277    0.516    7.428
  376.204   97.490    0.272    0.518    7.073
  376.454   94.973    0.277    0.495    6.560
  376.704   94.878    0.271    0.505    6.086
  376.954   98.889    0.259    0.520    5.776
  377.204  100.772    0.260    0.521    5.497
  377.454  101.605    0.264    0.511    5.275
  377.704  100.951    0.266    0.498    4.983
  377.954  103.713    0.263    0.492    4.841
  378.204  104.310    0.251    0.516    4.696
  378.454  102.393    0.255    0.546    4.545
  378.704  103.551    0.247    0.569    4.194
  378.954  106.969    0.240    0.583    3.950
  379.204  107.054    0.248    0.563    3.631
  379.454   99.531    0.250    0.554    3.262
  379.704   95.973    0.256    0.544    3.145
  379.954   89.465    0.275    0.526    3.869
  380.204   78.585    0.306    0.502    4.566
  380.454   69.422    0.330    0.483    5.344
  380.704   63.875    0.336    0.465    6.416
  380.954   62.782    0.334    0.461    7.616
  381.204   65.688    0.321    0.468    8.596
  381.454   66.402    0.314    0.472    9.234
  381.704   66.647    0.317    0.474    9.539
  381.954   68.340    0.322    0.467    9.625
  382.204   70.465    0.313    0.460    9.774
  382.454   70.559    0.303    0.468    9.753
  382.704   70.541    0.311    0.458    9.967
  382.954   69.998    0.319    0.452    9.951
  383.204   70.020    0.317    0.445    9.953
  383.454   70.029    0.315    0.442    9.954
  383.704   69.989    0.313    0.436    9.952
  383.954   70.987    0.310    0.441    9.935
  384.204   73.658    0.317    0.446   10.140
  384.454   73.567    0.324    0.449    9.942
  384.704   72.814    0.332    0.447   10.000
  384.954   75.406    0.323    0.449   10.143
  385.204   76.375    0.317    0.458   10.147
  385.454   77.236    0.312    0.469   10.174
