~VERSION INFORMATION
 VERS.                 2.0:   CWLS LOG ASCII STANDARD -VERSION 2.0
 WRAP.                  NO:   ONE LINE PER DEPTH STEP
~WELL INFORMATION BLOCK
#MNEM.UNIT           DATA                    DESCRIPTION OF MNEMONIC
#---------    -------------------            -------------------------------
# Generated from Intellog Unique Number	CS_67_68/WELL/737
WELL.         BRASCAN RESOURCES              : Well_name    - WELL
LOC .         00/06-31-068-18W4/0            : Location     - LOCATION
UWI .         00/06-31-068-18W4/0            : Uwi          - UNIQUE WELL ID
ENTR.         SP                             : Entered      - ENTERED BY
SRVC.         SCHLUMBERGER                   : Scn          - SERVICE COMPANY
STRT.M        274.32                         : top_depth    - START DEPTH
STOP.M        517.82                         : bot_depth    - STOP DEPTH
STEP.M        0.25                           : increment    - STEP LENGTH
 NULL. -999.2500:NULL Value
~CURVE INFORMATION BLOCK
#MNEM UNIT       ERCB CURVE CODE    CURVE DESCRIPTION
#-----------   ------------------   ----------------------------------
DEPT.M        00 001 00 00         : DEPTH        - DEPTH
GR  .API      00 310 00 00         : GR           - GAMMA RAY
DPHI.V/V      00 890 00 00         : PHID         - DENSITY POROSITY (SANDSTONE)
NPHI.V/V      00 330 00 00         : PHIN         - NEUTRON POROSITY (SANDSTONE)
ILD .OHMM     00 120 00 00         : RESD         - DEEP RESISTIVITY (DIL)
~PARAMETER INFORMATION
#MNEM.UNIT           DATA             DESCRIPTION OF MNEMONIC
#---------         -----------     ------------------------------
GL  .M        551.993              : gl           - GROUND LEVEL ELEVATION
EREF.M        554.431              : kb           - ELEVATION OF DEPTH REFERENCE
DATM.M        551.993              : datum        - DATUM ELEVATION
TDD .M        525.78               : tdd          - TOTAL DEPTH DRILLER
RUN .         ONE                  : Run          - RUN NUMBER
ENG .         BILL                 : Engineer     - RECORDING ENGINEER
WIT .         JIM                  : Witness      - WITNESSED BY
MUD .         GEL                  : Mud_type     - MUD TYPE
MATR.         SANDSTONE            : Logunit      - NEUTRON MATRIX
TMAX.C        15                   : BHT          - MAXIMUM RECORDED TEMPERATURE
BHTD.M        526.085              : BHTDEP       - MAXIMUM RECORDED TEMPERATURE
MATR.         1                    : LOGUNIT      - NEUTRON MATRIX
RMT .C        25                   : MDTP         - TEMPERATURE OF MUD
NEUT.         1                    : NEUTRON      - NEUTRON TYPE
RESI.         0                    : RESIST       - RESISTIVITY TYPE
RMC .OHMM     0.25                 : RMC          - RESISTIVITY OF MUD CAKE
RMF .OHMM     0.25                 : RMF          - RESISTIVITY OF MUD FILTRATE
SUFT.C        15                   : SUFT         - SURFACE TEMPERATURE
~A  DEPTH       GR     PHID     PHIN     RESD
# ...
  448.320  106.382    0.198    0.583    2.739
  448.570  106.942    0.219    0.565    2.892
  448.820  106.761    0.206    0.570    3.011
  449.070  104.048    0.205    0.542    3.309
  449.320   99.076    0.221    0.465    3.541
  449.570   94.256    0.201    0.434    3.827
  449.820   94.682    0.168    0.419    3.882
  450.070   97.629    0.149    0.427    3.915
  450.320  101.109    0.133    0.452    3.912
  450.570  103.300    0.172    0.470    3.853
  450.820  104.495    0.170    0.478    3.896
  451.070  104.894    0.157    0.478    3.974
  451.320  104.497    0.170    0.471    4.119
  451.570  102.304    0.183    0.462    4.323
  451.820   99.357    0.180    0.450    4.486
  452.070   97.140    0.169    0.445    4.715
  452.320   94.530    0.151    0.445    5.105
  452.570   87.647    0.148    0.456    5.666
  452.820   78.996    0.157    0.464    6.512
  453.070   71.767    0.150    0.454    7.534
  453.320   68.009    0.159    0.388    9.305
  453.570   64.388    0.119    0.313   11.574
  453.820   61.345    0.093    0.244   14.966
  454.070   59.201    0.028    0.208   18.574
  454.320   61.264    0.016    0.201   21.332
  454.570   66.408    0.002    0.222   17.593
  454.820   72.454    0.011    0.275   14.495
  455.070   78.984    0.039    0.312   11.865
  455.320   83.816    0.085    0.361    7.660
  455.570   89.162    0.151    0.403    6.882
  455.820   90.027    0.165    0.432    5.873
  456.070   90.749    0.154    0.451    5.300
  456.320   93.623    0.139    0.461    4.877
  456.570   95.505    0.149    0.441    4.872
  456.820   96.295    0.163    0.428    5.240
  457.070   93.184    0.149    0.421    5.480
  457.320   89.081    0.129    0.424    5.674
  457.570   87.125    0.152    0.425    5.650
  457.820   90.199    0.162    0.416    5.440
  458.070   92.360    0.167    0.437    5.126
  458.320   92.133    0.176    0.451    4.899
  458.570   90.624    0.178    0.447    4.778
  458.820   90.571    0.177    0.447    4.670
  459.070   91.053    0.176    0.454    4.658
  459.320   91.456    0.167    0.468    4.724
  459.570   91.978    0.152    0.461    4.885
  459.820   92.398    0.136    0.469    5.096
  460.070   89.913    0.138    0.449    5.457
  460.320   87.959    0.147    0.428    5.780
  460.570   91.611    0.117    0.417    5.570
  460.820   95.411    0.092    0.414    5.348
  461.070   98.791    0.168    0.420    5.101
  461.320  100.798    0.170    0.430    5.018
  461.570   99.001    0.176    0.438    4.954
  461.820  100.215    0.175    0.429    4.898
  462.070  100.944    0.178    0.421    4.901
  462.320   99.047    0.181    0.436    4.902
  462.570   97.746    0.184    0.438    4.890
  462.820   98.036    0.188    0.437    4.877
  463.070   98.987    0.187    0.445    4.842
  463.320  100.426    0.178    0.458    4.841
  463.570  101.141    0.183    0.458    4.923
  463.820  100.469    0.177    0.440    5.044
  464.070   94.980    0.144    0.428    5.122
  464.320   88.960    0.159    0.408    5.117
  464.570   86.087    0.120    0.388    5.087
  464.820   88.573    0.098    0.411    4.986
  465.070   89.332    0.132    0.432    4.935
  465.320   88.027    0.175    0.448    4.782
  465.570   86.864    0.185    0.459    4.516
  465.820   86.912    0.187    0.464    4.435
  466.070   86.722    0.162    0.439    4.369
  466.320   89.142    0.120    0.410    4.161
  466.570   95.027    0.085    0.409    3.644
  466.820  103.193    0.169    0.501    3.143
  467.070  107.524    0.211    0.529    2.745
  467.320  106.571    0.223    0.548    2.526
  467.570  104.172    0.204    0.551    2.423
  467.820  102.871    0.191    0.524    2.550
  468.070   98.222    0.195    0.499    2.792
  468.320   89.648    0.184    0.476    3.116
  468.570   84.517    0.156    0.447    3.577
  468.820   81.016    0.130    0.430    4.068
  469.070   84.814    0.140    0.420    4.323
  469.320   89.198    0.103    0.418    4.408
  469.570   90.520    0.104    0.426    4.641
  469.820   87.752    0.138    0.437    4.749
  470.070   83.297    0.155    0.436    5.001
  470.320   75.456    0.172    0.417    5.446
  470.570   69.048    0.146    0.367    5.741
  470.820   75.177    0.111    0.348    6.065
  471.070   83.712    0.097    0.361    6.083
  471.320   88.017    0.139    0.383    5.939
  471.570   89.165    0.158    0.410    5.897
  471.820   84.461    0.134    0.406    5.912
  472.070   85.189    0.091    0.367    5.923
  472.320   89.325    0.076    0.366    5.829
  472.570   95.605    0.134    0.390    5.450
  472.820   99.093    0.155    0.425    5.123
  473.070   98.733    0.166    0.424    4.832
  473.320  100.818    0.137    0.428    4.751
  473.570  105.132    0.114    0.450    4.983
  473.820  109.874    0.106    0.433    5.169
  474.070  115.870    0.153    0.418    5.404
  474.320  123.580    0.135    0.425    5.623
  474.570   96.469    0.141    0.437    5.913
  474.820   83.701    0.136    0.409    6.334
  475.070   78.824    0.130    0.371    6.608
  475.320   83.756    0.070    0.322    6.092
  475.570   91.875    0.041    0.333    5.570
  475.820   96.532    0.054    0.360    5.210
  476.070   97.000    0.154    0.406    4.714
  476.320   97.967    0.141    0.443    4.368
  476.570   98.949    0.157    0.465    4.043
  476.820   98.136    0.180    0.461    3.941
  477.070   96.493    0.163    0.468    3.977
  477.320   95.569    0.144    0.454    4.100
  477.570  100.139    0.144    0.445    4.051
  477.820  105.172    0.144    0.458    4.094
  478.070  106.599    0.146    0.465    4.114
  478.320  105.692    0.131    0.455    4.156
  478.570  106.042    0.125    0.453    3.909
  478.820  108.037    0.145    0.458    3.628
  479.070  109.621    0.130    0.473    3.410
  479.320  110.523    0.176    0.480    3.223
  479.570  109.278    0.167    0.471    3.122
  479.820  105.795    0.177    0.485    3.242
  480.070  103.875    0.171    0.496    3.351
  480.320  102.964    0.151    0.506    3.535
  480.570  101.916    0.111    0.512    3.707
  480.820   99.522    0.068    0.499    3.857
  481.070  101.465    0.033    0.481    3.963
  481.320  105.203    0.155    0.483    3.985
  481.570  101.924    0.127    0.486    4.010
  481.820   98.481    0.109    0.463    4.053
  482.070   94.167    0.083    0.423    4.014
  482.320   98.279    0.039    0.435    3.756
  482.570  107.613    0.098    0.470    3.521
  482.820  112.800    0.148    0.494    3.296
  483.070  116.515    0.163    0.520    3.086
  483.320  117.017    0.169    0.515    2.910
  483.570  115.762    0.165    0.507    2.832
  483.820  115.130    0.176    0.499    2.844
  484.070  114.868    0.184    0.505    3.014
  484.320  114.505    0.177    0.510    3.290
  484.570  112.231    0.165    0.474    3.806
  484.820  102.717    0.152    0.424    4.187
  485.070   97.419    0.111    0.412    4.890
  485.320   92.636    0.063    0.406    5.498
  485.570   88.038    0.085    0.392    6.731
  485.820   83.487    0.111    0.371    8.268
  486.070   78.092    0.086    0.360    9.454
  486.320   62.943    0.052    0.376   10.589
  486.570   55.904    0.190    0.391   11.811
  486.820   52.819    0.197    0.393   12.479
  487.070   52.725    0.168    0.395   12.587
  487.320   57.093    0.148    0.389   12.501
  487.570   60.142    0.159    0.379   12.497
  487.820   61.733    0.168    0.366   12.830
  488.070   63.252    0.196    0.366   12.441
  488.320   65.440    0.192    0.363   11.888
  488.570   66.857    0.181    0.364   10.774
  488.820   67.416    0.170    0.373   10.165
  489.070   67.915    0.173    0.374    9.597
  489.320   70.200    0.161    0.369    9.206
  489.570   71.050    0.158    0.362    8.783
  489.820   72.588    0.183    0.356    8.509
  490.070   74.864    0.175    0.351    8.304
  490.320   76.243    0.166    0.347    7.948
  490.570   71.735    0.162    0.345    7.540
  490.820   64.020    0.121    0.362    6.989
  491.070   59.303    0.131    0.387    6.420
  491.320   86.875    0.197    0.393    5.781
  491.570   97.526    0.233    0.392    5.933
