~VERSION INFORMATION
 VERS.                 2.0:   CWLS LOG ASCII STANDARD -VERSION 2.0
 WRAP.                  NO:   ONE LINE PER DEPTH STEP
~WELL INFORMATION BLOCK
#MNEM.UNIT           DATA                    DESCRIPTION OF MNEMONIC
#---------    -------------------            -------------------------------
# Generated from Intellog Unique Number	CC_80_83/WELL/2485
WELL.         UNEX ET AL BOHN                : Well_name    - WELL
LOC .         00/06-30-081-07W4/0            : Location     - LOCATION
UWI .         00/06-30-081-07W4/0            : Uwi          - UNIQUE WELL ID
ENTR.         TIM                            : Entered      - ENTERED BY
SRVC.         SCHLUMBERGER                   : Scn          - SERVICE COMPANY
STRT.M        250                            : top_depth    - START DEPTH
STOP.M        490                            : bot_depth    - STOP DEPTH
STEP.M        0.25                           : increment    - STEP LENGTH
 NULL. -999.2500:NULL Value
~CURVE INFORMATION BLOCK
#MNEM UNIT       ERCB CURVE CODE    CURVE DESCRIPTION
#-----------   ------------------   ----------------------------------
DEPT.M        00 001 00 00         : DEPTH        - DEPTH
NPHI.V/V      00 330 00 00         : PHIN         - NEUTRON POROSITY (SANDSTONE)
DPHI.V/V      00 890 00 00         : PHID         - DENSITY POROSITY (SANDSTONE)
ILD .OHMM     00 120 00 00         : RESD         - DEEP RESISTIVITY (DIL)
GR  .API      00 310 00 00         : GR           - GAMMA RAY
~PARAMETER INFORMATION
#MNEM.UNIT           DATA             DESCRIPTION OF MNEMONIC
#---------         -----------     ------------------------------
GL  .M        704                  : gl           - GROUND LEVEL ELEVATION
EREF.M        707.9                : kb           - ELEVATION OF DEPTH REFERENCE
DATM.M        707.9                : datum        - DATUM ELEVATION
TDD .M        498                  : tdd          - TOTAL DEPTH DRILLER
RUN .         ONE                  : Run          - RUN NUMBER
ENG .         BILL                 : Engineer     - RECORDING ENGINEER
WIT .         JIM                  : Witness      - WITNESSED BY
MUD .         GEL                  : Mud_type     - MUD TYPE
MATR.         SANDSTONE            : Logunit      - NEUTRON MATRIX
TMAX.C        29                   : BHT          - MAXIMUM RECORDED TEMPERATURE
BHTD.M        498                  : BHTDEP       - MAXIMUM RECORDED TEMPERATURE
MATR.         1                    : LOGUNIT      - NEUTRON MATRIX
RMT .C        25                   : MDTP         - TEMPERATURE OF MUD
NEUT.         1                    : NEUTRON      - NEUTRON TYPE
RESI.         4                    : RESIST       - RESISTIVITY TYPE
RMC .OHMM     3.5                  : RMC          - RESISTIVITY OF MUD CAKE
RMF .OHMM     4.4                  : RMF          - RESISTIVITY OF MUD FILTRATE
SUFT.C        15                   : SUFT         - SURFACE TEMPERATURE
~A  DEPTH     PHIN     PHID     RESD       GR
# ...
  293.500    0.405    0.265   16.347  101.474
  293.750    0.404    0.257   13.878  103.874
  294.000    0.404    0.252   11.783  106.274
  294.250    0.405    0.261   10.968  108.085
  294.500    0.408    0.309   10.400  109.309
  294.750    0.415    0.345   10.813  108.781
  295.000    0.426    0.384   12.326  102.350
  295.250    0.546    0.413   14.857   87.699
  295.500    0.499    0.379   16.324   80.103
  295.750    0.462    0.350   17.627   71.920
  296.000    0.389    0.317   18.307   66.100
  296.250    0.385    0.325   19.757   63.797
  296.500    0.382    0.336   20.923   62.657
  296.750    0.380    0.337   21.367   59.189
  297.000    0.379    0.338   21.798   56.873
  297.250    0.375    0.340   21.798   55.157
  297.500    0.373    0.339   22.733   54.617
  297.750    0.366    0.328   20.765   52.913
  298.000    0.360    0.320   20.797   51.773
  298.250    0.357    0.311   20.459   49.470
  298.500    0.349    0.312   20.502   48.342
  298.750    0.358    0.319   20.169   47.814
  299.000    0.366    0.324   19.852   47.850
  299.250    0.372    0.322   18.814   50.262
  299.500    0.377    0.317   17.839   52.061
  299.750    0.381    0.315   16.915   55.049
  300.000    0.385    0.312   16.346   58.637
  300.250    0.387    0.309   16.072   62.213
  300.500    0.388    0.308   15.819   65.212
  300.750    0.389    0.307   15.571   67.012
  301.000    0.389    0.299   15.595   70.612
  301.250    0.389    0.291   15.643   72.400
  301.500    0.389    0.280   15.950   75.999
  301.750    0.390    0.281   16.281   78.999
  302.000    0.392    0.284   16.323   81.387
  302.250    0.396    0.286   16.348   81.447
  302.500    0.397    0.281   15.797   80.883
  302.750    0.398    0.275   15.249   80.931
  303.000    0.400    0.271   13.439   80.991
  303.250    0.401    0.271   12.282   80.439
  303.500    0.398    0.277   11.225   79.935
  303.750    0.400    0.276   10.066   79.959
  304.000    0.408    0.258    9.036   82.359
  304.250    0.438    0.241    8.407   88.286
  304.500    0.464    0.223    9.419  109.513
  304.750    0.473    0.263    9.969  117.792
  305.000    0.455    0.360   10.748  111.373
  305.250    0.439    0.402   13.203  104.953
  305.500    0.423    0.385   14.499  126.179
  305.750    0.405    0.353   16.227  122.700
  306.000    0.387    0.344   17.503  111.565
  306.250    0.385    0.337   17.875   96.914
  306.500    0.383    0.327   17.576   89.318
  306.750    0.383    0.318   16.984   89.966
  307.000    0.382    0.304   16.395   91.178
  307.250    0.382    0.284   15.270   93.590
  307.500    0.384    0.275   14.207   93.050
  307.750    0.391    0.262   13.225   92.498
  308.000    0.397    0.249   13.017   91.394
  308.250    0.420    0.254   13.044   92.618
  308.500    0.421    0.255   13.576   95.006
  308.750    0.412    0.253   13.842   98.593
  309.000    0.399    0.249   15.209  100.993
  309.250    0.392    0.246   17.997  102.205
  309.500    0.386    0.246   18.702  101.689
  309.750    0.380    0.254   20.194   91.718
  310.000    0.379    0.267   21.396   76.491
  310.250    0.376    0.277   21.817   71.235
  310.500    0.372    0.290   23.116   64.804
  310.750    0.369    0.297   23.582   57.796
  311.000    0.366    0.304   23.643   53.153
  311.250    0.361    0.312   23.679   52.601
  311.500    0.356    0.324   23.307   54.413
  311.750    0.355    0.295   22.511   60.364
  312.000    0.354    0.221   20.955   64.516
  312.250    0.355    0.251   20.228   71.031
  312.500    0.364    0.268   19.180   75.783
  312.750    0.374    0.271   18.196   80.546
  313.000    0.380    0.269   17.262   83.534
  313.250    0.388    0.266   16.664   87.698
  313.500    0.396    0.261   15.817   91.862
  313.750    0.400    0.254   15.544   97.213
  314.000    0.393    0.245   15.013  100.789
  314.250    0.382    0.239   14.769  102.613
  314.500    0.376    0.237   14.264  103.237
  314.750    0.368    0.234   13.525  105.073
  315.000    0.367    0.233   12.591  105.696
  315.250    0.372    0.227   10.695  106.908
  315.500    0.384    0.225    9.961  110.520
  315.750    0.393    0.221    9.794  112.308
  316.000    0.405    0.214    9.460  115.296
  316.250    0.430    0.206    9.484  118.283
  316.500    0.444    0.192    9.494  123.635
  316.750    0.412    0.179    9.690  120.731
  317.000    0.401    0.204   10.075  119.015
  317.250    0.394    0.253   11.081  114.360
  317.500    0.388    0.272   11.508   92.077
  317.750    0.385    0.261   12.886   86.822
  318.000    0.380    0.245   12.920   88.634
  318.250    0.375    0.235   12.716   95.737
  318.500    0.373    0.233   12.269  100.489
  318.750    0.370    0.238   11.421  103.488
  319.000    0.382    0.240   10.253  105.900
  319.250    0.411    0.246    9.907  108.300
  319.500    0.419    0.241    9.918  111.276
  319.750    0.429    0.238   10.123  116.039
  320.000    0.430    0.231   10.720  121.391
  320.250    0.436    0.228   11.364  122.603
  320.500    0.438    0.225   12.028  117.359
  320.750    0.440    0.226   12.499  114.480
  321.000    0.431    0.237   13.747  112.176
  321.250    0.410    0.262   14.285  108.684
  321.500    0.400    0.270   15.409  104.016
  321.750    0.388    0.275   16.318  103.488
  322.000    0.382    0.268   17.281   90.001
  322.250    0.375    0.259   18.310   74.174
  322.500    0.369    0.284   19.036   60.688
  322.750    0.364    0.295   19.076   48.977
  323.000    0.362    0.302   18.097   45.509
  323.250    0.358    0.272   16.539   47.920
  323.500    0.357    0.266   14.839   52.072
  323.750    0.358    0.248   13.321   59.764
  324.000    0.370    0.233   12.624   68.631
  324.250    0.391    0.221   12.186   80.450
  324.500    0.416    0.208   11.770   86.965
  324.750    0.447    0.213   11.579  109.968
  325.000    0.453    0.220   11.609  106.476
  325.250    0.454    0.224   11.849  102.996
  325.500    0.454    0.231   12.319  101.280
  325.750    0.453    0.234   13.535  107.208
  326.000    0.451    0.254   14.872  110.208
  326.250    0.449    0.279   16.644   98.484
  326.500    0.446    0.309   18.973   85.010
  326.750    0.442    0.323   19.726   78.578
  327.000    0.427    0.339   19.406   70.983
  327.250    0.416    0.348   18.742   65.739
  327.500    0.405    0.347   17.781   66.987
  327.750    0.400    0.344   16.258   69.363
  328.000    0.402    0.339   15.694   72.962
  328.250    0.403    0.355   15.158   74.186
  328.500    0.423    0.438   14.640   74.222
  328.750    0.475    0.517   14.140   76.034
  329.000    0.543    0.604   13.656   60.795
  329.250    0.626    0.620   13.428   36.137
  329.500    0.647    0.594   13.456   29.718
  329.750    0.638    0.568   14.529   45.052
  330.000    0.595    0.514   15.378   59.223
  330.250    0.556    0.465   17.220   65.175
  330.500    0.585    0.481   19.262   63.435
  330.750    0.640    0.470   24.536   58.191
  331.000    0.569    0.382   25.984   52.360
  331.250    0.453    0.358   27.531   50.644
  331.500    0.391    0.349   27.573   51.280
  331.750    0.382    0.345   26.658   56.031
  332.000    0.380    0.353   25.721   58.431
  332.250    0.375    0.357   24.855   59.079
  332.500    0.369    0.357   23.567   59.127
  332.750    0.367    0.357   23.173   59.175
  333.000    0.386    0.357   22.381   59.223
  333.250    0.396    0.356   22.029   61.635
  333.500    0.396    0.355   22.086   62.847
  333.750    0.396    0.355   21.716   65.247
  334.000    0.397    0.355   21.784   64.131
  334.250    0.399    0.355   21.817   62.991
  334.500    0.403    0.355   21.474   61.299
  334.750    0.399    0.354   21.497   61.347
  335.000    0.391    0.351   21.541   61.395
  335.250    0.383    0.349   21.585   62.031
  335.500    0.382    0.347   21.641   62.091
  335.750    0.396    0.344   21.301   61.527
  336.000    0.410    0.330   21.334   58.659
  336.250    0.420    0.315   20.988   57.519
  336.500    0.428    0.310   20.647   55.791
  336.750    0.433    0.324   19.952   54.099
