~VERSION INFORMATION
 VERS.                 2.0:   CWLS LOG ASCII STANDARD -VERSION 2.0
 WRAP.                  NO:   ONE LINE PER DEPTH STEP
~WELL INFORMATION BLOCK
#MNEM.UNIT           DATA                    DESCRIPTION OF MNEMONIC
#---------    -------------------            -------------------------------
# Generated from Intellog Unique Number	CW_70_72/WELL/549
NULL.         -999.25                        : NULL_VALUE
WELL.         CZAR ET AL CALLW 06-03         : Well_name    - WELL              
LOC .         06-03-071-19W4                 : Location     - LOCATION          
UWI .         00/06-03-071-19W4/0            : Uwi          - UNIQUE WELL ID    
ENTR.         JAYE                           : Entered      - ENTERED BY        
SRVC.         SCHLUMBERGER                   : Scn          - SERVICE COMPANY   
DATE.         13 DEC 80                      : Date         - LOG DATE          
STRT.M        315                            : top_depth    - START DEPTH       
STOP.M        480                            : bot_depth    - STOP DEPTH        
STEP.M        0.25                           : increment    - STEP LENGTH       
~CURVE INFORMATION BLOCK
#MNEM UNIT       ERCB CURVE CODE    CURVE DESCRIPTION
#-----------   ------------------   ----------------------------------
DEPT.M        00 001 00 00         : DEPTH        - DEPTH                       
DPHI.V/V      00 890 00 00         : PHID         - DENSITY POROSITY (SANDSTONE)
NPHI.V/V      00 330 00 00         : PHIN         - NEUTRON POROSITY (SANDSTONE)
GR  .API      00 310 00 00         : GR           - GAMMA RAY                   
CALI.MM       00 280 01 00         : CAL          - CALIPER                     
ILD .OHMM     00 120 00 00         : RESD         - DEEP RESISTIVITY (DIL)      
~PARAMETER INFORMATION       
#MNEM.UNIT           DATA             DESCRIPTION OF MNEMONIC
#---------         -----------     ------------------------------
GL  .M        586.5                : gl           - GROUND LEVEL ELEVATION      
EREF.M        589.7                : kb           - ELEVATION OF DEPTH REFERENCE
DATM.M        586.5                : datum        - DATUM ELEVATION             
TDD .M        563                  : tdd          - TOTAL DEPTH DRILLER         
RUN .         ONE                  : Run          - RUN NUMBER                  
ENG .         BRANDSTROM           : Engineer     - RECORDING ENGINEER          
WIT .         JOHNSON              : Witness      - WITNESSED BY                
BASE.         EDM                  : Branch       - HOME BASE OF LOGGING UNIT   
MUD .         GEL CHEM             : Mud_type     - MUD TYPE                    
MATR.         SANDSTONE            : Logunit      - NEUTRON MATRIX              
TMAX.C        27.7                 : BHT          - MAXIMUM RECORDED TEMPERATURE
BHTD.M        564                  : BHTDEP       - MAXIMUM RECORDED TEMPERATURE
RMT .C        2.8                  : MDTP         - TEMPERATURE OF MUD          
MUDD.KG/M     1040                 : MWT          - MUD DENSITY                 
NEUT.         1                    : NEUTRON      - NEUTRON TYPE                
RESI.         0                    : RESIST       - RESISTIVITY TYPE            
RM  .OHMM     2.73                 : RM           - RESISTIVITY OF MUD          
RMC .OHMM     0                    : RMC          - RESISTIVITY OF MUD CAKE     
RMF .OHMM     2.35                 : RMF          - RESISTIVITY OF MUD FILTRATE 
SUFT.C        0                    : SUFT         - SURFACE TEMPERATURE         
~A  DEPTH     PHID     PHIN       GR      CAL     RESD
# ...
  351.500    0.259    0.442  100.129  168.943    5.676
  351.750    0.237    0.419  102.064  170.929    5.672
  352.000    0.168    0.451  102.198  174.048    5.646
  352.250    0.169    0.466   98.483  179.033    5.621
  352.500    0.230    0.510  101.224  184.532    5.523
  352.750    0.266    0.527   96.144  195.312    5.417
  353.000    0.286    0.482   86.964  186.946    5.413
  353.250    0.268    0.455   81.261  171.855    5.439
  353.500    0.245    0.466   84.004  165.663    5.516
  353.750    0.242    0.475   90.409  165.990    5.605
  354.000    0.236    0.462   97.498  166.321    5.675
  354.250    0.225    0.434   97.693  166.956    5.713
  354.500    0.219    0.434   95.220  167.800    5.774
  354.750    0.232    0.449   95.293  167.299    5.813
  355.000    0.258    0.456   94.557  166.074    5.873
  355.250    0.241    0.456   92.644  165.885    5.924
  355.500    0.231    0.452   90.852  166.730    5.975
  355.750    0.229    0.449   84.715  167.782    6.061
  356.000    0.235    0.446   82.676  168.003    6.125
  356.250    0.231    0.440   82.686  167.916    6.108
  356.500    0.281    0.457   83.069  169.071    6.047
  356.750    0.330    0.490   85.438  173.538    5.897
  357.000    0.375    0.467   84.889  173.554    5.794
  357.250    0.329    0.431   80.429  167.983    5.725
  357.500    0.285    0.420   77.272  166.141    5.710
  357.750    0.273    0.414   77.034  165.845    5.727
  358.000    0.269    0.400   81.515  166.070    5.776
  358.250    0.264    0.415   88.045  166.602    5.837
  358.500    0.257    0.406   91.221  167.756    5.988
  358.750    0.241    0.407   93.279  168.606    6.017
  359.000    0.236    0.444   95.401  169.136    5.934
  359.250    0.236    0.432   97.957  169.672    5.765
  359.500    0.216    0.438  101.072  170.205    5.528
  359.750    0.228    0.532  107.166  172.189    5.194
  360.000    0.257    0.548  104.631  175.205    4.788
  360.250    0.249    0.517  100.418  178.740    4.652
  360.500    0.250    0.493   98.007  176.790    4.684
  360.750    0.281    0.470   94.602  170.081    4.876
  361.000    0.284    0.441   90.265  165.649    5.097
  361.250    0.281    0.450   83.508  163.801    5.447
  361.500    0.285    0.451   78.551  163.818    5.757
  361.750    0.296    0.439   72.414  164.663    5.851
  362.000    0.313    0.411   64.787  166.025    5.445
  362.250    0.337    0.408   64.611  167.284    5.183
  362.500    0.328    0.421   66.359  168.440    4.868
  362.750    0.321    0.433   65.252  169.183    4.634
  363.000    0.330    0.426   63.276  170.130    4.419
  363.250    0.329    0.410   61.611  171.286    4.261
  363.500    0.333    0.419   59.695  172.129    4.163
  363.750    0.362    0.438   54.426  172.042    4.254
  364.000    0.393    0.472   46.489  169.989    4.565
  364.250    0.410    0.539   43.395  165.142    4.999
  364.500    0.321    0.504   46.695  166.092    5.383
  364.750    0.299    0.406   51.859  168.799    5.595
  365.000    0.313    0.361   55.782  170.366    5.446
  365.250    0.322    0.363   55.978  171.108    5.193
  365.500    0.318    0.371   54.063  171.227    4.887
  365.750    0.318    0.382   53.514  171.864    4.696
  366.000    0.322    0.390   56.380  171.574    4.561
  366.250    0.327    0.396   58.563  170.866    4.499
  366.500    0.336    0.406   57.082  170.158    4.412
  366.750    0.335    0.409   53.554  169.244    4.343
  367.000    0.330    0.410   54.184  167.604    4.283
  367.250    0.326    0.418   56.119  165.343    4.248
  367.500    0.320    0.426   55.509  165.359    4.213
  367.750    0.316    0.413   52.538  167.035    4.210
  368.000    0.318    0.399   53.169  167.671    4.199
  368.250    0.323    0.382   54.421  168.205    4.211
  368.500    0.330    0.411   55.301  168.225    4.201
  368.750    0.332    0.399   55.187  168.239    4.205
  369.000    0.340    0.380   55.134  168.255    4.202
  369.250    0.335    0.382   56.386  168.064    4.214
  369.500    0.331    0.393   59.439  168.080    4.251
  369.750    0.330    0.406   62.367  168.097    4.288
  370.000    0.333    0.417   64.488  168.424    4.325
  370.250    0.333    0.418   64.187  168.648    4.362
  370.500    0.324    0.407   58.859  168.772    4.399
  370.750    0.318    0.411   60.793  168.890    4.412
  371.000    0.316    0.403   60.865  169.010    4.417
  371.250    0.313    0.381   56.281  169.130    4.405
  371.500    0.319    0.361   54.491  169.253    4.402
  371.750    0.334    0.369   54.501  169.165    4.416
  372.000    0.331    0.395   55.690  169.076    4.371
  372.250    0.327    0.425   58.494  169.093    4.343
  372.500    0.327    0.441   60.181  169.114    4.340
  372.750    0.327    0.442   61.432  168.715    4.336
  373.000    0.323    0.428   58.587  168.422    4.334
  373.250    0.315    0.412   58.473  168.335    4.346
  373.500    0.307    0.394   59.663  168.557    4.359
  373.750    0.327    0.383   62.714  168.574    4.372
  374.000    0.328    0.408   65.208  168.592    4.369
  374.250    0.326    0.431   71.924  168.709    4.365
  374.500    0.337    0.448   72.679  168.728    4.386
  374.750    0.338    0.448   71.323  168.642    4.391
  375.000    0.326    0.431   70.340  168.658    4.396
  375.250    0.333    0.414   70.225  168.776    4.401
  375.500    0.334    0.414   68.124  168.793    4.406
  375.750    0.331    0.422   64.781  168.913    4.403
  376.000    0.327    0.423   64.916  168.827    4.415
  376.250    0.328    0.419   64.056  168.741    4.412
  376.500    0.332    0.425   61.769  168.758    4.409
  376.750    0.334    0.436   59.172  168.776    4.397
  377.000    0.328    0.433   58.996  168.894    4.385
  377.250    0.318    0.428   59.999  168.808    4.358
  377.500    0.307    0.429   59.823  168.927    4.363
  377.750    0.322    0.431   58.404  169.048    4.335
  378.000    0.321    0.433   55.807  169.064    4.315
  378.250    0.315    0.433   54.576  168.874    4.296
  378.500    0.316    0.428   57.876  167.545    4.292
  378.750    0.328    0.422   61.674  165.078    4.305
  379.000    0.323    0.396   62.242  163.646    4.302
  379.250    0.321    0.382   61.572  164.699    4.331
  379.500    0.322    0.398   61.393  166.370    4.393
  379.750    0.323    0.414   61.838  167.009    4.439
  380.000    0.325    0.412   62.841  166.927    4.461
  380.250    0.321    0.427   64.093  166.424    4.474
  380.500    0.276    0.426   65.966  165.921    4.547
  380.750    0.222    0.448   69.702  165.111    4.673
  381.000    0.186    0.433   67.911  164.715    5.022
  381.250    0.092    0.342   61.836  164.522    5.939
  381.500    0.052    0.170   55.452  164.335    7.182
  381.750    0.040    0.158   52.915  164.145   10.355
  382.000    0.034    0.162   56.899  163.643   16.706
  382.250    0.053    0.164   59.517  163.243   20.127
  382.500    0.047    0.161   60.459  162.745   23.578
  382.750    0.041    0.156   61.524  162.345   25.822
  383.000    0.113    0.174   63.398  161.431   25.468
  383.250    0.140    0.237   65.394  160.104   20.330
  383.500    0.181    0.323   68.446  159.085   15.429
  383.750    0.251    0.350   73.237  161.897   13.101
  384.000    0.236    0.379   75.917  165.638   11.063
  384.250    0.221    0.393   69.904  166.895    9.825
  384.500    0.181    0.357   68.486  165.981    8.661
  384.750    0.158    0.339   75.264  164.963    8.030
  385.000    0.199    0.404   83.470  164.464    7.860
  385.250    0.261    0.477   84.598  164.379    7.510
  385.500    0.263    0.461   87.153  164.290    6.911
  385.750    0.250    0.447   92.192  164.099    6.313
  386.000    0.265    0.434   87.359  164.325    5.744
  386.250    0.274    0.413   86.749  164.547    5.416
  386.500    0.249    0.456   84.834  164.770    5.165
  386.750    0.241    0.479   71.557  164.896    4.999
  387.000    0.274    0.454   60.949  165.012    4.866
  387.250    0.306    0.424   56.489  164.718    4.728
  387.500    0.315    0.408   56.066  164.114    4.594
  387.750    0.315    0.425   57.565  162.785    4.514
