~VERSION INFORMATION
 VERS.                 2.0:   CWLS LOG ASCII STANDARD -VERSION 2.0
 WRAP.                  NO:   ONE LINE PER DEPTH STEP
~WELL INFORMATION BLOCK
#MNEM.UNIT           DATA                    DESCRIPTION OF MNEMONIC
#---------    -------------------            -------------------------------
# Generated from Intellog Unique Number	CS_73_76/WELL/2167
WELL.         BOW VALLEY INDUSTRIES LTD.     : Well_name    - WELL
LOC .         00/06-23-074-17W4/0            : Location     - LOCATION
UWI .         00/06-23-074-17W4/0            : Uwi          - UNIQUE WELL ID
ENTR.         SP                             : Entered      - ENTERED BY
SRVC.         SCHLUMBERGER                   : Scn          - SERVICE COMPANY
STRT.M        240.792                        : top_depth    - START DEPTH
STOP.M        426.542                        : bot_depth    - STOP DEPTH
STEP.M        0.25                           : increment    - STEP LENGTH
 NULL. -999.2500:NULL Value
~CURVE INFORMATION BLOCK
#MNEM UNIT       ERCB CURVE CODE    CURVE DESCRIPTION
#-----------   ------------------   ----------------------------------
DEPT.M        00 001 00 00         : DEPTH        - DEPTH
GR  .API      00 310 00 00         : GR           - GAMMA RAY
DPHI.V/V      00 890 00 00         : PHID         - DENSITY POROSITY (SANDSTONE)
NPHI.V/V      00 330 00 00         : PHIN         - NEUTRON POROSITY (SANDSTONE)
ILD .OHMM     00 120 00 00         : RESD         - DEEP RESISTIVITY (DIL)
~PARAMETER INFORMATION
#MNEM.UNIT           DATA             DESCRIPTION OF MNEMONIC
#---------         -----------     ------------------------------
GL  .M        590.398              : gl           - GROUND LEVEL ELEVATION
EREF.M        592.836              : kb           - ELEVATION OF DEPTH REFERENCE
DATM.M        590.398              : datum        - DATUM ELEVATION
TDD .M        429.768              : tdd          - TOTAL DEPTH DRILLER
RUN .         ONE                  : Run          - RUN NUMBER
ENG .         BILL                 : Engineer     - RECORDING ENGINEER
WIT .         JIM                  : Witness      - WITNESSED BY
MUD .         GEL                  : Mud_type     - MUD TYPE
MATR.         SANDSTONE            : Logunit      - NEUTRON MATRIX
TMAX.C        20.5556              : BHT          - MAXIMUM RECORDED TEMPERATURE
BHTD.M        429.158              : BHTDEP       - MAXIMUM RECORDED TEMPERATURE
MATR.         1                    : LOGUNIT      - NEUTRON MATRIX
RMT .C        25                   : MDTP         - TEMPERATURE OF MUD
NEUT.         1                    : NEUTRON      - NEUTRON TYPE
RESI.         0                    : RESIST       - RESISTIVITY TYPE
RMC .OHMM     0.25                 : RMC          - RESISTIVITY OF MUD CAKE
RMF .OHMM     0.25                 : RMF          - RESISTIVITY OF MUD FILTRATE
SUFT.C        15                   : SUFT         - SURFACE TEMPERATURE
~A  DEPTH       GR     PHID     PHIN     RESD
# ...
  327.792   79.480    0.305    0.500    8.042
  328.042   78.656    0.307    0.492    8.284
  328.292   79.446    0.321    0.484    8.343
  328.542   82.375    0.306    0.486    8.343
  328.792   85.112    0.302    0.489    8.317
  329.042   89.772    0.280    0.484    7.730
  329.292   92.737    0.252    0.501    7.174
  329.542   91.562    0.228    0.516    6.863
  329.792   90.785    0.236    0.531    6.565
  330.042   91.474    0.238    0.527    6.445
  330.292   92.590    0.228    0.517    6.311
  330.542   93.604    0.214    0.514    6.321
  330.792   97.349    0.210    0.508    6.260
  331.042   98.788    0.213    0.520    6.211
  331.292  100.349    0.230    0.538    6.107
  331.542  101.418    0.241    0.522    6.092
  331.792  101.022    0.234    0.528    6.087
  332.042  100.301    0.226    0.526    6.177
  332.292   97.735    0.229    0.513    6.231
  332.542   96.858    0.216    0.500    6.434
  332.792   96.966    0.223    0.511    6.545
  333.042   97.654    0.241    0.524    6.682
  333.292  100.456    0.230    0.512    6.675
  333.542  102.036    0.222    0.484    6.556
  333.792   98.910    0.216    0.471    6.249
  334.042   97.138    0.205    0.469    5.990
  334.292   92.840    0.215    0.493    5.652
  334.542   90.799    0.216    0.514    5.198
  334.792   89.642    0.239    0.511    4.585
  335.042   90.833    0.272    0.495    4.244
  335.292   92.174    0.298    0.481    3.825
  335.542   93.227    0.303    0.518    3.568
  335.792   93.386    0.285    0.548    3.215
  336.042   92.776    0.272    0.534    3.073
  336.292   91.168    0.226    0.524    3.071
  336.542   87.194    0.229    0.529    3.388
  336.792   82.865    0.266    0.538    4.086
  337.042   77.168    0.290    0.491    5.172
  337.292   73.741    0.333    0.381    6.933
  337.542   69.106    0.369    0.320   11.657
  337.792   66.540    0.365    0.335   15.443
  338.042   63.942    0.364    0.350   16.276
  338.292   63.412    0.365    0.363   14.300
  338.542   63.508    0.360    0.392   10.954
  338.792   62.205    0.340    0.416    9.589
  339.042   61.002    0.328    0.440    8.811
  339.292   61.186    0.319    0.455    8.362
  339.542   62.240    0.320    0.464    8.135
  339.792   63.357    0.323    0.460    8.134
  340.042   61.849    0.332    0.452    8.129
  340.292   59.910    0.329    0.445    8.270
  340.542   61.722    0.316    0.442    8.265
  340.792   63.514    0.306    0.466    8.449
  341.042   63.071    0.306    0.467    8.420
  341.292   62.363    0.318    0.456    8.608
  341.542   64.792    0.320    0.455    8.591
  341.792   66.585    0.320    0.473    8.568
  342.042   68.762    0.320    0.475    8.713
  342.292   70.142    0.314    0.479    8.586
  342.542   69.807    0.299    0.469    8.580
  342.792   68.819    0.285    0.476    8.546
  343.042   67.322    0.303    0.485    8.424
  343.292   64.843    0.322    0.486    8.440
  343.542   60.787    0.318    0.503    8.257
  343.792   59.460    0.310    0.501    8.271
  344.042   59.502    0.309    0.487    8.278
  344.292   58.060    0.322    0.480    8.094
  344.542   56.030    0.325    0.474    7.961
  344.792   56.009    0.321    0.466    7.976
  345.042   57.683    0.316    0.468    7.815
  345.292   59.893    0.308    0.479    7.820
  345.542   60.659    0.319    0.481    7.817
  345.792   61.227    0.323    0.462    7.814
  346.042   61.174    0.326    0.459    7.726
  346.292   61.916    0.322    0.465    7.672
  346.542   61.874    0.318    0.466    7.677
  346.792   62.133    0.313    0.473    7.513
  347.042   63.157    0.306    0.476    7.521
  347.292   64.693    0.305    0.473    7.642
  347.542   66.204    0.302    0.481    7.664
  347.792   68.575    0.302    0.478    7.671
  348.042   69.095    0.302    0.466    7.812
  348.292   68.602    0.308    0.473    7.793
  348.542   66.127    0.317    0.481    7.947
  348.792   65.450    0.328    0.477    7.927
  349.042   66.308    0.331    0.478    8.107
  349.292   67.343    0.326    0.486    8.091
  349.542   68.315    0.324    0.482    8.089
  349.792   69.820    0.315    0.493    8.083
  350.042   71.457    0.308    0.497    8.219
  350.292   71.906    0.301    0.499    8.232
  350.542   71.574    0.304    0.492    8.236
  350.792   70.257    0.304    0.475    8.234
  351.042   68.205    0.297    0.469    8.230
  351.292   69.261    0.303    0.476    8.227
  351.542   70.084    0.311    0.463    8.071
  351.792   72.544    0.305    0.458    8.086
  352.042   73.401    0.291    0.468    7.937
  352.292   73.650    0.292    0.469    7.771
  352.542   74.229    0.302    0.472    7.751
  352.792   75.144    0.311    0.485    7.645
  353.042   76.902    0.317    0.493    7.484
  353.292   77.157    0.311    0.493    7.494
  353.542   77.199    0.303    0.499    7.613
  353.792   77.166    0.296    0.488    7.604
  354.042   76.480    0.295    0.481    7.931
  354.292   77.530    0.302    0.483    8.113
  354.542   71.977    0.310    0.498    8.975
  354.792   68.690    0.300    0.499   10.062
  355.042   65.474    0.288    0.473   10.254
  355.292   63.573    0.276    0.455    9.863
  355.542   61.606    0.293    0.444    9.174
  355.792   59.148    0.320    0.448    8.827
  356.042   59.284    0.338    0.453    8.317
  356.292   60.835    0.350    0.460    8.089
  356.542   61.237    0.341    0.459    7.628
  356.792   61.602    0.333    0.437    8.092
  357.042   62.642    0.339    0.420    8.598
  357.292   63.608    0.320    0.424   10.686
  357.542   64.586    0.323    0.430   13.877
  357.792   63.545    0.306    0.399   17.375
  358.042   62.396    0.270    0.314   19.775
  358.292   61.039    0.231    0.199   21.740
  358.542   58.382    0.106    0.189   22.211
  358.792   57.417    0.059    0.191   19.513
  359.042   56.886    0.049    0.203   16.565
  359.292   57.079    0.075    0.242   14.342
  359.542   59.833    0.134    0.288   11.841
  359.792   64.761    0.204    0.379   10.554
  360.042   70.060    0.245    0.448    8.741
  360.292   73.845    0.297    0.477    8.309
  360.542   75.681    0.286    0.495    7.665
  360.792   78.347    0.289    0.507    7.187
  361.042   80.921    0.300    0.510    6.553
  361.292   84.835    0.306    0.489    5.879
  361.542   87.998    0.278    0.482    5.259
  361.792   92.795    0.253    0.509    4.810
  362.042   97.185    0.261    0.552    4.572
  362.292  100.988    0.267    0.539    4.461
  362.542   92.838    0.248    0.531    4.597
  362.792   90.656    0.240    0.531    4.931
  363.042   92.499    0.245    0.523    5.164
  363.292   94.998    0.249    0.522    5.320
  363.542   95.635    0.239    0.523    5.455
  363.792   92.891    0.236    0.537    5.880
  364.042   90.448    0.234    0.535    6.437
  364.292   89.167    0.255    0.512    6.951
  364.542   88.798    0.277    0.491    7.582
  364.792   88.184    0.276    0.471    7.436
  365.042   88.490    0.272    0.465    7.264
  365.292   92.243    0.261    0.476    7.175
  365.542   94.887    0.250    0.493    7.189
  365.792   98.299    0.246    0.511    7.035
  366.042   99.876    0.235    0.522    7.024
  366.292   97.922    0.232    0.521    7.380
  366.542   96.016    0.236    0.494    7.579
  366.792   95.536    0.237    0.481    7.798
  367.042   96.056    0.227    0.483    7.865
  367.292   97.296    0.213    0.480    7.714
  367.542   98.666    0.207    0.475    7.619
  367.792   99.719    0.226    0.469    7.571
  368.042   99.692    0.227    0.472    7.702
  368.292   99.671    0.214    0.474    7.833
  368.542   99.499    0.224    0.475    8.185
  368.792   97.975    0.215    0.474    8.006
  369.042   96.993    0.196    0.471    7.850
  369.292   96.870    0.215    0.464    7.703
  369.542   98.392    0.228    0.470    7.342
  369.792  100.154    0.225    0.479    7.106
  370.042   99.686    0.229    0.471    6.892
  370.292   99.565    0.235    0.463    6.985
  370.542   99.586    0.234    0.467    7.234
  370.792   98.576    0.226    0.482    7.698
  371.042   97.520    0.224    0.492    7.926
