~VERSION INFORMATION
 VERS.                 2.0:   CWLS LOG ASCII STANDARD -VERSION 2.0
 WRAP.                  NO:   ONE LINE PER DEPTH STEP
~WELL INFORMATION BLOCK
#MNEM.UNIT           DATA                    DESCRIPTION OF MNEMONIC
#---------    -------------------            -------------------------------
# Generated from Intellog Unique Number	CS_77_79/WELL/3270
WELL.         LOGAN RESOURCES LTD.           : Well_name    - WELL
LOC .         00/03-02-077-14W4/0            : Location     - LOCATION
UWI .         00/03-02-077-14W4/0            : Uwi          - UNIQUE WELL ID
ENTR.         JO                             : Entered      - ENTERED BY
SRVC.         SCHLUMBERGER                   : Scn          - SERVICE COMPANY
DATE.         05/22/92                       : Date         - LOG DATE
STRT.M        285                            : top_depth    - START DEPTH
STOP.M        515                            : bot_depth    - STOP DEPTH
STEP.M        0.25                           : increment    - STEP LENGTH
 NULL. -999.2500:NULL Value
~CURVE INFORMATION BLOCK
#MNEM UNIT       ERCB CURVE CODE    CURVE DESCRIPTION
#-----------   ------------------   ----------------------------------
DEPT.M        00 001 00 00         : DEPTH        - DEPTH
ILD .OHMM     00 120 00 00         : RESD         - DEEP RESISTIVITY (DIL)
DPHI.V/V      00 890 00 00         : PHID         - DENSITY POROSITY (SANDSTONE)
NPHI.V/V      00 330 00 00         : PHIN         - NEUTRON POROSITY (SANDSTONE)
GR  .API      00 310 00 00         : GR           - GAMMA RAY
~PARAMETER INFORMATION
#MNEM.UNIT           DATA             DESCRIPTION OF MNEMONIC
#---------         -----------     ------------------------------
GL  .M        671.9                : gl           - GROUND LEVEL ELEVATION
EREF.M        675.4                : kb           - ELEVATION OF DEPTH REFERENCE
DATM.M        675.4                : datum        - DATUM ELEVATION
TDD .M        522                  : tdd          - TOTAL DEPTH DRILLER
RUN .         ONE                  : Run          - RUN NUMBER
ENG .         BILL                 : Engineer     - RECORDING ENGINEER
WIT .         JIM                  : Witness      - WITNESSED BY
MUD .         GEL                  : Mud_type     - MUD TYPE
MATR.         SANDSTONE            : Logunit      - NEUTRON MATRIX
TMAX.C        30                   : BHT          - MAXIMUM RECORDED TEMPERATURE
BHTD.M        522.2                : BHTDEP       - MAXIMUM RECORDED TEMPERATURE
RMT .C        18                   : MDTP         - TEMPERATURE OF MUD
MUDD.KG/M     1160                 : MWT          - MUD DENSITY
NEUT.         1                    : NEUTRON      - NEUTRON TYPE
RESI.         0                    : RESIST       - RESISTIVITY TYPE
RM  .OHMM     2.8                  : RM           - RESISTIVITY OF MUD
RMC .OHMM     1.9                  : RMC          - RESISTIVITY OF MUD CAKE
RMF .OHMM     2.2                  : RMF          - RESISTIVITY OF MUD FILTRATE
SUFT.C        4                    : SUFT         - SURFACE TEMPERATURE
~A  DEPTH     RESD     PHID     PHIN       GR
# ...
  372.000   10.617    0.345    0.468   71.687
  372.250   10.802    0.342    0.455   76.413
  372.500   10.788    0.343    0.487   76.393
  372.750   10.981    0.344    0.487   82.305
  373.000   10.973    0.330    0.479   82.285
  373.250   10.956    0.316    0.467   77.513
  373.500   10.544    0.305    0.459   74.526
  373.750   10.539    0.321    0.459   70.941
  374.000    9.958    0.322    0.448   73.299
  374.250    9.408    0.254    0.434   77.432
  374.500    8.727    0.209    0.430   82.751
  374.750    7.946    0.162    0.404   79.759
  375.000    7.236    0.134    0.390   76.184
  375.250    6.712    0.162    0.372   74.978
  375.500    6.459    0.208    0.425   85.636
  375.750    6.216    0.221    0.487   90.357
  376.000    6.099    0.243    0.508   92.710
  376.250    5.871    0.232    0.507   98.035
  376.500    5.650    0.221    0.489  107.507
  376.750    5.052    0.224    0.466   99.180
  377.000    4.039    0.227    0.458   98.562
  377.250    3.479    0.219    0.461   96.168
  377.500    2.942    0.208    0.473   87.249
  377.750    2.679    0.208    0.495   96.721
  378.000    2.349    0.205    0.463   91.356
  378.250    2.262    0.208    0.457   90.742
  378.500    2.177    0.214    0.487   96.660
  378.750    2.256    0.218    0.477   99.601
  379.000    2.340    0.216    0.490  108.485
  379.250    2.762    0.219    0.471  107.278
  379.500    3.084    0.229    0.467   95.392
  379.750    3.443    0.230    0.507  101.898
  380.000    3.704    0.226    0.490   93.567
  380.250    3.984    0.234    0.480   98.288
  380.500    4.054    0.238    0.463  107.172
  380.750    4.126    0.232    0.472  105.965
  381.000    4.120    0.232    0.456   92.299
  381.250    4.118    0.238    0.471   91.685
  381.500    4.514    0.244    0.556   99.378
  381.750    6.179    0.251    0.593  101.137
  382.000    7.293    0.267    0.506   89.251
  382.250    8.605    0.293    0.448   82.106
  382.500    8.757    0.306    0.438   86.239
  382.750    8.125    0.319    0.435   76.726
  383.000    7.399    0.336    0.434   75.519
  383.250    6.026    0.339    0.432   75.499
  383.500    5.287    0.334    0.473   70.732
  383.750    4.812    0.338    0.458   71.300
  384.000    4.550    0.345    0.438   71.280
  384.250    4.067    0.313    0.444   69.480
  384.500    3.703    0.278    0.477   78.364
  384.750    3.072    0.248    0.542  100.888
  385.000    2.696    0.236    0.613  107.983
  385.250    2.280    0.231    0.659  112.120
  385.500    2.037    0.238    0.636  109.134
  385.750    1.855    0.257    0.629  100.209
  386.000    1.785    0.265    0.710  106.121
  386.250    1.784    0.251    0.657  114.407
  386.500    1.782    0.253    0.709  109.047
  386.750    1.814    0.255    0.688  112.587
  387.000    1.951    0.258    0.667  113.160
  387.250    2.178    0.260    0.671  110.168
  387.500    2.570    0.255    0.713  106.593
  387.750    3.034    0.234    0.723  104.793
  388.000    3.649    0.233    0.689  110.700
  388.250    4.724    0.243    0.645  108.312
  388.500    5.082    0.251    0.560   99.975
  388.750    5.467    0.262    0.583   98.773
  389.000    5.881    0.278    0.514   96.380
  389.250    6.213    0.289    0.429   85.680
  389.500    6.561    0.301    0.434   79.134
  389.750    6.928    0.293    0.461   82.080
  390.000    7.052    0.285    0.466   74.940
  390.250    7.045    0.271    0.495   80.254
  390.500    7.036    0.258    0.474   88.545
  390.750    6.899    0.259    0.456   80.807
  391.000    6.766    0.261    0.478   89.093
  391.250    6.635    0.264    0.490   86.101
  391.500    6.628    0.262    0.461   84.899
  391.750    6.499    0.253    0.453   89.027
  392.000    6.489    0.240    0.493   88.418
  392.250    6.486    0.248    0.484   73.566
  392.500    6.478    0.268    0.462   70.579
  392.750    6.473    0.262    0.454   79.458
  393.000    6.465    0.261    0.471   79.438
  393.250    6.456    0.267    0.471   78.819
  393.500    6.453    0.262    0.438   78.799
  393.750    6.441    0.257    0.499   84.706
  394.000    6.436    0.264    0.470   82.313
  394.250    6.428    0.269    0.460   80.513
  394.500    6.305    0.260    0.448   81.684
  394.750    6.297    0.249    0.439   79.291
  395.000    6.294    0.238    0.431   80.457
  395.250    6.171    0.240    0.442   83.403
  395.500    6.166    0.249    0.459   83.383
  395.750    6.158    0.258    0.420   86.329
  396.000    6.265    0.267    0.416   87.495
  396.250    6.260    0.279    0.403   80.350
  396.500    6.251    0.277    0.395   74.397
  396.750    6.246    0.275    0.409   83.864
  397.000    6.241    0.269    0.426   81.476
  397.250    6.231    0.272    0.445   79.082
  397.500    6.228    0.284    0.463   79.650
  397.750    6.220    0.303    0.439   80.223
  398.000    6.212    0.309    0.426   84.954
  398.250    6.208    0.302    0.441   85.527
  398.500    6.203    0.291    0.482   70.076
  398.750    6.196    0.303    0.465   80.147
  399.000    6.188    0.322    0.424   81.308
  399.250    6.181    0.293    0.440   80.695
  399.500    6.174    0.282    0.426   66.430
  399.750    6.168    0.263    0.471   71.750
  400.000    6.162    0.275    0.481   71.136
  400.250    6.155    0.284    0.458   69.336
  400.500    6.149    0.284    0.468   70.497
  400.750    6.144    0.275    0.459   69.894
  401.000    6.025    0.272    0.456   69.280
  401.250    5.694    0.267    0.509   74.001
  401.500    5.183    0.262    0.474   75.760
  401.750    4.720    0.262    0.469   69.214
  402.000    4.297    0.266    0.450   75.121
  402.250    3.839    0.267    0.537   78.073
  402.500    3.629    0.264    0.537   86.358
  402.750    3.560    0.252    0.486   94.051
  403.000    3.490    0.248    0.484   94.619
  403.250    3.618    0.253    0.481   89.857
  403.500    3.891    0.247    0.503   77.971
  403.750    3.960    0.248    0.554   82.697
  404.000    3.741    0.261    0.483   99.289
  404.250    3.602    0.264    0.428   95.116
  404.500    3.532    0.254    0.434   96.282
  404.750    3.662    0.243    0.457   95.668
  405.000    4.089    0.248    0.459   83.777
  405.250    4.482    0.258    0.450   85.537
  405.500    4.645    0.274    0.418   85.516
  405.750    4.471    0.273    0.431  101.510
  406.000    4.305    0.265    0.430  103.868
  406.250    3.991    0.252    0.417   98.508
  406.500    3.915    0.252    0.436  107.980
  406.750    3.768    0.256    0.447   85.415
  407.000    3.764    0.258    0.461   80.648
  407.250    3.761    0.255    0.458   86.561
  407.500    3.972    0.248    0.437   89.507
  407.750    5.049    0.242    0.428   91.855
  408.000    5.743    0.245    0.411   97.767
  408.250    5.843    0.248    0.430   94.182
  408.500    5.837    0.244    0.421   91.200
  408.750    5.617    0.303    0.445   84.061
  409.000    5.511    0.296    0.458  100.054
  409.250    5.506    0.290    0.470   95.293
  409.500    5.496    0.287    0.440   84.000
  409.750    5.594    0.293    0.422   75.673
  410.000    5.694    0.300    0.423   70.303
  410.250    6.011    0.298    0.409   70.876
  410.500    6.234    0.304    0.413   64.928
  410.750    6.341    0.311    0.403   60.156
  411.000    6.455    0.306    0.388   61.921
  411.250    6.448    0.306    0.397   63.087
  411.500    6.442    0.311    0.405   64.254
  411.750    6.435    0.316    0.392   61.860
  412.000    6.310    0.312    0.380   67.179
  412.250    6.188    0.310    0.398   68.346
  412.500    6.065    0.314    0.420   64.162
  412.750    6.062    0.326    0.411   60.587
  413.000    5.945    0.340    0.409   64.127
  413.250    5.937    0.345    0.417   68.259
  413.500    5.824    0.337    0.424   68.827
  413.750    5.816    0.329    0.413   65.846
  414.000    5.810    0.320    0.396   53.959
  414.250    5.804    0.321    0.398   54.532
  414.500    5.798    0.327    0.407   59.258
  414.750    5.794    0.336    0.422   63.386
  415.000    5.679    0.340    0.428   57.433
  415.250    5.673    0.345    0.413   58.594
