~VERSION INFORMATION
 VERS.                 2.0:   CWLS LOG ASCII STANDARD -VERSION 2.0
 WRAP.                  NO:   ONE LINE PER DEPTH STEP
~WELL INFORMATION BLOCK
#MNEM.UNIT           DATA                    DESCRIPTION OF MNEMONIC
#---------    -------------------            -------------------------------
# Generated from Intellog Unique Number	CS_73_76/WELL/2170
WELL.         BOW VALLEY EXPLORATION         : Well_name    - WELL
LOC .         00/06-32-074-16W4/0            : Location     - LOCATION
UWI .         00/06-32-074-16W4/0            : Uwi          - UNIQUE WELL ID
ENTR.         SP                             : Entered      - ENTERED BY
SRVC.         SCHLUMBERGER                   : Scn          - SERVICE COMPANY
STRT.M        305                            : top_depth    - START DEPTH
STOP.M        495                            : bot_depth    - STOP DEPTH
STEP.M        0.25                           : increment    - STEP LENGTH
 NULL. -999.2500:NULL Value
~CURVE INFORMATION BLOCK
#MNEM UNIT       ERCB CURVE CODE    CURVE DESCRIPTION
#-----------   ------------------   ----------------------------------
DEPT.M        00 001 00 00         : DEPTH        - DEPTH
ILD .OHMM     00 120 00 00         : RESD         - DEEP RESISTIVITY (DIL)
DPHI.V/V      00 890 00 00         : PHID         - DENSITY POROSITY (LIMESTONE)
NPHI.V/V      00 330 00 00         : PHIN         - NEUTRON POROSITY (LIMESTONE)
GR  .API      00 310 00 00         : GR           - GAMMA RAY
~PARAMETER INFORMATION
#MNEM.UNIT           DATA             DESCRIPTION OF MNEMONIC
#---------         -----------     ------------------------------
GL  .M        659.83               : gl           - GROUND LEVEL ELEVATION
EREF.M        662.86               : kb           - ELEVATION OF DEPTH REFERENCE
DATM.M        659.83               : datum        - DATUM ELEVATION
TDD .M        497                  : tdd          - TOTAL DEPTH DRILLER
RUN .         ONE                  : Run          - RUN NUMBER
ENG .         BILL                 : Engineer     - RECORDING ENGINEER
WIT .         JIM                  : Witness      - WITNESSED BY
MUD .         GEL                  : Mud_type     - MUD TYPE
MATR.         LIMESTONE            : Logunit      - NEUTRON MATRIX
TMAX.C        20                   : BHT          - MAXIMUM RECORDED TEMPERATURE
BHTD.M        497                  : BHTDEP       - MAXIMUM RECORDED TEMPERATURE
MATR.         1                    : LOGUNIT      - NEUTRON MATRIX
RMT .C        25                   : MDTP         - TEMPERATURE OF MUD
NEUT.         1                    : NEUTRON      - NEUTRON TYPE
RESI.         0                    : RESIST       - RESISTIVITY TYPE
RMC .OHMM     0.25                 : RMC          - RESISTIVITY OF MUD CAKE
RMF .OHMM     0.25                 : RMF          - RESISTIVITY OF MUD FILTRATE
SUFT.C        15                   : SUFT         - SURFACE TEMPERATURE
~A  DEPTH     RESD     PHID     PHIN       GR
# ...
  435.500    5.057    0.225    0.455  102.375
  435.750    5.444    0.227    0.450  101.167
  436.000    5.755    0.228    0.456  102.370
  436.250    6.196    0.237    0.450  104.174
  436.500    6.311    0.245    0.432  101.763
  436.750    5.968    0.220    0.404   99.350
  437.000    5.541    0.213    0.417   99.348
  437.250    5.339    0.243    0.436   99.947
  437.500    5.049    0.231    0.450   99.343
  437.750    4.955    0.228    0.457   97.534
  438.000    5.142    0.222    0.468   91.508
  438.250    5.852    0.176    0.444   84.879
  438.500    6.785    0.165    0.407   80.058
  438.750    7.867    0.037    0.363   72.224
  439.000    8.954    0.019    0.201   64.992
  439.250   10.005    0.045    0.201   63.785
  439.500    9.639    0.081    0.225   71.614
  439.750    8.784    0.130    0.253   78.840
  440.000    8.464    0.166    0.276   82.453
  440.250    7.714    0.205    0.314   83.654
  440.500    7.161    0.241    0.365   83.652
  440.750    7.160    0.255    0.395   84.252
  441.000    7.293    0.264    0.405   81.238
  441.250    7.708    0.272    0.411   81.236
  441.500    7.426    0.278    0.415   84.246
  441.750    6.894    0.283    0.422   89.061
  442.000    6.284    0.284    0.427   90.867
  442.250    5.727    0.237    0.434   92.672
  442.500    5.219    0.239    0.444   94.477
  442.750    4.936    0.243    0.456   95.077
  443.000    4.845    0.221    0.458   95.075
  443.250    5.026    0.216    0.460   94.469
  443.500    5.120    0.238    0.449   94.468
  443.750    5.312    0.249    0.441   93.863
  444.000    5.511    0.236    0.428   92.655
  444.250    5.409    0.230    0.423   91.448
  444.500    5.211    0.235    0.426   93.253
  444.750    4.838    0.237    0.443   94.456
  445.000    4.749    0.241    0.446   93.248
  445.250    4.660    0.246    0.441   92.040
  445.500    4.746    0.255    0.456   92.038
  445.750    4.834    0.259    0.466   92.036
  446.000    4.924    0.261    0.473   91.431
  446.250    5.015    0.262    0.443   89.622
  446.500    5.300    0.264    0.434   87.210
  446.750    5.398    0.269    0.431   84.798
  447.000    5.498    0.279    0.438   84.192
  447.250    5.811    0.262    0.439   84.793
  447.500    6.257    0.240    0.422   83.586
  447.750    6.862    0.210    0.388   79.970
  448.000    7.527    0.161    0.364   75.751
  448.250    7.809    0.114    0.338   71.532
  448.500    7.665    0.110    0.299   75.746
  448.750    6.731    0.155    0.319   79.358
  449.000    6.249    0.200    0.336   81.765
  449.250    5.802    0.237    0.371   82.365
  449.500    5.590    0.261    0.431   84.170
  449.750    5.589    0.260    0.428   86.577
  450.000    5.588    0.241    0.421   88.382
  450.250    5.691    0.227    0.421   87.777
  450.500    5.796    0.232    0.425   84.763
  450.750    5.904    0.248    0.420   83.555
  451.000    5.794    0.230    0.428   82.950
  451.250    5.793    0.238    0.431   84.153
  451.500    5.685    0.263    0.444   88.970
  451.750    5.580    0.272    0.446   89.570
  452.000    5.376    0.281    0.439   87.760
  452.250    5.180    0.274    0.436   90.770
  452.500    4.898    0.251    0.444   94.382
  452.750    4.808    0.243    0.451   96.789
  453.000    4.719    0.251    0.459   99.798
  453.250    4.547    0.259    0.448  101.001
  453.500    4.300    0.243    0.459  100.999
  453.750    4.067    0.230    0.467  100.394
  454.000    3.991    0.226    0.455  102.802
  454.250    3.918    0.220    0.450  106.414
  454.500    3.917    0.213    0.456  108.821
  454.750    3.916    0.209    0.465  108.216
  455.000    4.139    0.245    0.454  103.997
  455.250    4.456    0.254    0.438   97.368
  455.500    4.888    0.234    0.420   89.535
  455.750    5.880    0.195    0.418   81.701
  456.000    6.332    0.149    0.419   76.880
  456.250    8.054    0.130    0.395   74.468
  456.500    9.513    0.130    0.373   75.067
  456.750   10.827    0.118    0.357   76.270
  457.000    9.509    0.127    0.349   80.483
  457.250    8.507    0.142    0.344   84.698
  457.500    7.753    0.168    0.356   89.515
  457.750    7.333    0.213    0.381   92.525
  458.000    7.065    0.228    0.418   94.330
  458.250    7.063    0.260    0.436   91.918
  458.500    7.062    0.239    0.419   88.301
  458.750    7.060    0.196    0.415   87.696
  459.000    6.930    0.193    0.412   88.899
  459.250    6.554    0.204    0.409   91.305
  459.500    6.314    0.213    0.407   93.111
  459.750    5.972    0.219    0.408   94.915
  460.000    5.861    0.211    0.420   95.516
  460.250    5.860    0.197    0.425   96.116
  460.500    5.751    0.189    0.424   96.716
  460.750    5.858    0.195    0.420   92.496
  461.000    5.966    0.201    0.420   91.290
  461.250    5.965    0.206    0.430   90.685
  461.500    6.304    0.204    0.435   96.103
  461.750    6.541    0.198    0.436   97.909
  462.000    6.914    0.193    0.424   96.099
  462.250    7.869    0.182    0.400   93.687
  462.500    8.631    0.194    0.403   89.467
  462.750   10.777    0.208    0.408   84.646
  463.000   12.729    0.177    0.396   80.427
  463.250   14.222    0.103    0.303   76.811
  463.500   14.485    0.081    0.282   72.592
  463.750   11.813    0.088    0.309   74.998
  464.000   10.375    0.109    0.331   78.611
  464.250    8.619    0.136    0.340   83.428
  464.500    7.855    0.146    0.331   90.051
  464.750    7.027    0.163    0.389   95.471
  465.000    6.771    0.181    0.417  101.493
  465.250    6.523    0.181    0.438  105.104
  465.500    6.402    0.188    0.448  106.909
  465.750    6.521    0.189    0.442  108.714
  466.000    6.641    0.187    0.423  106.904
  466.250    6.640    0.181    0.409  109.311
  466.500    6.889    0.190    0.398  111.719
  466.750    7.017    0.204    0.392  112.319
  467.000    7.280    0.216    0.386  110.509
  467.250    7.279    0.204    0.380  106.892
  467.500    6.758    0.186    0.386  105.685
  467.750    6.511    0.167    0.400  106.285
  468.000    6.158    0.161    0.403  105.681
  468.250    6.043    0.171    0.415  102.064
  468.500    6.042    0.163    0.418  100.254
  468.750    6.041    0.131    0.406  100.251
  469.000    5.929    0.100    0.401   99.647
  469.250    5.305    0.117    0.386  102.655
  469.500    4.169    0.147    0.401  103.257
  469.750    3.730    0.177    0.407  100.845
  470.000    3.157    0.210    0.411   99.035
  470.250    2.721    0.224    0.432   99.033
  470.500    2.435    0.245    0.475   99.031
  470.750    2.219    0.251    0.515   99.631
  471.000    2.099    0.253    0.532  101.436
  471.250    2.022    0.251    0.532  104.445
  471.500    2.059    0.235    0.544  107.454
  471.750    2.137    0.240    0.546  108.055
  472.000    2.217    0.220    0.541  108.052
  472.250    2.432    0.206    0.526  105.038
  472.500    2.717    0.200    0.534  102.626
  472.750    3.150    0.185    0.512   98.406
  473.000    3.861    0.170    0.432   97.200
  473.250    4.314    0.174    0.377   97.799
  473.500    4.910    0.194    0.358  101.412
  473.750    5.286    0.194    0.384  103.819
  474.000    5.692    0.176    0.395   99.600
  474.250    6.243    0.152    0.397   95.381
  474.500    6.975    0.126    0.379   91.162
  474.750    7.372    0.102    0.356   95.375
  475.000    7.508    0.135    0.368   97.181
  475.250    6.842    0.159    0.394   95.974
  475.500    6.593    0.176    0.413   94.767
  475.750    6.968    0.148    0.402   96.571
  476.000    7.365    0.160    0.410   95.967
  476.250    7.501    0.170    0.407   89.940
  476.500    7.782    0.170    0.396   86.323
  476.750    7.781    0.129    0.361   84.514
  477.000    7.636    0.113    0.336   90.535
  477.250    7.495    0.133    0.353   95.353
  477.500    7.356    0.163    0.375  104.988
  477.750    7.087    0.160    0.371  115.227
  478.000    6.955    0.145    0.373  124.260
  478.250    6.954    0.139    0.382  132.691
  478.500    6.825    0.139    0.376  135.099
  478.750    6.952    0.142    0.378  134.494
