~VERSION INFORMATION
 VERS.                 2.0:   CWLS LOG ASCII STANDARD -VERSION 2.0
 WRAP.                  NO:   ONE LINE PER DEPTH STEP
~WELL INFORMATION BLOCK
#MNEM.UNIT           DATA                    DESCRIPTION OF MNEMONIC
#---------    -------------------            -------------------------------
# Generated from Intellog Unique Number	CS_77_79/WELL/857
WELL.         HB THORNBURY LAKE              : Well_name    - WELL
LOC .         00/05-19-078-12W4/0            : Location     - LOCATION
UWI .         00/05-19-078-12W4/0            : Uwi          - UNIQUE WELL ID
ENTR.         JHS                            : Entered      - ENTERED BY
SRVC.         SCHLUMBERGER                   : Scn          - SERVICE COMPANY
STRT.M        243.84                         : top_depth    - START DEPTH
STOP.M        456.84                         : bot_depth    - STOP DEPTH
STEP.M        0.25                           : increment    - STEP LENGTH
 NULL. -999.2500:NULL Value
~CURVE INFORMATION BLOCK
#MNEM UNIT       ERCB CURVE CODE    CURVE DESCRIPTION
#-----------   ------------------   ----------------------------------
DEPT.M        00 001 00 00         : DEPTH        - DEPTH
RHOB.KG/M3    00 350 00 00         : DENS         - BULK DENSITY
GR  .API      00 310 00 00         : GR           - GAMMA RAY
DPHI.V/V      00 890 00 00         : PHID         - DENSITY POROSITY (SANDSTONE)
NPHI.V/V      00 330 00 00         : PHIN         - NEUTRON POROSITY (SANDSTONE)
ILD .OHMM     00 120 00 00         : RESD         - DEEP RESISTIVITY (DIL)
~PARAMETER INFORMATION
#MNEM.UNIT           DATA             DESCRIPTION OF MNEMONIC
#---------         -----------     ------------------------------
GL  .M        685.19               : gl           - GROUND LEVEL ELEVATION
EREF.M        685.19               : kb           - ELEVATION OF DEPTH REFERENCE
DATM.M        685.19               : datum        - DATUM ELEVATION
TDD .M        466.344              : tdd          - TOTAL DEPTH DRILLER
RUN .         ONE                  : Run          - RUN NUMBER
ENG .         BILL                 : Engineer     - RECORDING ENGINEER
WIT .         JIM                  : Witness      - WITNESSED BY
MUD .         GEL                  : Mud_type     - MUD TYPE
MATR.         SANDSTONE            : Logunit      - NEUTRON MATRIX
TMAX.C        26.6667              : BHT          - MAXIMUM RECORDED TEMPERATURE
BHTD.M        466.344              : BHTDEP       - MAXIMUM RECORDED TEMPERATURE
MATR.         1                    : LOGUNIT      - NEUTRON MATRIX
RMT .C        25                   : MDTP         - TEMPERATURE OF MUD
NEUT.         1                    : NEUTRON      - NEUTRON TYPE
RESI.         0                    : RESIST       - RESISTIVITY TYPE
RMC .OHMM     0.25                 : RMC          - RESISTIVITY OF MUD CAKE
RMF .OHMM     0.25                 : RMF          - RESISTIVITY OF MUD FILTRATE
SUFT.C        15                   : SUFT         - SURFACE TEMPERATURE
~A  DEPTH     DENS       GR     PHID     PHIN     RESD
# ...
  426.340 2365.300   80.079    0.202    0.382    7.350
  426.590 2324.480   80.912    0.225    0.384    7.897
  426.840 2314.140   80.663    0.231    0.367    8.387
  427.090 2324.750   74.840    0.225    0.348    8.963
  427.340 2290.270   67.552    0.245    0.323   10.054
  427.590 2234.830   63.321    0.278    0.301   10.978
  427.840 2246.210   62.255    0.271    0.286   11.296
  428.090 2289.880   72.704    0.246    0.327   11.661
  428.340 2358.850   81.587    0.205    0.380   11.697
  428.590 2382.460   83.095    0.192    0.396   11.467
  428.840 2396.480   86.656    0.183    0.394   11.112
  429.090 2364.220   92.269    0.202    0.386   10.782
  429.340 2377.510   97.128    0.194    0.402   10.220
  429.590 2406.550  102.661    0.177    0.439    9.633
  429.840 2422.710  106.776    0.168    0.452    8.761
  430.090 2426.960  107.004    0.166    0.440    7.751
  430.340 2440.910  107.913    0.157    0.443    7.028
  430.590 2435.390  107.188    0.161    0.437    6.842
  430.840 2432.830  107.022    0.162    0.431    6.986
  431.090 2415.620  100.624    0.172    0.425    7.663
  431.340 2386.340   85.172    0.189    0.400    8.360
  431.590 2409.630   78.877    0.176    0.379    9.899
  431.840 2413.940   78.938    0.173    0.369   10.674
  432.090 2404.420   81.225    0.179    0.366   11.819
  432.340 2390.050   80.218    0.187    0.359   12.943
  432.590 2401.460   75.683    0.180    0.363   13.498
  432.840 2395.350   72.558    0.184    0.353   14.084
  433.090 2393.660   70.402    0.185    0.353   14.767
  433.340 2403.700   71.464    0.179    0.355   15.226
  433.590 2427.740   76.529    0.165    0.365   15.706
  433.840 2411.210   77.519    0.175    0.364   15.559
  434.090 2377.830   76.894    0.194    0.359   14.760
  434.340 2381.290   78.798    0.192    0.370   14.347
  434.590 2374.660   82.867    0.196    0.401   14.364
  434.840 2340.180   85.179    0.216    0.381   14.428
  435.090 2369.280   84.953    0.199    0.377   14.636
  435.340 2367.440   86.519    0.200    0.384   14.957
  435.590 2372.190   88.165    0.198    0.396   14.926
  435.840 2397.670   88.285    0.183    0.379   14.238
  436.090 2408.960   84.516    0.176    0.360   13.781
  436.340 2395.320   76.056    0.184    0.333   13.686
  436.590 2378.210   63.575    0.194    0.296   15.218
  436.840 2328.420   58.159    0.223    0.277   17.698
  437.090 2272.860   55.544    0.256    0.256   20.619
  437.340 2259.410   56.995    0.264    0.254   23.192
  437.590 2253.260   59.380    0.267    0.266   25.022
  437.840 2244.470   63.257    0.272    0.325   24.445
  438.090 2273.210   67.741    0.255    0.362   24.270
  438.340 2307.630   68.285    0.235    0.377   26.623
  438.590 2288.200   67.243    0.247    0.383   29.134
  438.840 2272.960   67.722    0.256    0.386   31.305
  439.090 2295.500   68.355    0.242    0.374   31.147
  439.340 2310.630   70.977    0.234    0.372   29.666
  439.590 2338.770   73.476    0.217    0.377   28.941
  439.840 2324.310   76.196    0.226    0.388   30.253
  440.090 2297.930   75.407    0.241    0.420   34.580
  440.340 2260.590   72.043    0.263    0.423   42.785
  440.590 2265.110   67.825    0.260    0.411   57.764
  440.840 2256.260   64.693    0.265    0.403   66.690
  441.090 2247.780   65.206    0.270    0.404   75.297
  441.340 2261.300   68.212    0.262    0.406   78.691
  441.590 2251.920   72.597    0.268    0.420   69.840
  441.840 2256.000   75.387    0.265    0.408   60.027
  442.090 2265.270   81.720    0.260    0.403   48.370
  442.340 2301.130   84.337    0.239    0.403   40.665
  442.590 2328.040   86.028    0.223    0.403   33.694
  442.840 2330.930   88.384    0.222    0.395   28.351
  443.090 2341.540   91.651    0.215    0.387   24.423
  443.340 2321.670   95.705    0.227    0.388   20.229
  443.590 2373.800  105.307    0.197    0.392   17.063
  443.840 2402.820  108.718    0.180    0.401   14.874
  444.090 2421.480  114.266    0.169    0.404   13.104
  444.340 2448.680  114.626    0.153    0.404   10.645
  444.590 2470.740  113.251    0.140    0.406    9.577
  444.840 2460.240  109.236    0.146    0.419    9.144
  445.090 2411.210  102.033    0.175    0.427    9.426
  445.340 2351.600   89.991    0.210    0.435   10.006
  445.590 2276.920   82.847    0.253    0.411   13.091
  445.840 2314.410   91.011    0.231    0.363   15.530
  446.090 2340.020   95.349    0.216    0.357   17.334
  446.340 2383.790   99.892    0.191    0.365   17.900
  446.590 2406.570  101.229    0.177    0.382   17.519
  446.840 2404.810  103.045    0.178    0.361   14.971
  447.090 2425.670  104.954    0.166    0.356   12.756
  447.340 2441.970  107.550    0.157    0.371   11.429
  447.590 2449.580  107.610    0.151    0.387   10.928
  447.840 2406.460   98.066    0.136    0.381   11.199
  448.090 2130.790   84.981    0.117    0.345   12.067
  448.340  -91.651   65.024    0.059    0.315   13.469
  448.590  -18.603   58.451    0.035    0.271   15.080
  448.840   -0.708   57.267   -0.002    0.257   16.870
  449.090    0.189   61.271    0.001    0.256   17.986
  449.340    0.027   66.857    0.005    0.257   18.002
  449.590    0.000   67.681    0.023    0.263   17.463
  449.840   -0.000   68.447    0.030    0.271   16.363
  450.090   -0.000   65.796    0.050    0.295   15.280
  450.340    0.000   61.757    0.035    0.303   15.399
  450.590    0.000   58.384    0.023    0.278   15.181
  450.840    0.000   56.753    0.013    0.257   16.485
  451.090   -0.000   58.835    0.004    0.249   18.445
  451.340   -0.000   56.805   -0.003    0.286   20.297
  451.590   -0.000   51.660    0.031    0.277   21.767
  451.840    0.000   37.572    0.020    0.173   25.592
  452.090    0.000   30.008   -0.002    0.159   29.266
  452.340    0.000   27.402   -0.000    0.158   32.739
  452.590   -0.000   26.389    0.002    0.165   39.703
  452.840   -0.000   26.306    0.016    0.187   48.656
  453.090    0.000   25.693    0.035    0.226   51.104
  453.340    0.000   23.808    0.065    0.229   50.155
  453.590    0.000   21.267    0.057    0.205   50.585
  453.840   -0.000   22.634    0.061    0.186   54.763
  454.090   -0.000   22.505    0.047    0.179   61.791
  454.340   -0.000   19.947    0.030    0.175   70.143
  454.590    0.000   17.482    0.027    0.172   81.846
  454.840    0.000   16.477    0.033    0.172   97.683
  455.090    0.000   15.518    0.027    0.173  125.323
  455.340   -0.000   15.587    0.041    0.172  151.772
  455.590   -0.000   15.830    0.053    0.168  163.083
  455.840   -0.000   16.213    0.061    0.167  163.274
  456.090    0.000   17.373    0.054    0.166  147.966
  456.340    0.000   18.799    0.044    0.179  121.243
  456.590   -0.000   18.064    0.032    0.181  106.900
  456.840   -0.000   16.823    0.029    0.178  133.117
