~VERSION INFORMATION
 VERS.                 2.0:   CWLS LOG ASCII STANDARD -VERSION 2.0
 WRAP.                  NO:   ONE LINE PER DEPTH STEP
~WELL INFORMATION BLOCK
#MNEM.UNIT           DATA                    DESCRIPTION OF MNEMONIC
#---------    -------------------            -------------------------------
# Generated from Intellog Unique Number	CS_69_70/WELL/844
WELL.         ICG RESOURCES LTD.             : Well_name    - WELL
LOC .         00/07-31-069-12W4/0            : Location     - LOCATION
UWI .         00/07-31-069-12W4/0            : Uwi          - UNIQUE WELL ID
ENTR.         SP                             : Entered      - ENTERED BY
SRVC.         SCHLUMBERGER                   : Scn          - SERVICE COMPANY
STRT.M        270                            : top_depth    - START DEPTH
STOP.M        482                            : bot_depth    - STOP DEPTH
STEP.M        0.25                           : increment    - STEP LENGTH
 NULL. -999.2500:NULL Value
~CURVE INFORMATION BLOCK
#MNEM UNIT       ERCB CURVE CODE    CURVE DESCRIPTION
#-----------   ------------------   ----------------------------------
DEPT.M        00 001 00 00         : DEPTH        - DEPTH
ILD .OHMM     00 120 00 00         : RESD         - DEEP RESISTIVITY (DIL)
DPHI.V/V      00 890 00 00         : PHID         - DENSITY POROSITY (LIMESTONE)
NPHI.V/V      00 330 00 00         : PHIN         - NEUTRON POROSITY (LIMESTONE)
GR  .API      00 310 00 00         : GR           - GAMMA RAY
~PARAMETER INFORMATION
#MNEM.UNIT           DATA             DESCRIPTION OF MNEMONIC
#---------         -----------     ------------------------------
GL  .M        582                  : gl           - GROUND LEVEL ELEVATION
EREF.M        585.8                : kb           - ELEVATION OF DEPTH REFERENCE
DATM.M        582                  : datum        - DATUM ELEVATION
TDD .M        488                  : tdd          - TOTAL DEPTH DRILLER
RUN .         ONE                  : Run          - RUN NUMBER
ENG .         BILL                 : Engineer     - RECORDING ENGINEER
WIT .         JIM                  : Witness      - WITNESSED BY
MUD .         GEL                  : Mud_type     - MUD TYPE
MATR.         LIMESTONE            : Logunit      - NEUTRON MATRIX
TMAX.C        23                   : BHT          - MAXIMUM RECORDED TEMPERATURE
BHTD.M        488                  : BHTDEP       - MAXIMUM RECORDED TEMPERATURE
MATR.         1                    : LOGUNIT      - NEUTRON MATRIX
RMT .C        25                   : MDTP         - TEMPERATURE OF MUD
NEUT.         1                    : NEUTRON      - NEUTRON TYPE
RESI.         0                    : RESIST       - RESISTIVITY TYPE
RMC .OHMM     0.25                 : RMC          - RESISTIVITY OF MUD CAKE
RMF .OHMM     0.25                 : RMF          - RESISTIVITY OF MUD FILTRATE
SUFT.C        15                   : SUFT         - SURFACE TEMPERATURE
~A  DEPTH     RESD     PHID     PHIN       GR
# ...
  357.000    4.992    0.202    0.476   81.444
  357.250    4.889    0.097    0.406   65.142
  357.500    4.806    0.034    0.217   54.463
  357.750    5.086    0.020    0.193   56.625
  358.000    5.685    0.009    0.189   63.367
  358.250    6.827    0.031    0.219   72.010
  358.500    8.594    0.091    0.280   77.835
  358.750    9.771    0.159    0.347   85.802
  359.000    8.708    0.205    0.387   93.279
  359.250    7.320    0.237    0.402   95.380
  359.500    6.235    0.240    0.402   95.887
  359.750    5.231    0.245    0.405   95.850
  360.000    5.056    0.282    0.425   95.073
  360.250    4.768    0.303    0.432   94.175
  360.500    4.635    0.276    0.416   96.947
  360.750    4.670    0.258    0.408   99.229
  361.000    4.732    0.247    0.410  100.716
  361.250    4.813    0.253    0.413  102.694
  361.500    4.877    0.246    0.422  105.588
  361.750    4.895    0.235    0.412  108.050
  362.000    4.886    0.237    0.406  106.052
  362.250    4.713    0.253    0.419  101.794
  362.500    4.722    0.262    0.428  101.753
  362.750    4.722    0.250    0.414  102.385
  363.000    4.749    0.246    0.409  103.811
  363.250    4.776    0.257    0.411  101.569
  363.500    4.766    0.258    0.417   97.981
  363.750    4.748    0.251    0.407   95.679
  364.000    4.748    0.250    0.409   93.255
  364.250    4.712    0.250    0.420   91.012
  364.500    4.712    0.245    0.427   91.828
  364.750    4.721    0.245    0.436   95.148
  365.000    4.721    0.250    0.440   96.023
  365.250    4.694    0.257    0.436   87.184
  365.500    4.597    0.279    0.433   82.983
  365.750    4.503    0.303    0.431   80.005
  366.000    4.319    0.315    0.429   84.734
  366.250    4.097    0.313    0.434   90.258
  366.500    3.930    0.294    0.428   94.068
  366.750    3.857    0.282    0.434   95.736
  367.000    3.856    0.303    0.447   98.202
  367.250    3.915    0.305    0.427  101.278
  367.500    4.043    0.282    0.418  103.682
  367.750    4.302    0.269    0.421  105.659
  368.000    4.544    0.286    0.433   95.900
  368.250    4.790    0.305    0.451   90.541
  368.500    5.274    0.267    0.432   86.095
  368.750    5.940    0.194    0.356   81.473
  369.000    6.973    0.106    0.273   77.947
  369.250    9.503    0.072    0.215   75.397
  369.500   13.147    0.056    0.208   72.909
  369.750   15.907    0.064    0.213   76.783
  370.000   17.781    0.098    0.276   82.243
  370.250   11.584    0.123    0.334   87.702
  370.500    8.124    0.158    0.374   93.225
  370.750    6.919    0.189    0.394   93.856
  371.000    6.764    0.171    0.407   85.135
  371.250    6.688    0.094    0.418   71.767
  371.500    6.688    0.050    0.190   63.962
  371.750    6.713    0.072    0.193   63.553
  372.000    6.879    0.158    0.231   78.554
  372.250    6.307    0.201    0.288   85.785
  372.500    5.815    0.235    0.390   93.386
  372.750    5.202    0.262    0.401   99.335
  373.000    4.888    0.240    0.408   95.564
  373.250    4.805    0.242    0.401   97.419
  373.500    4.925    0.235    0.393  100.375
  373.750    5.085    0.224    0.386   98.683
  374.000    5.201    0.221    0.379   97.357
  374.250    5.300    0.232    0.374  101.352
  374.500    5.360    0.234    0.375  104.673
  374.750    5.250    0.238    0.404  106.893
  375.000    4.961    0.244    0.409  107.585
  375.250    4.750    0.252    0.417  105.405
  375.500    4.582    0.257    0.431   99.433
  375.750    4.556    0.248    0.445  102.999
  376.000    4.582    0.240    0.441   99.474
  376.250    4.617    0.234    0.438   97.415
  376.500    4.660    0.229    0.440  101.594
  376.750    4.713    0.238    0.440  101.371
  377.000    4.695    0.247    0.421  100.349
  377.250    4.686    0.231    0.418  101.286
  377.500    4.660    0.226    0.412  101.185
  377.750    4.660    0.224    0.404   98.088
  378.000    4.686    0.226    0.413  100.552
  378.250    4.695    0.230    0.431  105.401
  378.500    4.686    0.238    0.438  108.539
  378.750    4.615    0.243    0.432  103.240
  379.000    4.255    0.247    0.428  105.890
  379.250    3.771    0.245    0.426  110.679
  379.500    3.230    0.244    0.427  113.753
  379.750    2.664    0.243    0.429  115.303
  380.000    2.112    0.244    0.476  116.789
  380.250    1.872    0.247    0.534  110.698
  380.500    1.847    0.258    0.564  107.722
  380.750    1.827    0.259    0.550  111.716
  381.000    1.830    0.261    0.534  112.592
  381.250    1.951    0.251    0.521  109.249
  381.500    2.347    0.230    0.501  103.706
  381.750    2.715    0.223    0.480   98.347
  382.000    3.069    0.261    0.449   94.576
  382.250    3.379    0.274    0.422   92.211
  382.500    3.602    0.271    0.419   95.781
  382.750    3.776    0.253    0.426  102.466
  383.000    3.856    0.238    0.425  106.149
  383.250    3.877    0.233    0.417  110.022
  383.500    3.877    0.240    0.425  100.447
  383.750    3.848    0.247    0.437   96.000
  384.000    3.776    0.252    0.430   91.558
  384.250    3.698    0.259    0.419   86.627
  384.500    3.622    0.248    0.411   81.572
  384.750    3.574    0.215    0.429   79.942
  385.000    3.534    0.235    0.442   82.044
  385.250    3.501    0.257    0.424   83.161
  385.500    3.455    0.250    0.410   85.320
  385.750    3.390    0.262    0.417   86.624
  386.000    3.339    0.276    0.417   83.284
  386.250    3.258    0.294    0.408   77.925
  386.500    3.209    0.306    0.399   74.889
  386.750    3.179    0.310    0.391   74.539
  387.000    3.131    0.322    0.395   74.255
  387.250    3.055    0.332    0.401   72.439
  387.500    3.021    0.340    0.399   68.975
  387.750    3.009    0.331    0.408   66.428
  388.000    2.981    0.325    0.423   64.919
  388.250    2.986    0.338    0.433   63.350
  388.500    3.009    0.340    0.441   64.719
  388.750    3.060    0.335    0.406   64.064
  389.000    3.101    0.324    0.399   62.982
  389.250    3.148    0.311    0.402   64.044
  389.500    3.166    0.306    0.401   68.831
  389.750    3.154    0.305    0.399   72.946
  390.000    3.142    0.313    0.408   77.308
  390.250    3.112    0.326    0.413   80.689
  390.500    3.100    0.340    0.432   80.281
  390.750    3.159    0.324    0.447   77.550
  391.000    3.274    0.319    0.467   74.760
  391.250    3.667    0.309    0.445   72.944
  391.500    4.329    0.136    0.425   75.288
  391.750    5.092    0.108    0.381   76.102
  392.000    5.877    0.091    0.295   71.477
  392.250    6.926    0.102    0.266   66.488
  392.500   10.955    0.122    0.277   62.835
  392.750   18.795    0.096    0.226   58.087
  393.000   19.777    0.053    0.170   58.109
  393.250   17.493    0.024    0.154   64.183
  393.500   13.130    0.058    0.274   71.048
  393.750    9.526    0.094    0.333   77.729
  394.000    7.109    0.128    0.363   84.963
  394.250    5.377    0.165    0.397   90.363
  394.500    4.528    0.209    0.423   91.423
  394.750    4.089    0.238    0.433   85.880
  395.000    3.930    0.260    0.408   88.285
  395.250    3.915    0.256    0.399   90.076
  395.500    3.967    0.246    0.388   90.219
  395.750    4.058    0.232    0.389   89.751
  396.000    4.158    0.216    0.407   95.702
  396.250    4.294    0.234    0.418   99.145
  396.500    4.343    0.236    0.410  100.630
  396.750    4.375    0.238    0.411   99.676
  397.000    4.318    0.248    0.415   99.936
  397.250    4.253    0.254    0.402  100.880
  397.500    4.213    0.244    0.399  101.447
  397.750    4.213    0.240    0.398  101.284
  398.000    4.253    0.238    0.405  100.205
  398.250    4.301    0.223    0.393   99.427
  398.500    4.333    0.218    0.397   99.140
  398.750    4.333    0.226    0.410   99.466
  399.000    4.341    0.228    0.416  101.873
  399.250    4.357    0.233    0.421  104.030
  399.500    4.366    0.226    0.422   95.859
  399.750    4.382    0.208    0.408   94.534
  400.000    4.398    0.189    0.404  101.033
  400.250    4.423    0.196    0.412  107.046
