~VERSION INFORMATION
 VERS.                 2.0:   CWLS LOG ASCII STANDARD -VERSION 2.0
 WRAP.                  NO:   ONE LINE PER DEPTH STEP
~WELL INFORMATION BLOCK
#MNEM.UNIT           DATA                    DESCRIPTION OF MNEMONIC
#---------    -------------------            -------------------------------
# Generated from Intellog Unique Number	CC_84_87/WELL/1076
NULL.         -999.25                        : NULL_VALUE
WELL.         BP SALESKI                     : Well_name    - WELL              
LOC .         07-08-085-18W4                 : Location     - LOCATION          
UWI .         00/07-08-085-18W400            : Uwi          - UNIQUE WELL ID    
ENTR.         DW                             : Entered      - ENTERED BY        
SRVC.         SCHLUMBERGER                   : Scn          - SERVICE COMPANY   
DATE.         05 FEB 81                      : Date         - LOG DATE
STRT.M        80                             : top_depth    - START DEPTH       
STOP.M        295.1                          : bot_depth    - STOP DEPTH        
STEP.M        0.3                            : increment    - STEP LENGTH       
~CURVE INFORMATION BLOCK
#MNEM UNIT       ERCB CURVE CODE    CURVE DESCRIPTION
#-----------   ------------------   ----------------------------------
DEPT.M        00 001 00 00         : DEPTH        - DEPTH                       
DPHI.V/V      00 890 00 00         : PHID         - DENSITY POROSITY (LIMESTONE)
NPHI.V/V      00 330 00 00         : PHIN         - NEUTRON POROSITY (LIMESTONE)
GR  .API      00 310 00 00         : GR           - GAMMA RAY                   
ILD .OHMM     00 120 00 00         : RESD         - DEEP RESISTIVITY (DIL)      
~PARAMETER INFORMATION       
#MNEM.UNIT           DATA             DESCRIPTION OF MNEMONIC
#---------         -----------     ------------------------------
GL  .M        566.3                : gl           - GROUND LEVEL ELEVATION      
EREF.M        570                  : kb           - ELEVATION OF DEPTH REFERENCE
DATM.M        570                  : datum        - DATUM ELEVATION             
TDD .M        295                  : tdd          - TOTAL DEPTH DRILLER         
RUN .         ONE                  : Run          - RUN NUMBER                  
ENG .         BILL                 : Engineer     - RECORDING ENGINEER          
WIT .         JIM                  : Witness      - WITNESSED BY                
MUD .         GEL                  : Mud_type     - MUD TYPE                    
MATR.         LIMESTONE            : Logunit      - NEUTRON MATRIX              
TMAX.C        31                   : BHT          - MAXIMUM RECORDED TEMPERATURE
BHTD.M        295                  : BHTDEP       - MAXIMUM RECORDED TEMPERATURE
MATR.         1                    : LOGUNIT      - NEUTRON MATRIX              
RMT .C        25                   : MDTP         - TEMPERATURE OF MUD          
NEUT.         1                    : NEUTRON      - NEUTRON TYPE                
RESI.         0                    : RESIST       - RESISTIVITY TYPE            
RMC .OHMM     0.25                 : RMC          - RESISTIVITY OF MUD CAKE     
RMF .OHMM     0.25                 : RMF          - RESISTIVITY OF MUD FILTRATE 
SUFT.C        4                    : SUFT         - SURFACE TEMPERATURE         
~A  DEPTH     PHID     PHIN       GR     RESD
# ...
  132.201    0.340    0.441   50.211   28.026
  132.501    0.333    0.438   50.799   28.514
  132.801    0.342    0.438   51.394   28.444
  133.101    0.341    0.451   50.152   28.954
  133.401    0.341    0.444   47.690   28.906
  133.701    0.342    0.444   47.059   28.834
  134.001    0.347    0.463   46.424   28.231
  134.301    0.346    0.461   46.410   28.183
  134.601    0.346    0.458   47.002   28.133
  134.901    0.364    0.453   50.035   28.628
  135.201    0.352    0.472   50.009   29.120
  135.501    0.321    0.450   49.383   29.076
  135.801    0.326    0.457   49.975   29.019
  136.101    0.341    0.467   50.565   29.520
  136.401    0.352    0.457   50.540   29.472
  136.701    0.349    0.428   50.524   29.986
  137.001    0.339    0.413   50.507   29.929
  137.301    0.351    0.439   50.486   29.854
  137.601    0.347    0.452   51.687   29.806
  137.901    0.336    0.468   52.278   30.321
  138.201    0.333    0.452   52.870   29.130
  138.501    0.335    0.443   54.072   27.454
  138.801    0.319    0.434   54.048   22.620
  139.101    0.293    0.435   53.411   20.918
  139.401    0.250    0.449   53.402   20.868
  139.701    0.264    0.459   53.383   22.070
  140.001    0.326    0.444   53.359   25.682
  140.301    0.314    0.435   53.953   30.458
  140.601    0.323    0.438   55.764   31.582
  140.901    0.324    0.454   58.797   28.647
  141.201    0.318    0.476   64.271   16.401
  141.501    0.275    0.502   71.577    8.054
  141.801    0.248    0.506   81.320    6.030
  142.101    0.249    0.495   83.744    5.161
  142.401    0.239    0.484   84.333    5.151
  142.701    0.236    0.479   84.922    5.241
  143.001    0.241    0.489   84.291    4.939
  143.301    0.251    0.517   82.438    4.746
  143.601    0.259    0.520   81.207    4.555
  143.901    0.264    0.516   78.742    4.550
  144.201    0.267    0.509   74.451    4.541
  144.501    0.283    0.494   67.103    4.618
  144.801    0.301    0.471   61.595    4.884
  145.101    0.318    0.442   53.637    5.264
  145.401    0.334    0.366   46.295    6.740
  145.701    0.366    0.318   35.895   18.945
  146.001    0.351    0.340   34.655   32.965
  146.301    0.335    0.391   36.465   34.187
  146.601    0.350    0.440   37.663   31.011
  146.901    0.350    0.454   39.477   25.061
  147.201    0.355    0.465   41.294   21.866
  147.501    0.343    0.465   40.048   21.423
  147.801    0.315    0.460   38.804   22.203
  148.101    0.320    0.459   38.182   22.159
  148.401    0.344    0.461   38.156   21.712
  148.701    0.348    0.449   39.361   19.690
  149.001    0.347    0.444   44.227   17.187
  149.301    0.343    0.455   52.754   15.587
  149.601    0.305    0.502   60.670   14.966
  149.901    0.300    0.485   64.311   15.524
  150.201    0.317    0.487   63.066   17.056
  150.501    0.343    0.491   52.065   20.225
  150.801    0.395    0.476   44.108   22.653
  151.101    0.400    0.470   37.983   23.050
  151.401    0.446    0.518   36.743   22.137
  151.701    0.465    0.568   37.947   21.674
  152.001    0.410    0.567   47.084   22.912
  152.301    0.270    0.380   48.284   25.175
  152.601    0.278    0.353   48.874   29.291
  152.901    0.294    0.336   48.856   33.438
  153.201    0.306    0.313   48.226   38.904
  153.501    0.318    0.306   46.374   41.924
  153.801    0.335    0.306   45.134   43.468
  154.101    0.335    0.313   44.500   43.406
  154.401    0.336    0.326   45.093   40.109
  154.701    0.340    0.337   45.685   38.535
  155.001    0.344    0.347   45.663   35.622
  155.301    0.346    0.393   45.640   34.891
  155.601    0.341    0.417   45.626   34.811
  155.901    0.335    0.440   45.602   34.749
  156.201    0.333    0.448   45.586   34.688
  156.501    0.324    0.432   46.170   34.613
  156.801    0.325    0.416   46.762   35.217
  157.101    0.324    0.422   46.138   35.809
  157.401    0.322    0.445   46.728   35.773
  157.701    0.323    0.445   46.705   36.389
  158.001    0.332    0.442   46.686   37.020
  158.301    0.338    0.445   47.276   37.669
  158.601    0.343    0.449   46.649   39.037
  158.901    0.338    0.441   47.239   38.994
  159.201    0.336    0.428   47.220   39.648
  159.501    0.345    0.434   47.806   39.606
  159.801    0.339    0.436   48.396   39.507
  160.101    0.327    0.431   48.987   39.459
  160.401    0.327    0.436   48.972   40.126
  160.701    0.337    0.437   49.559   40.067
  161.001    0.342    0.435   48.934   39.993
  161.301    0.332    0.430   48.296   39.910
  161.601    0.337    0.426   48.285   39.838
  161.901    0.347    0.437   47.645   39.766
  162.201    0.336    0.446   47.633   39.691
  162.501    0.329    0.436   48.223   39.625
  162.801    0.352    0.439   48.811   38.799
  163.101    0.351    0.448   48.795   37.986
  163.401    0.347    0.473   48.776   37.191
  163.701    0.351    0.477   47.530   35.721
  164.001    0.360    0.463   46.907   33.655
  164.301    0.360    0.447   46.879   32.969
  164.601    0.352    0.451   46.860   32.252
  164.901    0.352    0.444   46.848   31.604
  165.201    0.350    0.440   46.824   31.540
  165.501    0.356    0.475   46.806   32.091
  165.801    0.357    0.461   48.005   32.648
  166.101    0.360    0.442   49.816   32.598
  166.401    0.363    0.445   51.630   31.918
  166.701    0.369    0.456   52.829   30.075
  167.001    0.369    0.474   53.419   28.317
  167.301    0.368    0.485   52.180   27.737
  167.601    0.359    0.489   51.548   27.171
  167.901    0.354    0.466   50.919   27.642
  168.201    0.357    0.454   50.902   27.572
  168.501    0.362    0.474   50.879   27.009
  168.801    0.368    0.480   52.082   26.968
  169.101    0.368    0.460   52.063   27.971
  169.401    0.353    0.439   52.043   28.997
  169.701    0.352    0.430   51.416   29.512
  170.001    0.356    0.441   48.338   29.459
  170.301    0.369    0.462   47.099   28.277
  170.601    0.377    0.468   46.468   27.704
  170.901    0.379    0.466   47.061   26.601
  171.201    0.366    0.455   49.486   26.055
  171.501    0.358    0.460   51.296   25.997
  171.801    0.346    0.458   52.494   25.956
  172.101    0.336    0.456   52.475   25.913
  172.401    0.332    0.450   50.016   25.851
  172.701    0.314    0.449   47.556   25.811
  173.001    0.334    0.454   47.536   24.790
  173.301    0.357    0.461   48.735   23.817
  173.601    0.365    0.459   51.153   22.870
  173.901    0.370    0.452   52.358   22.834
  174.201    0.371    0.450   52.342   22.353
  174.501    0.359    0.449   49.268   21.896
  174.801    0.365    0.453   49.251   21.846
  175.101    0.359    0.465   49.837   21.814
  175.401    0.365    0.481   51.649   20.948
  175.701    0.364    0.498   52.851   20.120
  176.001    0.345    0.507   55.271   19.328
  176.301    0.331    0.492   57.082   18.216
  176.601    0.313    0.484   58.900   16.838
  176.901    0.286    0.495   62.539   15.567
  177.201    0.301    0.504   64.349   14.954
  177.501    0.318    0.511   65.551   14.366
  177.801    0.320    0.499   66.751   12.537
  178.101    0.311    0.467   67.347    8.529
  178.401    0.276    0.469   66.714    6.144
  178.701    0.293    0.510   63.030    6.017
  179.001    0.309    0.514   61.793    6.484
  179.301    0.311    0.503   62.380    6.854
  179.601    0.287    0.490   63.586    6.713
  179.901    0.230    0.494   67.840    5.531
  180.201    0.235    0.511   73.924    4.734
  180.501    0.263    0.557   73.900    4.377
  180.801    0.289    0.553   73.269    4.454
  181.101    0.326    0.516   70.805    4.620
  181.401    0.320    0.508   68.957    4.437
  181.701    0.294    0.542   66.496    3.872
  182.001    0.300    0.528   64.648    4.016
  182.301    0.314    0.503   62.186    4.412
  182.601    0.319    0.491   62.166    6.462
  182.901    0.320    0.482   62.759    9.283
  183.201    0.314    0.461   65.175    8.745
  183.501    0.283    0.470   65.770    8.242
  183.801    0.274    0.493   65.752    7.334
  184.101    0.282    0.507   66.951    7.180
