~VERSION INFORMATION
 VERS.                 2.0:   CWLS LOG ASCII STANDARD -VERSION 2.0
 WRAP.                  NO:   ONE LINE PER DEPTH STEP
~WELL INFORMATION BLOCK
#MNEM.UNIT           DATA                    DESCRIPTION OF MNEMONIC
#---------    -------------------            -------------------------------
# Generated from Intellog Unique Number	CS_67_68/WELL/2188
WELL.         DOME AEC MEDLEY                : Well_name    - WELL
LOC .         00/09-11-067-02W4/0            : Location     - LOCATION
UWI .         00/09-11-067-02W4/0            : Uwi          - UNIQUE WELL ID
ENTR.         SP                             : Entered      - ENTERED BY
SRVC.         SCHLUMBERGER                   : Scn          - SERVICE COMPANY
STRT.M        310                            : top_depth    - START DEPTH
STOP.M        565                            : bot_depth    - STOP DEPTH
STEP.M        0.25                           : increment    - STEP LENGTH
 NULL. -999.2500:NULL Value
~CURVE INFORMATION BLOCK
#MNEM UNIT       ERCB CURVE CODE    CURVE DESCRIPTION
#-----------   ------------------   ----------------------------------
DEPT.M        00 001 00 00         : DEPTH        - DEPTH
ILD .OHMM     00 120 00 00         : RESD         - DEEP RESISTIVITY (DIL)
DPHI.V/V      00 890 00 00         : PHID         - DENSITY POROSITY (LIMESTONE)
GR  .API      00 310 00 00         : GR           - GAMMA RAY
CALI.MM       00 280 01 00         : CAL          - CALIPER
NPHI.V/V      00 330 00 00         : PHIN         - NEUTRON POROSITY (LIMESTONE)
~PARAMETER INFORMATION
#MNEM.UNIT           DATA             DESCRIPTION OF MNEMONIC
#---------         -----------     ------------------------------
GL  .M        619.09               : gl           - GROUND LEVEL ELEVATION
EREF.M        623                  : kb           - ELEVATION OF DEPTH REFERENCE
DATM.M        623                  : datum        - DATUM ELEVATION
TDD .M        571                  : tdd          - TOTAL DEPTH DRILLER
RUN .         ONE                  : Run          - RUN NUMBER
ENG .         BILL                 : Engineer     - RECORDING ENGINEER
WIT .         JIM                  : Witness      - WITNESSED BY
MUD .         GEL                  : Mud_type     - MUD TYPE
MATR.         LIMESTONE            : Logunit      - NEUTRON MATRIX
TMAX.C        25.5                 : BHT          - MAXIMUM RECORDED TEMPERATURE
BHTD.M        573                  : BHTDEP       - MAXIMUM RECORDED TEMPERATURE
MATR.         1                    : LOGUNIT      - NEUTRON MATRIX
RMT .C        25                   : MDTP         - TEMPERATURE OF MUD
NEUT.         1                    : NEUTRON      - NEUTRON TYPE
RESI.         0                    : RESIST       - RESISTIVITY TYPE
RMC .OHMM     0.25                 : RMC          - RESISTIVITY OF MUD CAKE
RMF .OHMM     0.25                 : RMF          - RESISTIVITY OF MUD FILTRATE
SUFT.C        15                   : SUFT         - SURFACE TEMPERATURE
~A  DEPTH     RESD     PHID       GR      CAL     PHIN
# ...
  419.500    6.357    0.272   71.523  165.347    0.422
  419.750    6.355    0.260   73.222  165.446    0.410
  420.000    6.461    0.272   70.861  165.140    0.410
  420.250    6.668    0.288   70.196  165.037    0.419
  420.500    6.895    0.284   65.352  165.135    0.439
  420.750    7.169    0.275   58.750  164.931    0.454
  421.000    7.483    0.297   53.724  164.726    0.449
  421.250    7.766    0.316   49.061  164.724    0.420
  421.500    7.925    0.334   51.304  164.519    0.433
  421.750    8.027    0.343   54.578  164.517    0.446
  422.000    8.040    0.348   56.881  164.514    0.446
  422.250    8.007    0.347   58.095  164.410    0.440
  422.500    7.974    0.350   58.461  164.307    0.433
  422.750    7.972    0.352   58.765  163.698    0.428
  423.000    7.984    0.354   59.494  163.695    0.423
  423.250    8.056    0.353   60.404  164.098    0.433
  423.500    8.099    0.353   60.770  164.399    0.443
  423.750    8.127    0.354   60.287  164.599    0.435
  424.000    8.201    0.356   58.411  164.697    0.429
  424.250    8.229    0.356   57.020  164.696    0.447
  424.500    8.257    0.350   59.263  164.389    0.458
  424.750    8.286    0.346   62.718  163.881    0.455
  425.000    8.283    0.346   63.629  163.778    0.453
  425.250    8.296    0.347   62.964  163.573    0.459
  425.500    8.356    0.350   63.390  163.369    0.464
  425.750    8.384    0.346   64.361  163.265    0.457
  426.000    8.382    0.342   64.727  163.465    0.442
  426.250    8.332    0.342   65.577  163.462    0.440
  426.500    8.439    0.342   66.608  163.460    0.454
  426.750    8.468    0.341   67.883  163.255    0.459
  427.000    8.481    0.340   68.551  163.152    0.446
  427.250    8.462    0.337   67.644  162.846    0.441
  427.500    8.428    0.333   66.616  162.641    0.459
  427.750    8.409    0.332   66.194  162.639    0.470
  428.000    8.422    0.336   66.014  162.434    0.460
  428.250    8.467    0.337   67.046  162.432    0.457
  428.500    8.496    0.334   68.199  162.227    0.475
  428.750    8.462    0.332   69.352  162.426    0.480
  429.000    8.057    0.333   69.172  162.526    0.462
  429.250    7.486    0.342   67.053  162.422    0.448
  429.500    7.022    0.349   66.328  162.319    0.452
  429.750    6.673    0.357   66.633  162.316    0.442
  430.000    6.389    0.376   63.787  162.314    0.505
  430.250    6.198    0.394   58.094  162.210    0.544
  430.500    6.104    0.462   56.885  162.005    0.537
  430.750    6.114    0.383   61.309  162.104    0.487
  431.000    6.321    0.349   63.674  162.102    0.460
  431.250    6.635    0.328   64.281  161.898    0.478
  431.500    7.069    0.325   64.707  161.693    0.489
  431.750    7.489    0.321   62.529  161.590    0.479
  432.000    7.759    0.331   59.441  161.587    0.461
  432.250    8.022    0.348   57.443  161.383    0.439
  432.500    8.126    0.351   58.596  161.279    0.425
  432.750    7.942    0.349   57.326  161.277    0.421
  433.000    7.705    0.345   58.721  161.072    0.435
  433.250    7.378    0.342   63.327  160.765    0.447
  433.500    7.211    0.334   68.297  160.764    0.450
  433.750    7.195    0.315   70.843  160.963    0.453
  434.000    7.193    0.319   69.028  160.658    0.455
  434.250    7.286    0.328   66.303  160.149    0.448
  434.500    7.435    0.316   64.124  160.147    0.447
  434.750    7.559    0.322   63.641  159.942    0.449
  435.000    7.599    0.336   64.007  159.738    0.447
  435.250    7.582    0.336   67.099  159.230    0.448
  435.500    7.495    0.331   69.463  159.126    0.461
  435.750    7.312    0.331   69.041  159.022    0.474
  436.000    6.693    0.333   66.741  159.526    0.462
  436.250    5.527    0.324   67.469  159.827    0.444
  436.500    4.702    0.307   71.894  160.532    0.449
  436.750    4.209    0.292   75.773  160.834    0.444
  437.000    3.774    0.272   78.562  161.439    0.457
  437.250    3.540    0.248   80.562  165.686    0.490
  437.500    3.486    0.263   81.594  169.730    0.514
  437.750    3.564    0.274   81.838  172.864    0.533
  438.000    3.862    0.280   82.386  174.177    0.516
  438.250    4.107    0.268   82.630  174.074    0.496
  438.500    4.459    0.258   82.511  173.970    0.476
  438.750    4.886    0.277   82.694  172.754    0.470
  439.000    5.255    0.302   82.514  173.864    0.466
  439.250    5.393    0.314   78.397  175.379    0.458
  439.500    4.710    0.301   77.550  175.377    0.449
  439.750    4.046    0.253   84.822  162.425    0.462
  440.000    3.567    0.216   91.185  162.625    0.477
  440.250    3.241    0.209   96.579  165.455    0.485
  440.500    3.006    0.217  100.337  168.184    0.489
  440.750    2.927    0.226  103.065  169.295    0.497
  441.000    3.189    0.233  105.066  170.405    0.510
  441.250    3.955    0.229  105.492  170.403    0.528
  441.500    4.823    0.235   98.103  169.996    0.530
  441.750    6.435    0.248   88.351  169.387    0.515
  442.000    8.364    0.261   80.598  167.765    0.504
  442.250   11.285    0.270   72.846  166.751    0.491
  442.500   14.972    0.287   69.092  165.940    0.489
  442.750   18.708    0.302   68.487  165.431    0.492
  443.000   17.679    0.317   66.127  165.429    0.474
  443.250   13.267    0.327   65.280  165.730    0.457
  443.500   10.258    0.312   69.160  165.626    0.459
  443.750    8.745    0.297   71.948  165.220    0.449
  444.000    7.959    0.282   73.465  164.914    0.449
  444.250    7.708    0.287   74.072  165.012    0.455
  444.500    7.534    0.281   74.620  165.213    0.458
  444.750    7.419    0.282   74.985  165.312    0.466
  445.000    7.130    0.280   75.653  165.208    0.465
  445.250    6.930    0.275   75.897  165.205    0.460
  445.500    6.673    0.265   74.627  165.304    0.453
  445.750    6.425    0.266   73.296  164.999    0.443
  446.000    6.269    0.268   74.449  164.794    0.458
  446.250    6.151    0.259   76.390  164.386    0.463
  446.500    6.034    0.250   78.451  164.182    0.457
  446.750    5.909    0.265   80.210  164.078    0.460
  447.000    5.700    0.281   76.698  164.178    0.462
  447.250    5.562    0.255   73.368  165.186    0.463
  447.500    5.129    0.266   77.793  165.893    0.471
  447.750    4.995    0.283   79.915  167.003    0.493
  448.000    4.864    0.295   80.401  168.417    0.497
  448.250    4.683    0.295   79.131  169.528    0.487
  448.500    4.543    0.289   77.800  170.132    0.478
  448.750    4.390    0.280   76.954  170.332    0.471
  449.000    4.398    0.272   77.683  170.532    0.481
  449.250    4.582    0.264   79.805  171.542    0.497
  449.500    4.909    0.261   82.351  173.361    0.502
  449.750    5.309    0.258   84.292  175.786    0.502
  450.000    5.732    0.267   82.839  177.099    0.511
  450.250    6.246    0.276   80.176  175.984    0.497
  450.500    6.543    0.281   77.997  173.452    0.469
  450.750    6.791    0.264   76.181  171.123    0.452
  451.000    6.674    0.245   77.516  168.187    0.439
  451.250    6.586    0.228   82.243  165.352    0.427
  451.500    7.137    0.229   88.909  163.831    0.446
  451.750    8.461    0.240   94.727  163.627    0.455
  452.000    9.882    0.248   88.913  163.523    0.460
  452.250   11.499    0.252   80.675  163.419    0.466
  452.500   14.287    0.258   70.924  163.012    0.479
  452.750   16.688    0.267   64.019  162.201    0.473
  453.000   19.092    0.286   62.264  161.693    0.463
  453.250   20.844    0.304   60.751  161.589    0.455
  453.500   22.292    0.319   60.269  161.890    0.468
  453.750   22.835    0.308   61.301  162.596    0.474
  454.000   22.445    0.303   61.726  163.201    0.471
  454.250   21.816    0.304   61.789  163.199    0.462
  454.500   20.308    0.300   61.791  162.589    0.452
  454.750   18.625    0.293   62.580  161.980    0.446
  455.000   16.514    0.287   63.248  161.370    0.450
  455.250   13.790    0.295   64.220  161.064    0.456
  455.500   11.196    0.304   67.917  160.556    0.459
  455.750    8.449    0.297   70.282  160.452    0.458
