~VERSION INFORMATION
 VERS.                 2.0:   CWLS LOG ASCII STANDARD -VERSION 2.0
 WRAP.                  NO:   ONE LINE PER DEPTH STEP
~WELL INFORMATION BLOCK
#MNEM.UNIT           DATA                    DESCRIPTION OF MNEMONIC
#---------    -------------------            -------------------------------
# Generated from Intellog Unique Number	CC_84_87/WELL/1052
NULL.         -999.25                        : NULL_VALUE
WELL.         PARAMOUNT ET AL SALESKI        : Well_name    - WELL
LOC .         04-06-087-17W4                 : Location     - LOCATION          
UWI .         00/04-06-087-17W400            : Uwi          - UNIQUE WELL ID    
ENTR.         JOHN                           : Entered      - ENTERED BY        
SRVC.         SCHLUMBERGER                   : Scn          - SERVICE COMPANY   
DATE.         FEB 86                         : Date         - LOG DATE
STRT.M        107                            : top_depth    - START DEPTH       
STOP.M        214.101                        : bot_depth    - STOP DEPTH        
STEP.M        0.3                            : increment    - STEP LENGTH       
~CURVE INFORMATION BLOCK
#MNEM UNIT       ERCB CURVE CODE    CURVE DESCRIPTION
#-----------   ------------------   ----------------------------------
DEPT.M        00 001 00 00         : DEPTH        - DEPTH                       
DPHI.V/V      00 890 00 00         : PHID         - DENSITY POROSITY (LIMESTONE)
NPHI.V/V      00 330 00 00         : PHIN         - NEUTRON POROSITY (LIMESTONE)
GR  .API      00 310 00 00         : GR           - GAMMA RAY                   
ILD .OHMM     00 120 00 00         : RESD         - DEEP RESISTIVITY (DIL)      
~PARAMETER INFORMATION       
#MNEM.UNIT           DATA             DESCRIPTION OF MNEMONIC
#---------         -----------     ------------------------------
GL  .M        506.3                : gl           - GROUND LEVEL ELEVATION      
EREF.M        510.1                : kb           - ELEVATION OF DEPTH REFERENCE
DATM.M        510.1                : datum        - DATUM ELEVATION             
TDD .M        218                  : tdd          - TOTAL DEPTH DRILLER         
RUN .         ONE                  : Run          - RUN NUMBER                  
ENG .         BILL                 : Engineer     - RECORDING ENGINEER          
WIT .         JIM                  : Witness      - WITNESSED BY                
MUD .         GEL                  : Mud_type     - MUD TYPE                    
MATR.         LIMESTONE            : Logunit      - NEUTRON MATRIX              
TMAX.C        27                   : BHT          - MAXIMUM RECORDED TEMPERATURE
BHTD.M        218                  : BHTDEP       - MAXIMUM RECORDED TEMPERATURE
MATR.         1                    : LOGUNIT      - NEUTRON MATRIX              
RMT .C        25                   : MDTP         - TEMPERATURE OF MUD          
NEUT.         1                    : NEUTRON      - NEUTRON TYPE                
RESI.         0                    : RESIST       - RESISTIVITY TYPE            
RMC .OHMM     0.25                 : RMC          - RESISTIVITY OF MUD CAKE     
RMF .OHMM     0.25                 : RMF          - RESISTIVITY OF MUD FILTRATE 
SUFT.C        15                   : SUFT         - SURFACE TEMPERATURE         
~A  DEPTH     PHID     PHIN       GR     RESD
# ...
  159.201    0.218    0.412   96.335    9.006
  159.501    0.207    0.398  100.139    9.356
  159.801    0.208    0.409   98.225    9.536
  160.101    0.214    0.418   95.037    9.719
  160.401    0.205    0.412   95.028    9.718
  160.701    0.165    0.392   97.561    9.532
  161.001    0.170    0.382   98.825    9.171
  161.301    0.208    0.393  104.535    8.657
  161.601    0.224    0.424  109.611    8.656
  161.901    0.216    0.427  112.143    8.654
  162.201    0.212    0.420  105.780    9.165
  162.501    0.219    0.402   97.509    9.895
  162.801    0.223    0.388   96.228   11.316
  163.101    0.231    0.380   99.397   11.756
  163.401    0.231    0.380  104.474   11.755
  163.701    0.233    0.381  107.007   10.885
  164.001    0.237    0.382  103.821   10.676
  164.301    0.241    0.389   94.277   10.472
  164.601    0.256    0.392   91.727   10.673
  164.901    0.272    0.382   89.811   10.878
  165.201    0.275    0.370   85.353   11.520
  165.501    0.248    0.371   78.989   12.678
  165.801    0.216    0.357   71.989   14.779
  166.101    0.154    0.324   69.436   16.580
  166.401    0.118    0.306   70.065   17.899
  166.701    0.208    0.324   68.785   17.897
  167.001    0.255    0.359   70.047   15.948
  167.301    0.291    0.385   74.487   13.417
  167.601    0.281    0.399   82.104   11.505
  167.901    0.254    0.390   94.172   11.285
  168.201    0.204    0.388   97.977   11.502
  168.501    0.147    0.400   87.798   12.181
  168.801    0.161    0.372   80.162   13.151
  169.101    0.202    0.365   80.153   13.928
  169.401    0.227    0.375   84.592   14.470
  169.701    0.168    0.402   87.762   14.469
  170.001    0.137    0.417   86.481   13.922
  170.301    0.180    0.404   88.381   12.646
  170.601    0.225    0.385   91.549   11.936
  170.901    0.225    0.394   93.448   11.934
  171.201    0.202    0.408   90.895   11.705
  171.501    0.212    0.402   93.430   11.931
  171.801    0.181    0.407   95.327   11.702
  172.101    0.161    0.431   95.318   11.478
  172.401    0.183    0.435   97.216   11.476
  172.701    0.182    0.430   97.844   11.256
  173.001    0.160    0.428   94.020   11.041
  173.301    0.169    0.425   93.376   10.421
  173.601    0.202    0.418   98.452   10.027
  173.901    0.205    0.413  100.350    9.648
  174.201    0.195    0.412  102.883    9.284
  174.501    0.201    0.416  101.603    9.105
  174.801    0.216    0.440  104.137    9.103
  175.101    0.219    0.437  102.855    9.103
  175.401    0.209    0.443  102.211    9.277
  175.701    0.200    0.446  104.746    9.276
  176.001    0.191    0.431  101.559    9.638
  176.301    0.144    0.431   95.831   10.207
  176.601    0.130    0.382   93.915   10.810
  176.901    0.182    0.392   95.177   11.670
  177.201    0.230    0.405   97.710   12.360
  177.501    0.228    0.397   96.431   12.598
  177.801    0.214    0.382   97.690   12.356
  178.101    0.183    0.391  102.769   11.011
  178.401    0.180    0.389  113.564   10.594
  178.701    0.190    0.396  113.555   10.592
  179.001    0.203    0.407  104.013   11.219
  179.301    0.219    0.396   98.919   12.112
  179.601    0.237    0.383   99.545   13.850
  179.901    0.241    0.373  101.444   15.242
  180.201    0.237    0.374  102.071   16.774
  180.501    0.228    0.383  100.155   17.428
  180.801    0.204    0.360   98.876   18.815
  181.101    0.048    0.323   89.968   19.548
  181.401    0.121    0.329   95.043   19.923
  181.701    0.177    0.358  103.934   18.449
  182.001    0.210    0.368  108.372   15.520
  182.301    0.204    0.372  110.270   14.650
  182.601    0.199    0.369  109.627   14.368
  182.901    0.209    0.373  104.533   14.093
  183.201    0.208    0.378  105.160   14.091
  183.501    0.207    0.380  110.236   14.362
  183.801    0.204    0.371  114.675   14.360
  184.101    0.170    0.364  104.498   14.085
  184.401    0.152    0.363  101.310   13.295
  184.701    0.194    0.391  103.208   11.622
  185.001    0.207    0.396  107.013    9.777
  185.301    0.198    0.387  109.547    8.069
  185.601    0.200    0.385  113.351    7.054
  185.901    0.212    0.423  117.789    6.918
  186.201    0.213    0.444  118.417    7.051
  186.501    0.161    0.447  117.773    7.910
  186.801    0.120    0.427   94.249    9.221
  187.101    0.056    0.333   80.258   11.386
  187.401    0.126    0.316   83.426   13.531
  187.701    0.195    0.324   92.316   14.608
  188.001    0.201    0.339  103.112   11.826
  188.301    0.190    0.372  108.187    8.867
  188.601    0.156    0.400  108.179    7.318
  188.901    0.146    0.422  106.898    7.041
  189.201    0.165    0.435  112.610    6.906
  189.501    0.192    0.435  120.227    6.905
  189.801    0.193    0.427  119.582    7.038
  190.101    0.203    0.435  124.023    7.037
  190.401    0.206    0.449  128.464    7.036
  190.701    0.203    0.436  121.463    7.034
  191.001    0.205    0.431  118.912    7.450
  191.301    0.198    0.427  123.352    8.199
  191.601    0.196    0.413  126.521    9.198
  191.901    0.197    0.399  122.699   12.030
  192.201    0.094    0.386  106.166   12.988
  192.501    0.053    0.372   97.894   14.293
  192.801    0.133    0.365  111.868   15.138
  193.101    0.196    0.362  116.943   15.136
  193.401    0.195    0.364  119.477   14.015
  193.701    0.195    0.374  115.019   13.229
  194.001    0.200    0.379  112.466   12.975
  194.301    0.196    0.373  113.095   13.225
  194.601    0.206    0.370  110.542   13.739
  194.901    0.207    0.369  107.357   14.552
  195.201    0.165    0.348   99.721   16.324
  195.501    0.102    0.317   92.085   17.624
  195.801    0.167    0.308   93.983   18.310
  196.101    0.210    0.322  100.965   17.959
  196.401    0.216    0.346  102.863   16.630
  196.701    0.207    0.365  105.396   15.399
  197.001    0.213    0.366  100.940   15.396
  197.301    0.223    0.349   98.388   15.693
  197.601    0.220    0.355   96.473   16.941
  197.901    0.174    0.345   87.566   18.290
  198.201    0.085    0.323   85.651   19.002
  198.501    0.099    0.314   90.091   19.000
  198.801    0.166    0.330   98.344   18.281
  199.101    0.210    0.356  102.145   15.981
  199.401    0.211    0.377  103.410   14.241
  199.701    0.204    0.370  105.942   13.968
  200.001    0.209    0.356  108.477   14.236
  200.301    0.200    0.354  105.291   15.370
  200.601    0.079    0.349   97.655   16.277
  200.901    0.061    0.323   91.290   15.966
  201.201    0.138    0.340   98.909   13.957
  201.501    0.206    0.368  108.432   11.518
  201.801    0.206    0.387  110.967    9.506
  202.101    0.206    0.393  119.856    7.997
  202.401    0.206    0.416  123.023    6.858
  202.701    0.203    0.437  122.378    5.769
  203.001    0.205    0.448  119.193    5.342
  203.301    0.193    0.453  111.557    5.341
  203.601    0.185    0.449   86.127    5.992
  203.901    0.222    0.439   63.873    8.302
  204.201    0.297    0.425   46.069   17.882
  204.501    0.312    0.416   41.611   32.410
  204.801    0.303    0.392   41.602   51.357
  205.101    0.297    0.345   41.592   55.446
  205.401    0.306    0.346   39.042   58.720
  205.701    0.298    0.357   32.676   62.191
  206.001    0.286    0.357   32.667   65.864
  206.301    0.275    0.348   32.024   65.854
  206.601    0.280    0.368   33.286   59.819
  206.901    0.293    0.373   35.818   51.300
  207.201    0.303    0.372   39.624   44.845
  207.501    0.311    0.375   49.785   38.458
  207.801    0.306    0.380   55.494   32.352
  208.101    0.296    0.381   61.207   29.958
  208.401    0.293    0.390   71.367   28.825
  208.701    0.306    0.412   63.095   28.820
  209.001    0.315    0.395   58.638   31.114
  209.301    0.314    0.391   59.900   32.953
  209.601    0.312    0.406   57.349   33.586
  209.901    0.319    0.409   57.976   26.167
  210.201    0.274    0.398   64.322   19.620
  210.501    0.222    0.371   74.482   15.582
  210.801    0.146    0.323   81.464    9.644
  211.101    0.165    0.328   92.897    5.634
