~VERSION INFORMATION
 VERS.                 2.0:   CWLS LOG ASCII STANDARD -VERSION 2.0
 WRAP.                  NO:   ONE LINE PER DEPTH STEP
~WELL INFORMATION BLOCK
#MNEM.UNIT           DATA                    DESCRIPTION OF MNEMONIC
#---------    -------------------            -------------------------------
# Generated from Intellog Unique Number	CW_73_75/WELL/591
WELL.         ASHLAND ET AL MCMILLAN 06-31   : Well_name    - WELL
LOC .         00/06-31-074-19W4/0            : Location     - LOCATION
UWI .         00/06-31-074-19W4/0            : Uwi          - UNIQUE WELL ID
ENTR.         JAYE                           : Entered      - ENTERED BY
SRVC.         WESTERN ATLAS                  : Scn          - SERVICE COMPANY
DATE.         17 JAN 76                      : Date         - LOG DATE
STRT.M        298.704                        : top_depth    - START DEPTH
STOP.M        508.954                        : bot_depth    - STOP DEPTH
STEP.M        0.25                           : increment    - STEP LENGTH
 NULL. -999.2500:NULL Value
~CURVE INFORMATION BLOCK
#MNEM UNIT       ERCB CURVE CODE    CURVE DESCRIPTION
#-----------   ------------------   ----------------------------------
DEPT.M        00 001 00 00         : DEPTH        - DEPTH
ILD .OHMM     00 120 00 00         : RESD         - DEEP RESISTIVITY (DIL)
GR  .API      00 310 00 00         : GR           - GAMMA RAY
CALI.MM       00 280 01 00         : CAL          - CALIPER
NPHI.V/V      00 330 00 00         : PHIN         - NEUTRON POROSITY (SANDSTONE)
DPHI.V/V      00 890 00 00         : PHID         - DENSITY POROSITY (SANDSTONE)
COND.MMHO                          : COND         - DEEP CONDUCTIVITY (DIL)
~PARAMETER INFORMATION
#MNEM.UNIT           DATA             DESCRIPTION OF MNEMONIC
#---------         -----------     ------------------------------
GL  .M        616.61               : gl           - GROUND LEVEL ELEVATION
EREF.M        619.658              : kb           - ELEVATION OF DEPTH REFERENCE
DATM.M        616.61               : datum        - DATUM ELEVATION
TDD .M        514.502              : tdd          - TOTAL DEPTH DRILLER
RUN .         ONE                  : Run          - RUN NUMBER
BASE.         EDMONTON             : Branch       - HOME BASE OF LOGGING UNIT
MATR.         SANDSTONE            : Logunit      - NEUTRON MATRIX
TMAX.C        23.8889              : BHT          - MAXIMUM RECORDED TEMPERATURE
BHTD.M        512.978              : BHTDEP       - MAXIMUM RECORDED TEMPERATURE
RMT .C        -15.7222             : MDTP         - TEMPERATURE OF MUD
MUDD.KG/M     0                    : MWT          - MUD DENSITY
NEUT.         1                    : NEUTRON      - NEUTRON TYPE
RESI.         0                    : RESIST       - RESISTIVITY TYPE
RM  .OHMM     4                    : RM           - RESISTIVITY OF MUD
RMC .OHMM     0                    : RMC          - RESISTIVITY OF MUD CAKE
RMF .OHMM     3.9                  : RMF          - RESISTIVITY OF MUD FILTRATE
SUFT.C        -17.7778             : SUFT         - SURFACE TEMPERATURE
~A  DEPTH     RESD       GR      CAL     PHIN     PHID     COND
# ...
  423.704    6.214   90.336  204.204    0.418    0.198  160.931
  423.954    6.117   90.570  203.663    0.426    0.194  163.488
  424.204    6.132   94.365  202.916    0.424    0.196  163.071
  424.454    6.216   92.450  202.479    0.405    0.196  160.871
  424.704    6.342   95.447  202.565    0.396    0.194  157.681
  424.954    6.506   96.479  202.232    0.389    0.190  153.696
  425.204    6.644   96.099  200.966    0.385    0.184  150.507
  425.454    6.734   94.736  198.034    0.387    0.178  148.505
  425.704    6.708   94.295  199.676    0.378    0.173  149.080
  425.954    6.638   95.388  200.592    0.384    0.169  150.646
  426.204    6.553   97.894  200.573    0.387    0.174  152.607
  426.454    6.495   99.847  200.970    0.369    0.172  153.975
  426.704    6.421   96.765  202.821    0.380    0.171  155.738
  426.954    6.325   92.885  203.321    0.398    0.177  158.096
  427.204    6.294   92.075  199.557    0.398    0.199  158.871
  427.454    6.272   93.414  197.563    0.391    0.214  159.445
  427.704    6.158   92.542  199.621    0.383    0.209  162.398
  427.954    5.906   90.750  201.058    0.374    0.189  169.313
  428.204    5.745   90.862  203.845    0.375    0.198  174.051
  428.454    5.593   90.420  205.279    0.378    0.194  178.787
  428.704    5.408   92.188  198.710    0.368    0.152  184.910
  428.954    5.312   96.905  195.259    0.358    0.168  188.258
  429.204    5.427   91.735  195.552    0.357    0.175  184.277
  429.454    5.736   82.022  195.736    0.353    0.156  174.348
  429.704    6.209   70.651  196.030    0.349    0.139  161.051
  429.954    6.705   71.314  195.903    0.345    0.169  149.140
  430.204    7.319   65.470  195.781    0.335    0.221  136.636
  430.454    7.843   60.485  195.762    0.339    0.231  127.499
  430.704    7.832   60.472  195.637    0.351    0.241  127.677
  430.954    7.322   62.672  195.514    0.353    0.254  136.575
  431.204    6.931   65.116  195.182    0.358    0.276  144.284
  431.454    6.801   65.042  194.645    0.363    0.273  147.039
  431.704    6.756   65.215  193.897    0.359    0.265  148.007
  431.954    6.677   65.632  193.564    0.358    0.276  149.774
  432.204    6.439   66.665  193.650    0.382    0.300  155.302
  432.454    6.311   67.881  193.628    0.383    0.307  158.453
  432.704    6.241   69.281  193.193    0.381    0.305  160.218
  432.954    6.204   70.437  191.719    0.375    0.298  161.188
  433.204    6.197   69.135  190.866    0.371    0.293  161.365
  433.454    6.168   69.984  193.757    0.364    0.294  162.139
  433.704    6.153   66.165  195.610    0.351    0.294  162.518
  433.954    6.154   65.601  196.316    0.341    0.294  162.497
  434.204    6.132   66.510  196.608    0.343    0.293  163.070
  434.454    6.089   67.788  196.796    0.344    0.293  164.241
  434.704    6.024   69.618  196.568    0.343    0.288  166.006
  434.954    5.898   70.773  196.342    0.338    0.278  169.553
  435.204    5.824   67.445  195.489    0.339    0.267  171.712
  435.454    5.955   63.811  194.742    0.339    0.238  167.928
  435.704    6.345   59.624  193.995    0.333    0.208  157.602
  435.954    6.727   53.840  193.141    0.320    0.117  148.665
  436.204    6.874   53.583  192.602    0.326    0.100  145.474
  436.454    6.719   61.554  192.374    0.347    0.135  148.823
  436.704    6.348   66.945  192.043    0.357    0.217  157.523
  436.954    6.016   67.731  191.815    0.357    0.273  166.223
  437.204    5.634   63.483  191.380    0.346    0.280  177.499
  437.454    5.493   61.813  191.152    0.345    0.284  182.034
  437.704    5.447   60.266  191.132    0.352    0.288  183.603
  437.954    5.395   59.457  191.110    0.353    0.293  185.367
  438.204    5.367   57.235  191.300    0.356    0.296  186.339
  438.454    5.344   55.564  191.799    0.368    0.297  187.111
  438.704    5.306   56.290  193.236    0.370    0.298  188.479
  438.954    5.301   57.629  194.360    0.363    0.300  188.655
  439.204    5.279   60.565  193.300    0.362    0.305  189.430
  439.454    5.291   61.413  190.264    0.366    0.299  189.012
  439.704    5.286   61.707  188.685    0.373    0.291  189.192
  439.954    5.292   65.134  188.250    0.378    0.282  188.970
  440.204    5.287   67.271  188.020    0.373    0.276  189.153
  440.454    5.310   68.180  188.207    0.370    0.268  188.340
  440.704    5.355   69.213  188.398    0.356    0.249  186.735
  440.954    5.373   68.526  189.002    0.347    0.240  186.120
  441.204    5.676   67.470  190.122    0.353    0.221  176.192
  441.454    6.051   67.888  191.248    0.359    0.195  165.273
  441.704    6.470   69.104  193.205    0.366    0.172  154.551
  441.954    7.030   73.268  186.531    0.379    0.167  142.244
  442.204    7.110   78.905  178.505    0.391    0.253  140.639
  442.454    6.670   85.279  179.836    0.400    0.249  149.934
  442.704    5.830   89.074  189.694    0.407    0.235  171.515
  442.954    5.243   88.018  199.032    0.418    0.221  190.718
  443.204    4.946   89.603  203.377    0.425    0.232  202.192
  443.454    4.856   90.266  203.357    0.427    0.248  205.938
  443.704    4.742   89.580  204.169    0.428    0.264  210.872
  443.954    4.575   89.568  204.774    0.427    0.272  218.581
  444.204    4.385   86.854  204.753    0.430    0.262  228.073
  444.454    4.277   90.281  204.838    0.431    0.243  233.802
  444.704    4.100   91.620  205.859    0.427    0.235  243.889
  444.954    3.962   94.249  207.711    0.421    0.241  252.391
  445.204    3.925   93.807  210.497    0.409    0.246  254.749
  445.454    3.765   99.690  211.101    0.400    0.245  265.629
  445.704    3.718  101.335  209.730    0.399    0.240  268.977
  445.954    3.846   98.930  207.215    0.397    0.224  260.040
  446.204    4.066   99.102  206.051    0.395    0.207  245.950
  446.454    4.474   98.047  205.405    0.392    0.220  223.537
  446.704    4.716   93.860  204.971    0.403    0.217  212.023
  446.954    5.017   95.321  204.536    0.410    0.195  199.320
  447.204    5.125   95.187  204.201    0.408    0.192  195.136
  447.454    5.248   94.192  203.768    0.394    0.189  190.560
  447.704    5.476   93.812  203.018    0.367    0.185  182.612
  447.954    5.648   89.626  202.583    0.361    0.180  177.044
  448.204    5.832   89.675  201.938    0.364    0.172  171.475
  448.454    5.956   90.215  201.609    0.375    0.192  167.888
  448.704    5.950   90.266  201.276    0.383    0.199  168.068
  448.954    5.937   89.885  201.673    0.380    0.213  168.444
  449.204    5.862   90.979  207.580    0.378    0.241  170.604
  449.454    5.842   91.887  210.678    0.378    0.236  171.179
  449.704    5.863   91.876  204.421    0.378    0.197  170.564
  449.954    5.919   91.925  207.623    0.380    0.175  168.959
  450.204    5.997   93.081  212.803    0.383    0.198  166.754
  450.454    6.026   94.727  207.792    0.402    0.197  165.947
  450.704    6.056   97.478  202.989    0.399    0.194  165.130
  450.954    6.071   98.879  202.759    0.395    0.189  164.719
  451.204    5.992   98.437  203.052    0.388    0.185  166.878
  451.454    6.029   94.618  203.761    0.375    0.180  165.864
  451.704    6.147   94.361  204.365    0.371    0.179  162.676
  451.954    6.294   93.981  204.967    0.386    0.177  158.892
  452.204    6.179   93.477  205.365    0.398    0.163  161.845
  452.454    6.003   96.536  205.760    0.399    0.161  166.580
  452.704    5.844   97.323  209.381    0.398    0.179  171.119
  452.954    5.751   92.706  210.192    0.399    0.165  173.874
  453.204    5.694   92.939  205.701    0.404    0.150  175.638
  453.454    5.707   94.279  218.366    0.404    0.158  175.220
  453.704    5.874   95.925  218.449    0.393    0.165  170.248
  453.954    6.109   97.878  206.681    0.380    0.177  163.688
  454.204    6.405   97.743  190.442    0.366    0.186  156.138
  454.454    6.641  100.740  202.066    0.357    0.210  150.569
  454.704    6.669  101.772  211.301    0.355    0.275  149.953
