~VERSION INFORMATION
 VERS.                 2.0:   CWLS LOG ASCII STANDARD -VERSION 2.0
 WRAP.                  NO:   ONE LINE PER DEPTH STEP
~WELL INFORMATION BLOCK
#MNEM.UNIT           DATA                    DESCRIPTION OF MNEMONIC
#---------    -------------------            -------------------------------
# Generated from Intellog Unique Number	CS_69_70/WELL/853
WELL.         AMERICAN NATURAL GAS           : Well_name    - WELL
LOC .         00/08-09-070-18W4/0            : Location     - LOCATION
UWI .         00/08-09-070-18W4/0            : Uwi          - UNIQUE WELL ID
ENTR.         SP                             : Entered      - ENTERED BY
SRVC.         SCHLUMBERGER                   : Scn          - SERVICE COMPANY
STRT.M        280                            : top_depth    - START DEPTH
STOP.M        470                            : bot_depth    - STOP DEPTH
STEP.M        0.25                           : increment    - STEP LENGTH
 NULL. -999.2500:NULL Value
~CURVE INFORMATION BLOCK
#MNEM UNIT       ERCB CURVE CODE    CURVE DESCRIPTION
#-----------   ------------------   ----------------------------------
DEPT.M        00 001 00 00         : DEPTH        - DEPTH
DPHI.V/V      00 890 00 00         : PHID         - DENSITY POROSITY (LIMESTONE)
NPHI.V/V      00 330 00 00         : PHIN         - NEUTRON POROSITY (LIMESTONE)
GR  .API      00 310 00 00         : GR           - GAMMA RAY
ILD .OHMM     00 120 00 00         : RESD         - DEEP RESISTIVITY (DIL)
~PARAMETER INFORMATION
#MNEM.UNIT           DATA             DESCRIPTION OF MNEMONIC
#---------         -----------     ------------------------------
GL  .M        553.6                : gl           - GROUND LEVEL ELEVATION
EREF.M        556.9                : kb           - ELEVATION OF DEPTH REFERENCE
DATM.M        553.6                : datum        - DATUM ELEVATION
TDD .M        471                  : tdd          - TOTAL DEPTH DRILLER
RUN .         ONE                  : Run          - RUN NUMBER
ENG .         BILL                 : Engineer     - RECORDING ENGINEER
WIT .         JIM                  : Witness      - WITNESSED BY
MUD .         GEL                  : Mud_type     - MUD TYPE
MATR.         LIMESTONE            : Logunit      - NEUTRON MATRIX
TMAX.C        18                   : BHT          - MAXIMUM RECORDED TEMPERATURE
BHTD.M        471                  : BHTDEP       - MAXIMUM RECORDED TEMPERATURE
MATR.         1                    : LOGUNIT      - NEUTRON MATRIX
RMT .C        25                   : MDTP         - TEMPERATURE OF MUD
NEUT.         1                    : NEUTRON      - NEUTRON TYPE
RESI.         0                    : RESIST       - RESISTIVITY TYPE
RMC .OHMM     0.25                 : RMC          - RESISTIVITY OF MUD CAKE
RMF .OHMM     0.25                 : RMF          - RESISTIVITY OF MUD FILTRATE
SUFT.C        15                   : SUFT         - SURFACE TEMPERATURE
~A  DEPTH     PHID     PHIN       GR     RESD
# ...
  410.500    0.218    0.387   79.293    5.821
  410.750    0.211    0.390   78.228    5.730
  411.000    0.210    0.371   73.823    5.557
  411.250    0.215    0.367   71.522    5.327
  411.500    0.228    0.370   69.715    5.098
  411.750    0.240    0.373   70.501    4.682
  412.000    0.251    0.375   72.156    4.339
  412.250    0.256    0.383   74.490    4.097
  412.500    0.257    0.393   77.873    3.769
  412.750    0.253    0.440   81.750    3.474
  413.000    0.246    0.497   85.751    3.319
  413.250    0.240    0.511   88.889    3.278
  413.500    0.236    0.483   90.604    3.259
  413.750    0.237    0.472   90.527    3.287
  414.000    0.238    0.459   93.724    3.291
  414.250    0.244    0.444   94.266    3.270
  414.500    0.249    0.453   90.542    3.247
  414.750    0.244    0.470   95.159    3.161
  415.000    0.235    0.437   96.692    3.116
  415.250    0.230    0.419   96.490    3.096
  415.500    0.223    0.416   94.868    3.182
  415.750    0.211    0.428   91.634    3.356
  416.000    0.198    0.408   89.212    3.636
  416.250    0.197    0.400   84.741    3.873
  416.500    0.197    0.405   84.794    4.079
  416.750    0.195    0.401   87.312    4.200
  417.000    0.195    0.412   89.829    4.275
  417.250    0.190    0.418   90.681    4.304
  417.500    0.184    0.410   90.230    4.348
  417.750    0.176    0.379   89.043    4.667
  418.000    0.173    0.358   88.284    5.111
  418.250    0.165    0.344   86.045    5.749
  418.500    0.147    0.334   80.591    6.563
  418.750    0.121    0.318   69.263    7.449
  419.000    0.067    0.283   62.328    8.473
  419.250    0.045    0.216   55.391    9.334
  419.500    0.098    0.278   62.420    9.775
  419.750    0.136    0.321   70.126    9.639
  420.000    0.194    0.358   73.823    8.589
  420.250    0.165    0.346   76.525    6.902
  420.500    0.152    0.356   72.741    6.094
  420.750    0.183    0.373   78.349    5.744
  421.000    0.204    0.389   83.895    5.549
  421.250    0.198    0.383   86.910    5.403
  421.500    0.191    0.373   90.293    5.427
  421.750    0.181    0.389   86.568    5.494
  422.000    0.171    0.401   83.400    5.555
  422.250    0.166    0.388   82.892    5.571
  422.500    0.172    0.376   85.594    5.563
  422.750    0.178    0.370   85.147    5.579
  423.000    0.174    0.365   81.918    5.442
  423.250    0.167    0.359   80.482    5.356
  423.500    0.164    0.370   80.280    5.233
  423.750    0.171    0.392   80.635    5.104
  424.000    0.169    0.389   81.608    5.042
  424.250    0.169    0.366   83.196    5.018
  424.500    0.174    0.361   84.543    5.006
  424.750    0.178    0.356   85.024    5.009
  425.000    0.172    0.351   81.546    5.092
  425.250    0.182    0.342   80.974    5.173
  425.500    0.188    0.336   86.211    5.279
  425.750    0.188    0.328   90.957    5.405
  426.000    0.178    0.320   92.980    5.438
  426.250    0.137    0.290   91.110    5.793
  426.500    0.058    0.266   86.830    6.476
  426.750    0.030    0.240   83.602    9.157
  427.000    0.031    0.199   74.130   12.707
  427.250    0.058    0.220   59.591   15.757
  427.500    0.054    0.217   53.087   17.987
  427.750    0.052    0.207   55.296   13.260
  428.000    0.095    0.274   61.704   10.538
  428.250    0.139    0.306   67.374    9.044
  428.500    0.168    0.329   71.131    7.807
  428.750    0.183    0.287   65.616    7.331
  429.000    0.137    0.263   59.297    7.081
  429.250    0.097    0.284   61.998    6.841
  429.500    0.059    0.300   67.484    6.583
  429.750    0.035    0.275   64.441    6.337
  430.000    0.102    0.245   61.584    6.056
  430.250    0.161    0.286   70.900    6.013
  430.500    0.174    0.318   78.545    5.702
  430.750    0.175    0.344   82.427    5.506
  431.000    0.175    0.340   80.000    5.191
  431.250    0.174    0.345   80.972    4.688
  431.500    0.191    0.356   83.987    4.401
  431.750    0.205    0.367   88.358    3.878
  432.000    0.212    0.391   93.409    3.291
  432.250    0.217    0.411   99.083    2.921
  432.500    0.211    0.427   98.818    2.991
  432.750    0.190    0.407   94.663    3.415
  433.000    0.159    0.380   90.940    4.202
  433.250    0.140    0.362   64.225    5.410
  433.500    0.150    0.348   64.704    7.244
  433.750    0.161    0.351   67.466    8.301
  434.000    0.163    0.357   70.173    7.710
  434.250    0.164    0.339   74.484    6.948
  434.500    0.167    0.342   71.935    6.463
  434.750    0.181    0.352   77.480    6.070
  435.000    0.181    0.352   79.751    6.169
  435.250    0.167    0.362   79.552    6.681
  435.500    0.154    0.362   79.599    7.729
  435.750    0.131    0.344   72.847    9.637
  436.000    0.130    0.327   61.892   11.726
  436.250    0.151    0.306   59.775   12.966
  436.500    0.169    0.309   60.063   13.351
  436.750    0.167    0.301   59.990   12.493
  437.000    0.150    0.267   61.953   11.174
  437.250    0.134    0.279   70.959    9.994
  437.500    0.129    0.302   76.075    9.057
  437.750    0.106    0.308   80.200    8.116
  438.000    0.119    0.300   89.455    7.551
  438.250    0.148    0.323   97.104    7.038
  438.500    0.157    0.342   90.165    6.598
  438.750    0.148    0.349   84.465    6.118
  439.000    0.138    0.342   84.820    5.908
  439.250    0.126    0.346   82.329    5.590
  439.500    0.127    0.353   75.704    5.379
  439.750    0.129    0.364   70.188    5.226
  440.000    0.145    0.362   81.977    5.213
  440.250    0.164    0.363   91.601    5.307
  440.500    0.167    0.366   94.554    5.434
  440.750    0.159    0.369   90.644    5.420
  441.000    0.150    0.372   86.673    5.323
  441.250    0.153    0.372   90.057    5.123
  441.500    0.162    0.383   91.958    4.886
  441.750    0.169    0.393   86.936    4.843
  442.000    0.159    0.401   90.442    4.812
  442.250    0.150    0.388   93.765    4.835
  442.500    0.144    0.392   90.720    4.877
  442.750    0.139    0.398   88.542    4.985
  443.000    0.135    0.377   86.302    5.085
  443.250    0.142    0.369   89.624    5.217
  443.500    0.142    0.376   96.035    5.289
  443.750    0.105    0.357   99.544    5.296
  444.000    0.110    0.347   98.230    5.202
  444.250    0.116    0.338   94.568    4.922
  444.500    0.119    0.334   93.008    4.615
  444.750    0.142    0.370   94.227    4.407
  445.000    0.162    0.394   95.881    4.249
  445.250    0.164    0.412  100.934    4.238
  445.500    0.154    0.382  102.278    4.522
  445.750    0.127    0.365   98.492    4.817
  446.000    0.088    0.347   91.246    4.940
  446.250    0.131    0.332   87.460    4.899
  446.500    0.165    0.357   90.658    4.516
  446.750    0.164    0.388   97.070    4.100
  447.000    0.159    0.407  101.504    3.800
  447.250    0.159    0.390  104.641    3.684
  447.500    0.162    0.385  103.946    3.837
  447.750    0.150    0.381  101.273    4.063
  448.000    0.140    0.377   98.600    4.510
  448.250    0.142    0.359   96.110    5.188
  448.500    0.138    0.348   91.955    5.878
  448.750    0.132    0.337   88.480    6.402
  449.000    0.138    0.323   87.846    7.080
  449.250    0.135    0.312   86.966    7.859
  449.500    0.125    0.292   84.662    8.774
  449.750    0.091    0.248   79.208    9.324
  450.000    0.044    0.196   60.467   10.312
  450.250   -0.012    0.222   40.118   11.021
  450.500   -0.012    0.247   35.715   12.030
  450.750   -0.009    0.247   30.817   12.691
  451.000   -0.002    0.216   22.210   13.473
  451.250    0.013    0.202   19.105   13.711
  451.500    0.044    0.228   21.500   13.957
  451.750    0.072    0.258   20.866   14.620
  452.000    0.099    0.261   22.578   15.365
  452.250    0.123    0.268   25.901   16.614
  452.500    0.138    0.283   30.088   17.559
  452.750    0.152    0.309   33.470   18.525
  453.000    0.148    0.345   32.902   19.507
  453.250    0.170    0.371   29.733   20.737
  453.500    0.195    0.379   26.874   22.084
  453.750    0.303    0.339   24.759   24.563
