~VERSION INFORMATION
 VERS.                 2.0:   CWLS LOG ASCII STANDARD -VERSION 2.0
 WRAP.                  NO:   ONE LINE PER DEPTH STEP
~WELL INFORMATION BLOCK
#MNEM.UNIT           DATA                    DESCRIPTION OF MNEMONIC
#---------    -------------------            -------------------------------
# Generated from Intellog Unique Number	CW_79_81/WELL/416
WELL.         05-12-079-21W4                 : Well_name    - WELL
LOC .         00/05-12-079-21W4/0            : Location     - LOCATION
UWI .         00/05-12-079-21W4/0            : Uwi          - UNIQUE WELL ID
ENTR.         MAX                            : Entered      - ENTERED BY
SRVC.         SCHLUMBERGER                   : Scn          - SERVICE COMPANY
STRT.M        190                            : top_depth    - START DEPTH
STOP.M        415                            : bot_depth    - STOP DEPTH
STEP.M        0.25                           : increment    - STEP LENGTH
 NULL. -999.2500:NULL Value
~CURVE INFORMATION BLOCK
#MNEM UNIT       ERCB CURVE CODE    CURVE DESCRIPTION
#-----------   ------------------   ----------------------------------
DEPT.M        00 001 00 00         : DEPTH        - DEPTH
ILD .OHMM     00 120 00 00         : RESD         - DEEP RESISTIVITY (DIL)
NPHI.V/V      00 330 00 00         : PHIN         - NEUTRON POROSITY (SANDSTONE)
DPHI.V/V      00 890 00 00         : PHID         - DENSITY POROSITY (SANDSTONE)
CALI.MM       00 280 01 00         : CAL          - CALIPER
GR  .API      00 310 00 00         : GR           - GAMMA RAY
~PARAMETER INFORMATION
#MNEM.UNIT           DATA             DESCRIPTION OF MNEMONIC
#---------         -----------     ------------------------------
GL  .M        566.25               : gl           - GROUND LEVEL ELEVATION
EREF.M        569.55               : kb           - ELEVATION OF DEPTH REFERENCE
DATM.M        566.25               : datum        - DATUM ELEVATION
TDD .M        420                  : tdd          - TOTAL DEPTH DRILLER
RUN .         ONE                  : Run          - RUN NUMBER
ENG .         BILL                 : Engineer     - RECORDING ENGINEER
WIT .         JIM                  : Witness      - WITNESSED BY
MUD .         GEL                  : Mud_type     - MUD TYPE
MATR.         SANDSTONE            : Logunit      - NEUTRON MATRIX
TMAX.C        23.3                 : BHT          - MAXIMUM RECORDED TEMPERATURE
BHTD.M        420                  : BHTDEP       - MAXIMUM RECORDED TEMPERATURE
RMT .C        12.8                 : MDTP         - TEMPERATURE OF MUD
MUDD.KG/M     1160                 : MWT          - MUD DENSITY
NEUT.         1                    : NEUTRON      - NEUTRON TYPE
RESI.         0                    : RESIST       - RESISTIVITY TYPE
RM  .OHMM     10.7                 : RM           - RESISTIVITY OF MUD
RMC .OHMM     0.25                 : RMC          - RESISTIVITY OF MUD CAKE
RMF .OHMM     11.3                 : RMF          - RESISTIVITY OF MUD FILTRATE
SUFT.C        -5                   : SUFT         - SURFACE TEMPERATURE
~A  DEPTH     RESD     PHIN     PHID      CAL       GR
# ...
  299.500    6.172    0.466    0.206  163.278   91.996
  299.750    6.291    0.486    0.231  163.363   85.833
  300.000    6.775    0.479    0.243  162.479   78.790
  300.250    7.293    0.465    0.240  161.103   77.671
  300.500    7.995    0.434    0.234  160.231   82.750
  300.750    8.766    0.438    0.244  159.850   80.736
  301.000    9.439    0.440    0.252  159.961   77.546
  301.250    9.888    0.444    0.268  159.543   75.835
  301.500    9.996    0.448    0.259  159.666   74.103
  301.750   10.097    0.453    0.248  159.764   72.681
  302.000   10.113    0.459    0.241  160.354   73.041
  302.250   10.036    0.467    0.247  160.427   75.169
  302.500   10.049    0.473    0.265  159.064   79.079
  302.750    9.972    0.458    0.255  158.179   80.024
  303.000    9.809    0.448    0.255  157.295   81.560
  303.250    9.560    0.441    0.249  156.423   80.730
  303.500    9.315    0.436    0.242  156.509   82.569
  303.750    8.602    0.425    0.230  156.607   85.288
  304.000    7.939    0.417    0.220  158.179   87.705
  304.250    7.261    0.430    0.211  159.272   88.657
  304.500    6.887    0.457    0.225  158.867   86.939
  304.750    6.960    0.479    0.215  157.982   85.221
  305.000    7.562    0.486    0.236  157.110   82.615
  305.250    8.442    0.473    0.281  156.717   79.707
  305.500    9.422    0.460    0.287  156.803   74.446
  305.750   10.908    0.452    0.282  156.914   70.953
  306.000   12.069    0.449    0.270  157.515   68.939
  306.250   12.874    0.464    0.292  157.626   64.848
  306.500   13.616    0.426    0.295  157.724   61.052
  306.750   13.884    0.414    0.293  158.780   58.151
  307.000   13.778    0.392    0.291  158.412   56.736
  307.250   13.305    0.406    0.284  157.994   56.504
  307.500   12.624    0.416    0.275  157.626   57.456
  307.750   12.081    0.433    0.280  157.220   58.682
  308.000   11.458    0.426    0.283  156.839   61.106
  308.250   11.068    0.420    0.284  157.417   62.057
  308.500   10.783    0.434    0.278  157.024   62.706
  308.750   10.607    0.445    0.274  156.139   63.362
  309.000   10.620    0.441    0.276  155.758   64.011
  309.250   10.635    0.441    0.284  155.869   64.652
  309.500   10.652    0.441    0.292  155.942   67.083
  309.750   10.572    0.437    0.290  157.036   69.514
  310.000   10.572    0.437    0.281  158.608   71.635
  310.250   10.505    0.439    0.249  160.684   74.954
  310.500    9.695    0.440    0.207  161.752   80.336
  310.750    8.555    0.443    0.183  163.816   87.204
  311.000    7.480    0.449    0.184  164.897   92.889
  311.250    6.660    0.450    0.202  167.476   94.714
  311.500    6.430    0.457    0.219  170.510   97.744
  311.750    6.326    0.466    0.192  171.124   98.386
  312.000    6.448    0.474    0.194  172.672   98.443
  312.250    6.758    0.472    0.201  171.787   98.803
  312.500    7.275    0.470    0.222  167.979   95.599
  312.750    8.049    0.467    0.220  162.169   93.888
  313.000    8.743    0.485    0.227  158.841   93.656
  313.250    9.502    0.476    0.229  157.440   93.410
  313.500    9.600    0.457    0.211  157.047   94.052
  313.750    9.525    0.450    0.208  157.158   94.116
  314.000    9.283    0.444    0.209  157.735   96.244
  314.250    8.805    0.453    0.194  159.835   99.851
  314.500    8.278    0.466    0.199  160.892  100.204
  314.750    7.923    0.475    0.209  160.511   94.936
  315.000    7.720    0.479    0.215  160.105   92.035
  315.250    7.593    0.478    0.187  159.712   92.683
  315.500    7.466    0.472    0.176  159.823   95.713
  315.750    7.411    0.460    0.213  159.909   96.651
  316.000    7.423    0.442    0.209  161.002   95.243
  316.250    7.365    0.446    0.202  162.586   94.701
  316.500    7.377    0.453    0.190  163.164   95.061
  316.750    7.320    0.460    0.188  163.765   95.104
  317.000    7.198    0.461    0.210  165.338   94.274
  317.250    7.146    0.461    0.207  165.915   92.260
  317.500    7.221    0.464    0.185  165.030   90.556
  317.750    7.427    0.466    0.189  165.129   90.310
  318.000    7.853    0.473    0.193  166.222   90.367
  318.250    8.847    0.496    0.207  164.846   88.649
  318.500   10.056    0.485    0.142  162.009   82.191
  318.750   10.925    0.448    0.085  160.154   75.733
  319.000   11.451    0.297    0.132  159.257   84.968
  319.250   11.465    0.323    0.197  158.864   90.653
  319.500   10.975    0.353    0.209  158.950   94.866
  319.750   10.314    0.413    0.189  159.048   96.106
  320.000    9.523    0.442    0.191  159.146   96.452
  320.250    9.450    0.440    0.193  159.748   97.108
  320.500    9.463    0.434    0.188  159.834   98.341
  320.750    9.477    0.440    0.159  160.448   98.398
  321.000    9.403    0.452    0.160  161.038   96.385
  321.250    9.418    0.461    0.155  161.627   93.188
  321.500   10.139    0.447    0.140  162.229   91.174
  321.750   11.525    0.410    0.099  162.806   87.089
  322.000   12.187    0.328    0.126  162.413   83.596
  322.250   12.092    0.371    0.154  161.025   90.457
  322.500   11.576    0.400    0.167  160.165   98.221
  322.750   10.781    0.437    0.193  159.784   97.390
  323.000   10.225    0.444    0.202  159.858   95.672
  323.250   10.056    0.445    0.188  160.460   95.433
  323.500   10.072    0.448    0.197  160.546   95.779
  323.750    9.995    0.447    0.192  160.644   97.034
  324.000    9.655    0.450    0.163  161.246   98.873
  324.250    9.325    0.444    0.159  161.332  100.099
  324.500    8.924    0.448    0.169  161.946  102.530
  324.750    8.699    0.458    0.164  162.056  104.658
  325.000    9.050    0.462    0.123  154.696   98.590
  325.250    9.475    0.453    0.115  155.192   89.385
  325.500    9.740    0.369    0.094  156.184   75.132
  325.750    9.832    0.316    0.068  155.196   71.273
  326.000    9.744    0.319    0.156  156.187   83.746
  326.250    9.396    0.409    0.160  157.178   92.952
  326.500    9.061    0.456    0.148  158.664  105.128
  326.750    8.737    0.465    0.173  160.151  107.505
  327.000    8.122    0.459    0.178  158.173  102.161
  327.250    7.833    0.463    0.154  163.124  102.756
  327.500    7.416    0.472    0.167  164.115  103.647
  327.750    7.022    0.461    0.169  165.601  104.539
  328.000    6.468    0.461    0.174  164.118  105.728
  328.250    5.905    0.490    0.173  160.655  108.105
  328.500    5.292    0.505    0.196  163.626  111.372
  328.750    5.057    0.520    0.203  160.163  114.045
  329.000    5.151    0.519    0.226  158.185  108.404
  329.250    5.443    0.506    0.220  157.197  101.278
  329.500    6.187    0.497    0.209  156.703   98.903
  329.750    7.295    0.487    0.198  156.705   97.123
  330.000    8.217    0.513    0.181  156.706   94.451
  330.250    8.603    0.500    0.183  156.708   93.264
  330.500    9.006    0.456    0.197  156.709   94.156
  330.750    9.430    0.438    0.206  156.711   96.235
  331.000    9.605    0.426    0.197  156.713   98.315
  331.250    9.784    0.436    0.199  156.714  101.583
  331.500    9.784    0.435    0.195  157.706  102.177
  331.750    9.789    0.432    0.190  158.698  101.882
  332.000    9.790    0.439    0.209  158.699  100.695
  332.250    9.790    0.449    0.206  156.226   96.538
  332.500    9.795    0.456    0.208  156.227   93.569
  332.750    9.707    0.452    0.199  157.713   93.867
  333.000    9.621    0.450    0.215  157.715   97.729
  333.250    9.623    0.456    0.210  156.727  100.996
  333.500    9.624    0.443    0.210  156.728  102.185
  333.750   10.077    0.427    0.194  158.214  103.967
  334.000   10.843    0.413    0.172  158.216  103.672
  334.250   12.102    0.397    0.143  158.712  102.188
  334.500   13.883    0.368    0.105  159.209   95.952
  334.750   14.669    0.343    0.088  158.716   87.935
  335.000   14.942    0.314    0.071  158.222   77.543
  335.250   14.541    0.284    0.071  158.224   73.980
  335.500   13.643    0.331    0.137  156.741   85.563
  335.750   12.453    0.387    0.189  156.742   96.848
