~VERSION INFORMATION
 VERS.                 2.0:   CWLS LOG ASCII STANDARD -VERSION 2.0
 WRAP.                  NO:   ONE LINE PER DEPTH STEP
~WELL INFORMATION BLOCK
#MNEM.UNIT           DATA                    DESCRIPTION OF MNEMONIC
#---------    -------------------            -------------------------------
# Generated from Intellog Unique Number	CW_76_78/WELL/3097
WELL.         04-30-078-23W4                 : Well_name    - WELL
LOC .         00/04-30-078-23W4/0            : Location     - LOCATION
UWI .         00/04-30-078-23W4/0            : Uwi          - UNIQUE WELL ID
ENTR.         MAX                            : Entered      - ENTERED BY
SRVC.         SCHLUMBERGER                   : Scn          - SERVICE COMPANY
DATE.         4 MAR 84                       : Date         - LOG DATE
STRT.M        270                            : top_depth    - START DEPTH
STOP.M        520                            : bot_depth    - STOP DEPTH
STEP.M        0.25                           : increment    - STEP LENGTH
 NULL. -999.2500:NULL Value
~CURVE INFORMATION BLOCK
#MNEM UNIT       ERCB CURVE CODE    CURVE DESCRIPTION
#-----------   ------------------   ----------------------------------
DEPT.M        00 001 00 00         : DEPTH        - DEPTH
GR  .API      00 310 00 00         : GR           - GAMMA RAY
ILD .OHMM     00 120 00 00         : RESD         - DEEP RESISTIVITY (DIL)
NPHI.V/V      00 330 00 00         : PHIN         - NEUTRON POROSITY (SANDSTONE)
DPHI.V/V      00 890 00 00         : PHID         - DENSITY POROSITY (SANDSTONE)
~PARAMETER INFORMATION
#MNEM.UNIT           DATA             DESCRIPTION OF MNEMONIC
#---------         -----------     ------------------------------
GL  .M        587.9                : gl           - GROUND LEVEL ELEVATION
EREF.M        591.6                : kb           - ELEVATION OF DEPTH REFERENCE
DATM.M        587.9                : datum        - DATUM ELEVATION
TDD .M        525                  : tdd          - TOTAL DEPTH DRILLER
RUN .         ONE                  : Run          - RUN NUMBER
MUD .         GEL CHEM             : Mud_type     - MUD TYPE
MATR.         SANDSTONE            : Logunit      - NEUTRON MATRIX
TMAX.C        11                   : BHT          - MAXIMUM RECORDED TEMPERATURE
BHTD.M        524                  : BHTDEP       - MAXIMUM RECORDED TEMPERATURE
RMT .C        11                   : MDTP         - TEMPERATURE OF MUD
MUDD.KG/M     1130                 : MWT          - MUD DENSITY
NEUT.         1                    : NEUTRON      - NEUTRON TYPE
RESI.         0                    : RESIST       - RESISTIVITY TYPE
RM  .OHMM     9                    : RM           - RESISTIVITY OF MUD
RMC .OHMM     13.8                 : RMC          - RESISTIVITY OF MUD CAKE
RMF .OHMM     13.8                 : RMF          - RESISTIVITY OF MUD FILTRATE
SUFT.C        4                    : SUFT         - SURFACE TEMPERATURE
~A  DEPTH       GR     RESD     PHIN     PHID
# ...
  487.500   64.836   42.840    0.369    0.276
  487.750   61.205   49.661    0.371    0.282
  488.000   63.056   56.524    0.371    0.299
  488.250   66.736   51.643    0.371    0.296
  488.500   71.025   35.199    0.369    0.279
  488.750   77.143   31.003    0.364    0.264
  489.000   85.090   24.917    0.356    0.246
  489.250   92.427   21.947    0.346    0.229
  489.500   94.893   18.980    0.341    0.216
  489.750   79.673   17.993    0.373    0.221
  490.000   68.721   20.102    0.395    0.227
  490.250   65.080   25.537    0.389    0.204
  490.500   61.449   41.923    0.324    0.179
  490.750   61.470   57.324    0.263    0.156
  491.000   62.711   89.076    0.207    0.137
  491.250   64.562   87.569    0.178    0.114
  491.500   67.017   71.681    0.148    0.104
  491.750   70.097   36.459    0.176    0.111
  492.000   71.954   25.294    0.190    0.121
  492.250   76.237   23.536    0.232    0.125
  492.500   79.911   20.730    0.274    0.155
  492.750   83.591   18.259    0.304    0.147
  493.000   89.099   14.946    0.326    0.141
  493.250   95.218   12.461    0.344    0.144
  493.500  100.726   11.178    0.352    0.165
  493.750  104.411    9.845    0.363    0.178
  494.000  101.384    9.331    0.380    0.181
  494.250   95.304    9.173    0.351    0.172
  494.500   90.448    9.184    0.339    0.165
  494.750   90.481    9.369    0.329    0.157
  495.000   94.155    9.213    0.321    0.165
  495.250  100.273    9.219    0.326    0.172
  495.500  110.659    8.898    0.344    0.177
  495.750  117.387    8.433    0.403    0.185
  496.000  111.312    7.847    0.430    0.185
  496.250   97.927    7.574    0.460    0.215
  496.500   93.675    7.867    0.473    0.226
  496.750   86.381    8.176    0.458    0.264
  497.000   79.697    8.486    0.438    0.310
  497.250   80.328    8.976    0.460    0.346
  497.500   81.569    9.853    0.491    0.340
  497.750   81.596   11.218    0.472    0.275
  498.000   81.008   11.439    0.454    0.229
  498.250   81.639   11.042    0.372    0.198
  498.500   84.099   10.464    0.354    0.207
  498.750   85.944    9.737    0.347    0.211
  499.000   95.116    9.399    0.344    0.195
  499.250  100.630    9.072    0.339    0.176
  499.500  101.866    9.081    0.339    0.156
  499.750  103.107    9.092    0.343    0.167
  500.000  102.524    9.103    0.350    0.223
  500.250  101.332    9.115    0.396    0.215
  500.500   98.300    9.126    0.418    0.202
  500.750   95.877    8.972    0.367    0.151
  501.000   91.022    8.503    0.339    0.150
  501.250   87.385    8.058    0.343    0.168
  501.500   82.530    7.922    0.343    0.166
  501.750   82.557    7.790    0.339    0.155
  502.000   88.675    7.800    0.338    0.130
  502.250   94.788    7.671    0.334    0.136
  502.500  102.740    7.675    0.333    0.148
  502.750  107.035    7.685    0.334    0.145
  503.000  108.885    7.839    0.334    0.134
  503.250  107.688    8.295    0.341    0.126
  503.500  106.485    8.459    0.350    0.108
  503.750  104.683    8.017    0.359    0.089
  504.000  102.876    7.322    0.363    0.074
  504.250  103.501    5.994    0.359    0.093
  504.500  105.357    5.182    0.356    0.106
  504.750  107.823    4.564    0.354    0.125
  505.000  108.449    4.327    0.363    0.147
  505.250  109.684    4.925    0.375    0.153
  505.500  111.540    5.922    0.386    0.154
  505.750  112.781    6.991    0.398    0.150
  506.000  114.632    7.674    0.409    0.143
  506.250  114.044    7.138    0.420    0.132
  506.500  112.852    6.767    0.429    0.116
  506.750  109.820    6.657    0.440    0.108
  507.000  105.574    6.661    0.448    0.052
  507.250  100.724    6.546    0.451    0.012
  507.500  103.184    6.436    0.438    0.039
  507.750  105.029    6.327    0.432    0.057
  508.000  108.708    6.222    0.447    0.074
  508.250  112.388    6.115    0.439    0.096
  508.500  117.897    6.124    0.419    0.125
  508.750  120.362    6.132    0.412    0.135
  509.000  121.603    5.706    0.409    0.131
  509.250  120.405    5.407    0.404    0.122
  509.500  114.935    5.219    0.396    0.118
  509.750  108.860    5.131    0.353    0.108
  510.000  105.839    5.044    0.342    0.030
  510.250  109.524    5.052    0.349    0.074
  510.500  111.369    5.247    0.363    0.087
  510.750  114.439    5.651    0.369    0.099
  511.000  117.509    5.559    0.374    0.106
  511.250  122.407    5.564    0.382    0.107
  511.500  120.600    5.373    0.382    0.104
  511.750  118.183    5.378    0.379    0.095
  512.000  109.670    5.386    0.372    0.083
  512.250   94.450    5.390    0.347    0.065
  512.500   74.963    5.108    0.329    0.065
  512.750   62.176    4.499    0.318    0.089
  513.000   61.599    4.342    0.311    0.203
  513.250   60.396    4.511    0.318    0.198
  513.500   55.546    5.135    0.333    0.195
  513.750   51.904    5.843    0.340    0.212
  514.000   50.707    7.158    0.343    0.232
  514.250   51.948    9.433    0.340    0.248
  514.500   55.633   10.541    0.338    0.245
  514.750   58.087   11.150    0.340    0.238
  515.000   62.992   11.371    0.314    0.222
  515.250   64.233   11.595    0.326    0.001
  515.500   64.864   11.617    0.348    0.010
  515.750   62.447   11.632    0.350    0.012
  516.000   61.859   11.435    0.318    0.017
  516.250   63.709   11.241    0.298    0.044
  516.500   64.335   11.051    0.292    0.055
  516.750   63.753   10.670    0.290    0.050
  517.000   62.555   10.677    0.294    0.046
  517.250   61.972   10.496    0.323    0.039
  517.500   60.769   10.132    0.330    0.029
  517.750   58.962    9.602    0.320    0.023
  518.000   59.593    9.271    0.307    0.026
  518.250   60.834    9.111    0.294    0.026
  518.500   62.685    8.638    0.292    0.021
  518.750   64.535    8.038    0.289    0.025
  519.000   66.386    7.756    0.292    0.035
  519.250   68.237    7.625    0.301    0.079
  519.500   70.087    7.095    0.307    0.111
  519.750   71.328    6.602    0.311    0.149
  520.000   73.179    6.257    0.312    0.144
