~VERSION INFORMATION
 VERS.                 2.0:   CWLS LOG ASCII STANDARD -VERSION 2.0
 WRAP.                  NO:   ONE LINE PER DEPTH STEP
~WELL INFORMATION BLOCK
#MNEM.UNIT           DATA                    DESCRIPTION OF MNEMONIC
#---------    -------------------            -------------------------------
# Generated from Intellog Unique Number	CC_80_83/WELL/1171
NULL.         -999.25                        : NULL_VALUE
WELL.         PARA ET AL CHARD               : Well_name
LOC .         07-01-080-06W4                 : Location     - LOCATION          
UWI .         00/07-01-080-06W400            : Uwi          - UNIQUE WELL ID    
ENTR.         DW                             : Entered      - ENTERED BY        
SRVC.         SCHLUMBERGER                   : Scn          - SERVICE COMPANY   
DATE.         11 JAN 82                      : Date         - LOG DATE
STRT.M        104                            : top_depth    - START DEPTH       
STOP.M        280.101                        : bot_depth    - STOP DEPTH        
STEP.M        0.3                            : increment    - STEP LENGTH       
~CURVE INFORMATION BLOCK
#MNEM UNIT       ERCB CURVE CODE    CURVE DESCRIPTION
#-----------   ------------------   ----------------------------------
DEPT.M        00 001 00 00         : DEPTH        - DEPTH                       
DPHI.V/V      00 890 00 00         : PHID         - DENSITY POROSITY (LIMESTONE)
NPHI.V/V      00 330 00 00         : PHIN         - NEUTRON POROSITY (LIMESTONE)
GR  .API      00 310 00 00         : GR           - GAMMA RAY                   
ILD .OHMM     00 120 00 00         : RESD         - DEEP RESISTIVITY (DIL)      
~PARAMETER INFORMATION       
#MNEM.UNIT           DATA             DESCRIPTION OF MNEMONIC
#---------         -----------     ------------------------------
GL  .M        463.74               : gl           - GROUND LEVEL ELEVATION      
EREF.M        466.74               : kb           - ELEVATION OF DEPTH REFERENCE
DATM.M        466.74               : datum        - DATUM ELEVATION             
TDD .M        292                  : tdd          - TOTAL DEPTH DRILLER         
RUN .         ONE                  : Run          - RUN NUMBER                  
ENG .         BILL                 : Engineer     - RECORDING ENGINEER          
WIT .         JIM                  : Witness      - WITNESSED BY                
MUD .         GEL                  : Mud_type     - MUD TYPE                    
MATR.         LIMESTONE            : Logunit      - NEUTRON MATRIX              
TMAX.C        21                   : BHT          - MAXIMUM RECORDED TEMPERATURE
BHTD.M        292                  : BHTDEP       - MAXIMUM RECORDED TEMPERATURE
MATR.         1                    : LOGUNIT      - NEUTRON MATRIX              
RMT .C        25                   : MDTP         - TEMPERATURE OF MUD          
NEUT.         1                    : NEUTRON      - NEUTRON TYPE                
RESI.         0                    : RESIST       - RESISTIVITY TYPE            
RMC .OHMM     0.25                 : RMC          - RESISTIVITY OF MUD CAKE     
RMF .OHMM     0.25                 : RMF          - RESISTIVITY OF MUD FILTRATE 
SUFT.C        15                   : SUFT         - SURFACE TEMPERATURE         
~A  DEPTH     PHID     PHIN       GR     RESD
# ...
  208.401    0.330    0.189   65.083   46.246
  208.701    0.332    0.177   68.802   42.030
  209.001    0.339    0.176   71.901   38.928
  209.301    0.325    0.244   71.901   36.059
  209.601    0.318    0.247   67.562   31.547
  209.901    0.321    0.228   71.281   27.079
  210.201    0.320    0.216   78.099   24.153
  210.501    0.318    0.227   76.240   21.537
  210.801    0.318    0.274   74.380   19.943
  211.101    0.287    0.326   78.099   19.560
  211.401    0.270    0.325   84.297   16.793
  211.701    0.245    0.330   96.694   13.366
  212.001    0.219    0.363  113.430   11.261
  212.301    0.238    0.414  123.967    9.309
  212.601    0.280    0.452  112.810    8.786
  212.901    0.294    0.430  101.033    9.118
  213.201    0.290    0.325   81.818    9.827
  213.501    0.275    0.299   86.777   10.199
  213.801    0.264    0.304   92.355   10.385
  214.101    0.207    0.380   91.736    9.803
  214.401    0.211    0.406   65.703    9.077
  214.701    0.254    0.390   48.967    8.569
  215.001    0.273    0.362   44.628    7.937
  215.301    0.284    0.352   45.868    7.349
  215.601    0.290    0.351   57.025    7.069
  215.901    0.275    0.400   58.884    6.799
  216.201    0.130    0.249   55.785    6.667
  216.501    0.106    0.243   65.083    6.791
  216.801    0.156    0.357   75.000    9.913
  217.101    0.202    0.393   97.934   10.683
  217.401    0.206    0.426  106.612   10.880
  217.701    0.201    0.385   97.934   10.466
  218.001    0.200    0.353   94.835   10.256
  218.301    0.201    0.373   96.074   10.446
  218.601    0.206    0.351   93.595   10.639
  218.901    0.224    0.333   80.579   10.834
  219.201    0.238    0.370   81.198   11.029
  219.501    0.233    0.349   83.058   10.816
  219.801    0.224    0.363   83.058   10.402
  220.101    0.224    0.421   88.636   10.196
  220.401    0.226    0.441   96.074   10.001
  220.701    0.231    0.421   99.174    9.619
  221.001    0.233    0.379  104.132    9.251
  221.301    0.227    0.422  115.909    9.072
  221.601    0.217    0.468  119.008    8.561
  221.901    0.213    0.446  118.388    8.084
  222.201    0.209    0.400  116.529    7.206
  222.501    0.203    0.404  116.529    7.200
  222.801    0.185    0.442  112.190    7.333
  223.101    0.183    0.484  110.950    7.754
  223.401    0.186    0.446  110.950    8.198
  223.701    0.190    0.443  113.430    8.351
  224.001    0.197    0.494  113.430    8.342
  224.301    0.203    0.417  114.050    8.338
  224.601    0.212    0.468  119.008    7.870
  224.901    0.216    0.504  117.769    7.715
  225.201    0.207    0.520  109.091    7.708
  225.501    0.193    0.474  103.512    7.998
  225.801    0.193    0.419   97.934    8.303
  226.101    0.201    0.421   89.256    8.616
  226.401    0.245    0.423   73.760    8.609
  226.701    0.260    0.425   73.141    7.675
  227.001    0.228    0.389   84.297    7.522
  227.301    0.186    0.374  104.752    7.518
  227.601    0.182    0.445  110.331    7.656
  227.901    0.183    0.474  109.091    8.098
  228.201    0.226    0.430   76.859    8.404
  228.501    0.266    0.423   69.421    7.783
  228.801    0.266    0.405   88.636    7.071
  229.101    0.238    0.357   97.934    6.805
  229.401    0.226    0.379   96.694    6.300
  229.701    0.269    0.412   71.901    6.062
  230.001    0.292    0.394   59.504    5.614
  230.301    0.290    0.375   74.380    5.401
  230.601    0.259    0.348  107.851    5.501
  230.901    0.213    0.331  120.868    6.275
  231.201    0.193    0.375  120.868    6.892
  231.501    0.191    0.421  107.231    7.430
  231.801    0.191    0.432  105.372    7.707
  232.101    0.198    0.414  102.893    7.558
  232.401    0.225    0.379   97.314    7.272
  232.701    0.250    0.380   82.438    6.243
  233.001    0.281    0.427   59.504    5.464
  233.301    0.306    0.446   56.405    4.872
  233.601    0.303    0.411   64.463    4.427
  233.901    0.285    0.385   76.859    4.339
  234.201    0.255    0.350   99.174    4.419
  234.501    0.235    0.341   94.215    4.854
  234.801    0.233    0.337   86.777    5.435
  235.101    0.248    0.384   86.777    5.747
  235.401    0.268    0.442   77.479    5.636
  235.701    0.277    0.414   79.339    5.320
  236.001    0.269    0.338  102.273    5.116
  236.301    0.238    0.317   91.116    5.016
  236.601    0.246    0.336   86.777    5.306
  236.901    0.259    0.368  105.992    5.504
  237.201    0.261    0.390  112.190    5.501
  237.501    0.254    0.412  101.653    5.190
  237.801    0.263    0.423   92.975    5.090
  238.101    0.272    0.397   77.479    4.989
  238.401    0.274    0.355   80.579    4.893
  238.701    0.248    0.337   94.215    4.982
  239.001    0.234    0.374   97.934    4.884
  239.301    0.232    0.390  123.967    4.609
  239.601    0.274    0.364  111.570    4.520
  239.901    0.306    0.365  102.893    4.107
  240.201    0.291    0.362  132.025    4.028
  240.501    0.245    0.331  146.901    4.024
  240.801    0.251    0.323  151.859    4.097
  241.101    0.280    0.349  151.859    4.018
  241.401    0.290    0.423  133.264    3.864
  241.701    0.290    0.437   89.256    3.511
  242.001    0.297    0.394   83.678    3.378
  242.301    0.303    0.355   78.719    3.250
  242.601    0.328    0.368   74.380    3.067
  242.901    0.327    0.385   66.322    3.008
  243.201    0.332    0.423   55.165    2.948
  243.501    0.340    0.412   29.132    2.889
  243.801    0.334    0.396   40.289    2.834
  244.101    0.324    0.401   45.868    2.885
  244.401    0.311    0.412   41.529    2.883
  244.701    0.308    0.437   45.868    2.936
  245.001    0.311    0.444   47.107    2.933
  245.301    0.323    0.448   51.446    2.988
  245.601    0.334    0.396   58.264    2.984
  245.901    0.317    0.368   76.240    2.982
  246.201    0.302    0.400   58.884    3.153
  246.501    0.326    0.475   37.190    3.092
  246.801    0.353    0.463   39.669    3.030
  247.101    0.348    0.427   40.909    3.028
  247.401    0.319    0.426   37.810    3.026
  247.701    0.319    0.379   34.711    3.023
  248.001    0.332    0.353   40.289    3.021
  248.301    0.314    0.385   71.901    3.194
  248.601    0.269    0.394   89.256    3.316
  248.901    0.241    0.408   75.000    3.711
  249.201    0.271    0.428   57.025    3.926
  249.501    0.298    0.400   52.066    4.073
  249.801    0.277    0.305   65.703    4.070
  250.101    0.254    0.286   89.256    4.733
  250.401    0.177    0.286  104.132    5.297
  250.701    0.170    0.390   94.215    5.394
  251.001    0.241    0.442   85.537    5.290
  251.301    0.301    0.495   83.678    4.372
  251.602    0.323    0.459   75.620    3.826
  251.902    0.332    0.454   62.603    3.476
  252.202    0.335    0.436   58.884    3.408
  252.502    0.312    0.410   68.182    3.537
  252.802    0.261    0.404   83.678    4.035
  253.102    0.227    0.412   96.694    4.604
  253.402    0.187    0.369  111.570    5.455
  253.702    0.187    0.472  113.430    5.880
  254.002    0.193    0.460  117.149    6.218
  254.302    0.193    0.422  118.388    6.214
  254.602    0.186    0.400  118.388    6.324
  254.902    0.181    0.412  101.653    6.321
  255.202    0.185    0.428  102.273    6.317
  255.502    0.186    0.460  104.752    6.309
  255.802    0.185    0.479  103.512    6.426
  256.102    0.183    0.460  103.512    6.422
  256.402    0.187    0.431  112.190    6.536
  256.702    0.186    0.371  113.430    6.658
  257.001    0.176    0.389  110.331    6.403
  257.301    0.163    0.395  100.413    6.161
  257.601    0.167    0.415   81.198    5.191
  257.901    0.271    0.464   57.645    4.456
  258.201    0.287    0.410   64.463    4.287
  258.501    0.256    0.373   75.620    4.534
  258.801    0.170    0.348   94.215    4.886
  259.101    0.181    0.355  102.893    5.575
  259.401    0.184    0.389  100.413    6.481
  259.701    0.176    0.390   86.777    6.602
  260.001    0.182    0.379   90.496    6.594
  260.301    0.183    0.366   88.016    6.343
