~VERSION INFORMATION
 VERS.                 2.0:   CWLS LOG ASCII STANDARD -VERSION 2.0
 WRAP.                  NO:   ONE LINE PER DEPTH STEP
~WELL INFORMATION BLOCK
#MNEM.UNIT           DATA                    DESCRIPTION OF MNEMONIC
#---------    -------------------            -------------------------------
# Generated from Intellog Unique Number	CS_67_68/WELL/771
WELL.         FISHER CREEK                   : Well_name    - WELL
LOC .         00/07-15-068-06W4/0            : Location     - LOCATION
UWI .         00/07-15-068-06W4/0            : Uwi          - UNIQUE WELL ID
ENTR.         SP                             : Entered      - ENTERED BY
SRVC.         SCHLUMBERGER                   : Scn          - SERVICE COMPANY
STRT.M        350                            : top_depth    - START DEPTH
STOP.M        580                            : bot_depth    - STOP DEPTH
STEP.M        0.25                           : increment    - STEP LENGTH
 NULL. -999.2500:NULL Value
~CURVE INFORMATION BLOCK
#MNEM UNIT       ERCB CURVE CODE    CURVE DESCRIPTION
#-----------   ------------------   ----------------------------------
DEPT.M        00 001 00 00         : DEPTH        - DEPTH
ILD .OHMM     00 120 00 00         : RESD         - DEEP RESISTIVITY (DIL)
DPHI.V/V      00 890 00 00         : PHID         - DENSITY POROSITY (LIMESTONE)
NPHI.V/V      00 330 00 00         : PHIN         - NEUTRON POROSITY (LIMESTONE)
GR  .API      00 310 00 00         : GR           - GAMMA RAY
~PARAMETER INFORMATION
#MNEM.UNIT           DATA             DESCRIPTION OF MNEMONIC
#---------         -----------     ------------------------------
GL  .M        694.03               : gl           - GROUND LEVEL ELEVATION
EREF.M        697.03               : kb           - ELEVATION OF DEPTH REFERENCE
DATM.M        694.03               : datum        - DATUM ELEVATION
TDD .M        591                  : tdd          - TOTAL DEPTH DRILLER
RUN .         ONE                  : Run          - RUN NUMBER
ENG .         BILL                 : Engineer     - RECORDING ENGINEER
WIT .         JIM                  : Witness      - WITNESSED BY
MUD .         GEL                  : Mud_type     - MUD TYPE
MATR.         LIMESTONE            : Logunit      - NEUTRON MATRIX
TMAX.C        23.2                 : BHT          - MAXIMUM RECORDED TEMPERATURE
BHTD.M        591                  : BHTDEP       - MAXIMUM RECORDED TEMPERATURE
MATR.         1                    : LOGUNIT      - NEUTRON MATRIX
RMT .C        25                   : MDTP         - TEMPERATURE OF MUD
NEUT.         1                    : NEUTRON      - NEUTRON TYPE
RESI.         0                    : RESIST       - RESISTIVITY TYPE
RMC .OHMM     0.25                 : RMC          - RESISTIVITY OF MUD CAKE
RMF .OHMM     0.25                 : RMF          - RESISTIVITY OF MUD FILTRATE
SUFT.C        15                   : SUFT         - SURFACE TEMPERATURE
~A  DEPTH     RESD     PHID     PHIN       GR
# ...
  393.500    5.568    0.302    0.452   82.483
  393.750    5.457    0.298    0.437   83.945
  394.000    5.460    0.277    0.432   88.452
  394.250    5.494    0.262    0.437   93.143
  394.500    5.508    0.259    0.442   94.970
  394.750    5.521    0.259    0.442   94.603
  395.000    5.523    0.263    0.455   91.374
  395.250    5.537    0.264    0.475   91.678
  395.500    5.529    0.262    0.493   95.210
  395.750    5.480    0.264    0.511   97.769
  396.000    5.371    0.271    0.481   99.352
  396.250    5.235    0.265    0.467   98.437
  396.500    5.093    0.253    0.458  100.203
  396.750    5.029    0.245    0.463  102.762
  397.000    4.947    0.255    0.461  101.908
  397.250    4.868    0.268    0.454   98.617
  397.500    4.843    0.277    0.460  100.018
  397.750    4.818    0.283    0.457  103.611
  398.000    4.884    0.280    0.434   96.421
  398.250    5.035    0.286    0.424   89.414
  398.500    5.153    0.298    0.417   86.245
  398.750    5.362    0.306    0.415   86.062
  399.000    5.437    0.301    0.425   91.300
  399.250    5.470    0.293    0.418   94.285
  399.500    5.524    0.292    0.409   95.808
  399.750    5.548    0.290    0.415   94.649
  400.000    5.509    0.286    0.406   94.831
  400.250    5.471    0.281    0.397   95.683
  400.500    5.484    0.277    0.418   97.145
  400.750    5.529    0.277    0.431   96.596
  401.000    5.511    0.285    0.440   89.893
  401.250    5.483    0.295    0.447   83.617
  401.500    5.434    0.277    0.431   87.576
  401.750    5.336    0.263    0.418   92.998
  402.000    5.260    0.257    0.435   95.313
  402.250    5.146    0.264    0.456   97.566
  402.500    4.996    0.267    0.467   99.271
  402.750    4.770    0.269    0.477   99.331
  403.000    4.579    0.273    0.478   98.843
  403.250    4.582    0.285    0.470   97.441
  403.500    4.662    0.303    0.465   90.556
  403.750    4.807    0.320    0.447   72.156
  404.000    4.965    0.327    0.437   58.751
  404.250    5.090    0.325    0.435   58.750
  404.500    5.258    0.316    0.434   57.714
  404.750    5.431    0.311    0.432   56.799
  405.000    5.526    0.317    0.424   55.702
  405.250    5.509    0.325    0.419   53.812
  405.500    5.440    0.320    0.421   52.959
  405.750    5.412    0.312    0.425   53.080
  406.000    5.355    0.317    0.428   53.810
  406.250    5.307    0.325    0.432   54.236
  406.500    5.261    0.320    0.434   54.113
  406.750    5.204    0.315    0.438   64.470
  407.000    5.072    0.322    0.427   75.375
  407.250    4.972    0.309    0.418   83.660
  407.500    4.918    0.296    0.418   87.193
  407.750    4.912    0.291    0.425   75.860
  408.000    4.896    0.310    0.429   68.365
  408.250    4.889    0.325    0.442   62.272
  408.500    4.856    0.336    0.427   61.053
  408.750    4.858    0.342    0.414   64.585
  409.000    4.852    0.344    0.408   71.591
  409.250    4.900    0.336    0.419   77.013
  409.500    4.976    0.313    0.437   81.886
  409.750    5.092    0.296    0.432   85.419
  410.000    5.309    0.274    0.405   87.490
  410.250    5.484    0.269    0.401   87.306
  410.500    5.665    0.291    0.424   83.041
  410.750    5.840    0.306    0.452   84.990
  411.000    5.910    0.311    0.472   88.705
  411.250    5.968    0.288    0.487   90.593
  411.500    6.005    0.278    0.497   91.933
  411.750    6.019    0.278    0.518   91.384
  412.000    6.012    0.266    0.496   89.190
  412.250    6.037    0.252    0.476   88.031
  412.500    6.132    0.248    0.467   89.797
  412.750    6.298    0.248    0.458   87.481
  413.000    6.530    0.246    0.455   81.571
  413.250    6.834    0.258    0.448   76.209
  413.500    7.099    0.264    0.438   73.466
  413.750    7.444    0.269    0.423   70.419
  414.000    7.688    0.275    0.412   69.444
  414.250    7.853    0.265    0.403   69.869
  414.500    7.813    0.254    0.384   70.417
  414.750    7.700    0.258    0.388   70.599
  415.000    7.463    0.265    0.395   70.171
  415.250    7.314    0.262    0.393   69.744
  415.500    7.170    0.271    0.389   68.464
  415.750    7.079    0.279    0.387   66.392
  416.000    6.977    0.285    0.389   65.538
  416.250    6.878    0.272    0.394   65.842
  416.500    6.817    0.263    0.396   66.207
  416.750    6.808    0.257    0.404   66.145
  417.000    6.825    0.267    0.405   65.109
  417.250    6.841    0.272    0.407   63.341
  417.500    6.832    0.272    0.399   62.853
  417.750    6.809    0.276    0.375   62.974
  418.000    6.801    0.280    0.359   63.095
  418.250    6.753    0.280    0.368   65.349
  418.500    6.656    0.275    0.377   65.896
  418.750    6.610    0.282    0.387   65.530
  419.000    6.588    0.288    0.394   65.712
  419.250    6.506    0.295    0.387   66.077
  419.500    6.412    0.297    0.384   65.893
  419.750    6.285    0.286    0.381   64.552
  420.000    6.207    0.279    0.380   65.770
  420.250    6.292    0.275    0.391   66.317
  420.500    6.426    0.271    0.398   64.428
  420.750    6.515    0.271    0.402   63.331
  421.000    6.494    0.275    0.393   62.903
  421.250    6.437    0.279    0.389   62.903
  421.500    6.392    0.281    0.396   64.486
  421.750    6.312    0.277    0.405   69.420
  422.000    6.233    0.272    0.402   70.882
  422.250    6.190    0.268    0.406   68.383
  422.500    6.182    0.262    0.395   66.981
  422.750    6.197    0.257    0.388   66.493
  423.000    6.247    0.260    0.391   67.649
  423.250    6.285    0.268    0.396   70.147
  423.500    6.288    0.272    0.388   71.791
  423.750    6.210    0.276    0.383   71.729
  424.000    6.167    0.280    0.381   71.302
  424.250    6.102    0.286    0.389   71.971
  424.500    6.026    0.284    0.400   74.225
  424.750    5.917    0.278    0.409   74.955
  425.000    5.799    0.273    0.414   74.467
  425.250    5.715    0.266    0.423   73.126
  425.500    5.611    0.259    0.431   69.287
  425.750    5.562    0.260    0.449   67.641
  426.000    5.482    0.264    0.438   69.041
  426.250    5.394    0.263    0.407   70.198
  426.500    5.387    0.260    0.384   71.050
  426.750    5.389    0.268    0.404   70.989
  427.000    5.382    0.273    0.422   70.074
  427.250    5.364    0.278    0.404   68.733
  427.500    5.337    0.279    0.400   67.453
  427.750    5.330    0.277    0.400   66.295
  428.000    5.322    0.274    0.401   66.233
  428.250    5.346    0.269    0.403   67.207
  428.500    5.409    0.266    0.405   68.364
  428.750    5.514    0.262    0.393   69.216
  429.000    5.717    0.263    0.383   69.703
  429.250    5.995    0.267    0.378   68.666
  429.500    6.261    0.274    0.386   67.203
  429.750    6.207    0.279    0.396   69.335
  430.000    6.084    0.280    0.396   71.405
  430.250    5.973    0.271    0.416   70.491
  430.500    5.800    0.273    0.442   66.774
  430.750    5.674    0.277    0.452   63.483
  431.000    5.583    0.275    0.398   64.822
  431.250    5.564    0.273    0.381   70.792
  431.500    5.588    0.266    0.374   73.351
  431.750    5.676    0.259    0.373   75.239
  432.000    5.764    0.255    0.374   74.994
  432.250    5.822    0.262    0.393   73.044
  432.500    5.824    0.264    0.408   71.946
  432.750    5.817    0.259    0.424   71.093
  433.000    5.798    0.257    0.441   68.350
  433.250    5.737    0.269    0.446   64.694
  433.500    5.686    0.280    0.436   63.657
  433.750    5.625    0.288    0.430   63.047
  434.000    5.555    0.293    0.420   62.803
  434.250    5.486    0.298    0.411   62.254
  434.500    5.437    0.301    0.406   60.060
  434.750    5.349    0.311    0.412   56.525
  435.000    5.223    0.323    0.430   54.819
  435.250    5.109    0.330    0.441   60.301
  435.500    5.036    0.324    0.433   64.687
  435.750    4.954    0.319    0.433   64.138
  436.000    4.884    0.318    0.424   59.568
  436.250    4.850    0.326    0.414   59.323
  436.500    4.853    0.327    0.411   60.358
  436.750    4.891    0.325    0.419   60.845
