~VERSION INFORMATION
 VERS.                 2.0:   CWLS LOG ASCII STANDARD -VERSION 2.0
 WRAP.                  NO:   ONE LINE PER DEPTH STEP
~WELL INFORMATION BLOCK
#MNEM.UNIT           DATA                    DESCRIPTION OF MNEMONIC
#---------    -------------------            -------------------------------
# Generated from Intellog Unique Number	CW_82_90/WELL/3058
WELL.         PARA ET AL LIVOCKR 06-36       : Well_name    - WELL
LOC .         00/06-36-085-20W4/0            : Location     - LOCATION
UWI .         00/06-36-085-20W4/0            : Uwi          - UNIQUE WELL ID
ENTR.         JAYE                           : Entered      - ENTERED BY
SRVC.         SCHLUMBERGER                   : Scn          - SERVICE COMPANY
DATE.         17 JAN 81                      : Date         - LOG DATE
STRT.M        200                            : top_depth    - START DEPTH
STOP.M        357                            : bot_depth    - STOP DEPTH
STEP.M        0.25                           : increment    - STEP LENGTH
 NULL. -999.2500:NULL Value
~CURVE INFORMATION BLOCK
#MNEM UNIT       ERCB CURVE CODE    CURVE DESCRIPTION
#-----------   ------------------   ----------------------------------
DEPT.M        00 001 00 00         : DEPTH        - DEPTH
ILD .OHMM     00 120 00 00         : RESD         - DEEP RESISTIVITY (DIL)
CALI.MM       00 280 01 00         : CAL          - CALIPER
GR  .API      00 310 00 00         : GR           - GAMMA RAY
NPHI.V/V      00 330 00 00         : PHIN         - NEUTRON POROSITY (SANDSTONE)
DPHI.V/V      00 890 00 00         : PHID         - DENSITY POROSITY (SANDSTONE)
~PARAMETER INFORMATION
#MNEM.UNIT           DATA             DESCRIPTION OF MNEMONIC
#---------         -----------     ------------------------------
GL  .M        616                  : gl           - GROUND LEVEL ELEVATION
EREF.M        619                  : kb           - ELEVATION OF DEPTH REFERENCE
DATM.M        616                  : datum        - DATUM ELEVATION
TDD .M        358                  : tdd          - TOTAL DEPTH DRILLER
RUN .         ONE                  : Run          - RUN NUMBER
ENG .         SALSMAN              : Engineer     - RECORDING ENGINEER
WIT .         CONNELLY             : Witness      - WITNESSED BY
BASE.         EDMONTON             : Branch       - HOME BASE OF LOGGING UNIT
MUD .         GEL CHEM             : Mud_type     - MUD TYPE
MATR.         SANDSTONE            : Logunit      - NEUTRON MATRIX
TMAX.C        11.1                 : BHT          - MAXIMUM RECORDED TEMPERATURE
BHTD.M        358                  : BHTDEP       - MAXIMUM RECORDED TEMPERATURE
RMT .C        11.1                 : MDTP         - TEMPERATURE OF MUD
MUDD.KG/M     9.5                  : MWT          - MUD DENSITY
NEUT.         1                    : NEUTRON      - NEUTRON TYPE
RESI.         0                    : RESIST       - RESISTIVITY TYPE
RM  .OHMM     6.64                 : RM           - RESISTIVITY OF MUD
RMC .OHMM     0                    : RMC          - RESISTIVITY OF MUD CAKE
RMF .OHMM     5                    : RMF          - RESISTIVITY OF MUD FILTRATE
SUFT.C        0                    : SUFT         - SURFACE TEMPERATURE
~A  DEPTH     RESD      CAL       GR     PHIN     PHID
# ...
  309.500   14.290  164.461   97.050    0.401    0.130
  309.750   14.297  164.785   96.494    0.407    0.131
  310.000   14.257  165.317   99.319    0.429    0.141
  310.250   13.974  165.016  100.014    0.430    0.152
  310.500   13.644  164.508   98.833    0.421    0.175
  310.750   13.502  164.313   96.900    0.435    0.162
  311.000   13.485  163.908   96.467    0.444    0.146
  311.250   13.521  163.921   97.977    0.436    0.120
  311.500   13.506  163.931   99.111    0.438    0.159
  311.750   13.240  163.631   98.242    0.447    0.160
  312.000   13.027  163.227   97.748    0.430    0.150
  312.250   12.672  162.616   99.070    0.424    0.148
  312.500   12.423  162.315   98.513    0.424    0.161
  312.750   12.293  161.808   96.455    0.421    0.146
  313.000   12.232  162.027  101.220    0.413    0.139
  313.250   12.241  162.972  102.981    0.418    0.113
  313.500   12.110  164.024  102.737    0.440    0.145
  313.750   11.915  164.555  102.556    0.451    0.135
  314.000   11.813  164.879  102.877    0.458    0.158
  314.250   11.536  165.305  102.571    0.466    0.156
  314.500   11.350  165.110   99.635    0.476    0.139
  314.750   11.126  164.809   98.140    0.453    0.137
  315.000   10.661  165.028  101.590    0.435    0.131
  315.250   10.531  166.080  104.164    0.428    0.120
  315.500   11.132  167.235  104.610    0.427    0.118
  315.750   12.709  167.869  103.741    0.427    0.110
  316.000   13.588  168.606  101.744    0.426    0.130
  316.250   13.857  169.658   98.057    0.415    0.166
  316.500   13.583  170.502   97.626    0.405    0.160
  316.750   11.428  171.551   99.513    0.420    0.147
  317.000    9.761  173.123  100.521    0.437    0.129
  317.250   10.124  175.006  103.596    0.426    0.122
  317.500   12.281  176.368  102.415    0.407    0.138
  317.750   14.455  177.105   99.729    0.417    0.147
  318.000   15.687  177.535   98.797    0.414    0.144
  318.250   17.025  177.439   97.864    0.407    0.180
  318.500   18.480  177.451   98.686    0.374    0.192
  318.750   19.757  176.840   97.253    0.371    0.183
  319.000   21.039  176.228   95.695    0.370    0.181
  319.250   22.535  175.823   93.511    0.371    0.189
  319.500   23.914  175.730   89.324    0.378    0.184
  319.750   24.476  175.327   89.017    0.375    0.180
  320.000   20.747  175.234   94.972    0.374    0.188
  320.250   19.074  174.726   95.355    0.374    0.184
  320.500   17.501  173.387   95.800    0.377    0.174
  320.750   15.883  172.255   99.627    0.390    0.163
  321.000   16.134  170.917  102.076    0.388    0.157
  321.250   16.453  168.960  101.270    0.386    0.158
  321.500   16.842  167.720   99.210    0.388    0.162
  321.750   17.600  165.548   96.275    0.392    0.157
  322.000   21.350  164.000   94.028    0.397    0.166
  322.250   22.397  162.349   91.468    0.394    0.171
  322.500   20.982  161.012   85.590    0.378    0.136
  322.750   17.820  159.983   81.215    0.328    0.057
  323.000   14.995  160.201   87.670    0.302   -0.008
  323.250   12.854  161.253   98.258    0.319    0.065
  323.500    9.861  164.279  106.217    0.365    0.144
  323.750    8.631  167.513  114.864    0.401    0.154
  324.000    7.470  169.288  118.753    0.427    0.148
  324.250    6.906  170.757  120.451    0.443    0.141
  324.500    6.846  170.973  119.080    0.444    0.143
  324.750    6.929  171.299  117.334    0.453    0.148
  325.000    7.243  170.997  114.899    0.451    0.142
  325.250    7.627  169.660  110.461    0.439    0.137
  325.500    8.418  168.217  106.023    0.432    0.138
  325.750   13.000  166.046   98.017    0.437    0.128
  326.000   19.189  164.186   91.075    0.452    0.120
  326.250   19.385  161.184   81.753    0.437    0.109
  326.500   18.823  158.805   85.204    0.407    0.066
  326.750   16.886  157.986   94.853    0.304    0.070
  327.000   11.675  158.309  102.937    0.334    0.105
  327.250    9.585  160.606  106.450    0.373    0.150
  327.500    7.707  162.280  108.209    0.399    0.125
  327.750    8.302  163.227  108.091    0.418    0.112
  328.000    8.743  164.174  104.279    0.439    0.120
  328.250    9.223  163.769  102.347    0.456    0.110
  328.500    9.767  162.328  101.039    0.474    0.063
  328.750   10.094  160.676  101.985    0.485    0.031
  329.000   10.472  160.065  109.817    0.448    0.039
  329.250   10.578  162.673  112.892    0.433    0.081
  329.500   10.486  165.282  113.714    0.423    0.135
  329.750    9.916  166.229  113.721    0.417    0.115
  330.000    9.151  167.385  116.420    0.416    0.113
  330.250    8.835  167.395  120.122    0.439    0.107
  330.500    8.530  167.512  122.257    0.449    0.131
  330.750    8.473  167.522  123.579    0.462    0.129
  331.000    7.938  167.533  123.085    0.455    0.128
  331.250    7.394  167.545  118.585    0.421    0.112
  331.500    7.193  166.831  116.715    0.426    0.112
  331.750    9.901  166.010  115.907    0.434    0.096
  332.000   13.757  162.904  114.724    0.437    0.085
  332.250   15.623  155.123  112.916    0.410    0.064
  332.500   16.179  152.121  113.362    0.375    0.054
  332.750   16.187  154.107  113.870    0.345    0.081
  333.000   16.018  158.275  114.065    0.366    0.143
  333.250   15.700  160.157  113.384    0.383    0.140
  333.500   15.476  161.206  112.075    0.387    0.131
  333.750   15.199  162.572  109.266    0.384    0.131
  334.000   16.005  162.581  108.020    0.383    0.141
  334.250   20.429  160.515  105.523    0.382    0.121
  334.500   23.112  158.033   98.393    0.379    0.096
  334.750   24.613  155.342   91.263    0.361    0.070
  335.000   24.218  152.757   88.390    0.291    0.011
  335.250   22.902  151.937   92.091    0.302    0.080
  335.500   21.617  152.052   98.484    0.317    0.120
  335.750   21.761  151.650  101.122    0.339    0.148
  336.000   22.316  150.620   98.499    0.355    0.162
  336.250   24.172  148.242   93.184    0.359    0.130
  336.500   25.693  146.903   89.999    0.355    0.112
  336.750   26.058  146.291   87.125    0.350    0.120
  337.000   25.931  146.199   84.879    0.341    0.125
  337.250   25.999  146.626   86.013    0.333    0.140
  337.500   26.413  147.574   87.773    0.335    0.157
  337.750   27.656  149.456   89.534    0.333    0.163
  338.000   28.578  151.233   88.791    0.332    0.153
  338.250   29.364  152.387   87.356    0.347    0.132
  338.500   30.005  153.649   83.983    0.356    0.131
  338.750   30.370  153.866   81.924    0.355    0.161
  339.000   30.915  154.085   83.183    0.338    0.100
  339.250   28.740  153.161   85.507    0.333    0.081
  339.500   29.980  150.889   85.952    0.344    0.084
  339.750   27.408  149.650   86.773    0.346    0.075
  340.000   25.387  147.376   88.408    0.327    0.049
  340.250   24.326  145.727   90.544    0.323    0.065
  340.500   24.580  145.946   89.299    0.345    0.086
  340.750   26.026  148.554   86.428    0.360    0.076
  341.000   31.102  151.163   83.366    0.367    0.059
  341.250   33.435  153.980   78.991    0.340    0.022
  341.500   32.160  155.343   79.436    0.276   -0.011
  341.750   25.715  154.211   85.766    0.269   -0.001
  342.000   18.850  152.041   98.107    0.297    0.036
  342.250   19.009  150.703   98.678    0.322    0.069
  342.500   19.531  150.401   96.870    0.342    0.147
  342.750   19.921  152.701   98.005    0.365    0.144
  343.000   19.561  155.205   99.951    0.366    0.112
  343.250   18.431  157.712  102.588    0.361    0.088
  343.500   17.760  158.453  107.604    0.357    0.068
  343.750   16.576  158.876  111.430    0.379    0.082
  344.000   15.794  159.304  112.439    0.397    0.106
  344.250   15.598  159.836  109.378    0.408    0.117
  344.500   15.464  159.949  108.947    0.414    0.109
  344.750   13.410  160.170  107.076    0.406   -0.009
  345.000    9.961  160.596  111.966    0.387   -0.009
  345.250    8.334  160.400  119.173    0.378    0.041
  345.500    8.108  160.312  121.372    0.410    0.111
  345.750    8.237  160.008  120.252    0.440    0.101
