~VERSION INFORMATION
 VERS.                 2.0:   CWLS LOG ASCII STANDARD -VERSION 2.0
 WRAP.                  NO:   ONE LINE PER DEPTH STEP
~WELL INFORMATION BLOCK
#MNEM.UNIT           DATA                    DESCRIPTION OF MNEMONIC
#---------    -------------------            -------------------------------
# Generated from Intellog Unique Number	CS_67_68/WELL/2401
WELL.         BVI ET AL TOUCHWOOD            : Well_name    - WELL
LOC .         00/09-31-067-10W4/0            : Location     - LOCATION
UWI .         00/09-31-067-10W4/0            : Uwi          - UNIQUE WELL ID
ENTR.         C                              : Entered      - ENTERED BY
SRVC.         SCHLUMBERGER                   : Scn          - SERVICE COMPANY
STRT.M        350                            : top_depth    - START DEPTH
STOP.M        575                            : bot_depth    - STOP DEPTH
STEP.M        0.25                           : increment    - STEP LENGTH
 NULL. -999.2500:NULL Value
~CURVE INFORMATION BLOCK
#MNEM UNIT       ERCB CURVE CODE    CURVE DESCRIPTION
#-----------   ------------------   ----------------------------------
DEPT.M        00 001 00 00         : DEPTH        - DEPTH
ILD .OHMM     00 120 00 00         : RESD         - DEEP RESISTIVITY (DIL)
DPHI.V/V      00 890 00 00         : PHID         - DENSITY POROSITY (SANDSTONE)
NPHI.V/V      00 330 00 00         : PHIN         - NEUTRON POROSITY (SANDSTONE)
CALI.MM       00 280 01 00         : CAL          - CALIPER
GR  .API      00 310 00 00         : GR           - GAMMA RAY
~PARAMETER INFORMATION
#MNEM.UNIT           DATA             DESCRIPTION OF MNEMONIC
#---------         -----------     ------------------------------
GL  .M        653                  : gl           - GROUND LEVEL ELEVATION
EREF.M        657.15               : kb           - ELEVATION OF DEPTH REFERENCE
DATM.M        657.15               : datum        - DATUM ELEVATION
TDD .M        686                  : tdd          - TOTAL DEPTH DRILLER
RUN .         ONE                  : Run          - RUN NUMBER
ENG .         BILL                 : Engineer     - RECORDING ENGINEER
WIT .         JIM                  : Witness      - WITNESSED BY
MUD .         GEL                  : Mud_type     - MUD TYPE
MATR.         SANDSTONE            : Logunit      - NEUTRON MATRIX
TMAX.C        28                   : BHT          - MAXIMUM RECORDED TEMPERATURE
BHTD.M        586                  : BHTDEP       - MAXIMUM RECORDED TEMPERATURE
RMT .C        22                   : MDTP         - TEMPERATURE OF MUD
MUDD.KG/M     1130                 : MWT          - MUD DENSITY
NEUT.         1                    : NEUTRON      - NEUTRON TYPE
RESI.         0                    : RESIST       - RESISTIVITY TYPE
RM  .OHMM     4.3                  : RM           - RESISTIVITY OF MUD
RMC .OHMM     2.7                  : RMC          - RESISTIVITY OF MUD CAKE
RMF .OHMM     3.7                  : RMF          - RESISTIVITY OF MUD FILTRATE
SUFT.C        4                    : SUFT         - SURFACE TEMPERATURE
~A  DEPTH     RESD     PHID     PHIN      CAL       GR
# ...
  496.000    3.947    0.222    0.376  150.243   70.276
  496.250    3.947    0.206    0.370  150.214   65.395
  496.500    3.947    0.186    0.364  150.193   61.725
  496.750    3.946    0.159    0.361  149.151   65.360
  497.000    3.946    0.158    0.355  149.122   76.894
  497.250    3.946    0.218    0.362  149.093   82.353
  497.500    3.946    0.223    0.369  149.064   89.019
  497.750    3.946    0.206    0.368  149.028   91.438
  498.000    4.174    0.201    0.358  149.007   87.773
  498.250    4.416    0.180    0.344  148.978   76.204
  498.500    4.500    0.162    0.336  151.982   70.103
  498.750    4.672    0.158    0.341  153.973   77.994
  499.000    4.761    0.188    0.356  153.958   80.409
  499.250    4.761    0.153    0.356  153.922   72.488
  499.500    4.672    0.124    0.339  153.894   65.171
  499.750    4.415    0.115    0.331  153.858   70.021
  500.000    4.095    0.160    0.341  153.843   77.300
  500.250    3.944    0.221    0.349  153.808   77.886
  500.500    3.523    0.247    0.365  153.779   78.477
  500.750    3.147    0.263    0.384  153.757   81.504
  501.000    2.865    0.276    0.430  153.729   82.090
  501.250    2.559    0.271    0.461  154.713   79.645
  501.500    2.286    0.264    0.454  154.692   75.980
  501.750    2.081    0.256    0.446  155.669   75.355
  502.000    1.894    0.250    0.439  156.653   76.550
  502.250    1.660    0.243    0.433  156.632   75.316
  502.500    1.599    0.243    0.444  156.596   77.123
  502.750    1.540    0.244    0.441  157.573   80.146
  503.000    1.540    0.252    0.419  157.559   89.252
  503.250    1.599    0.256    0.405  157.530   93.495
  503.500    1.660    0.245    0.412  157.502   97.126
  503.750    1.691    0.247    0.433  157.473   96.500
  504.000    1.723    0.248    0.444  157.444   92.831
  504.250    1.789    0.246    0.431  157.415   92.206
  504.500    1.858    0.235    0.412  157.379   92.797
  504.750    1.893    0.226    0.415  157.351   93.387
  505.000    1.965    0.215    0.437  157.322   92.766
  505.250    2.003    0.207    0.449  157.293   86.665
  505.500    2.079    0.200    0.452  157.272   87.864
  505.750    2.119    0.189    0.447  157.236   88.455
  506.000    2.159    0.193    0.431  157.214   84.790
  506.250    2.200    0.205    0.410  157.178   79.913
  506.500    2.200    0.199    0.409  157.142   73.208
  506.750    2.241    0.184    0.409  157.128   73.182
  507.000    2.284    0.183    0.406  157.085   75.606
  507.250    2.284    0.200    0.402  157.071   80.452
  507.500    2.327    0.212    0.395  157.042   84.691
  507.750    2.371    0.218    0.402  157.013   87.713
  508.000    2.416    0.213    0.404  156.984   84.656
  508.250    2.461    0.202    0.393  156.963   80.991
  508.500    2.508    0.190    0.384  156.927   77.930
  508.750    2.604    0.171    0.388  156.898   74.269
  509.000    2.755    0.162    0.393  156.862   71.212
  509.250    2.860    0.198    0.394  156.848   74.842
  509.500    2.970    0.222    0.398  156.812   77.253
  509.750    3.262    0.228    0.402  156.791   79.064
  510.000    3.387    0.218    0.408  156.762   83.302
  510.250    3.451    0.206    0.422  156.726   88.757
  510.500    3.451    0.205    0.414  157.718   93.608
  510.750    3.387    0.201    0.407  158.688   95.410
  511.000    3.141    0.196    0.397  158.673   94.785
  511.250    3.025    0.190    0.405  159.644   96.591
  511.500    2.914    0.180    0.426  159.622   97.790
  511.750    2.806    0.170    0.438  160.599   95.949
  512.000    2.702    0.153    0.439  160.578   92.284
  512.250    2.652    0.098    0.438  160.556   88.623
  512.500    2.602    0.121    0.439  160.528   87.998
  512.750    2.554    0.204    0.441  160.499   91.628
  513.000    2.506    0.203    0.440  160.463   95.867
  513.250    2.506    0.190    0.438  160.427  101.321
  513.500    2.459    0.177    0.431  161.426  101.908
  513.750    2.459    0.174    0.422  161.397  101.283
  514.000    2.459    0.183    0.427  161.361  103.089
  514.250    2.505    0.199    0.434  160.327  103.680
  514.500    2.505    0.204    0.434  160.298  102.451
  514.750    2.553    0.205    0.426  160.276   98.178
  515.000    2.601    0.205    0.415  159.227   90.257
  515.250    2.601    0.202    0.400  158.185   81.121
  515.500    2.650    0.186    0.373  157.143   67.728
  515.750    2.700    0.165    0.341  156.101   69.535
  516.000    2.857    0.148    0.350  156.072   84.717
  516.250    2.966    0.198    0.382  158.063   90.779
  516.500    3.138    0.205    0.408  159.062   91.370
  516.750    3.383    0.187    0.429  160.032   91.353
  517.000    3.447    0.176    0.419  160.018   90.120
  517.250    3.447    0.168    0.402  159.989   88.891
  517.500    3.447    0.162    0.366  159.960   85.834
  517.750    3.447    0.150    0.344  159.924   79.124
  518.000    3.512    0.130    0.334  159.896   57.828
  518.250    3.647    0.067    0.247  158.861   57.203
  518.500    3.931    0.131    0.255  158.825   62.050
  518.750    4.484    0.146    0.280  158.803   66.896
  519.000    5.310    0.158    0.314  158.767   72.355
  519.250    5.834    0.182    0.337  157.718   79.025
  519.500    6.289    0.274    0.353  157.704   85.696
  519.750    6.530    0.277    0.352  157.668   82.031
  520.000    6.653    0.277    0.348  156.626   74.718
  520.250    6.529    0.274    0.343  156.604   66.189
  520.500    6.288    0.271    0.340  156.576   65.564
  520.750    6.056    0.268    0.337  155.527   71.018
  521.000    5.943    0.262    0.339  155.491   78.905
  521.250    5.616    0.255    0.345  155.469   86.183
  521.500    5.512    0.241    0.352  155.448   90.421
  521.750    5.409    0.233    0.362  155.404   95.876
  522.000    5.209    0.233    0.372  155.383   99.507
  522.250    5.016    0.239    0.362  156.382  100.705
  522.500    4.923    0.241    0.328  156.339   70.290
  522.750    4.831    0.233    0.301  156.324   51.421
  523.000    4.831    0.224    0.304  156.296   52.620
  523.250    4.830    0.214    0.312  156.267   55.039
  523.500    4.830    0.200    0.320  156.238   59.277
  523.750    4.922    0.190    0.324  155.196   66.556
  524.000    5.015    0.191    0.327  155.153   75.050
  524.250    5.110    0.206    0.327  155.132   81.720
  524.500    5.206    0.201    0.326  155.110   85.963
  524.750    5.305    0.194    0.323  155.067   70.743
  525.000    5.508    0.199    0.322  155.045   60.390
  525.250    5.719    0.233    0.322  155.009   56.725
  525.500    6.165    0.262    0.321  154.995   52.452
  525.750    6.773    0.268    0.321  154.952   54.259
  526.000    7.165    0.258    0.321  154.930   59.105
  526.250    7.440    0.244    0.320  154.909   62.736
  526.500    7.724    0.232    0.320  155.879   62.718
  526.750    8.172    0.221    0.320  155.857   65.133
  527.000    8.172    0.208    0.321  155.836   66.944
  527.250    8.019    0.195    0.321  156.813   73.614
  527.500    7.579    0.184    0.317  157.798   83.933
  527.750    7.163    0.174    0.315  158.790   87.559
  528.000    6.644    0.171    0.310  159.767   79.642
  528.250    6.279    0.182    0.305  159.745   77.797
  528.500    6.162    0.199    0.298  160.730   78.392
  528.750    6.047    0.189    0.292  160.708   83.230
  529.000    5.934    0.177    0.298  160.665   85.649
  529.250    5.934    0.208    0.320  160.644   51.590
  529.500    5.934    0.288    0.320  159.609   55.828
  529.750    5.933    0.280    0.314  158.553   60.675
  530.000    5.933    0.260    0.304  157.518   64.913
  530.250    5.822    0.225    0.297  157.496   59.424
  530.500    5.503    0.219    0.296  156.433   48.464
  530.750    5.400    0.240    0.302  156.411   43.578
  531.000    5.201    0.260    0.309  155.369   44.781
  531.250    5.008    0.256    0.309  155.348   49.624
  531.500    4.734    0.250    0.308  155.319   53.258
  531.750    4.559    0.249    0.310  154.284   61.145
  532.000    4.390    0.234    0.315  154.255   67.815
  532.250    4.228    0.202    0.313  154.212   76.309
