~VERSION INFORMATION
 VERS.                 2.0:   CWLS LOG ASCII STANDARD -VERSION 2.0
 WRAP.                  NO:   ONE LINE PER DEPTH STEP
~WELL INFORMATION BLOCK
#MNEM.UNIT           DATA                    DESCRIPTION OF MNEMONIC
#---------    -------------------            -------------------------------
# Generated from Intellog Unique Number	CW_73_75/WELL/2727
WELL.         CAVALIER ET AL CALL 06-13      : Well_name    - WELL
LOC .         00/06-13-073-22W4/0            : Location     - LOCATION
UWI .         00/06-13-073-22W4/0            : Uwi          - UNIQUE WELL ID
ENTR.         JAYE                           : Entered      - ENTERED BY
SRVC.         SCHLUMBERGER                   : Scn          - SERVICE COMPANY
DATE.         25 JAN 75                      : Date         - LOG DATE
STRT.M        335.28                         : top_depth    - START DEPTH
STOP.M        533.28                         : bot_depth    - STOP DEPTH
STEP.M        0.25                           : increment    - STEP LENGTH
 NULL. -999.2500:NULL Value
~CURVE INFORMATION BLOCK
#MNEM UNIT       ERCB CURVE CODE    CURVE DESCRIPTION
#-----------   ------------------   ----------------------------------
DEPT.M        00 001 00 00         : DEPTH        - DEPTH
ILD .OHMM     00 120 00 00         : RESD         - DEEP RESISTIVITY (DIL)
NPHI.V/V      00 330 00 00         : PHIN         - NEUTRON POROSITY (SANDSTONE)
DPHI.V/V      00 890 00 00         : PHID         - DENSITY POROSITY (SANDSTONE)
GR  .API      00 310 00 00         : GR           - GAMMA RAY
CALI.MM       00 280 01 00         : CAL          - CALIPER
~PARAMETER INFORMATION
#MNEM.UNIT           DATA             DESCRIPTION OF MNEMONIC
#---------         -----------     ------------------------------
GL  .M        634.136              : gl           - GROUND LEVEL ELEVATION
EREF.M        637.184              : kb           - ELEVATION OF DEPTH REFERENCE
DATM.M        634.136              : datum        - DATUM ELEVATION
TDD .M        562.356              : tdd          - TOTAL DEPTH DRILLER
RUN .         ONE                  : Run          - RUN NUMBER
ENG .         EARLEY               : Engineer     - RECORDING ENGINEER
WIT .         CONNELLY             : Witness      - WITNESSED BY
BASE.         EDM                  : Branch       - HOME BASE OF LOGGING UNIT
MUD .         GEL CHEM & LCM DIESL : Mud_type     - MUD TYPE
MATR.         SANDSTONE            : Logunit      - NEUTRON MATRIX
TMAX.C        27.7778              : BHT          - MAXIMUM RECORDED TEMPERATURE
BHTD.M        541.325              : BHTDEP       - MAXIMUM RECORDED TEMPERATURE
RMT .C        13.3333              : MDTP         - TEMPERATURE OF MUD
MUDD.KG/M     960                  : MWT          - MUD DENSITY
NEUT.         1                    : NEUTRON      - NEUTRON TYPE
RESI.         0                    : RESIST       - RESISTIVITY TYPE
RM  .OHMM     2.5                  : RM           - RESISTIVITY OF MUD
RMC .OHMM     1.25                 : RMC          - RESISTIVITY OF MUD CAKE
RMF .OHMM     2.7                  : RMF          - RESISTIVITY OF MUD FILTRATE
SUFT.C        -17.7778             : SUFT         - SURFACE TEMPERATURE
~A  DEPTH     RESD     PHIN     PHID       GR      CAL
  335.280    2.511    0.569    0.247  112.370  210.199
  335.530    2.474    0.580    0.232  111.238  210.131
  335.780    2.476    0.579    0.239  109.859  215.038
  336.030    2.479    0.589    0.233  108.113  201.845
  336.280    2.482    0.596    0.262  104.839  208.610
  336.530    2.525    0.582    0.265  101.630  204.102
  336.780    2.567    0.576    0.272  102.328  210.878
  337.030    2.570    0.599    0.274  102.292  210.508
  337.280    2.613    0.613    0.260  101.706  198.033
  337.530    2.656    0.601    0.265  101.919  181.107
  337.780    2.698    0.604    0.257  106.342  183.224
  338.030    2.702    0.614    0.283  110.340  194.032
  338.280    2.664    0.605    0.281  110.979  185.796
  338.530    2.667    0.588    0.287  109.600  195.777
  338.780    2.630    0.575    0.292  109.934  194.162
  339.030    2.633    0.563    0.290  110.082  199.896
  339.280    2.676    0.567    0.273  108.945  184.423
  339.530    2.718    0.557    0.256  106.041  189.338
  339.780    2.801    0.581    0.221  102.767  195.996
  340.030    2.884    0.577    0.231  100.043  203.596
  340.280    2.926    0.568    0.245   97.870  206.646
  340.530    3.009    0.549    0.258   96.796  213.410
  340.780    3.051    0.537    0.248   99.758  194.004
  341.030    3.094    0.527    0.224  103.695  179.460
  341.280    3.137    0.554    0.241  106.288  207.337
  341.530    3.180    0.544    0.267  107.961  221.457
  341.780    3.182    0.542    0.256  109.332  214.981
  342.030    3.225    0.557    0.262  107.953  208.405
  342.280    3.228    0.569    0.262  104.497  206.795
  342.530    3.231    0.588    0.284  100.735  215.013
  342.780    3.234    0.597    0.306   95.751  217.437
  343.030    3.236    0.602    0.284   98.530  175.988
  343.280    3.239    0.595    0.232  102.527  203.664
  343.530    3.242    0.582    0.268  104.081  215.399
  343.780    3.245    0.582    0.302  105.268  213.173
  344.030    3.248    0.571    0.354  107.188  219.319
  344.280    3.251    0.562    0.311  108.927  217.191
  344.530    3.214    0.568    0.268  110.117  203.267
  344.780    3.177    0.555    0.230  110.629  206.930
  345.030    3.140    0.547    0.244  111.022  207.393
  345.280    3.103    0.571    0.269  110.803  200.919
  345.530    3.145    0.544    0.252  109.304  205.725
  345.780    3.228    0.541    0.271  107.618  216.113
  346.030    3.470    0.569    0.312  102.511  234.575
  346.280    3.752    0.550    0.360   96.307  232.652
  346.530    3.914    0.525    0.401   88.633  245.011
  346.780    4.197    0.505    0.394   84.138  220.949
  347.030    4.278    0.483    0.411   79.154  233.926
  347.280    4.321    0.449    0.296   78.267  168.373
  347.530    4.364    0.538    0.269   80.979  183.217
  347.780    4.446    0.684    0.315   81.862  268.206
  348.030    4.568    0.690    0.543   83.908  340.679
  348.280    5.090    0.674    0.620   92.974  225.148
  348.530    5.411    0.638    0.576   97.033  174.598
  348.780    5.972    0.609    0.506   90.400  165.226
  349.030    6.373    0.539    0.452   83.888  171.273
  349.280    6.575    0.499    0.363   85.382  177.530
  349.530    6.618    0.477    0.317   92.496  168.569
  349.780    6.621    0.501    0.296   99.365  175.133
  350.030    6.583    0.484    0.268   99.942  163.692
  350.280    6.348    0.459    0.257   96.975  167.358
  350.530    6.191    0.437    0.310   92.851  172.060
  350.780    5.955    0.460    0.389   90.796  189.280
  351.030    5.798    0.504    0.490   87.828  211.881
  351.280    5.642    0.544    0.587   85.228  199.096
  351.530    5.685    0.601    0.611   87.150  249.633
  351.780    5.967    0.631    0.608   89.927  294.585
  352.030    6.288    0.603    0.591   92.578  295.458
  352.280    6.609    0.567    0.486   94.132  248.322
  352.530    6.812    0.517    0.340   91.287  178.525
  352.780    6.775    0.451    0.307   88.381  169.877
  353.030    6.458    0.464    0.340   82.909  169.716
  353.280    6.143    0.517    0.406   77.068  165.724
  353.530    5.906    0.559    0.460   72.634  183.876
  353.780    5.750    0.643    0.597   73.394  273.112
  354.030    5.713    0.652    0.596   78.066  259.914
  354.280    5.755    0.627    0.590   82.858  244.540
  354.530    5.799    0.596    0.580   85.512  223.478
  354.780    5.921    0.580    0.585   85.170  318.197
  355.030    6.123    0.637    0.593   83.916  364.595
  355.280    6.365    0.630    0.582   87.667  277.418
  355.530    6.686    0.602    0.560   92.949  242.800
  355.780    7.008    0.572    0.539  100.676  218.530
  356.030    7.609    0.535    0.455  102.535  184.533
  356.280    8.169    0.543    0.342  100.178  175.063
  356.530    8.929    0.473    0.344   94.402  196.318
  356.780    9.888    0.435    0.220   89.599  209.190
  357.030   10.967    0.408    0.190   85.472  180.780
  357.280   11.846    0.389    0.203   76.392  174.928
  357.530   12.128    0.402    0.221   62.365  171.766
  357.780   11.772    0.395    0.247   53.471  163.534
  358.030   11.058    0.378    0.264   47.083  157.682
  358.280   10.064    0.358    0.231   47.844  160.318
  358.530    9.390    0.379    0.223   51.350  163.576
  358.780    8.477    0.394    0.315   56.084  164.334
  359.030    7.802    0.386    0.324   56.844  162.731
  359.280    7.167    0.361    0.322   54.242  164.840
  359.530    6.533    0.348    0.323   59.095  165.404
  359.780    6.177    0.376    0.312   65.906  163.170
  360.030    5.742    0.401    0.318   62.264  167.352
  360.280    5.426    0.385    0.294   50.070  165.327
  360.530    5.349    0.365    0.308   40.932  161.445
  360.780    5.391    0.324    0.329   36.435  164.806
  361.030    5.474    0.305    0.352   44.164  158.636
  361.280    5.556    0.327    0.340   52.070  156.094
  361.530    5.639    0.349    0.325   60.774  149.410
  361.780    5.841    0.372    0.312   72.960  160.841
  362.030    6.163    0.403    0.347   82.579  169.058
  362.280    6.485    0.431    0.370   89.266  168.480
  362.530    6.567    0.475    0.404   94.427  178.355
  362.780    6.291    0.443    0.342   98.302  169.918
  363.030    5.936    0.421    0.349   98.941  179.790
  363.280    5.500    0.479    0.382   99.638  191.837
  363.530    4.706    0.488    0.454  103.697  181.123
  363.780    4.271    0.547    0.400  103.846  188.825
  364.030    3.955    0.588    0.375  100.818  188.353
  364.280    3.678    0.637    0.470   97.120  182.807
  364.530    3.442    0.668    0.551   93.783  594.361
  364.780    3.286    0.704    0.580   89.899  609.173
  365.030    3.288    0.708    0.632   87.605  628.877
  365.280    3.411    0.699    0.646   87.997  638.033
  365.530    3.653    0.689    0.644   91.568  557.262
  365.780    3.895    0.685    0.622   97.704  600.454
  366.030    4.216    0.669    0.539  102.805  627.299
  366.280    4.658    0.643    0.447  106.862  570.539
  366.530    5.099    0.617    0.378  110.432  552.167
  366.780    5.699    0.592    0.334  110.335  452.466
  367.030    6.020    0.528    0.352  105.351  466.897
  367.280    6.223    0.538    0.399  100.306  513.397
  367.530    6.265    0.567    0.432   96.180  541.998
  367.780    6.268    0.637    0.581   92.845  598.848
  368.030    6.391    0.671    0.617   90.671  612.346
  368.280    6.672    0.684    0.643   87.888  572.968
  368.530    7.074    0.636    0.321   84.735  531.210
  368.780    7.276    0.537    0.287   81.525  430.787
  369.030    7.398    0.487    0.365   79.596  414.279
  369.280    7.441    0.516    0.407   79.316  425.707
  369.530    7.484    0.596    0.552   81.665  443.962
  369.780    7.487    0.636    0.597   84.625  465.630
  370.030    7.688    0.650    0.408   86.606  440.428
  370.280    8.050    0.576    0.300   84.250  417.295
  370.530    7.894    0.477    0.271   84.401  416.106
  370.780    7.378    0.472    0.251   86.995  416.253
  371.030    6.743    0.471    0.227   89.585  417.126
  371.280    6.149    0.463    0.301   91.138  419.032
  371.530    5.913    0.473    0.348   92.937  423.632
