~VERSION INFORMATION
 VERS.                 2.0:   CWLS LOG ASCII STANDARD -VERSION 2.0
 WRAP.                  NO:   ONE LINE PER DEPTH STEP
~WELL INFORMATION BLOCK
#MNEM.UNIT           DATA                    DESCRIPTION OF MNEMONIC
#---------    -------------------            -------------------------------
# Generated from Intellog Unique Number	CW_79_81/WELL/59
NULL.         -999.25                        : NULL_VALUE
WELL.         NUMAC BANNER WABASCA           : Well_name    - WELL              
LOC .         06-02-079-23W4                 : Location     - LOCATION          
UWI .         00/06-02-079-23W4/0            : Uwi          - UNIQUE WELL ID    
ENTR.         JJ                             : Entered      - ENTERED BY        
SRVC.         SCHLUMBERGER                   : Scn          - SERVICE COMPANY   
DATE.         7 FEB 69                       : Date         - LOG DATE          
STRT.M        345.643                        : top_depth    - START DEPTH       
STOP.M        473.643                        : bot_depth    - STOP DEPTH        
STEP.M        0.25                           : increment    - STEP LENGTH       
~CURVE INFORMATION BLOCK
#MNEM UNIT       ERCB CURVE CODE    CURVE DESCRIPTION
#-----------   ------------------   ----------------------------------
DEPT.M        00 001 00 00         : DEPTH        - DEPTH                       
GR  .API      00 310 00 00         : GR           - GAMMA RAY                   
CALI.MM       00 280 01 00         : CAL          - CALIPER                     
ILD .OHMM     00 120 00 00         : RESD         - DEEP RESISTIVITY (DIL)      
DELT.US/F     00 520 00 00         : DELT         - SONIC TRAVEL TIME           
~PARAMETER INFORMATION       
#MNEM.UNIT           DATA             DESCRIPTION OF MNEMONIC
#---------         -----------     ------------------------------
GL  .M        568.452              : gl           - GROUND LEVEL ELEVATION      
EREF.M        571.805              : kb           - ELEVATION OF DEPTH REFERENCE
DATM.M        571.805              : datum        - DATUM ELEVATION             
TDD .M        475.793              : tdd          - TOTAL DEPTH DRILLER         
RUN .         ONE                  : Run          - RUN NUMBER                  
ENG .         CHADDOCK             : Engineer     - RECORDING ENGINEER          
WIT .         MACINTOSH            : Witness      - WITNESSED BY                
BASE.         EDMONTON             : Branch       - HOME BASE OF LOGGING UNIT   
MUD .         GEL                  : Mud_type     - MUD TYPE                    
MATR.         SANDSTONE            : Logunit      - NEUTRON MATRIX              
TMAX.C        26.1111              : BHT          - MAXIMUM RECORDED TEMPERATURE
BHTD.M        476.098              : BHTDEP       - MAXIMUM RECORDED TEMPERATURE
RMT .C        26.1111              : MDTP         - TEMPERATURE OF MUD          
MUDD.KG/M     1068                 : MWT          - MUD DENSITY                 
NEUT.         1                    : NEUTRON      - NEUTRON TYPE                
RESI.         0                    : RESIST       - RESISTIVITY TYPE            
RM  .OHMM     4.64                 : RM           - RESISTIVITY OF MUD          
RMC .OHMM     3.92                 : RMC          - RESISTIVITY OF MUD CAKE     
RMF .OHMM     2.32                 : RMF          - RESISTIVITY OF MUD FILTRATE 
SUFT.C        5                    : SUFT         - SURFACE TEMPERATURE         
~A  DEPTH       GR      CAL     RESD     DELT
# ...
  389.143   73.047  219.130   24.281  319.456
  389.393   75.700  219.341   24.773  332.468
  389.643   79.353  219.445   25.983  325.666
  389.893   71.147  219.442   25.853  321.021
  390.143   65.143  220.077   25.124  342.338
  390.393   67.947  221.775   25.875  302.839
  390.643   71.150  225.703   26.865  283.808
  390.893   68.649  223.683   26.716  325.135
  391.143   63.445  220.600   27.226  343.967
  391.393   66.799  221.553   28.338  323.236
  391.643   69.452  224.525   29.028  302.309
  391.893   66.750  226.541   29.699  310.024
  392.143   64.449  226.646   29.209  314.861
  392.393   63.049  222.925   27.860  336.178
  392.643   63.950  220.798   26.530  362.073
  392.893   66.653  219.415   26.400  364.426
  393.143   67.755  217.607   28.291  344.218
  393.393   60.850  216.223   30.223  349.056
  393.643   55.446  216.646   31.771  365.076
  393.893   52.595  218.131   33.523  354.742
  394.143   56.699  220.891   34.793  304.453
  394.393   59.752  221.420   34.103  282.806
  394.643   61.654  219.930   31.956  302.292
  394.893   63.757  218.653   30.186  327.075
  395.143   63.107  218.120   29.636  337.471
  395.393   58.554  218.117   31.287  348.521
  395.643   54.902  218.115   34.076  343.223
  395.893   52.001  218.113   40.108  320.987
  396.143   51.151  219.916   43.337  244.605
  396.393   52.152  221.508   45.268  272.331
  396.643   55.656  221.824   37.539  301.300
  396.893   69.418  220.441   32.790  251.075
  397.143   76.325  218.845   23.500  330.332
  397.393   80.779  219.268   19.411  346.025
  397.643   78.578  220.540   16.802  361.784
  397.893   75.376  221.813   14.813  366.033
  398.143   74.026  218.517   14.723  365.377
  398.393   74.827  214.372   15.014  363.480
  398.643   74.728  210.439   15.364  364.394
  398.893   75.279  209.374   15.736  368.316
  399.143   78.032  212.240   16.006  371.715
  399.393   80.635  215.956   16.357  370.537
  399.643   78.334  219.778   16.606  364.846
  399.893   75.833  223.494   16.779  356.736
  400.143   78.336  225.510   16.848  349.410
  400.393   81.289  215.416   16.898  347.839
  400.643   84.642  203.834   16.948  351.631
  400.893   79.339  203.301   16.960  349.014
  401.143   74.085  209.035   16.970  346.004
  401.393   77.089  216.681   17.002  344.891
  401.643   78.490  221.354   16.992  346.197
  401.893   75.989  214.658   16.864  347.896
  402.143   74.239  208.920   16.772  347.110
  402.393   76.341  212.104   16.522  345.147
  402.643   80.145  220.175   16.135  343.576
  402.893   82.948  221.980   15.786  345.732
  403.143   83.549  224.208   15.494  349.328
  403.393   80.498  224.524   15.006  353.773
  403.643   80.298  223.672   14.616  358.676
  403.893   81.750  222.289   14.386  362.468
  404.143   83.703  220.481   14.157  366.325
  404.393   81.251  219.628   13.887  372.667
  404.643   81.552  220.476   13.698  377.635
  404.893   83.205  223.979   13.489  378.157
  405.143   83.806  222.809   13.320  375.670
  405.393   84.507  220.363   13.072  378.089
  405.643   84.808  221.211   12.940  381.422
  405.893   85.409  224.077   12.812  365.923
  406.143   86.361  224.074   12.702  360.886
  406.393   85.261  225.347   12.992  381.876
  406.643   84.061  227.575   14.102  357.809
  406.893   83.511  222.793   15.713  350.941
  407.143   81.610  212.699   17.644  347.082
  407.393   78.408  206.535   20.154  344.726
  407.643   73.005  216.093   22.146  344.790
  407.893   72.055  221.721   23.116  343.285
  408.143   74.708  218.107   23.708  335.632
  408.393   76.760  220.229   23.376  325.102
  408.643   79.263  217.678   21.487  331.706
  408.893   82.416  213.001   19.078  344.522
  409.143   85.120  219.904   16.889  355.180
  409.393   86.772  224.363   14.620  366.491
  409.643   84.721  227.123   12.790  373.095
  409.893   75.764  227.546   13.999  376.952
  410.143   65.106  222.232   17.870  373.288
  410.393   57.751  216.918   22.521  300.045
  410.643   62.555  213.091   27.052  270.224
  410.893   67.710  211.389   28.802  250.996
  411.143   74.917  212.131   29.252  272.117
  411.393   81.623  214.465   27.103  325.543
  411.643   84.895  218.605   22.315  330.185
  411.893   86.421  220.728   19.585  334.892
  412.143   89.346  223.913   16.756  344.634
  412.393   93.772  225.929   15.307  356.142
  412.643   95.199  225.502   15.316  364.053
  412.893   89.275  224.119   16.368  361.175
  413.143   83.949  221.354   17.917  349.206
  413.393   81.674  219.121   20.908  338.480
  413.643   82.801  217.631   24.219  342.075
  413.893   76.577  218.267   25.669  335.077
  414.143   69.303  222.195   26.400  315.980
  414.393   67.831  220.068   26.150  301.723
  414.643   73.157  219.641   25.802  328.075
  414.893   78.080  219.851   25.332  350.570
  415.143   80.804  220.699   24.122  352.268
  415.393   75.482  221.653   22.053  351.678
  415.643   74.257  220.800   21.805  351.023
  415.893   76.783  214.531   21.795  352.395
  416.143   75.558  216.015   21.485  353.375
  416.393   76.885  219.838   20.615  349.842
  416.643   79.910  222.491   19.626  346.309
  416.893   85.283  222.489   18.297  338.657
  417.143   90.909  220.574   18.627  342.579
  417.393   75.335  212.499   19.797  355.591
  417.643   63.513  198.580   21.068  381.682
  417.893   57.337  176.269   23.379  368.732
  418.143   50.414  165.218   28.468  370.627
  418.393   45.040  177.008   36.379  368.729
  418.643   39.865  205.051   43.550  363.889
  418.893   33.793  201.437   59.921  354.602
  419.143   30.467  207.596   75.941  354.469
  419.393   29.293  216.305   92.963  357.803
  419.643   30.022  217.577   95.154  360.352
  419.893   28.995  217.680   88.329  362.574
  420.143   29.771  217.466   78.296  357.603
  420.393   30.498  216.721   71.269  363.879
  420.643   30.072  215.656   66.848  368.978
  420.893   31.201  214.910   64.631  364.661
  421.143   31.372  213.951   64.218  359.101
  421.393   30.149  212.356   64.206  354.653
  421.643   29.980  204.280   64.594  357.725
  421.893   30.652  209.164   65.183  356.089
  422.143   31.725  212.986   64.970  356.807
  422.393   34.304  207.672   62.353  355.890
  422.643   36.826  194.179   57.531  358.373
  422.893   40.002  192.795   47.297  446.916
  423.143   42.579  183.657   45.034  362.817
  423.393   41.405  161.346   41.318  345.487
  423.643   38.280  148.065   38.584  359.741
  423.893   34.805  168.671   37.611  366.606
  424.143   34.031  207.231   37.820  383.673
  424.393   35.857  216.365   39.192  324.555
  424.643   39.182  217.107   40.401  129.220
  424.893   44.657  211.474   41.490  149.949
  425.143   48.532  195.218   41.559  371.961
  425.393   48.310  173.226   39.625  350.838
  425.643   47.736  175.773   35.149  353.256
  425.893   48.710  184.482   31.933  353.058
  426.143   50.734  193.084   29.459  355.149
  426.393   51.510  208.698   27.185  367.769
  426.643   52.239  210.608   26.112  377.708
  426.893   53.910  208.375   25.720  380.126
  427.143   57.036  204.230   25.248  361.291
  427.393   56.314  201.572   24.215  359.524
  427.643   53.688  211.343   21.340  372.405
  427.893   63.014  213.784   18.245  369.395
  428.143   72.487  221.430   14.730  362.332
  428.393   83.914  222.915   12.776  370.635
  428.643   84.289  222.594   11.864  364.225
  428.893   76.465  221.529   12.113  371.286
  429.143   66.541  220.040   14.824  365.792
  429.393   56.671  218.019   19.157  363.305
  429.643   50.893  214.405   23.632  364.285
  429.893   43.570  216.740   35.855  370.561
  430.143   44.147  219.287   45.315  365.851
  430.393   50.620  217.054   49.008  360.619
  430.643   56.846  220.876   44.150  354.601
  430.893   61.273  210.994   34.828  361.008
  431.143   64.946  218.746   23.323  348.843
  431.393   69.072  223.206   19.687  336.417
  431.643   76.048  224.266   16.251  344.917
  431.893   84.422  225.433   14.198  364.730
  432.143   90.597  226.917   13.645  377.415
  432.393   87.873  227.022   14.014  385.719
