~VERSION INFORMATION
 VERS.                 2.0:   CWLS LOG ASCII STANDARD -VERSION 2.0
 WRAP.                  NO:   ONE LINE PER DEPTH STEP
~WELL INFORMATION BLOCK
#MNEM.UNIT           DATA                    DESCRIPTION OF MNEMONIC
#---------    -------------------            -------------------------------
# Generated from Intellog Unique Number	CS_73_76/WELL/1033
WELL.         CANADIAN SUPERIOR OIL          : Well_name    - WELL
LOC .         00/06-05-076-14W4/0            : Location     - LOCATION
UWI .         00/06-05-076-14W4/0            : Uwi          - UNIQUE WELL ID
ENTR.         SP                             : Entered      - ENTERED BY
SRVC.         SCHLUMBERGER                   : Scn          - SERVICE COMPANY
STRT.F        1150                           : top_depth    - START DEPTH
STOP.F        1839.8                         : bot_depth    - STOP DEPTH
STEP.F        0.82                           : increment    - STEP LENGTH
 NULL. -999.2500:NULL Value
~CURVE INFORMATION BLOCK
#MNEM UNIT       ERCB CURVE CODE    CURVE DESCRIPTION
#-----------   ------------------   ----------------------------------
DEPT.F        00 001 00 00         : DEPTH        - DEPTH
GR  .API      00 310 00 00         : GR           - GAMMA RAY
NPHI.V/V      00 330 00 00         : PHIN         - NEUTRON POROSITY (SANDSTONE)
DPHI.V/V      00 890 00 00         : PHID         - DENSITY POROSITY (SANDSTONE)
ILD .OHMM     00 120 00 00         : RESD         - DEEP RESISTIVITY (DIL)
~PARAMETER INFORMATION
#MNEM.UNIT           DATA             DESCRIPTION OF MNEMONIC
#---------         -----------     ------------------------------
GL  .F        2386                 : gl           - GROUND LEVEL ELEVATION
EREF.F        2398                 : kb           - ELEVATION OF DEPTH REFERENCE
DATM.F        2386                 : datum        - DATUM ELEVATION
TDD .F        1806                 : tdd          - TOTAL DEPTH DRILLER
RUN .         ONE                  : Run          - RUN NUMBER
ENG .         BILL                 : Engineer     - RECORDING ENGINEER
WIT .         JIM                  : Witness      - WITNESSED BY
MUD .         GEL                  : Mud_type     - MUD TYPE
MATR.         SANDSTONE            : Logunit      - NEUTRON MATRIX
TMAX.C        22.7778              : BHT          - MAXIMUM RECORDED TEMPERATURE
BHTD.M        550.469              : BHTDEP       - MAXIMUM RECORDED TEMPERATURE
MATR.         1                    : LOGUNIT      - NEUTRON MATRIX
RMT .C        25                   : MDTP         - TEMPERATURE OF MUD
NEUT.         1                    : NEUTRON      - NEUTRON TYPE
RESI.         0                    : RESIST       - RESISTIVITY TYPE
RMC .OHMM     0.25                 : RMC          - RESISTIVITY OF MUD CAKE
RMF .OHMM     0.25                 : RMF          - RESISTIVITY OF MUD FILTRATE
SUFT.C        15                   : SUFT         - SURFACE TEMPERATURE
~A  DEPTH       GR     PHIN     PHID     RESD
# ...
 1292.720   59.421    0.558    0.442   14.212
 1293.540   60.009    0.557    0.440   14.493
 1294.360   60.602    0.551    0.443   14.517
 1295.180   60.605    0.548    0.444   14.804
 1296.000   60.610    0.560    0.443   15.097
 1296.820   57.689    0.567    0.446   15.395
 1297.640   56.523    0.571    0.452   15.415
 1298.460   57.113    0.571    0.460   15.435
 1299.280   58.288    0.564    0.463   15.456
 1300.100   58.879    0.556    0.462   15.476
 1300.920   58.884    0.549    0.461   15.787
 1301.740   57.719    0.546    0.458   15.807
 1302.560   57.723    0.542    0.458   16.120
 1303.380   57.728    0.542    0.461   16.141
 1304.200   58.318    0.553    0.464   16.168
 1305.020   58.908    0.559    0.470   16.194
 1305.840   59.500    0.561    0.465   16.210
 1306.660   59.506    0.565    0.463   15.937
 1307.480   59.511    0.562    0.467   15.679
 1308.300   59.514    0.556    0.468   15.415
 1309.120   58.350    0.559    0.469   15.435
 1309.940   57.184    0.558    0.470   15.176
 1310.760   57.774    0.563    0.471   15.195
 1311.580   58.951    0.575    0.480   15.220
 1312.400   60.713    0.587    0.485   15.240
 1313.220   61.302    0.591    0.494   15.265
 1314.040   60.720    0.586    0.496   15.285
 1314.860   61.313    0.587    0.490   15.305
 1315.680   62.488    0.589    0.480   15.320
 1316.500   64.250    0.592    0.471   15.340
 1317.320   64.839    0.592    0.477   15.087
 1318.140   65.431    0.587    0.486   14.838
 1318.960   65.434    0.585    0.489   14.862
 1319.780   67.197    0.580    0.487   14.607
 1320.600   68.371    0.575    0.482   14.626
 1321.420   68.377    0.571    0.482   14.650
 1322.240   67.211    0.568    0.484   14.669
 1323.060   66.045    0.578    0.486   14.688
 1323.880   64.879    0.590    0.484   14.712
 1324.700   63.130    0.603    0.486   14.465
 1325.520   61.963    0.599    0.490   14.483
 1326.350   61.382    0.602    0.495   14.502
 1327.170   59.632    0.610    0.508   14.258
 1327.990   57.882    0.618    0.513   13.769
 1328.810   57.300    0.614    0.507   13.537
 1329.630   56.134    0.605    0.491   13.314
 1330.450   55.552    0.597    0.480   13.327
 1331.270   54.386    0.590    0.475   13.344
 1332.090   53.805    0.594    0.477   13.362
 1332.910   53.811    0.597    0.483   13.379
 1333.730   53.816    0.600    0.490   13.405
 1334.550   53.821    0.602    0.503   13.423
 1335.370   53.826    0.598    0.508   13.201
 1336.190   55.002    0.593    0.502   13.214
 1337.010   56.179    0.593    0.493   13.484
 1337.830   56.182    0.594    0.488   13.498
 1338.650   56.775    0.598    0.484   13.520
 1339.470   56.779    0.599    0.482   13.533
 1340.290   56.199    0.600    0.481   13.555
 1341.110   55.619    0.601    0.484   13.331
 1341.930   55.625    0.600    0.484   13.340
 1342.750   55.043    0.599    0.481   13.120
 1343.570   55.047    0.594    0.481   13.141
 1344.390   55.051    0.591    0.482   12.924
 1345.210   56.230    0.586    0.473   12.933
 1346.030   56.234    0.580    0.469   12.950
 1346.850   56.238    0.576    0.465   12.975
 1347.670   55.659    0.575    0.467   12.988
 1348.490   55.077    0.582    0.472   13.005
 1349.310   54.497    0.589    0.481   13.026
 1350.130   54.503    0.588    0.484   13.043
 1350.950   54.508    0.588    0.482   13.068
 1351.770   54.512    0.591    0.479   13.077
 1352.590   56.860    0.592    0.476   13.094
 1353.410   59.208    0.594    0.474   13.120
 1354.230   60.381    0.591    0.471   13.137
 1355.050   63.898    0.581    0.470   12.912
 1355.870   72.687    0.568    0.465   12.932
 1356.690   75.618    0.563    0.460   12.949
 1357.510   73.868    0.559    0.456   12.732
 1358.330   70.359    0.552    0.450   12.752
 1359.150   65.680    0.545    0.442   12.769
 1359.970   62.758    0.515    0.428   12.786
 1360.790   62.763    0.435    0.367   13.038
 1361.610   62.770    0.333    0.309   13.791
 1362.430   62.775    0.401    0.218   15.419
 1363.250   62.781    0.453    0.191   17.223
 1364.070   62.784    0.484    0.202   21.092
 1364.900   63.375    0.514    0.217   23.140
 1365.720   65.136    0.535    0.315   21.147
 1366.540   68.068    0.551    0.412   19.326
 1367.360   71.000    0.564    0.448   17.347
 1368.180   73.347    0.589    0.466   16.151
 1369.000   75.108    0.608    0.470   15.032
 1369.820   75.114    0.611    0.468   14.248
 1370.640   75.117    0.602    0.464   14.262
 1371.460   75.124    0.602    0.456   14.032
 1372.280   73.957    0.609    0.456   13.791
 1373.100   73.377    0.608    0.459   13.568
 1373.920   72.211    0.608    0.459   13.577
 1374.740   71.045    0.617    0.454   13.603
 1375.560   71.050    0.614    0.449   13.621
 1376.380   71.641    0.603    0.450   13.634
 1377.200   72.230    0.601    0.460   13.656
 1378.020   73.407    0.605    0.468   13.674
 1378.840   73.997    0.602    0.469   13.692
 1379.660   72.833    0.601    0.463   13.967
 1380.480   72.251    0.601    0.462   13.981
 1381.300   71.085    0.601    0.461   14.004
 1382.120   70.504    0.602    0.463   14.286
 1382.940   69.925    0.601    0.467   14.304
 1383.760   69.344    0.601    0.469   14.861
 1384.580   68.765    0.605    0.469   14.870
 1385.400   67.599    0.603    0.467   15.454
 1386.220   66.433    0.601    0.448   16.045
 1387.040   65.266    0.595    0.425   16.363
 1387.860   62.930    0.588    0.316   16.395
 1388.680   61.763    0.579    0.249   16.416
 1389.500   66.452    0.570    0.241   16.145
 1390.320   70.555    0.523    0.281   15.863
 1391.140   72.902    0.557    0.340   15.329
 1391.960   74.080    0.596    0.449   15.066
 1392.780   73.497    0.604    0.492   14.807
 1393.600   72.917    0.603    0.492   14.563
 1394.420   72.338    0.606    0.487   14.318
 1395.240   72.930    0.609    0.482   13.822
 1396.060   72.932    0.597    0.473   13.590
 1396.880   74.109    0.597    0.469   13.361
 1397.700   73.528    0.592    0.469   13.140
 1398.520   73.533    0.596    0.481   12.924
 1399.340   70.609    0.601    0.492   12.936
 1400.160   69.445    0.602    0.493   12.957
 1400.980   70.622    0.604    0.478   12.970
 1401.800   72.382    0.607    0.479   12.995
 1402.620   74.728    0.607    0.485   13.257
 1403.440   75.319    0.603    0.487   13.265
 1404.270   75.325    0.597    0.461   13.528
 1405.090   72.988    0.592    0.436   14.318
 1405.910   68.894    0.583    0.432   14.601
 1406.730   62.459    0.571    0.399   15.444
 1407.550   59.537    0.543    0.273   17.574
 1408.370   56.032    0.501    0.227   20.743
 1409.190   56.620    0.321    0.199   25.871
 1410.010   59.552    0.322    0.141   28.907
 1410.830   63.069    0.337    0.159   32.298
 1411.650   71.271    0.403    0.239   34.804
 1412.470   76.545    0.477    0.305   34.861
 1413.290   81.236    0.512    0.351   30.149
 1414.110   82.409    0.552    0.422   25.147
 1414.930   84.170    0.587    0.453   20.594
 1415.750   84.761    0.605    0.476   17.494
 1416.570   85.353    0.610    0.479   14.591
 1417.390   85.358    0.613    0.480   13.097
 1418.210   85.363    0.619    0.482   12.644
 1419.030   85.367    0.617    0.483   11.985
 1419.850   85.373    0.610    0.481   11.570
 1420.670   85.376    0.610    0.475   11.379
 1421.490   85.381    0.609    0.462   11.615
 1422.310   85.388    0.603    0.434   11.627
 1423.130   85.393    0.590    0.416   11.634
 1423.950   85.984    0.560    0.385   12.083
 1424.770   85.404    0.538    0.334   12.326
 1425.590   84.821    0.550    0.240   12.802
 1426.410   84.827    0.572    0.264   12.818
 1427.230   86.003    0.575    0.289   12.158
 1428.050   90.107    0.569    0.323   12.170
 1428.870   93.039    0.567    0.336   12.186
 1429.690   95.385    0.567    0.371   11.768
 1430.510   97.147    0.569    0.399   11.566
 1431.330   94.810    0.568    0.435   10.970
 1432.150   93.060    0.563    0.446   10.789
 1432.970   93.062    0.555    0.423   10.601
 1433.790   94.242    0.551    0.398   10.234
 1434.610   95.415    0.544    0.358   10.065
