~VERSION INFORMATION
 VERS.                 2.0:   CWLS LOG ASCII STANDARD -VERSION 2.0
 WRAP.                  NO:   ONE LINE PER DEPTH STEP
~WELL INFORMATION BLOCK
#MNEM.UNIT           DATA                    DESCRIPTION OF MNEMONIC
#---------    -------------------            -------------------------------
# Generated from Intellog Unique Number	CW_70_72/WELL/2898
NULL.         -999.25                        : NULL_VALUE
WELL.         SUN GAMBLER                    : Well_name    - WELL              
LOC .         06-07-070-20W4                 : Location     - LOCATION          
UWI .         00/06-07-070-20W4/0            : Uwi          - UNIQUE WELL ID    
ENTR.         MAX                            : Entered      - ENTERED BY        
SRVC.         SCHLUMBERGER                   : Scn          - SERVICE COMPANY   
DATE.         06 MAR 79                      : Date         - LOG DATE
STRT.M        380                            : top_depth    - START DEPTH       
STOP.M        550                            : bot_depth    - STOP DEPTH        
STEP.M        0.25                           : increment    - STEP LENGTH       
~CURVE INFORMATION BLOCK
#MNEM UNIT       ERCB CURVE CODE    CURVE DESCRIPTION
#-----------   ------------------   ----------------------------------
DEPT.M        00 001 00 00         : DEPTH        - DEPTH                       
ILD .OHMM     00 120 00 00         : RESD         - DEEP RESISTIVITY (DIL)      
NPHI.V/V      00 330 00 00         : PHIN         - NEUTRON POROSITY (SANDSTONE)
DPHI.V/V      00 890 00 00         : PHID         - DENSITY POROSITY (SANDSTONE)
CALI.MM       00 280 01 00         : CAL          - CALIPER                     
GR  .API      00 310 00 00         : GR           - GAMMA RAY                   
~PARAMETER INFORMATION       
#MNEM.UNIT           DATA             DESCRIPTION OF MNEMONIC
#---------         -----------     ------------------------------
GL  .M        634.1                : gl           - GROUND LEVEL ELEVATION      
EREF.M        637.7                : kb           - ELEVATION OF DEPTH REFERENCE
DATM.M        634.1                : datum        - DATUM ELEVATION             
TDD .M        576                  : tdd          - TOTAL DEPTH DRILLER         
RUN .         ONE                  : Run          - RUN NUMBER                  
ENG .         BILL                 : Engineer     - RECORDING ENGINEER          
WIT .         JIM                  : Witness      - WITNESSED BY                
MUD .         GEL                  : Mud_type     - MUD TYPE                    
MATR.         SANDSTONE            : Logunit      - NEUTRON MATRIX              
TMAX.C        26                   : BHT          - MAXIMUM RECORDED TEMPERATURE
BHTD.M        576                  : BHTDEP       - MAXIMUM RECORDED TEMPERATURE
RMT .C        14                   : MDTP         - TEMPERATURE OF MUD          
MUDD.KG/M     1100                 : MWT          - MUD DENSITY                 
NEUT.         1                    : NEUTRON      - NEUTRON TYPE                
RESI.         0                    : RESIST       - RESISTIVITY TYPE            
RM  .OHMM     3.6                  : RM           - RESISTIVITY OF MUD          
RMC .OHMM     0.25                 : RMC          - RESISTIVITY OF MUD CAKE     
RMF .OHMM     3.6                  : RMF          - RESISTIVITY OF MUD FILTRATE 
SUFT.C        -5                   : SUFT         - SURFACE TEMPERATURE         
~A  DEPTH     RESD     PHIN     PHID      CAL       GR
# ...
  416.500    5.373    0.424    0.198  165.061   85.179
  416.750    6.556    0.407    0.190  166.538   75.084
  417.000    7.856    0.366    0.167  167.026   70.924
  417.250    8.676    0.400    0.236  166.525   74.779
  417.500    8.441    0.446    0.260  165.527   75.961
  417.750    7.849    0.477    0.265  164.038   74.177
  418.000    7.040    0.467    0.263  162.547   76.547
  418.250    6.088    0.431    0.257  162.045   83.072
  418.500    5.817    0.419    0.239  162.037   86.333
  418.750    5.660    0.436    0.245  162.527   83.658
  419.000    5.607    0.442    0.254  162.520   79.202
  419.250    5.606    0.464    0.261  162.513   79.791
  419.500    5.554    0.446    0.259  162.505   81.568
  419.750    5.502    0.452    0.246  162.499   85.125
  420.000    5.451    0.459    0.231  162.493   85.418
  420.250    5.304    0.458    0.215  162.980   84.524
  420.500    5.160    0.446    0.198  163.962   85.113
  420.750    4.975    0.444    0.210  165.440   87.483
  421.000    4.668    0.473    0.213  166.918   92.228
  421.250    4.584    0.488    0.216  169.384   91.334
  421.500    4.500    0.478    0.226  170.862   87.769
  421.750    4.458    0.456    0.237  170.359   82.718
  422.000    4.457    0.440    0.247  168.374   81.527
  422.250    4.416    0.414    0.249  162.430   82.710
  422.500    4.414    0.405    0.249  160.445   85.081
  422.750    4.334    0.405    0.237  160.437   90.419
  423.000    4.294    0.408    0.249  160.925   88.931
  423.250    4.332    0.407    0.256  161.910   87.443
  423.500    4.331    0.417    0.238  163.385   89.516
  423.750    4.329    0.438    0.226  167.338   94.261
  424.000    4.289    0.458    0.241  170.794   93.367
  424.250    4.249    0.466    0.248  170.290   91.878
  424.500    4.248    0.443    0.233  169.789   90.688
  424.750    4.286    0.430    0.242  169.783   90.090
  425.000    4.363    0.422    0.262  167.797   87.414
  425.250    4.441    0.432    0.283  164.328   82.068
  425.500    4.646    0.446    0.289  162.838   78.205
  425.750    4.816    0.433    0.296  162.336   73.452
  426.000    4.903    0.400    0.309  162.822   59.202
  426.250    4.991    0.404    0.323  162.817   56.822
  426.500    5.081    0.403    0.326  162.808   56.522
  426.750    5.080    0.402    0.322  162.802   54.143
  427.000    5.033    0.403    0.322  162.301   50.577
  427.250    4.896    0.401    0.322  161.800   50.574
  427.500    4.636    0.389    0.321  161.794   51.756
  427.750    4.470    0.390    0.317  162.281   53.532
  428.000    4.119    0.394    0.302  162.273   53.529
  428.250    3.865    0.393    0.305  162.266   53.821
  428.500    3.627    0.394    0.312  162.266   54.709
  428.750    3.372    0.396    0.318  162.251   57.078
  429.000    3.193    0.405    0.320  162.246   56.777
  429.250    3.079    0.400    0.323  162.735   56.180
  429.500    3.023    0.387    0.323  162.728   55.878
  429.750    3.022    0.385    0.321  162.226   57.062
  430.000    3.021    0.383    0.314  161.724   56.761
  430.250    3.020    0.387    0.302  161.717   55.867
  430.500    3.019    0.391    0.313  161.216   58.237
  430.750    3.046    0.399    0.310  161.210   60.905
  431.000    3.101    0.417    0.311  161.698   61.494
  431.250    3.128    0.419    0.301  161.690   60.006
  431.500    3.128    0.420    0.306  161.188   57.923
  431.750    3.126    0.420    0.306  160.688   53.467
  432.000    3.126    0.418    0.300  160.681   52.870
  432.250    3.125    0.419    0.306  160.179   53.163
  432.500    3.124    0.414    0.311  160.172   54.346
  432.750    3.123    0.411    0.315  160.165   54.936
  433.000    3.094    0.406    0.316  160.158   52.261
  433.250    3.066    0.397    0.316  159.657   50.771
  433.500    3.010    0.400    0.310  159.649   51.955
  433.750    2.955    0.392    0.317  159.644   50.764
  434.000    2.901    0.403    0.325  159.637   50.166
  434.250    2.848    0.407    0.327  159.630   49.865
  434.500    2.796    0.403    0.328  159.622   49.267
  434.750    2.770    0.394    0.328  159.123   49.857
  435.000    2.745    0.394    0.329  158.619   50.744
  435.250    2.744    0.395    0.327  158.119   51.333
  435.500    2.718    0.392    0.328  158.112   49.844
  435.750    2.718    0.395    0.321  158.105   46.872
  436.000    2.717    0.399    0.319  158.098   47.758
  436.250    2.716    0.400    0.325  157.597   49.833
  436.500    2.716    0.393    0.324  156.107   51.016
  436.750    2.715    0.395    0.315  156.100   51.308
  437.000    2.714    0.392    0.314  154.609   51.601
  437.250    2.713    0.390    0.315  154.602   52.487
  437.500    2.713    0.399    0.318  156.079   53.373
  437.750    2.687    0.407    0.321  156.562   54.259
  438.000    2.687    0.409    0.324  158.042   54.256
  438.250    2.662    0.403    0.324  159.521   53.955
  438.500    2.637    0.396    0.324  159.515   53.653
  438.750    2.613    0.390    0.330  159.013   53.353
  439.000    2.612    0.386    0.329  159.007   52.755
  439.250    2.588    0.390    0.323  159.000   52.158
  439.500    2.564    0.398    0.329  158.992   51.857
  439.750    2.540    0.413    0.339  157.995   52.743
  440.000    2.539    0.423    0.342  157.989   54.817
  440.250    2.538    0.430    0.334  157.982   58.078
  440.500    2.538    0.432    0.352  157.975   59.854
  440.750    2.560    0.414    0.338  157.968   60.740
  441.000    2.606    0.397    0.319  157.968   59.548
  441.250    2.653    0.422    0.305  157.952   58.654
  441.500    2.701    0.435    0.311  157.454   59.244
  441.750    2.725    0.440    0.314  156.951   61.021
  442.000    2.825    0.426    0.308  156.945   61.908
  442.250    2.902    0.411    0.304  158.422   61.309
  442.500    3.091    0.397    0.291  158.911   62.790
  442.750    3.771    0.364    0.260  158.903   59.224
  443.000    4.203    0.174    0.194  158.897   55.361
  443.250    5.269    0.176    0.055  159.384   52.983
  443.500    6.371    0.177    0.041  160.862   51.198
  443.750    7.231    0.177    0.064  161.349   49.413
  444.000    7.495    0.178    0.061  161.337   48.221
  444.250    7.493    0.178    0.064  160.840   47.326
  444.500    7.357    0.173    0.028  160.340   47.916
  444.750    7.355    0.154    0.008  160.332   48.506
  445.000    7.694    0.147    0.008  161.315   48.502
  445.250    8.195    0.142    0.005  162.298   48.794
  445.500    9.133    0.144    0.001  162.787   50.868
  445.750    9.640    0.163    0.018  162.778   49.974
  446.000    8.568    0.215    0.071  163.267   49.673
  446.250    7.277    0.275    0.089  164.249   51.449
  446.500    5.801    0.330    0.101  164.243   54.710
  446.750    4.927    0.370    0.119  163.741   61.533
  447.000    4.110    0.409    0.308  160.766   66.278
  447.250    3.686    0.420    0.302  159.771   65.977
  447.500    3.366    0.421    0.301  159.269   64.785
  447.750    3.158    0.437    0.310  159.262   63.891
  448.000    3.129    0.432    0.307  159.748   62.997
  448.250    3.100    0.418    0.312  160.730   62.993
  448.500    3.156    0.427    0.314  160.725   65.659
  448.750    3.155    0.421    0.314  160.717   65.655
  449.000    3.183    0.416    0.314  160.711   64.761
  449.250    3.211    0.436    0.302  160.705   65.054
  449.500    3.268    0.436    0.289  160.203   67.721
  449.750    3.358    0.423    0.270  160.195   73.356
  450.000    3.512    0.434    0.270  160.190   79.585
  450.250    3.775    0.441    0.264  160.677   85.220
  450.500    3.949    0.447    0.261  160.669   86.996
  450.750    4.020    0.438    0.255  160.663   85.806
  451.000    4.167    0.434    0.274  160.656   84.021
  451.250    4.281    0.425    0.274  160.651   78.971
  451.500    4.318    0.428    0.267  160.643   73.624
  451.750    4.164    0.435    0.265  160.142   73.323
  452.000    4.088    0.435    0.273  159.641   72.132
  452.250    4.087    0.427    0.264  159.634   68.863
  452.500    4.086    0.432    0.274  160.120   71.233
  452.750    4.085    0.416    0.276  160.609   78.650
