~VERSION INFORMATION
 VERS.                 2.0:   CWLS LOG ASCII STANDARD -VERSION 2.0
 WRAP.                  NO:   ONE LINE PER DEPTH STEP
~WELL INFORMATION BLOCK
#MNEM.UNIT           DATA                    DESCRIPTION OF MNEMONIC
#---------    -------------------            -------------------------------
# Generated from Intellog Unique Number	CS_73_76/WELL/3218
WELL.         CANADIAN OCCIDENTAL            : Well_name    - WELL
LOC .         00/08-24-076-02W4/0            : Location     - LOCATION
UWI .         00/08-24-076-02W4/0            : Uwi          - UNIQUE WELL ID
ENTR.         SP                             : Entered      - ENTERED BY
SRVC.         SCHLUMBERGER                   : Scn          - SERVICE COMPANY
STRT.M        237.744                        : top_depth    - START DEPTH
STOP.M        524.244                        : bot_depth    - STOP DEPTH
STEP.M        0.25                           : increment    - STEP LENGTH
 NULL. -999.2500:NULL Value
~CURVE INFORMATION BLOCK
#MNEM UNIT       ERCB CURVE CODE    CURVE DESCRIPTION
#-----------   ------------------   ----------------------------------
DEPT.M        00 001 00 00         : DEPTH        - DEPTH
DPHI.V/V      00 890 00 00         : PHID         - DENSITY POROSITY (SANDSTONE)
NPHI.V/V      00 330 00 00         : PHIN         - NEUTRON POROSITY (SANDSTONE)
ILD .OHMM     00 120 00 00         : RESD         - DEEP RESISTIVITY (DIL)
GR  .API      00 310 00 00         : GR           - GAMMA RAY
~PARAMETER INFORMATION
#MNEM.UNIT           DATA             DESCRIPTION OF MNEMONIC
#---------         -----------     ------------------------------
GL  .M        630.326              : gl           - GROUND LEVEL ELEVATION
EREF.M        633.832              : kb           - ELEVATION OF DEPTH REFERENCE
DATM.M        630.326              : datum        - DATUM ELEVATION
TDD .M        536.143              : tdd          - TOTAL DEPTH DRILLER
RUN .         ONE                  : Run          - RUN NUMBER
ENG .         BILL                 : Engineer     - RECORDING ENGINEER
WIT .         JIM                  : Witness      - WITNESSED BY
MUD .         GEL                  : Mud_type     - MUD TYPE
MATR.         SANDSTONE            : Logunit      - NEUTRON MATRIX
TMAX.C        22.2222              : BHT          - MAXIMUM RECORDED TEMPERATURE
BHTD.M        536.143              : BHTDEP       - MAXIMUM RECORDED TEMPERATURE
MATR.         1                    : LOGUNIT      - NEUTRON MATRIX
RMT .C        25                   : MDTP         - TEMPERATURE OF MUD
NEUT.         1                    : NEUTRON      - NEUTRON TYPE
RESI.         0                    : RESIST       - RESISTIVITY TYPE
RMC .OHMM     0.25                 : RMC          - RESISTIVITY OF MUD CAKE
RMF .OHMM     0.25                 : RMF          - RESISTIVITY OF MUD FILTRATE
SUFT.C        15                   : SUFT         - SURFACE TEMPERATURE
~A  DEPTH     PHID     PHIN     RESD       GR
# ...
  281.244    0.295    0.383   26.644   84.693
  281.494    0.290    0.388   24.590   83.543
  281.744    0.281    0.387   22.141   77.675
  281.994    0.283    0.380   20.572   73.174
  282.244    0.268    0.371   19.119   82.051
  282.494    0.241    0.367   17.415   86.139
  282.744    0.220    0.383   16.705   85.884
  282.994    0.235    0.388   17.055   84.473
  283.244    0.219    0.389   18.065   80.277
  283.494    0.237    0.393   20.140   70.794
  283.744    0.241    0.386   21.995   59.308
  283.994    0.253    0.381   24.351   54.513
  284.244    0.260    0.375   27.698   55.432
  284.494    0.273    0.383   29.391   54.666
  284.744    0.299    0.394   30.208   58.789
  284.994    0.298    0.403   30.178   62.555
  285.244    0.295    0.396   29.665   66.574
  285.494    0.293    0.401   29.075   67.877
  285.744    0.290    0.405   28.616   70.093
  285.994    0.294    0.397   28.082   72.028
  286.244    0.279    0.390   27.456   73.928
  286.494    0.266    0.389   26.199   73.876
  286.744    0.271    0.392   25.232   72.943
  286.994    0.276    0.382   23.206   75.075
  287.244    0.273    0.380   22.317   79.079
  287.494    0.262    0.386   20.305   80.970
  287.744    0.249    0.395   19.405   83.281
  287.994    0.251    0.401   17.951   87.948
  288.244    0.252    0.404   16.945   91.103
  288.494    0.257    0.409   15.651   92.632
  288.744    0.235    0.409   15.220   95.713
  288.994    0.209    0.407   14.383   94.442
  289.244    0.206    0.413   13.785   95.000
  289.494    0.211    0.414   13.239   96.239
  289.744    0.219    0.396   12.718   98.282
  289.994    0.223    0.389   12.178  100.739
  290.244    0.217    0.381   11.322  102.664
  290.494    0.207    0.390   11.021  104.600
  290.744    0.223    0.408   10.357  106.587
  290.994    0.235    0.416   10.030  107.658
  291.244    0.207    0.432    9.731  107.975
  291.494    0.204    0.440    9.722  106.002
  291.744    0.217    0.425    9.987  104.171
  291.994    0.209    0.422   11.046  103.824
  292.244    0.216    0.433   11.782  104.620
  292.494    0.224    0.439   12.827  102.127
  292.744    0.238    0.435   14.237  100.327
  292.994    0.251    0.421   15.611   97.891
  293.244    0.265    0.420   16.371   93.820
  293.494    0.271    0.417   17.190   88.207
  293.744    0.279    0.419   17.057   87.237
  293.994    0.264    0.411   16.524   87.293
  294.244    0.249    0.404   15.822   90.285
  294.494    0.237    0.404   15.392   99.416
  294.744    0.223    0.403   15.102  104.979
  294.994    0.216    0.405   15.391  104.213
  295.244    0.199    0.416   15.810  105.136
  295.494    0.206    0.432   16.821  105.131
  295.744    0.223    0.468   17.366   98.905
  295.994    0.240    0.448   17.480   89.207
  296.244    0.236    0.440   17.271   78.520
  296.494    0.220    0.441   16.130   70.281
  296.744    0.228    0.445   14.743   62.897
  296.994    0.241    0.426   13.316   61.204
  297.244    0.257    0.392   12.376   72.692
  297.494    0.233    0.404   12.370   80.818
  297.744    0.222    0.413   13.838   81.659
  297.994    0.242    0.413   16.491   79.110
  298.244    0.250    0.413   18.797   77.049
  298.494    0.265    0.421   20.390   76.998
  298.744    0.277    0.427   21.018   77.783
  298.994    0.283    0.432   21.021   78.692
  299.244    0.283    0.430   20.583   80.330
  299.494    0.290    0.428   20.619   81.178
  299.744    0.295    0.424   20.632   81.317
  299.994    0.292    0.423   20.799   77.898
  300.244    0.292    0.432   21.019   75.123
  300.494    0.294    0.441   21.722   73.380
  300.744    0.297    0.445   21.806   70.364
  300.994    0.286    0.418   21.389   68.069
  301.244    0.279    0.406   20.721   67.872
  301.494    0.271    0.412   20.558   68.200
  301.744    0.265    0.422   19.911   72.041
  301.994    0.256    0.423   19.294   74.918
  302.244    0.243    0.405   19.172   78.563
  302.494    0.239    0.403   19.468   80.741
  302.744    0.244    0.409   19.942   75.261
  302.994    0.249    0.399   19.454   71.116
  303.244    0.264    0.391   18.270   65.204
  303.494    0.247    0.375   17.543   61.419
  303.744    0.225    0.366   17.182   62.273
  303.994    0.192    0.358   16.889   67.058
  304.244    0.176    0.356   16.538   69.068
  304.494    0.189    0.365   16.577   69.802
  304.744    0.219    0.370   16.780   69.364
  304.994    0.216    0.355   16.932   67.414
  305.244    0.213    0.349   17.480   69.776
  305.494    0.229    0.362   17.892   68.189
  305.744    0.224    0.361   17.477   67.350
  305.994    0.218    0.358   17.802   67.396
  306.244    0.207    0.360   17.988   67.433
  306.494    0.213    0.370   18.187   66.733
  306.744    0.217    0.384   18.533   65.256
  306.994    0.225    0.391   18.630   63.773
  307.244    0.225    0.387   18.845   62.023
  307.494    0.218    0.375   19.048   62.424
  307.744    0.221    0.355   19.536   62.498
  307.994    0.230    0.351   20.238   60.395
  308.244    0.240    0.353   20.821   56.611
  308.494    0.256    0.355   21.923   52.628
  308.744    0.264    0.369   22.948   48.783
  308.994    0.270    0.376   23.726   45.110
  309.244    0.282    0.386   23.939   41.509
  309.494    0.286    0.381   24.739   39.459
  309.744    0.289    0.380   24.752   40.314
  309.994    0.296    0.382   25.277   41.259
  310.244    0.308    0.382   25.244   42.231
  310.494    0.318    0.387   25.140   43.239
  310.744    0.308    0.388   24.363   43.573
  310.994    0.303    0.388   23.656   44.256
  311.244    0.311    0.382   23.046   38.813
  311.494    0.316    0.374   22.687   37.101
  311.744    0.313    0.388   21.971   38.331
  311.994    0.317    0.400   21.780   39.538
  312.244    0.317    0.382   21.416   39.540
  312.494    0.312    0.372   21.255   38.741
  312.744    0.299    0.372   21.057   39.557
  312.994    0.290    0.374   21.061   41.644
  313.244    0.290    0.379   21.198   42.269
  313.494    0.301    0.390   21.441   40.527
  313.744    0.323    0.396   21.488   39.517
  313.994    0.325    0.399   21.017   39.348
  314.244    0.316    0.390   21.056   39.908
  314.494    0.318    0.382   20.872   42.210
  314.744    0.304    0.377   20.310   44.423
  314.994    0.294    0.390   19.670   41.645
  315.244    0.313    0.395   19.235   37.742
  315.494    0.318    0.398   18.813   36.153
  315.744    0.338    0.395   18.280   34.613
  315.994    0.348    0.391   17.106   35.638
  316.244    0.340    0.386   16.281   38.324
  316.494    0.327    0.390   15.283   40.902
  316.744    0.313    0.377   14.707   44.742
  316.994    0.294    0.373   14.093   49.378
  317.244    0.275    0.368   13.826   55.150
  317.494    0.241    0.380   13.879   58.871
  317.744    0.247    0.379   14.564   60.818
  317.994    0.280    0.400   15.980   54.276
  318.244    0.315    0.426   16.665   50.104
  318.494    0.351    0.441   17.011   46.044
  318.744    0.364    0.457   15.280   46.102
  318.994    0.332    0.426   14.032   47.136
  319.244    0.307    0.399   14.024   49.599
  319.494    0.254    0.401   14.503   54.999
  319.744    0.242    0.414   16.064   62.574
  319.994    0.273    0.431   17.828   61.161
  320.244    0.308    0.443   19.113   51.924
  320.494    0.313    0.446   19.951   48.804
  320.744    0.321    0.430   19.984   43.999
  320.994    0.321    0.408   19.501   44.137
  321.244    0.317    0.395   18.940   45.171
  321.494    0.313    0.414   18.527   43.963
  321.744    0.312    0.421   18.555   46.499
  321.994    0.313    0.430   18.525   44.444
  322.244    0.310    0.434   18.932   41.760
  322.494    0.312    0.419   18.894   41.529
  322.744    0.309    0.412   19.165   40.861
  322.994    0.309    0.410   19.261   41.584
  323.244    0.296    0.397   18.898   41.540
  323.494    0.285    0.390   18.203   40.141
  323.744    0.272    0.387   16.276   41.731
  323.994    0.282    0.398   14.442   43.231
  324.244    0.291    0.400   13.312   46.372
  324.494    0.300    0.390   12.534   55.221
