~VERSION INFORMATION
 VERS.                 2.0:   CWLS LOG ASCII STANDARD -VERSION 2.0
 WRAP.                  NO:   ONE LINE PER DEPTH STEP
~WELL INFORMATION BLOCK
#MNEM.UNIT           DATA                    DESCRIPTION OF MNEMONIC
#---------    -------------------            -------------------------------
# Generated from Intellog Unique Number	CS_71_72/WELL/778
WELL.         PEX PHILLIPS AEC GRIST         : Well_name    - WELL
LOC .         00/06-27-071-08W4/0            : Location     - LOCATION
UWI .         00/06-27-071-08W4/0            : Uwi          - UNIQUE WELL ID
ENTR.         SP                             : Entered      - ENTERED BY
SRVC.         SCHLUMBERGER                   : Scn          - SERVICE COMPANY
STRT.M        295                            : top_depth    - START DEPTH
STOP.M        520                            : bot_depth    - STOP DEPTH
STEP.M        0.25                           : increment    - STEP LENGTH
 NULL. -999.2500:NULL Value
~CURVE INFORMATION BLOCK
#MNEM UNIT       ERCB CURVE CODE    CURVE DESCRIPTION
#-----------   ------------------   ----------------------------------
DEPT.M        00 001 00 00         : DEPTH        - DEPTH
ILD .OHMM     00 120 00 00         : RESD         - DEEP RESISTIVITY (DIL)
DPHI.V/V      00 890 00 00         : PHID         - DENSITY POROSITY (LIMESTONE)
NPHI.V/V      00 330 00 00         : PHIN         - NEUTRON POROSITY (LIMESTONE)
GR  .API      00 310 00 00         : GR           - GAMMA RAY
~PARAMETER INFORMATION
#MNEM.UNIT           DATA             DESCRIPTION OF MNEMONIC
#---------         -----------     ------------------------------
GL  .M        653.4                : gl           - GROUND LEVEL ELEVATION
EREF.M        657.2                : kb           - ELEVATION OF DEPTH REFERENCE
DATM.M        653.4                : datum        - DATUM ELEVATION
TDD .M        532                  : tdd          - TOTAL DEPTH DRILLER
RUN .         ONE                  : Run          - RUN NUMBER
ENG .         BILL                 : Engineer     - RECORDING ENGINEER
WIT .         JIM                  : Witness      - WITNESSED BY
MUD .         GEL                  : Mud_type     - MUD TYPE
MATR.         LIMESTONE            : Logunit      - NEUTRON MATRIX
TMAX.C        23                   : BHT          - MAXIMUM RECORDED TEMPERATURE
BHTD.M        532                  : BHTDEP       - MAXIMUM RECORDED TEMPERATURE
MATR.         1                    : LOGUNIT      - NEUTRON MATRIX
RMT .C        25                   : MDTP         - TEMPERATURE OF MUD
NEUT.         1                    : NEUTRON      - NEUTRON TYPE
RESI.         0                    : RESIST       - RESISTIVITY TYPE
RMC .OHMM     0.25                 : RMC          - RESISTIVITY OF MUD CAKE
RMF .OHMM     0.25                 : RMF          - RESISTIVITY OF MUD FILTRATE
SUFT.C        15                   : SUFT         - SURFACE TEMPERATURE
~A  DEPTH     RESD     PHID     PHIN       GR
# ...
  382.000    2.285    0.249    0.597  125.644
  382.250    2.289    0.252    0.577  127.057
  382.500    2.297    0.276    0.539  126.583
  382.750    2.326    0.301    0.510  118.566
  383.000    2.356    0.333    0.515  114.017
  383.250    2.418    0.353    0.531  114.579
  383.500    2.445    0.369    0.546  114.105
  383.750    2.514    0.352    0.556  113.329
  384.000    2.619    0.342    0.539  112.854
  384.250    2.853    0.328    0.488  112.320
  384.500    3.214    0.286    0.494  113.915
  384.750    3.287    0.279    0.491  115.147
  385.000    3.689    0.310    0.471  114.428
  385.250    3.945    0.325    0.460  112.191
  385.500    4.064    0.287    0.456  111.413
  385.750    4.194    0.265    0.465  113.131
  386.000    4.193    0.270    0.469  114.725
  386.250    4.114    0.257    0.484  114.981
  386.500    4.022    0.257    0.510  110.920
  386.750    3.932    0.273    0.473  107.648
  387.000    3.801    0.287    0.458  109.243
  387.250    3.674    0.298    0.476  113.154
  387.500    3.585    0.292    0.491  114.684
  387.750    3.511    0.288    0.505  115.549
  388.000    3.497    0.291    0.516  114.528
  388.250    3.483    0.283    0.521  114.115
  388.500    3.476    0.275    0.526  108.656
  388.750    3.481    0.280    0.517  104.348
  389.000    3.519    0.307    0.518   99.252
  389.250    3.558    0.314    0.490   95.250
  389.500    3.693    0.283    0.452   92.404
  389.750    3.883    0.281    0.433   92.418
  390.000    4.098    0.296    0.448   96.933
  390.250    4.358    0.301    0.462   99.744
  390.500    4.548    0.284    0.435  100.487
  390.750    4.711    0.273    0.427  102.995
  391.000    4.935    0.267    0.440  106.598
  391.250    5.037    0.261    0.451  104.239
  391.500    5.227    0.255    0.467   99.020
  391.750    5.324    0.243    0.478  102.866
  392.000    5.372    0.211    0.469  108.476
  392.250    5.382    0.201    0.444  112.626
  392.500    5.350    0.229    0.432  115.621
  392.750    5.172    0.253    0.460  114.052
  393.000    4.981    0.267    0.466  107.920
  393.250    4.905    0.276    0.465  102.276
  393.500    4.904    0.266    0.469   93.652
  393.750    4.986    0.271    0.475   89.589
  394.000    5.194    0.284    0.464   93.680
  394.250    5.461    0.263    0.444   97.647
  394.500    5.626    0.244    0.429  100.153
  394.750    5.806    0.233    0.427  102.235
  395.000    6.026    0.249    0.436  105.840
  395.250    6.127    0.257    0.448  107.372
  395.500    6.310    0.245    0.462  106.229
  395.750    6.392    0.195    0.478  104.053
  396.000    6.487    0.192    0.427  105.161
  396.250    6.859    0.204    0.396  107.303
  396.500    7.267    0.185    0.411  109.081
  396.750    7.541    0.184    0.385  110.860
  397.000    7.624    0.211    0.380  111.723
  397.250    7.594    0.225    0.395  109.790
  397.500    7.452    0.212    0.409  107.735
  397.750    7.069    0.228    0.420  104.828
  398.000    6.770    0.243    0.442  107.884
  398.250    6.545    0.244    0.441  103.943
  398.500    6.315    0.246    0.451  100.062
  398.750    6.185    0.248    0.454  101.780
  399.000    6.137    0.253    0.449   99.542
  399.250    6.170    0.269    0.437   98.521
  399.500    6.261    0.245    0.424  103.829
  399.750    6.283    0.216    0.429  108.160
  400.000    6.165    0.214    0.441  111.214
  400.250    5.731    0.219    0.452  114.697
  400.500    5.488    0.221    0.444  117.568
  400.750    5.315    0.210    0.432  117.946
  401.000    5.225    0.193    0.441  116.074
  401.250    5.185    0.180    0.452  118.885
  401.500    5.115    0.193    0.466  120.602
  401.750    5.115    0.206    0.464  115.324
  402.000    5.113    0.207    0.446  111.383
  402.250    5.169    0.204    0.435  107.380
  402.500    5.178    0.223    0.440  110.923
  402.750    5.215    0.232    0.457  115.437
  403.000    5.214    0.222    0.467  122.689
  403.250    5.203    0.234    0.468  121.243
  403.500    5.153    0.236    0.478  115.355
  403.750    5.123    0.214    0.473  110.441
  404.000    5.065    0.201    0.457  115.869
  404.250    5.026    0.199    0.453  118.498
  404.500    5.025    0.212    0.452  113.219
  404.750    5.071    0.202    0.443  115.362
  405.000    5.136    0.195    0.444  118.660
  405.250    5.144    0.197    0.464  120.133
  405.500    5.153    0.204    0.478  120.208
  405.750    5.132    0.210    0.480  119.247
  406.000    5.092    0.230    0.485  117.192
  406.250    4.988    0.260    0.510  112.096
  406.500    4.627    0.283    0.537  111.683
  406.750    4.059    0.310    0.560  117.175
  407.000    3.527    0.329    0.580  117.671
  407.250    3.008    0.325    0.590  115.069
  407.500    2.693    0.266    0.594  117.638
  407.750    2.443    0.242    0.577  124.161
  408.000    2.327    0.235    0.561  123.565
  408.250    2.357    0.236    0.557  117.982
  408.500    2.401    0.245    0.540  120.611
  408.750    2.445    0.282    0.519  120.321
  409.000    2.547    0.322    0.508  116.379
  409.250    2.629    0.368    0.525  113.108
  409.500    2.744    0.407    0.536  112.695
  409.750    2.907    0.250    0.477  110.886
  410.000    3.191    0.259    0.442  109.316
  410.250    3.437    0.319    0.485  108.479
  410.500    3.621    0.370    0.514  107.579
  410.750    3.640    0.327    0.521  105.523
  411.000    3.572    0.268    0.490  102.434
  411.250    3.498    0.276    0.471  101.170
  411.500    3.439    0.284    0.476  102.036
  411.750    3.394    0.297    0.496  100.223
  412.000    3.438    0.320    0.514   97.803
  412.250    3.528    0.299    0.502   97.877
  412.500    3.668    0.288    0.478   94.971
  412.750    3.944    0.256    0.471   87.562
  413.000    4.386    0.090    0.448   81.431
  413.250    4.824    0.109    0.346   86.068
  413.500    5.139    0.212    0.429   91.861
  413.750    5.414    0.282    0.473   96.011
  414.000    5.598    0.296    0.484   98.519
  414.250    5.462    0.305    0.472   98.714
  414.500    4.800    0.314    0.463   96.598
  414.750    4.445    0.312    0.465   97.586
  415.000    4.115    0.310    0.460   97.051
  415.250    4.046    0.312    0.454   95.300
  415.500    3.970    0.307    0.471   93.185
  415.750    3.947    0.305    0.497   95.023
  416.000    3.960    0.311    0.513   96.679
  416.250    4.019    0.317    0.491   95.414
  416.500    4.101    0.312    0.472   94.091
  416.750    4.131    0.301    0.462   95.442
  417.000    4.208    0.290    0.454  100.199
  417.250    4.310    0.276    0.446  106.053
  417.500    4.342    0.250    0.445  110.325
  417.750    4.406    0.249    0.452  113.137
  418.000    4.463    0.246    0.431  114.185
  418.250    4.495    0.255    0.412  114.624
  418.500    4.519    0.301    0.449  114.271
  418.750    4.552    0.367    0.467  113.069
  419.000    4.585    0.260    0.439  109.066
  419.250    4.653    0.247    0.423  103.301
  419.500    4.704    0.241    0.429  104.045
  419.750    4.818    0.232    0.412  110.140
  420.000    4.845    0.219    0.381  113.196
  420.250    4.898    0.211    0.392  114.490
  420.500    4.943    0.212    0.407  114.014
  420.750    4.969    0.235    0.430  111.897
  421.000    4.940    0.264    0.456  109.601
  421.250    4.920    0.281    0.472  108.396
  421.500    4.883    0.236    0.449  106.888
  421.750    4.800    0.246    0.428  103.435
  422.000    4.657    0.288    0.440  101.441
  422.250    4.337    0.343    0.478   99.750
  422.500    4.061    0.367    0.500   98.790
  422.750    3.782    0.386    0.488  105.860
  423.000    3.535    0.270    0.453  114.511
  423.250    3.398    0.249    0.469  117.140
  423.500    3.297    0.294    0.515  116.180
  423.750    3.229    0.328    0.560  108.164
  424.000    3.216    0.323    0.496  103.251
  424.250    3.282    0.309    0.450  104.966
  424.500    3.496    0.325    0.425  106.198
  424.750    3.635    0.320    0.438  103.229
  425.000    3.787    0.253    0.437  101.479
  425.250    3.975    0.278    0.443  105.811
