~VERSION INFORMATION
 VERS.                 2.0:   CWLS LOG ASCII STANDARD -VERSION 2.0
 WRAP.                  NO:   ONE LINE PER DEPTH STEP
~WELL INFORMATION BLOCK
#MNEM.UNIT           DATA                    DESCRIPTION OF MNEMONIC
#---------    -------------------            -------------------------------
# Generated from Intellog Unique Number	CS_73_76/WELL/1092
WELL.         BOW VALLLEY INDUSTRIES         : Well_name    - WELL
LOC .         00/02-07-076-13W4/0            : Location     - LOCATION
UWI .         00/02-07-076-13W4/0            : Uwi          - UNIQUE WELL ID
ENTR.         T                              : Entered      - ENTERED BY
SRVC.         SCHLUMBERGER                   : Scn          - SERVICE COMPANY
STRT.M        335                            : top_depth    - START DEPTH
STOP.M        565                            : bot_depth    - STOP DEPTH
STEP.M        0.25                           : increment    - STEP LENGTH
 NULL. -999.2500:NULL Value
~CURVE INFORMATION BLOCK
#MNEM UNIT       ERCB CURVE CODE    CURVE DESCRIPTION
#-----------   ------------------   ----------------------------------
DEPT.M        00 001 00 00         : DEPTH        - DEPTH
GR  .API      00 310 00 00         : GR           - GAMMA RAY
NPHI.V/V      00 330 00 00         : PHIN         - NEUTRON POROSITY (SANDSTONE)
DPHI.V/V      00 890 00 00         : PHID         - DENSITY POROSITY (SANDSTONE)
ILD .OHMM     00 120 00 00         : RESD         - DEEP RESISTIVITY (DIL)
~PARAMETER INFORMATION
#MNEM.UNIT           DATA             DESCRIPTION OF MNEMONIC
#---------         -----------     ------------------------------
GL  .M        709.6                : gl           - GROUND LEVEL ELEVATION
EREF.M        712.3                : kb           - ELEVATION OF DEPTH REFERENCE
DATM.M        712.3                : datum        - DATUM ELEVATION
TDD .M        572                  : tdd          - TOTAL DEPTH DRILLER
RUN .         ONE                  : Run          - RUN NUMBER
ENG .         BILL                 : Engineer     - RECORDING ENGINEER
WIT .         JIM                  : Witness      - WITNESSED BY
MUD .         GEL                  : Mud_type     - MUD TYPE
MATR.         SANDSTONE            : Logunit      - NEUTRON MATRIX
TMAX.C        24                   : BHT          - MAXIMUM RECORDED TEMPERATURE
BHTD.M        572                  : BHTDEP       - MAXIMUM RECORDED TEMPERATURE
MATR.         1                    : LOGUNIT      - NEUTRON MATRIX
RMT .C        25                   : MDTP         - TEMPERATURE OF MUD
NEUT.         1                    : NEUTRON      - NEUTRON TYPE
RESI.         0                    : RESIST       - RESISTIVITY TYPE
RMC .OHMM     0.25                 : RMC          - RESISTIVITY OF MUD CAKE
RMF .OHMM     0.25                 : RMF          - RESISTIVITY OF MUD FILTRATE
SUFT.C        15                   : SUFT         - SURFACE TEMPERATURE
~A  DEPTH       GR     PHIN     PHID     RESD
# ...
  465.500   63.566    0.478    0.296    5.121
  465.750   63.605    0.479    0.300    5.120
  466.000   64.315    0.480    0.310    5.215
  466.250   64.410    0.480    0.313    5.313
  466.500   64.468    0.474    0.306    5.412
  466.750   63.948    0.466    0.295    5.513
  467.000   64.005    0.469    0.287    5.512
  467.250   64.082    0.473    0.282    5.309
  467.500   62.313    0.477    0.274    5.114
  467.750   60.544    0.474    0.262    4.926
  468.000   56.948    0.457    0.248    4.745
  468.250   54.564    0.438    0.143    4.656
  468.500   55.871    0.368    0.108    4.656
  468.750   56.543    0.367    0.120    4.655
  469.000   58.503    0.421    0.157    4.654
  469.250   59.156    0.453    0.203    4.483
  469.500   60.482    0.477    0.272    4.318
  469.750   61.173    0.489    0.296    4.318
  470.000   61.884    0.491    0.320    4.398
  470.250   62.556    0.478    0.316    4.398
  470.500   62.652    0.486    0.309    4.236
  470.750   62.747    0.510    0.300    4.157
  471.000   62.785    0.523    0.298    4.004
  471.250   62.862    0.518    0.310    4.003
  471.500   62.938    0.510    0.313    4.155
  471.750   62.419    0.505    0.310    4.476
  472.000   62.495    0.500    0.309    4.823
  472.250   61.975    0.497    0.314    5.195
  472.500   62.032    0.497    0.316    5.494
  472.750   61.494    0.493    0.318    6.144
  473.000   61.570    0.491    0.316    6.871
  473.250   61.646    0.493    0.313    7.542
  473.500   61.723    0.496    0.311    8.278
  473.750   61.799    0.499    0.304    9.087
  474.000   61.875    0.491    0.293    9.608
  474.250   61.337    0.374    0.276    9.788
  474.500   57.741    0.328    0.215    9.428
  474.750   53.493    0.289    0.122    8.119
  475.000   48.033    0.233    0.035    7.395
  475.250   42.573    0.210   -0.001    6.488
  475.500   40.170    0.179    0.003    5.587
  475.750   41.534    0.172    0.013    5.282
  476.000   42.802    0.178    0.027    5.088
  476.250   44.724    0.186    0.062    4.993
  476.500   48.529    0.201    0.121    4.992
  476.750   50.432    0.301    0.145    4.899
  477.000   52.969    0.379    0.188    4.898
  477.250   55.525    0.409    0.238    4.807
  477.500   56.812    0.433    0.272    4.717
  477.750   58.119    0.456    0.312    4.717
  478.000   58.214    0.462    0.316    4.629
  478.250   58.271    0.469    0.304    4.628
  478.500   58.348    0.465    0.297    4.628
  478.750   57.809    0.458    0.323    4.541
  479.000   57.327    0.453    0.328    4.541
  479.250   57.366    0.460    0.318    4.456
  479.500   58.076    0.465    0.305    4.455
  479.750   60.017    0.467    0.296    4.455
  480.000   60.670    0.467    0.299    4.371
  480.250   60.766    0.472    0.321    4.371
  480.500   60.227    0.480    0.327    4.370
  480.750   59.688    0.477    0.326    4.370
  481.000   58.515    0.474    0.323    4.288
  481.250   58.014    0.472    0.316    4.288
  481.500   57.457    0.474    0.309    4.287
  481.750   57.533    0.481    0.302    4.286
  482.000   57.032    0.484    0.304    4.286
  482.250   57.109    0.502    0.306    4.365
  482.500   56.551    0.508    0.312    4.365
  482.750   56.646    0.509    0.311    4.446
  483.000   56.108    0.498    0.300    4.530
  483.250   56.165    0.487    0.300    4.614
  483.500   55.607    0.478    0.305    4.700
  483.750   54.491    0.472    0.312    4.788
  484.000   54.548    0.464    0.313    4.969
  484.250   54.606    0.456    0.313    4.969
  484.500   55.316    0.451    0.315    5.062
  484.750   56.027    0.445    0.311    5.156
  485.000   56.084    0.447    0.307    5.252
  485.250   56.795    0.453    0.301    5.252
  485.500   56.852    0.455    0.298    5.350
  485.750   57.562    0.459    0.298    5.349
  486.000   57.620    0.464    0.286    5.348
  486.250   58.965    0.464    0.287    5.448
  486.500   59.022    0.459    0.292    5.550
  486.750   59.694    0.451    0.290    5.549
  487.000   61.001    0.447    0.284    5.548
  487.250   62.326    0.442    0.258    5.547
  487.500   63.633    0.439    0.256    5.547
  487.750   63.728    0.435    0.250    5.443
  488.000   63.190    0.432    0.242    5.146
  488.250   62.670    0.429    0.231    4.865
  488.500   63.323    0.436    0.254    4.686
  488.750   64.053    0.460    0.270    4.774
  489.000   64.110    0.476    0.266    4.863
  489.250   64.186    0.489    0.256    4.954
  489.500   64.244    0.495    0.252    5.046
  489.750   63.724    0.493    0.253    5.141
  490.000   63.800    0.475    0.245    5.237
  490.250   63.896    0.446    0.219    5.236
  490.500   63.953    0.425    0.175    5.235
  490.750   64.029    0.373    0.110    5.042
  491.000   65.970    0.399    0.097    5.042
  491.250   69.103    0.426    0.119    5.041
  491.500   77.195    0.467    0.145    5.040
  491.750   80.962    0.484    0.183    5.134
  492.000   81.077    0.503    0.208    5.230
  492.250   80.500    0.502    0.215    5.328
  492.500   79.961    0.496    0.202    5.634
  492.750   78.826    0.491    0.194    5.847
  493.000   78.883    0.478    0.191    5.956
  493.250   78.345    0.467    0.199    5.956
  493.500   78.459    0.461    0.209    6.067
  493.750   78.516    0.463    0.216    6.066
  494.000   78.593    0.464    0.213    6.179
  494.250   77.439    0.464    0.194    6.295
  494.500   76.938    0.460    0.186    6.294
  494.750   77.611    0.458    0.184    6.293
  495.000   79.532    0.452    0.176    6.176
  495.250   82.069    0.426    0.173    6.060
  495.500   84.606    0.420    0.182    5.948
  495.750   87.143    0.428    0.190    5.729
  496.000   89.680    0.434    0.185    5.728
  496.250   90.986    0.438    0.180    5.727
  496.500   93.561    0.460    0.175    5.620
  496.750   94.849    0.462    0.176    5.516
  497.000   95.540    0.461    0.176    5.214
  497.250   94.386    0.434    0.179    5.023
  497.500   93.232    0.427    0.182    4.748
  497.750   92.079    0.421    0.180    4.660
  498.000   90.944    0.449    0.177    4.573
  498.250   89.790    0.453    0.180    4.405
  498.500   88.617    0.459    0.181    4.323
  498.750   87.501    0.451    0.185    3.937
  499.000   87.539    0.432    0.187    3.586
  499.250   87.616    0.431    0.190    3.205
  499.500   87.730    0.454    0.198    2.813
  499.750   88.403    0.479    0.218    2.422
  500.000   89.094    0.487    0.220    2.125
  500.250   89.805    0.509    0.231    2.009
  500.500   89.862    0.531    0.242    2.085
  500.750   90.591    0.538    0.250    2.205
  501.000   90.649    0.558    0.251    2.332
  501.250   90.091    0.567    0.245    2.559
  501.500   88.322    0.578    0.240    2.809
  501.750   85.342    0.586    0.240    3.141
  502.000   84.207    0.592    0.243    3.448
  502.250   84.245    0.565    0.244    4.003
  502.500   84.321    0.549    0.238    4.734
  502.750   83.187    0.543    0.233    5.294
  503.000   83.878    0.545    0.238    5.495
  503.250   83.974    0.547    0.250    5.597
  503.500   84.031    0.541    0.250    5.809
  503.750   84.107    0.525    0.213    5.809
  504.000   84.779    0.509    0.167    5.700
  504.250   87.374    0.472    0.164    5.191
  504.500   88.642    0.462    0.164    4.908
  504.750   89.949    0.468    0.152    4.387
  505.000   86.334    0.465    0.140    4.071
  505.250   82.105    0.437    0.129    4.071
  505.500   84.046    0.406    0.155    4.385
  505.750   85.948    0.405    0.162    4.552
  506.000   87.889    0.429    0.173    4.996
  506.250   88.580    0.453    0.183    5.484
  506.500   86.830    0.475    0.192    5.908
  506.750   85.657    0.478    0.197    6.247
  507.000   84.484    0.483    0.199    6.364
  507.250   83.369    0.489    0.199    6.483
  507.500   83.426    0.497    0.193    6.604
  507.750   82.272    0.495    0.177    6.727
  508.000   78.023    0.446    0.144    6.726
  508.250   77.504    0.427    0.136    6.359
  508.500   80.098    0.435    0.162    6.012
  508.750   81.347    0.441    0.169    5.899
