~VERSION INFORMATION
 VERS.                 2.0:   CWLS LOG ASCII STANDARD -VERSION 2.0
 WRAP.                  NO:   ONE LINE PER DEPTH STEP
~WELL INFORMATION BLOCK
#MNEM.UNIT           DATA                    DESCRIPTION OF MNEMONIC
#---------    -------------------            -------------------------------
# Generated from Intellog Unique Number	CS_77_79/WELL/3297
WELL.         LOGAN RESOURCES LTD.           : Well_name    - WELL
LOC .         00/07-13-078-14W4/0            : Location     - LOCATION
UWI .         00/07-13-078-14W4/0            : Uwi          - UNIQUE WELL ID
ENTR.         JOETTE                         : Entered      - ENTERED BY
SRVC.         SCHLUMBERGER                   : Scn          - SERVICE COMPANY
DATE.         08-14-92]                      : Date         - LOG DATE
STRT.M        310                            : top_depth    - START DEPTH
STOP.M        505                            : bot_depth    - STOP DEPTH
STEP.M        0.25                           : increment    - STEP LENGTH
 NULL. -999.2500:NULL Value
~CURVE INFORMATION BLOCK
#MNEM UNIT       ERCB CURVE CODE    CURVE DESCRIPTION
#-----------   ------------------   ----------------------------------
DEPT.M        00 001 00 00         : DEPTH        - DEPTH
GR  .API      00 310 00 00         : GR           - GAMMA RAY
NPHI.V/V      00 330 00 00         : PHIN         - NEUTRON POROSITY (SANDSTONE)
DPHI.V/V      00 890 00 00         : PHID         - DENSITY POROSITY (SANDSTONE)
ILD .OHMM     00 120 00 00         : RESD         - DEEP RESISTIVITY (DIL)
~PARAMETER INFORMATION
#MNEM.UNIT           DATA             DESCRIPTION OF MNEMONIC
#---------         -----------     ------------------------------
GL  .M        678.1                : gl           - GROUND LEVEL ELEVATION
EREF.M        676.6                : kb           - ELEVATION OF DEPTH REFERENCE
DATM.M        676.6                : datum        - DATUM ELEVATION
TDD .M        508                  : tdd          - TOTAL DEPTH DRILLER
RUN .         ONE                  : Run          - RUN NUMBER
ENG .         BILL                 : Engineer     - RECORDING ENGINEER
WIT .         JIM                  : Witness      - WITNESSED BY
MUD .         GEL                  : Mud_type     - MUD TYPE
MATR.         SANDSTONE            : Logunit      - NEUTRON MATRIX
TMAX.C        30                   : BHT          - MAXIMUM RECORDED TEMPERATURE
BHTD.M        508                  : BHTDEP       - MAXIMUM RECORDED TEMPERATURE
RMT .C        19                   : MDTP         - TEMPERATURE OF MUD
MUDD.KG/M     1160                 : MWT          - MUD DENSITY
NEUT.         1                    : NEUTRON      - NEUTRON TYPE
RESI.         0                    : RESIST       - RESISTIVITY TYPE
RM  .OHMM     3.54                 : RM           - RESISTIVITY OF MUD
RMC .OHMM     2.95                 : RMC          - RESISTIVITY OF MUD CAKE
RMF .OHMM     3.62                 : RMF          - RESISTIVITY OF MUD FILTRATE
SUFT.C        15                   : SUFT         - SURFACE TEMPERATURE
~A  DEPTH       GR     PHIN     PHID     RESD
# ...
  353.500   55.849    0.355    0.322   15.235
  353.750   55.897    0.371    0.323   15.257
  354.000   56.545    0.371    0.325   14.989
  354.250   56.581    0.360    0.331   14.729
  354.500   60.227    0.357    0.325   14.748
  354.750   61.474    0.360    0.331   14.758
  355.000   58.524    0.354    0.339   14.769
  355.250   54.998    0.326    0.331   14.784
  355.500   57.433    0.318    0.312   14.802
  355.750   58.069    0.346    0.327   15.097
  356.000   61.714    0.362    0.317   15.112
  356.250   62.362    0.375    0.311   15.123
  356.500   60.012    0.380    0.308   14.861
  356.750   56.462    0.366    0.307   14.879
  357.000   56.510    0.353    0.303   14.890
  357.250   65.552    0.349    0.302   14.632
  357.500   60.204    0.354    0.306   14.382
  357.750   54.879    0.360    0.308   14.396
  358.000   53.704    0.366    0.309   14.150
  358.250   53.764    0.362    0.309   14.161
  358.500   58.597    0.363    0.303   13.912
  358.750   63.454    0.367    0.296   13.929
  359.000   59.305    0.367    0.297   14.203
  359.250   60.552    0.363    0.301   14.220
  359.500   65.409    0.360    0.301   14.231
  359.750   61.248    0.363    0.294   14.249
  360.000   64.894    0.373    0.302   14.256
  360.250   67.940    0.382    0.306   14.540
  360.500   60.792    0.376    0.307   15.102
  360.750   55.444    0.368    0.297   15.117
  361.000   57.303    0.371    0.252   14.061
  361.250   74.728    0.367    0.276   13.557
  361.500   92.176    0.363    0.284   13.082
  361.750   95.222    0.366    0.299   12.858
  362.000   77.282    0.376    0.305   12.864
  362.250   77.330    0.380    0.301   12.877
  362.500   75.579    0.364    0.295   12.428
  362.750   69.032    0.363    0.293   11.983
  363.000   66.669    0.365    0.276   10.937
  363.250   70.315    0.365    0.270    9.798
  363.500   82.979    0.365    0.264    8.620
  363.750   82.415    0.376    0.255    7.721
  364.000   91.457    0.384    0.254    6.425
  364.250   86.109    0.377    0.258    4.613
  364.500   80.161    0.357    0.268    4.370
  364.750   80.809    0.361    0.269    3.914
  365.000   85.677    0.370    0.273    3.506
  365.250   85.702    0.373    0.281    3.141
  365.500   87.548    0.361    0.266    2.867
  365.750   96.003    0.376    0.247    2.715
  366.000  103.846    0.439    0.251    3.036
  366.250  109.890    0.471    0.250    3.724
  366.500  109.950    0.482    0.247    4.568
  366.750  107.588    0.440    0.242    5.301
  367.000   96.843    0.438    0.233    6.507
  367.250   89.096    0.436    0.221    6.755
  367.500   89.744    0.386    0.210    7.016
  367.750   92.190    0.375    0.209    7.154
  368.000   93.449    0.363    0.214    7.030
  368.250   92.886    0.367    0.224    6.539
  368.500   86.338    0.375    0.229    6.424
  368.750  103.175    0.377    0.227    6.197
  369.000  103.223    0.362    0.223    6.317
  369.250   95.477    0.346    0.226    6.565
  369.500   86.530    0.357    0.226    6.570
  369.750   93.174    0.369    0.225    6.575
  370.000   92.623    0.382    0.222    6.462
  370.250   84.276    0.390    0.212    6.234
  370.500   81.926    0.392    0.215    5.902
  370.750   97.576    0.391    0.214    5.591
  371.000  106.030    0.384    0.210    5.294
  371.250  101.269    0.380    0.206    5.013
  371.500  100.118    0.384    0.209    4.926
  371.750  102.565    0.380    0.213    5.119
  372.000   96.617    0.389    0.222    5.726
  372.250  100.862    0.401    0.219    5.945
  372.500   91.916    0.410    0.225    6.290
  372.750   90.165    0.395    0.230    6.536
  373.000   93.823    0.379    0.226    6.663
  373.250   93.259    0.390    0.230    6.310
  373.500   97.504    0.386    0.247    5.550
  373.750   98.752    0.383    0.258    5.064
  374.000  126.993    0.384    0.227    4.454
  374.250  112.039    0.367    0.244    3.991
  374.500  100.695    0.360    0.267    3.779
  374.750  107.938    0.370    0.273    3.516
  375.000  115.193    0.393    0.260    3.390
  375.250  108.658    0.430    0.243    3.270
  375.500  109.293    0.438    0.235    2.985
  375.750  117.136    0.439    0.241    2.879
  376.000  117.196    0.430    0.247    2.727
  376.250  113.635    0.441    0.249    2.581
  376.500  110.085    0.443    0.241    2.445
  376.750  104.137    0.449    0.232    2.447
  377.000  100.576    0.441    0.237    2.451
  377.250  122.222    0.426    0.245    2.363
  377.500  118.072    0.426    0.244    2.197
  377.750  113.923    0.458    0.233    2.042
  378.000  111.585    0.472    0.232    2.044
  378.250  109.222    0.488    0.247    2.555
  378.500  105.673    0.490    0.259    2.754
  378.750  121.910    0.480    0.271    3.024
  379.000  117.161    0.482    0.269    3.140
  379.250  120.207    0.428    0.260    3.513
  379.500  108.863    0.413    0.251    3.647
  379.750  100.517    0.412    0.242    3.860
  380.000  108.959    0.415    0.234    4.009
  380.250  113.216    0.429    0.238    4.164
  380.500  109.655    0.424    0.243    4.406
  380.750   88.117    0.399    0.232    4.663
  381.000   77.960    0.369    0.230    4.935
  381.250   70.812    0.363    0.266    5.125
  381.500   79.255    0.375    0.280    5.421
  381.750   99.102    0.382    0.286    5.735
  382.000   87.770    0.374    0.266    6.181
  382.250   87.806    0.374    0.261    6.540
  382.500   87.266    0.375    0.271    6.795
  382.750   81.906    0.379    0.272    6.927
  383.000   74.746    0.402    0.265    6.937
  383.250   68.199    0.398    0.250    6.940
  383.500   71.844    0.392    0.235    6.952
  383.750   81.498    0.392    0.233    6.956
  384.000   93.538    0.392    0.241    6.968
  384.250   92.987    0.384    0.245    6.971
  384.500   91.236    0.368    0.239    7.107
  384.750   90.684    0.363    0.243    7.248
  385.000   83.537    0.358    0.246    7.255
  385.250   87.183    0.369    0.243    6.871
  385.500   94.426    0.365    0.250    6.389
  385.750   93.287    0.350    0.264    6.394
  386.000   90.325    0.352    0.261    6.399
  386.250   93.383    0.358    0.263    6.524
  386.500   94.043    0.360    0.267    6.778
  386.750   91.680    0.355    0.263    6.910
  387.000   91.141    0.355    0.255    7.179
  387.250   86.368    0.358    0.253    7.184
  387.500   81.020    0.368    0.262    6.936
  387.750   81.068    0.368    0.272    6.689
  388.000   91.933    0.365    0.272    6.571
  388.250   93.168    0.370    0.264    6.112
  388.500   90.218    0.369    0.261    6.005
  388.750   87.268    0.371    0.258    5.791
  389.000   98.709    0.383    0.254    5.587
  389.250   99.356    0.382    0.250    5.195
  389.500   85.026    0.370    0.240    4.920
  389.750   92.257    0.371    0.240    4.746
  390.000  108.507    0.379    0.240    4.663
  390.250   95.951    0.387    0.233    4.499
  390.500   93.600    0.386    0.224    4.587
  390.750   98.445    0.379    0.227    4.676
  391.000   99.705    0.381    0.221    4.949
  391.250  103.350    0.391    0.216    5.139
  391.500   93.193    0.398    0.226    5.438
  391.750  103.446    0.406    0.237    5.860
  392.000   99.897    0.388    0.236    6.087
  392.250  103.543    0.366    0.242    5.984
  392.500   87.389    0.361    0.250    5.772
  392.750   84.439    0.355    0.244    5.571
  393.000   98.290    0.349    0.233    5.575
  393.250   95.940    0.368    0.232    5.579
  393.500   92.390    0.363    0.232    5.690
  393.750   93.638    0.361    0.232    5.695
  394.000  102.092    0.365    0.230    5.701
  394.250   95.544    0.374    0.230    5.813
  394.500  102.176    0.375    0.235    5.927
  394.750  105.822    0.370    0.231    6.158
  395.000   98.675    0.371    0.226    6.276
  395.250   95.749    0.375    0.226    6.519
  395.500   95.773    0.368    0.224    6.771
  395.750   95.821    0.360    0.224    6.907
  396.000  102.464    0.357    0.230    7.042
  396.250   89.321    0.349    0.243    7.185
  396.500   89.369    0.352    0.240    7.325
  396.750   94.814    0.358    0.247    7.328
