~VERSION INFORMATION
 VERS.                 2.0:   CWLS LOG ASCII STANDARD -VERSION 2.0
 WRAP.                  NO:   ONE LINE PER DEPTH STEP
~WELL INFORMATION BLOCK
#MNEM.UNIT           DATA                    DESCRIPTION OF MNEMONIC
#---------    -------------------            -------------------------------
# Generated from Intellog Unique Number	CX_WELLS/WELL/2574
WELL.         CHARD                          : Well_name    - WELL
LOC .         00/06-02-080-07W4/0            : Location     - LOCATION
UWI .         00/06-02-080-07W400            : Uwi          - UNIQUE WELL ID
ENTR.         T                              : Entered      - ENTERED BY
SRVC.         SCHLUMBERGER                   : Scn          - SERVICE COMPANY
STRT.M        140                            : top_depth    - START DEPTH
STOP.M        380                            : bot_depth    - STOP DEPTH
STEP.M        0.25                           : increment    - STEP LENGTH
 NULL. -999.2500:NULL Value
~CURVE INFORMATION BLOCK
#MNEM UNIT       ERCB CURVE CODE    CURVE DESCRIPTION
#-----------   ------------------   ----------------------------------
DEPT.M        00 001 00 00         : DEPTH        - DEPTH
GR  .API      00 310 00 00         : GR           - GAMMA RAY
NPHI.V/V      00 330 00 00         : PHIN         - NEUTRON POROSITY (SANDSTONE)
DPHI.V/V      00 890 00 00         : PHID         - DENSITY POROSITY (SANDSTONE)
ILD .OHMM     00 120 00 00         : RESD         - DEEP RESISTIVITY (DIL)
~PARAMETER INFORMATION
#MNEM.UNIT           DATA             DESCRIPTION OF MNEMONIC
#---------         -----------     ------------------------------
GL  .M        559.1                : gl           - GROUND LEVEL ELEVATION
EREF.M        562.7                : kb           - ELEVATION OF DEPTH REFERENCE
DATM.M        562.7                : datum        - DATUM ELEVATION
TDD .M        393.7                : tdd          - TOTAL DEPTH DRILLER
RUN .         ONE                  : Run          - RUN NUMBER
ENG .         BILL                 : Engineer     - RECORDING ENGINEER
WIT .         JIM                  : Witness      - WITNESSED BY
MUD .         GEL                  : Mud_type     - MUD TYPE
MATR.         SANDSTONE            : Logunit      - NEUTRON MATRIX
TMAX.C        20                   : BHT          - MAXIMUM RECORDED TEMPERATURE
BHTD.M        393                  : BHTDEP       - MAXIMUM RECORDED TEMPERATURE
MATR.         1                    : LOGUNIT      - NEUTRON MATRIX
RMT .C        20                   : MDTP         - TEMPERATURE OF MUD
NEUT.         1                    : NEUTRON      - NEUTRON TYPE
RESI.         5.65                 : RESIST       - RESISTIVITY TYPE
RMC .OHMM     6.4                  : RMC          - RESISTIVITY OF MUD CAKE
RMF .OHMM     5.2                  : RMF          - RESISTIVITY OF MUD FILTRATE
SUFT.C        3                    : SUFT         - SURFACE TEMPERATURE
~A  DEPTH       GR     PHIN     PHID     RESD
# ...
  357.500   52.197    0.410    0.339  106.837
  357.750   43.670    0.418    0.339  107.070
  358.000   38.215    0.425    0.341  103.079
  358.250   35.820    0.431    0.344   97.412
  358.500   34.037    0.439    0.348  105.468
  358.750   34.715    0.441    0.350  123.471
  359.000   34.755    0.445    0.356  138.918
  359.250   36.656    0.438    0.362  162.632
  359.500   39.157    0.431    0.366  172.693
  359.750   41.657    0.432    0.366  176.311
  360.000   42.322    0.433    0.366  183.776
  360.250   42.375    0.438    0.364  180.476
  360.500   42.428    0.439    0.362  173.825
  360.750   38.796    0.440    0.358  158.077
  361.000   34.578    0.438    0.354  107.321
  361.250   31.571    0.430    0.357  103.455
  361.500   29.788    0.427    0.361  105.623
  361.750   29.203    0.422    0.369  109.999
  362.000   28.643    0.420    0.374  121.432
  362.250   30.572    0.423    0.376  156.664
  362.500   31.223    0.436    0.378  163.155
  362.750   31.901    0.448    0.380  163.368
  363.000   31.927    0.442    0.376  157.553
  363.250   31.368    0.432    0.369  154.656
  363.500   29.585    0.437    0.366  140.584
  363.750   28.414    0.440    0.365  130.299
  364.000   27.243    0.445    0.368  113.979
  364.250   26.684    0.438    0.373  101.614
  364.500   26.138    0.430    0.380   92.328
  364.750   26.178    0.441    0.385   85.573
  365.000   26.856    0.466    0.386   85.760
  365.250   27.520    0.453    0.386   87.557
  365.500   28.185    0.435    0.385   94.797
  365.750   28.850    0.426    0.380  113.108
  366.000   29.501    0.426    0.372  124.864
  366.250   28.955    0.428    0.369  125.081
  366.500   28.995    0.430    0.364  122.942
  366.750   28.449    0.430    0.363  120.734
  367.000   29.114    0.430    0.362  116.386
  367.250   29.153    0.428    0.365  112.096
  367.500   29.844    0.430    0.370   99.980
  367.750   29.871    0.437    0.373   96.295
  368.000   29.937    0.440    0.376   94.648
  368.250   29.391    0.432    0.377   94.772
  368.500   28.818    0.427    0.376   94.978
  368.750   28.858    0.422    0.373   93.313
  369.000   28.924    0.418    0.371   86.487
  369.250   30.812    0.413    0.368   78.617
  369.500   33.912    0.394    0.369   64.820
  369.750   38.860    0.383    0.373   52.416
  370.000   58.508    0.384    0.377   31.074
  370.250   83.051    0.401    0.212   26.648
  370.500   87.999    0.422    0.211   21.134
  370.750   74.576    0.439    0.252   20.763
  371.000   69.135    0.440    0.284   21.226
  371.250   64.891    0.447    0.300   24.827
  371.500   49.033    0.463    0.322   35.283
  371.750   41.730    0.462    0.336   42.098
  372.000   35.051    0.455    0.332   54.336
  372.250   29.610    0.450    0.322   58.803
  372.500   28.452    0.435    0.323   61.240
  372.750   28.492    0.378    0.328   57.898
  373.000   27.933    0.378    0.328   55.764
  373.250   29.808    0.378    0.323   48.758
  373.500   32.920    0.373    0.315   25.714
  373.750   56.852    0.378    0.218   17.465
  374.000   67.307    0.405    0.192   14.683
  374.250   84.507    0.418    0.188   10.990
  374.500   89.469    0.438    0.199    8.387
  374.750   89.521    0.461    0.210    7.478
  375.000   85.889    0.479    0.196    7.644
  375.250   74.927    0.513    0.183    7.954
  375.500   70.072    0.536    0.130    9.133
  375.750   64.005    0.554    0.047   10.077
  376.000   56.728    0.568    0.037   12.024
  376.250   54.932    0.565    0.030   15.207
  376.500   54.984    0.333    0.026   18.509
  376.750   55.649    0.294    0.026   22.517
  377.000   56.327    0.223    0.026   26.360
  377.250   57.617    0.222    0.026   28.528
  377.500   57.657    0.220    0.026   30.293
  377.750   57.097    0.221    0.026   29.775
  378.000   56.538    0.221    0.027   29.265
  378.250   55.979    0.221    0.027   28.727
  378.500   55.433    0.221    0.027   28.236
  378.750   55.473    0.220    0.027   27.753
  379.000   55.512    0.220    0.027   27.255
  379.250   55.565    0.218    0.026   27.290
  379.500   55.644    0.218    0.025   27.350
  379.750   55.684    0.218    0.026   27.935
  380.000   55.750    0.218    0.027   29.080
