~VERSION INFORMATION
 VERS.                 2.0:   CWLS LOG ASCII STANDARD -VERSION 2.0
 WRAP.                  NO:   ONE LINE PER DEPTH STEP
~WELL INFORMATION BLOCK
#MNEM.UNIT           DATA                    DESCRIPTION OF MNEMONIC
#---------    -------------------            -------------------------------
# Generated from Intellog Unique Number	CW_70_72/WELL/3006
NULL.         -999.25                        : NULL_VALUE
WELL.         GAO HONDO 06-14                : Well_name    - WELL              
LOC .         06-14-070-01W5                 : Location     - LOCATION          
UWI .         00/06-14-070-01W5/0              : Uwi          - UNIQUE WELL ID    
ENTR.         J                              : Entered      - ENTERED BY        
SRVC.         SCHLUMBERGER                   : Scn          - SERVICE COMPANY   
DATE.         1 JAN 76                       : Date         - LOG DATE          
STRT.M        438.912                        : top_depth    - START DEPTH       
STOP.M        676.662                        : bot_depth    - STOP DEPTH        
STEP.M        0.25                           : increment    - STEP LENGTH       
~CURVE INFORMATION BLOCK
#MNEM UNIT       ERCB CURVE CODE    CURVE DESCRIPTION
#-----------   ------------------   ----------------------------------
DEPT.M        00 001 00 00         : DEPTH        - DEPTH                       
ILD .OHMM     00 120 00 00         : RESD         - DEEP RESISTIVITY (DIL)      
CALI.MM       00 280 01 00         : CAL          - CALIPER                     
GR  .API      00 310 00 00         : GR           - GAMMA RAY                   
NPHI.V/V      00 330 00 00         : PHIN         - NEUTRON POROSITY (SANDSTONE)
DPHI.V/V      00 890 00 00         : PHID         - DENSITY POROSITY (SANDSTONE)
~PARAMETER INFORMATION       
#MNEM.UNIT           DATA             DESCRIPTION OF MNEMONIC
#---------         -----------     ------------------------------
GL  .M        604.723              : gl           - GROUND LEVEL ELEVATION      
EREF.M        607.771              : kb           - ELEVATION OF DEPTH REFERENCE
DATM.M        604.723              : datum        - DATUM ELEVATION             
TDD .M        688.848              : tdd          - TOTAL DEPTH DRILLER         
RUN .         ONE                  : Run          - RUN NUMBER                  
ENG .         SAWASE               : Engineer     - RECORDING ENGINEER          
WIT .         CUMMIN               : Witness      - WITNESSED BY                
BASE.         EDM                  : Branch       - HOME BASE OF LOGGING UNIT   
MATR.         SANDSTONE            : Logunit      - NEUTRON MATRIX              
TMAX.C        29.4444              : BHT          - MAXIMUM RECORDED TEMPERATURE
BHTD.M        690.067              : BHTDEP       - MAXIMUM RECORDED TEMPERATURE
RMT .C        17.7778              : MDTP         - TEMPERATURE OF MUD          
MUDD.KG/M     1188                 : MWT          - MUD DENSITY                 
NEUT.         1                    : NEUTRON      - NEUTRON TYPE                
RESI.         0                    : RESIST       - RESISTIVITY TYPE            
RM  .OHMM     2.5                  : RM           - RESISTIVITY OF MUD          
RMC .OHMM     2.5                  : RMC          - RESISTIVITY OF MUD CAKE     
RMF .OHMM     2.25                 : RMF          - RESISTIVITY OF MUD FILTRATE 
SUFT.C        -17.7778             : SUFT         - SURFACE TEMPERATURE         
~A  DEPTH     RESD      CAL       GR     PHIN     PHID
# ...
  548.412    2.723  157.813   77.611    0.367    0.293
  548.662    2.621  158.346   78.535    0.376    0.268
  548.912    2.583  158.675   77.207    0.378    0.258
  549.162    2.583  158.796   73.748    0.374    0.272
  549.412    2.603  158.711   73.334    0.362    0.278
  549.662    2.617  158.831   71.579    0.357    0.286
  549.912    2.647  159.161   68.972    0.360    0.293
  550.162    2.681  159.179   70.323    0.366    0.289
  550.412    2.696  159.092   71.490    0.354    0.280
  550.662    2.687  158.701   71.014    0.353    0.275
  550.912    2.663  158.923   70.537    0.353    0.283
  551.162    2.615  159.563   71.218    0.344    0.290
  551.412    2.587  160.097   74.578    0.355    0.293
  551.662    2.545  160.118   78.180    0.366    0.293
  551.912    2.517  160.031   81.968    0.371    0.263
  552.162    2.472  160.152   82.768    0.362    0.246
  552.412    2.441  160.789   80.954    0.358    0.233
  552.662    2.415  161.529   78.223    0.360    0.260
  552.912    2.332  161.959   74.526    0.368    0.280
  553.162    2.257  161.983   72.345    0.370    0.261
  553.412    2.200  161.690   71.013    0.362    0.254
  553.662    2.209  161.395   69.075    0.355    0.275
  553.912    2.283  161.417   66.955    0.345    0.273
  554.162    2.368  161.848   64.349    0.333    0.224
  554.412    2.356  162.999   62.228    0.302    0.179
  554.662    2.309  167.037   61.814    0.277    0.175
  554.912    2.231  166.230   63.775    0.264    0.262
  555.162    2.167  162.744   65.731    0.341    0.338
  555.412    2.089  160.600   67.081    0.373    0.336
  555.662    2.078  159.380   65.997    0.362    0.317
  555.912    2.097  159.193   66.740    0.350    0.298
  556.162    2.160  159.109   67.601    0.348    0.282
  556.412    2.192  158.720   72.605    0.347    0.263
  556.662    2.221  158.944   76.207    0.342    0.248
  556.912    2.229  159.579   79.385    0.354    0.232
  557.162    2.229  160.111   77.326    0.392    0.241
  557.412    2.225  160.444   72.648    0.377    0.268
  557.662    2.226  160.149   66.571    0.362    0.264
  557.912    2.210  159.238   69.749    0.357    0.256
  558.162    2.158  158.743   70.918    0.352    0.258
  558.412    2.123  159.069   71.476    0.346    0.256
  558.662    2.112  159.087   72.035    0.369    0.258
  558.912    2.124  159.414   72.290    0.385    0.285
  559.162    2.152  159.639   72.239    0.394    0.298
  559.412    2.192  160.585   72.005    0.384    0.276
  559.662    2.192  162.667   71.285    0.359    0.263
  559.912    2.180  164.646   72.027    0.346    0.247
  560.162    2.129  166.002   75.813    0.337    0.269
  560.412    2.087  165.095   74.242    0.344    0.270
  560.662    2.061  162.534   70.294    0.351    0.267
  560.912    2.042  160.490   73.046    0.362    0.276
  561.162    2.046  159.479   75.735    0.358    0.275
  561.412    2.065  160.015   77.208    0.349    0.267
  561.662    2.085  160.752   77.523    0.343    0.273
  561.912    2.108  161.497   79.968    0.352    0.258
  562.162    2.120  162.031   82.353    0.349    0.262
  562.412    2.155  162.667   82.669    0.344    0.270
  562.662    2.228  162.993   84.019    0.349    0.254
  562.912    2.367  163.628   82.691    0.356    0.251
  563.162    2.537  164.576   81.607    0.355    0.275
  563.412    2.832  165.728   84.356    0.347    0.273
  563.662    3.020  167.605   90.272    0.342    0.236
  563.912    3.220  168.549   98.502    0.354    0.195
  564.162    3.452  169.082  102.653    0.354    0.200
  564.412    3.728  170.135  105.220    0.341    0.198
  564.662    3.910  170.979  105.961    0.338    0.193
  564.912    4.027  171.306  105.851    0.355    0.189
  565.162    4.094  171.424  104.401    0.361    0.175
  565.412    4.117  171.239  103.377    0.343    0.158
  565.662    4.065  170.224  104.728    0.349    0.169
  565.912    3.985  168.081  105.347    0.359    0.183
  566.162    3.906  167.689   99.209    0.360    0.188
  566.412    3.836  167.703   98.794    0.359    0.174
  566.662    3.829  167.828  101.059    0.353    0.160
  566.912    3.886  168.773  102.894    0.344    0.156
  567.162    3.973  170.029  106.741    0.340    0.151
  567.412    4.129  170.975  109.978    0.342    0.146
  567.662    4.276  171.408  113.218    0.352    0.148
  567.912    4.379  171.326  115.479    0.374    0.155
  568.162    4.404  171.442  110.438    0.367    0.144
  568.412    4.373  171.253  105.030    0.359    0.131
  568.662    4.333  171.172  100.293    0.355    0.153
  568.912    4.279  171.291  100.669    0.349    0.168
  569.162    4.179  171.104  104.089    0.342    0.173
  569.412    4.119  170.914  108.119    0.333    0.175
  569.662    4.045  169.802  108.799    0.364    0.180
  569.912    3.957  168.792  105.523    0.367    0.176
  570.162    3.830  167.673  107.482    0.361    0.172
  570.412    3.646  166.047  111.145    0.364    0.177
  570.662    3.509  164.620  113.165    0.372    0.193
  570.912    3.328  162.677  110.801    0.365    0.208
  571.162    3.203  160.841   97.602    0.353    0.221
  571.412    3.257  159.731   87.629    0.336    0.219
  571.662    3.428  160.363   80.701    0.319    0.203
  571.912    3.876  162.237   75.719    0.292    0.193
  572.162    4.446  164.419   70.130    0.241    0.174
  572.412    5.017  165.778   69.776    0.226    0.134
  572.662    4.829  164.766   76.424    0.235    0.171
  572.912    4.172  163.756   80.999    0.261    0.190
  573.162    3.651  164.082   85.760    0.308    0.215
  573.412    3.802  165.339   89.056    0.356    0.194
  573.662    4.136  166.694   92.234    0.352    0.174
  573.912    4.402  167.953   92.914    0.350    0.169
  574.162    4.517  168.899   91.160    0.347    0.186
  574.412    4.575  169.433   93.301    0.345    0.187
  574.662    4.501  170.071   92.338    0.347    0.174
  574.912    4.246  169.987   91.193    0.340    0.164
  575.162    4.087  168.561   94.674    0.344    0.156
  575.412    3.977  165.280   99.068    0.357    0.186
  575.662    3.927  167.258  101.514    0.353    0.187
  575.912    3.985  169.131  102.802    0.346    0.171
  576.162    4.074  170.282  104.274    0.343    0.168
  576.412    4.023  170.614  106.478    0.338    0.158
  576.662    3.907  171.042  108.740    0.333    0.147
  576.912    3.781  171.369  114.232    0.333    0.139
  577.162    3.673  171.698  114.668    0.353    0.141
  577.412    3.646  171.308  104.269    0.377    0.151
  577.662    3.721  170.912   97.888    0.386    0.166
  577.912    3.825  170.828   95.951    0.365    0.173
  578.162    3.910  171.155  100.347    0.346    0.153
  578.412    3.805  170.966  103.278    0.335    0.161
  578.662    3.336  170.781  106.150    0.325    0.167
  578.912    2.914  170.177  104.638    0.347    0.178
  579.162    2.513  165.454   90.344    0.364    0.199
  579.412    2.432  158.876   78.301    0.348    0.239
  579.662    2.598  160.648   70.581    0.344    0.266
  579.912    2.868  162.418   66.025    0.346    0.245
  580.162    3.120  163.363   62.263    0.328    0.237
  580.412    3.208  163.795   62.517    0.298    0.212
  580.662    3.093  161.754   65.023    0.331    0.200
  580.912    2.886  159.710   69.601    0.357    0.226
  581.162    2.818  159.006   70.159    0.353    0.248
  581.412    2.813  159.854   66.641    0.348    0.274
  581.662    2.845  159.971   68.295    0.357    0.271
  581.912    2.898  159.686   69.463    0.360    0.272
  582.162    2.957  159.704   70.934    0.356    0.267
  582.412    3.012  159.310   70.153    0.347    0.258
  582.662    3.040  159.531   70.530    0.341    0.250
  582.912    3.040  159.343   72.368    0.347    0.244
  583.162    3.002  159.052   73.778    0.353    0.267
  583.412    2.959  158.553   72.815    0.354    0.271
  583.662    2.922  157.647   70.695    0.351    0.264
  583.912    2.859  157.046   69.366    0.344    0.260
  584.162    2.812  157.066   69.015    0.344    0.269
  584.412    2.772  157.497   69.388    0.354    0.279
  584.662    2.742  157.622   70.678    0.348    0.268
