~VERSION INFORMATION
 VERS.                 2.0:   CWLS LOG ASCII STANDARD -VERSION 2.0
 WRAP.                  NO:   ONE LINE PER DEPTH STEP
~WELL INFORMATION BLOCK
#MNEM.UNIT           DATA                    DESCRIPTION OF MNEMONIC
#---------    -------------------            -------------------------------
# Generated from Intellog Unique Number	CS_77_79/WELL/885
WELL.         PARAMOUNT ET AL PORTAGE        : Well_name    - WELL
LOC .         00/06-28-079-15W4/0            : Location     - LOCATION
UWI .         00/06-28-079-15W4/0            : Uwi          - UNIQUE WELL ID
ENTR.         JHS                            : Entered      - ENTERED BY
SRVC.         SCHLUMBERGER                   : Scn          - SERVICE COMPANY
STRT.M        188.976                        : top_depth    - START DEPTH
STOP.M        447.726                        : bot_depth    - STOP DEPTH
STEP.M        0.25                           : increment    - STEP LENGTH
 NULL. -999.2500:NULL Value
~CURVE INFORMATION BLOCK
#MNEM UNIT       ERCB CURVE CODE    CURVE DESCRIPTION
#-----------   ------------------   ----------------------------------
DEPT.M        00 001 00 00         : DEPTH        - DEPTH
GR  .API      00 310 00 00         : GR           - GAMMA RAY
DPHI.V/V      00 890 00 00         : PHID         - DENSITY POROSITY (SANDSTONE)
NPHI.V/V      00 330 00 00         : PHIN         - NEUTRON POROSITY (SANDSTONE)
ILD .OHMM     00 120 00 00         : RESD         - DEEP RESISTIVITY (DIL)
~PARAMETER INFORMATION
#MNEM.UNIT           DATA             DESCRIPTION OF MNEMONIC
#---------         -----------     ------------------------------
GL  .M        619.354              : gl           - GROUND LEVEL ELEVATION
EREF.M        622.402              : kb           - ELEVATION OF DEPTH REFERENCE
DATM.M        622.402              : datum        - DATUM ELEVATION
TDD .M        449.58               : tdd          - TOTAL DEPTH DRILLER
RUN .         ONE                  : Run          - RUN NUMBER
ENG .         BILL                 : Engineer     - RECORDING ENGINEER
WIT .         JIM                  : Witness      - WITNESSED BY
MUD .         GEL                  : Mud_type     - MUD TYPE
MATR.         SANDSTONE            : Logunit      - NEUTRON MATRIX
TMAX.C        60                   : BHT          - MAXIMUM RECORDED TEMPERATURE
BHTD.M        449.58               : BHTDEP       - MAXIMUM RECORDED TEMPERATURE
MATR.         1                    : LOGUNIT      - NEUTRON MATRIX
RMT .C        25                   : MDTP         - TEMPERATURE OF MUD
NEUT.         1                    : NEUTRON      - NEUTRON TYPE
RESI.         0                    : RESIST       - RESISTIVITY TYPE
RMC .OHMM     0.25                 : RMC          - RESISTIVITY OF MUD CAKE
RMF .OHMM     0.25                 : RMF          - RESISTIVITY OF MUD FILTRATE
SUFT.C        15                   : SUFT         - SURFACE TEMPERATURE
~A  DEPTH       GR     PHID     PHIN     RESD
# ...
  319.476   94.466    0.321    0.638    2.064
  319.726   96.295    0.294    0.638    2.268
  319.976   96.199    0.287    0.613    2.378
  320.226   97.639    0.297    0.586    2.759
  320.476   97.675    0.282    0.583    3.060
  320.726   95.177    0.262    0.544    3.489
  320.976   92.610    0.258    0.507    3.918
  321.226   91.612    0.244    0.492    4.223
  321.476   90.531    0.231    0.484    4.480
  321.726   86.859    0.234    0.487    4.686
  321.976   89.009    0.244    0.507    4.681
  322.226   91.972    0.244    0.522    4.698
  322.476   91.145    0.229    0.523    4.494
  322.726   93.277    0.232    0.508    4.500
  322.976   99.844    0.219    0.516    4.532
  323.226   99.093    0.211    0.524    4.698
  323.476   96.442    0.208    0.505    4.716
  323.726   95.327    0.228    0.487    4.483
  323.976   94.174    0.241    0.471    4.482
  324.226   96.846    0.222    0.462    4.706
  324.476   95.202    0.250    0.475    4.918
  324.726   89.336    0.238    0.487    5.226
  324.976   82.783    0.285    0.487    5.837
  325.226   76.306    0.332    0.465    6.697
  325.476   70.222    0.324    0.451    7.560
  325.726   64.684    0.321    0.435    8.178
  325.976   60.891    0.324    0.422    8.298
  326.226   58.267    0.324    0.422    8.299
  326.476   56.424    0.314    0.429    8.300
  326.726   55.931    0.313    0.436    8.302
  326.976   57.748    0.325    0.415    8.304
  327.226   56.521    0.329    0.405    8.306
  327.476   55.963    0.337    0.413    8.282
  327.726   57.734    0.332    0.427    8.452
  327.976   60.358    0.323    0.440    8.311
  328.226   61.729    0.323    0.440    8.310
  328.476   62.806    0.325    0.433    8.313
  328.726   62.180    0.330    0.443    8.314
  328.976   61.473    0.327    0.433    8.315
  329.226   62.234    0.323    0.425    8.308
  329.476   62.273    0.326    0.424    8.499
  329.726   60.806    0.333    0.429    8.389
  329.976   62.414    0.343    0.430    8.542
  330.226   62.903    0.338    0.423    8.520
  330.476   61.742    0.332    0.425    8.508
  330.726   60.447    0.323    0.439    8.740
  330.976   59.806    0.316    0.442    8.575
  331.226   61.742    0.332    0.453    8.554
  331.476   61.128    0.328    0.442    8.332
  331.726   58.410    0.320    0.431    8.199
  331.976   59.082    0.320    0.436    8.092
  332.226   65.103    0.340    0.455    7.937
  332.476   69.054    0.341    0.468    7.938
  332.726   67.678    0.322    0.464    7.934
  332.976   66.234    0.325    0.482    8.124
  333.226   65.314    0.337    0.493    8.225
  333.476   62.926    0.331    0.466    8.577
  333.726   60.011    0.325    0.446    8.735
  333.976   57.534    0.325    0.435    8.953
  334.226   56.544    0.326    0.432    9.155
  334.476   57.854    0.320    0.433    9.146
  334.726   58.208    0.314    0.423    9.151
  334.976   56.643    0.318    0.418    9.154
  335.226   53.595    0.332    0.413    9.179
  335.476   53.390    0.326    0.420    8.950
  335.726   56.517    0.320    0.434    8.776
  335.976   57.020    0.314    0.448    8.751
  336.226   55.995    0.309    0.459    9.001
  336.476   57.649    0.322    0.442    9.338
  336.726   56.153    0.326    0.426    9.335
  336.976   54.227    0.322    0.443    9.560
  337.226   54.588    0.331    0.436    9.375
  337.476   59.460    0.351    0.431    9.164
  337.726   59.181    0.351    0.437    8.970
  337.976   56.901    0.352    0.466    8.978
  338.226   55.856    0.373    0.496    8.967
  338.476   55.037    0.367    0.473    9.163
  338.726   56.441    0.356    0.469    9.391
  338.976   56.886    0.347    0.457    9.378
  339.226   56.396    0.347    0.439    9.396
  339.476   55.302    0.338    0.427    9.185
  339.726   56.592    0.333    0.420    8.978
  339.976   59.899    0.330    0.432    8.828
  340.226   65.116    0.357    0.453    8.798
  340.476   66.481    0.348    0.471    8.793
  340.726   62.659    0.340    0.454    8.794
  340.976   61.107    0.352    0.442    8.796
  341.226   61.254    0.338    0.435    8.797
  341.476   59.975    0.327    0.436    8.804
  341.726   57.035    0.321    0.428    8.844
  341.976   54.647    0.336    0.426    9.018
  342.226   57.957    0.323    0.443    8.896
  342.476   59.519    0.316    0.459    8.992
  342.726   57.406    0.333    0.445    9.179
  342.976   56.021    0.337    0.443    9.202
  343.226   55.461    0.342    0.449    9.209
  343.476   55.692    0.351    0.442    9.230
  343.726   54.290    0.335    0.419    8.994
  343.976   55.447    0.328    0.410    9.016
  344.226   55.577    0.324    0.405    8.878
  344.476   54.104    0.337    0.406    8.821
  344.726   55.414    0.338    0.412    8.828
  344.976   58.183    0.330    0.428    8.622
  345.226   58.542    0.337    0.444    8.365
  345.476   58.008    0.340    0.450    8.238
  345.726   57.922    0.334    0.445    8.005
  345.976   58.632    0.354    0.451    8.008
  346.226   58.626    0.361    0.449    7.827
  346.476   59.077    0.349    0.456    7.836
  346.726   60.465    0.333    0.460    7.839
  346.976   62.302    0.332    0.447    7.839
  347.226   64.116    0.361    0.423    7.827
  347.476   64.693    0.394    0.415    8.042
  347.726   66.811    0.382    0.436    8.034
  347.976   70.356    0.359    0.465    7.995
  348.226   73.099    0.338    0.474    7.853
  348.476   74.731    0.334    0.460    7.538
  348.726   76.488    0.318    0.448    7.229
  348.976   77.310    0.309    0.440    6.561
  349.226   81.713    0.288    0.452    5.978
  349.476   88.660    0.264    0.466    5.432
  349.726   92.181    0.256    0.479    5.101
  349.976   86.440    0.250    0.483    5.001
  350.226   90.837    0.240    0.481    4.876
  350.476   92.231    0.232    0.475    4.881
  350.726   90.403    0.235    0.466    4.936
  350.976   91.255    0.246    0.467    5.080
  351.226   96.434    0.230    0.473    5.082
  351.476   97.351    0.220    0.476    5.085
  351.726   97.269    0.237    0.462    5.070
  351.976  102.436    0.233    0.450    5.240
  352.226  106.034    0.218    0.446    4.663
  352.476  102.388    0.211    0.464    4.699
  352.726   99.791    0.212    0.491    4.787
  352.976   97.458    0.245    0.479    4.911
  353.226   97.674    0.255    0.476    5.447
  353.476  101.560    0.263    0.472    6.179
  353.726  102.937    0.243    0.448    7.089
  353.976  103.921    0.222    0.431    7.640
  354.226  102.067    0.217    0.407    8.010
  354.476  102.875    0.225    0.406    8.286
  354.726  104.651    0.222    0.421    8.506
  354.976  103.908    0.231    0.429    8.465
  355.226  101.368    0.226    0.430    8.137
  355.476  100.129    0.216    0.440    7.507
  355.726   98.116    0.206    0.459    6.878
  355.976   96.669    0.221    0.469    6.237
  356.226   94.964    0.223    0.472    5.844
  356.476   94.735    0.216    0.472    5.508
  356.726   94.754    0.224    0.477    5.666
  356.976   94.743    0.224    0.485    5.761
  357.226   91.855    0.243    0.495    6.111
  357.476   89.574    0.240    0.487    6.418
  357.726   85.405    0.243    0.479    6.990
  357.976   80.564    0.260    0.466    7.280
  358.226   78.638    0.271    0.447    7.749
  358.476   76.770    0.260    0.436    7.705
  358.726   78.128    0.243    0.447    7.198
  358.976   84.484    0.235    0.463    6.439
  359.226   87.840    0.246    0.481    5.904
  359.476   87.971    0.281    0.495    5.380
  359.726   85.732    0.302    0.496    5.121
  359.976   82.366    0.321    0.479    5.140
  360.226   81.518    0.326    0.472    5.620
  360.476   81.569    0.320    0.489    6.097
  360.726   78.967    0.308    0.498    6.730
  360.976   76.766    0.322    0.482    7.071
  361.226   79.196    0.330    0.483    7.127
  361.476   80.758    0.339    0.481    7.319
  361.726   78.418    0.337    0.468    7.337
  361.976   78.316    0.333    0.459    7.344
  362.226   81.313    0.323    0.459    7.346
  362.476   83.448    0.313    0.465    7.347
  362.726   83.780    0.316    0.479    7.350
