~VERSION INFORMATION
 VERS.                 2.0:   CWLS LOG ASCII STANDARD -VERSION 2.0
 WRAP.                  NO:   ONE LINE PER DEPTH STEP
~WELL INFORMATION BLOCK
#MNEM.UNIT           DATA                    DESCRIPTION OF MNEMONIC
#---------    -------------------            -------------------------------
# Generated from Intellog Unique Number	CS_77_79/WELL/850
WELL.         CANADIAN WORLDWIDE ENERGY      : Well_name    - WELL
LOC .         00/04-13-077-05W4/0            : Location     - LOCATION
UWI .         00/04-13-077-05W4/0            : Uwi          - UNIQUE WELL ID
ENTR.         SP                             : Entered      - ENTERED BY
SRVC.         SCHLUMBERGER                   : Scn          - SERVICE COMPANY
STRT.M        165                            : top_depth    - START DEPTH
STOP.M        410                            : bot_depth    - STOP DEPTH
STEP.M        0.25                           : increment    - STEP LENGTH
 NULL. -999.2500:NULL Value
~CURVE INFORMATION BLOCK
#MNEM UNIT       ERCB CURVE CODE    CURVE DESCRIPTION
#-----------   ------------------   ----------------------------------
DEPT.M        00 001 00 00         : DEPTH        - DEPTH
ILD .OHMM     00 120 00 00         : RESD         - DEEP RESISTIVITY (DIL)
DPHI.V/V      00 890 00 00         : PHID         - DENSITY POROSITY (LIMESTONE)
NPHI.V/V      00 330 00 00         : PHIN         - NEUTRON POROSITY (LIMESTONE)
GR  .API      00 310 00 00         : GR           - GAMMA RAY
~PARAMETER INFORMATION
#MNEM.UNIT           DATA             DESCRIPTION OF MNEMONIC
#---------         -----------     ------------------------------
GL  .M        570.3                : gl           - GROUND LEVEL ELEVATION
EREF.M        573.3                : kb           - ELEVATION OF DEPTH REFERENCE
DATM.M        570.3                : datum        - DATUM ELEVATION
TDD .M        411.6                : tdd          - TOTAL DEPTH DRILLER
RUN .         ONE                  : Run          - RUN NUMBER
ENG .         BILL                 : Engineer     - RECORDING ENGINEER
WIT .         JIM                  : Witness      - WITNESSED BY
MUD .         GEL                  : Mud_type     - MUD TYPE
MATR.         LIMESTONE            : Logunit      - NEUTRON MATRIX
TMAX.C        20                   : BHT          - MAXIMUM RECORDED TEMPERATURE
BHTD.M        415                  : BHTDEP       - MAXIMUM RECORDED TEMPERATURE
MATR.         1                    : LOGUNIT      - NEUTRON MATRIX
RMT .C        25                   : MDTP         - TEMPERATURE OF MUD
NEUT.         1                    : NEUTRON      - NEUTRON TYPE
RESI.         0                    : RESIST       - RESISTIVITY TYPE
RMC .OHMM     0.25                 : RMC          - RESISTIVITY OF MUD CAKE
RMF .OHMM     0.25                 : RMF          - RESISTIVITY OF MUD FILTRATE
SUFT.C        15                   : SUFT         - SURFACE TEMPERATURE
~A  DEPTH     RESD     PHID     PHIN       GR
# ...
  339.000   14.721    0.202    0.337   74.738
  339.250   14.463    0.197    0.331   68.678
  339.500   14.751    0.250    0.344   62.011
  339.750   15.621    0.282    0.351   56.556
  340.000   16.863    0.294    0.352   55.352
  340.250   17.190    0.282    0.351   59.621
  340.500   17.535    0.269    0.343   61.449
  340.750   16.911    0.280    0.333   59.640
  341.000   16.924    0.296    0.325   64.511
  341.250   17.587    0.293    0.327   70.596
  341.500   18.981    0.299    0.336   73.038
  341.750   20.099    0.320    0.343   69.410
  342.000   19.387    0.327    0.354   68.814
  342.250   18.685    0.320    0.360   67.009
  342.500   17.355    0.303    0.360   65.802
  342.750   15.814    0.300    0.355   60.954
  343.000   14.683    0.321    0.345   57.322
  343.250   14.155    0.328    0.333   56.119
  343.500   14.173    0.338    0.317   65.852
  343.750   15.013    0.333    0.334   70.719
  344.000   15.897    0.323    0.344   62.836
  344.250   16.517    0.313    0.360   50.094
  344.500   17.491    0.302    0.365   42.215
  344.750   18.175    0.296    0.369   50.120
  345.000   18.888    0.288    0.366   65.317
  345.250   18.556    0.274    0.359   68.974
  345.500   18.574    0.264    0.357   60.481
  345.750   18.946    0.309    0.403   58.063
  346.000   19.698    0.343    0.424   59.291
  346.250   19.710    0.368    0.413   65.375
  346.500   19.733    0.393    0.376   55.064
  346.750   19.753    0.359    0.346   47.186
  347.000   20.144    0.329    0.318   45.371
  347.250   20.937    0.315    0.314   42.350
  347.500   21.762    0.308    0.324   42.360
  347.750   23.054    0.330    0.333   43.590
  348.000   23.956    0.304    0.341   46.638
  348.250   24.892    0.303    0.349   50.293
  348.500   26.378    0.318    0.350   53.341
  348.750   27.407    0.325    0.347   53.960
  349.000   27.945    0.324    0.346   49.725
  349.250   29.608    0.323    0.345   45.483
  349.500   29.629    0.323    0.355   39.424
  349.750   30.219    0.324    0.360   33.967
  350.000   30.830    0.325    0.372   39.317
  350.250   30.864    0.319    0.377   37.512
  350.500   31.484    0.313    0.382   36.916
  350.750   31.519    0.326    0.385   36.927
  351.000   32.136    0.331    0.382   42.381
  351.250   32.151    0.331    0.368   47.836
  351.500   32.182    0.325    0.370   48.448
  351.750   32.831    0.325    0.372   45.437
  352.000   32.874    0.333    0.362   41.818
  352.250   32.897    0.345    0.353   41.220
  352.500   32.927    0.338    0.349   40.633
  352.750   32.344    0.330    0.362   40.638
  353.000   32.997    0.326    0.370   43.068
  353.250   33.041    0.324    0.374   43.077
  353.500   33.070    0.323    0.376   38.854
  353.750   33.094    0.323    0.378   37.050
  354.000   33.142    0.323    0.376   35.849
  354.250   33.168    0.321    0.374   33.440
  354.500   33.209    0.318    0.365   34.665
  354.750   32.616    0.312    0.354   35.276
  355.000   32.641    0.310    0.344   35.887
  355.250   30.338    0.310    0.350   35.293
  355.500   32.710    0.311    0.358   34.697
  355.750   32.743    0.318    0.373   35.919
  356.000   32.172    0.321    0.386   41.978
  356.250   31.604    0.320    0.395   45.011
  356.500   31.040    0.320    0.400   48.046
  356.750   29.369    0.317    0.401   46.846
  357.000   26.773    0.313    0.398   45.039
  357.250   25.331    0.311    0.413   48.682
  357.500   23.521    0.312    0.413   50.504
  357.750   21.046    0.307    0.408   52.328
  358.000   20.286    0.296    0.397   52.340
  358.250   19.931    0.297    0.391   47.510
  358.500   19.942    0.319    0.403   44.495
  358.750   21.932    0.327    0.414   37.248
  359.000   23.660    0.329    0.412   32.420
  359.250   28.048    0.328    0.406   34.243
  359.500   30.260    0.325    0.397   40.906
  359.750   32.044    0.320    0.394   45.150
  360.000   32.074    0.314    0.391   46.975
  360.250   32.114    0.311    0.389   37.312
  360.500   30.960    0.314    0.392   34.898
  360.750   29.848    0.315    0.394   31.280
  361.000   28.786    0.315    0.393   35.525
  361.250   27.745    0.317    0.391   38.559
  361.500   27.770    0.322    0.397   42.196
  361.750   28.342    0.317    0.407   47.045
  362.000   28.904    0.314    0.410   50.081
  362.250   30.036    0.314    0.411   50.089
  362.500   31.208    0.317    0.411   42.844
  362.750   33.058    0.319    0.413   36.803
  363.000   33.709    0.326    0.406   33.185
  363.250   35.030    0.329    0.403   32.590
  363.500   35.083    0.326    0.392   33.813
  363.750   34.454    0.323    0.388   35.033
  364.000   33.857    0.320    0.378   35.040
  364.250   33.245    0.321    0.372   36.259
  364.500   32.057    0.320    0.366   35.667
  364.750   30.911    0.321    0.369   33.258
  365.000   30.372    0.326    0.375   30.240
  365.250   30.397    0.332    0.375   33.879
  365.500   30.438    0.334    0.373   32.078
  365.750   30.459    0.335    0.373   29.061
  366.000   29.918    0.335    0.379   28.466
  366.250   29.946    0.333    0.378   31.500
  366.500   30.552    0.321    0.374   42.398
  366.750   31.155    0.316    0.367   43.017
  367.000   31.776    0.317    0.380   41.208
  367.250   32.409    0.327    0.391   40.616
  367.500   33.059    0.331    0.401   40.623
  367.750   33.722    0.332    0.400   36.401
  368.000   34.392    0.337    0.397   30.362
  368.250   35.084    0.338    0.392   28.558
  368.500   34.462    0.327    0.391   31.595
  368.750   32.013    0.317    0.394   34.625
  369.000   30.851    0.325    0.395   45.521
  369.250   28.124    0.353    0.394   46.741
  369.500   24.697    0.365    0.392   37.078
  369.750   23.799    0.359    0.395   33.458
  370.000   22.099    0.352    0.371   30.443
  370.250   20.140    0.338    0.359   28.034
  370.500   19.058    0.321    0.349   29.860
  370.750   17.699    0.306    0.344   32.893
  371.000   17.066    0.302    0.349   36.529
  371.250   16.449    0.306    0.354   37.753
  371.500   15.866    0.312    0.359   36.551
  371.750   15.579    0.316    0.360   34.142
  372.000   16.193    0.317    0.358   31.129
  372.250   17.143    0.310    0.354   31.743
  372.500   17.489    0.306    0.349   33.569
  372.750   15.648    0.296    0.346   38.416
  373.000   14.798    0.290    0.341   44.474
  373.250   12.511    0.276    0.330   46.299
  373.500    9.102    0.265    0.316   46.308
  373.750    6.502    0.247    0.307   48.133
  374.000    5.814    0.258    0.319   48.749
  374.250    5.200    0.285    0.335   46.338
  374.500    4.829    0.298    0.348   33.645
  374.750    4.487    0.313    0.352   30.636
  375.000    5.069    0.320    0.363   30.645
  375.250    4.792    0.312    0.347   32.467
  375.500    4.794    0.303    0.342   38.526
  375.750    4.707    0.302    0.349   43.373
  376.000    4.620    0.309    0.358   42.781
  376.250    4.622    0.315    0.372   39.766
  376.500    4.538    0.323    0.373   37.358
  376.750    4.540    0.323    0.367   37.970
  377.000    4.456    0.324    0.360   39.795
  377.250    4.375    0.328    0.356   41.621
  377.500    4.376    0.334    0.372   40.422
  377.750    4.378    0.328    0.376   38.614
  378.000    4.380    0.323    0.372   38.625
  378.250    4.381    0.320    0.371   38.636
  378.500    4.467    0.325    0.369   38.041
  378.750    4.554    0.329    0.373   36.841
  379.000    4.732    0.323    0.382   53.181
  379.250    4.733    0.300    0.389   58.031
  379.500    4.735    0.297    0.397   58.042
  379.750    4.827    0.294    0.398   54.423
  380.000    4.829    0.297    0.393   49.593
  380.250    4.831    0.303    0.372   47.183
  380.500    4.742    0.305    0.363   48.406
  380.750    4.656    0.313    0.358   48.413
  381.000    4.570    0.318    0.358   47.213
  381.250    4.486    0.323    0.369   46.622
  381.500    4.405    0.330    0.373   46.628
  381.750    4.324    0.332    0.369   47.854
  382.000    4.326    0.326    0.366   48.468
  382.250    4.247    0.320    0.368   49.081
