~VERSION INFORMATION
 VERS.                 2.0:   CWLS LOG ASCII STANDARD -VERSION 2.0
 WRAP.                  NO:   ONE LINE PER DEPTH STEP
~WELL INFORMATION BLOCK
#MNEM.UNIT           DATA                    DESCRIPTION OF MNEMONIC
#---------    -------------------            -------------------------------
# Generated from Intellog Unique Number	CC_80_83/WELL/1180
NULL.         -999.25                        : NULL_VALUE
WELL.         CAN SUP PONY                   : Well_name    - WELL              
LOC .         07-08-082-07W4                 : Location     - LOCATION          
UWI .         00/07-08-082-07W4/0            : Uwi          - UNIQUE WELL ID    
ENTR.         DW                             : Entered      - ENTERED BY        
SRVC.         SCHLUMBERGER                   : Scn          - SERVICE COMPANY   
DATE.         12 MAR 76                      : Date         - LOG DATE
STRT.M        289.56                         : top_depth    - START DEPTH       
STOP.M        530.36                         : bot_depth    - STOP DEPTH        
STEP.M        0.305                          : increment    - STEP LENGTH       
~CURVE INFORMATION BLOCK
#MNEM UNIT       ERCB CURVE CODE    CURVE DESCRIPTION
#-----------   ------------------   ----------------------------------
DEPT.M        00 001 00 00         : DEPTH        - DEPTH                       
DPHI.V/V      00 890 00 00         : PHID         - DENSITY POROSITY (LIMESTONE)
NPHI.V/V      00 330 00 00         : PHIN         - NEUTRON POROSITY (LIMESTONE)
GR  .API      00 310 00 00         : GR           - GAMMA RAY                   
ILD .OHMM     00 120 00 00         : RESD         - DEEP RESISTIVITY (DIL)      
~PARAMETER INFORMATION       
#MNEM.UNIT           DATA             DESCRIPTION OF MNEMONIC
#---------         -----------     ------------------------------
GL  .M        743.102              : gl           - GROUND LEVEL ELEVATION      
EREF.M        745.846              : kb           - ELEVATION OF DEPTH REFERENCE
DATM.M        745.846              : datum        - DATUM ELEVATION             
TDD .M        533.4                : tdd          - TOTAL DEPTH DRILLER         
RUN .         ONE                  : Run          - RUN NUMBER                  
ENG .         BILL                 : Engineer     - RECORDING ENGINEER          
WIT .         JIM                  : Witness      - WITNESSED BY                
MUD .         GEL                  : Mud_type     - MUD TYPE                    
MATR.         LIMESTONE            : Logunit      - NEUTRON MATRIX              
TMAX.C        23.8889              : BHT          - MAXIMUM RECORDED TEMPERATURE
BHTD.M        533.4                : BHTDEP       - MAXIMUM RECORDED TEMPERATURE
MATR.         1                    : LOGUNIT      - NEUTRON MATRIX              
RMT .C        25                   : MDTP         - TEMPERATURE OF MUD          
NEUT.         1                    : NEUTRON      - NEUTRON TYPE                
RESI.         0                    : RESIST       - RESISTIVITY TYPE            
RMC .OHMM     0.25                 : RMC          - RESISTIVITY OF MUD CAKE     
RMF .OHMM     0.25                 : RMF          - RESISTIVITY OF MUD FILTRATE 
SUFT.C        4                    : SUFT         - SURFACE TEMPERATURE         
~A  DEPTH     PHID     PHIN       GR     RESD
# ...
  501.707    0.319    0.409   58.843   84.148
  502.012    0.331    0.448   58.770   76.688
  502.317    0.333    0.446   56.919   69.884
  502.622    0.330    0.429   56.243   68.587
  502.927    0.305    0.414   57.391   71.156
  503.232    0.315    0.414   56.135   82.496
  503.536    0.332    0.411   55.454   95.644
  503.841    0.323    0.410   58.394  108.856
  504.146    0.328    0.437   63.136  115.039
  504.451    0.321    0.449   66.676  106.791
  504.756    0.296    0.431   68.416   99.142
  505.060    0.260    0.414   73.141   85.475
  505.365    0.233    0.424   77.281   64.724
  505.670    0.256    0.439   79.012   42.264
  505.975    0.227    0.417   77.163   47.218
  506.280    0.267    0.416   59.097   56.812
  506.584    0.320    0.417   46.426   83.797
  506.889    0.336    0.401   40.957  133.102
  507.194    0.316    0.394   39.093  211.425
  507.499    0.297    0.397   38.428  294.987
  507.804    0.303    0.408   38.350  311.753
  508.108    0.310    0.388   38.313  305.952
  508.413    0.310    0.369   38.844  284.020
  508.718    0.309    0.380   40.584  258.849
  509.023    0.303    0.399   43.509  223.137
  509.328    0.322    0.401   42.252  207.161
  509.633    0.327    0.405   38.583  199.575
  509.937    0.292    0.404   37.923  175.262
  510.242    0.321    0.403   40.862  151.086
  510.547    0.312    0.391   43.791  156.750
  510.852    0.281    0.402   41.327  165.652
  511.157    0.289    0.403   37.670  165.613
  511.461    0.309    0.398   37.608  159.541
  511.766    0.312    0.388   39.335  153.699
  512.071    0.307    0.377   39.864  150.851
  512.376    0.309    0.385   37.407  142.655
  512.681    0.303    0.387   35.544  137.436
  512.985    0.297    0.391   37.877  122.947
  513.290    0.280    0.372   40.217  107.970
  513.595    0.279    0.353   43.161   96.585
  513.900    0.281    0.349   49.094   93.047
  514.205    0.276    0.359   55.637   91.316
  514.509    0.278    0.359   59.751   94.744
  514.814    0.297    0.388   57.300   96.485
  515.119    0.314    0.388   44.639   94.689
  515.424    0.311    0.393   39.766   91.226
  515.729    0.312    0.413   41.514   81.607
  516.034    0.312    0.387   46.243   74.374
  516.338    0.290    0.393   55.184   64.114
  516.643    0.282    0.413   61.722   59.522
  516.948    0.278    0.405   62.259   54.240
  517.253    0.294    0.408   58.598   46.761
  517.558    0.312    0.400   68.734   32.882
  517.862    0.300    0.346   79.473   16.263
  518.167    0.242    0.344  105.212   11.020
  518.472    0.191    0.381  114.745    8.822
  518.777    0.207    0.396  114.685    8.039
  519.082    0.231    0.392  112.223    7.463
  519.386    0.240    0.406  112.754    7.324
  519.691    0.248    0.386  122.290    7.056
  519.996    0.223    0.408  120.427    7.054
  520.301    0.215    0.423  111.361    7.052
  520.606    0.216    0.426  110.694    7.182
  520.910    0.229    0.411  114.831    7.315
  521.215    0.208    0.389  118.973    7.449
  521.520    0.186    0.387  120.704    7.448
  521.825    0.179    0.393  119.417    7.726
  522.130    0.169    0.401  118.784    7.724
  522.435    0.177    0.413  115.720    7.722
  522.739    0.199    0.422  113.243    7.865
  523.044    0.204    0.415  109.580    8.009
  523.349    0.173    0.402  104.720    7.860
  523.654    0.202    0.388   61.456    7.572
  523.959    0.224    0.319   49.390    7.161
  524.263    0.239    0.320   46.926    7.160
  524.568    0.225    0.310   49.860    7.428
  524.873    0.181    0.295   54.597    8.299
  525.178    0.006    0.281   61.730   11.796
  525.483    0.000    0.264   65.872   16.458
  525.787    0.000    0.234   69.406   22.542
  526.092    0.000    0.241   72.945   24.723
  526.397    0.000    0.242   75.274   26.617
  526.702    0.000    0.224   71.613   27.108
  527.007    0.000    0.215   61.947   27.100
  527.311    0.000    0.215   49.883   26.595
  527.616    0.005    0.212   25.820   26.588
  527.921    0.006    0.210   21.550   26.580
  528.226    0.004    0.209   21.492   26.575
  528.531    0.004    0.210   20.827   26.567
  528.836    0.005    0.209   20.755   26.073
  529.140    0.003    0.206   20.690   25.588
  529.445    0.002    0.208   20.617   25.111
  529.750    0.003    0.213   20.566   24.645
  530.055    0.005    0.212   21.099   24.185
  530.360    0.004    0.212   21.027   24.177
