~VERSION INFORMATION
 VERS.                 2.0:   CWLS LOG ASCII STANDARD -VERSION 2.0
 WRAP.                  NO:   ONE LINE PER DEPTH STEP
~WELL INFORMATION BLOCK
#MNEM.UNIT           DATA                    DESCRIPTION OF MNEMONIC
#---------    -------------------            -------------------------------
# Generated from Intellog Unique Number	CW_70_72/WELL/532
NULL.         -999.25                        : NULL_VALUE
WELL.         MIKAS CALLING LAKE 06-02       : Well_name    - WELL              
LOC .         06-02-072-20W4                 : Location     - LOCATION          
UWI .         00/06-02-072-20W4/0            : Uwi          - UNIQUE WELL ID    
ENTR.         JAYE                           : Entered      - ENTERED BY        
SRVC.         SCHLUMBERGER                   : Scn          - SERVICE COMPANY   
DATE.         15 FEB 72                      : Date         - LOG DATE          
STRT.M        316.992                        : top_depth    - START DEPTH       
STOP.M        508.992                        : bot_depth    - STOP DEPTH        
STEP.M        0.25                           : increment    - STEP LENGTH       
~CURVE INFORMATION BLOCK
#MNEM UNIT       ERCB CURVE CODE    CURVE DESCRIPTION
#-----------   ------------------   ----------------------------------
DEPT.M        00 001 00 00         : DEPTH        - DEPTH                       
DPHI.V/V      00 890 00 00         : PHID         - DENSITY POROSITY (SANDSTONE)
NPHI.V/V      00 330 00 00         : PHIN         - NEUTRON POROSITY (SANDSTONE)
GR  .API      00 310 00 00         : GR           - GAMMA RAY                   
CALI.MM       00 280 01 00         : CAL          - CALIPER                     
ILD .OHMM     00 120 00 00         : RESD         - DEEP RESISTIVITY (DIL)      
~PARAMETER INFORMATION       
#MNEM.UNIT           DATA             DESCRIPTION OF MNEMONIC
#---------         -----------     ------------------------------
GL  .M        589.483              : gl           - GROUND LEVEL ELEVATION      
EREF.M        593.446              : kb           - ELEVATION OF DEPTH REFERENCE
DATM.M        589.483              : datum        - DATUM ELEVATION             
TDD .M        534.619              : tdd          - TOTAL DEPTH DRILLER         
RUN .         ONE                  : Run          - RUN NUMBER                  
ENG .         COVENY               : Engineer     - RECORDING ENGINEER          
WIT .         ANDERSON             : Witness      - WITNESSED BY                
BASE.         EDM                  : Branch       - HOME BASE OF LOGGING UNIT   
MUD .         GEL                  : Mud_type     - MUD TYPE                    
MATR.         SANDSTONE            : Logunit      - NEUTRON MATRIX              
TMAX.C        23.8889              : BHT          - MAXIMUM RECORDED TEMPERATURE
BHTD.M        535.534              : BHTDEP       - MAXIMUM RECORDED TEMPERATURE
RMT .C        1.66667              : MDTP         - TEMPERATURE OF MUD          
MUDD.KG/M     1164                 : MWT          - MUD DENSITY                 
NEUT.         1                    : NEUTRON      - NEUTRON TYPE                
RESI.         0                    : RESIST       - RESISTIVITY TYPE            
RM  .OHMM     1.97                 : RM           - RESISTIVITY OF MUD          
RMC .OHMM     0                    : RMC          - RESISTIVITY OF MUD CAKE     
RMF .OHMM     1.69                 : RMF          - RESISTIVITY OF MUD FILTRATE 
SUFT.C        -17.7778             : SUFT         - SURFACE TEMPERATURE         
~A  DEPTH     PHID     PHIN       GR      CAL     RESD
# ...
  426.492    0.220    0.368  106.996  172.458    5.372
  426.742    0.217    0.361  101.246  172.782    5.319
  426.992    0.210    0.355   99.375  173.312    5.249
  427.242    0.208    0.364  100.901  173.739    5.179
  427.492    0.204    0.375   99.879  173.855    5.119
  427.742    0.209    0.393   97.342  173.255    5.088
  427.992    0.208    0.408   96.987  173.785    5.057
  428.242    0.201    0.402   95.905  172.568    5.009
  428.492    0.193    0.383   91.246  167.758    4.977
  428.742    0.209    0.401   85.253  163.257    4.958
  428.992    0.207    0.418   80.594  163.169    4.964
  429.242    0.196    0.411   76.056  163.290    5.034
  429.492    0.198    0.357   73.034  163.099    5.145
  429.742    0.230    0.324   70.072  162.910    5.238
  429.992    0.256    0.336   62.685  162.310    5.362
  430.242    0.287    0.345   63.240  161.812    5.459
  430.492    0.295    0.352   67.008  161.111    5.466
  430.742    0.299    0.369   68.534  160.817    5.393
  430.992    0.318    0.390   68.725  160.628    5.273
  431.242    0.325    0.405   67.945  160.541    5.125
  431.492    0.339    0.407   64.013  160.452    4.929
  431.742    0.346    0.393   63.053  159.649    4.747
  431.992    0.341    0.378   62.881  159.049    4.565
  432.242    0.344    0.373   62.465  158.445    4.455
  432.492    0.349    0.402   62.051  157.743    4.386
  432.742    0.342    0.417   63.211  158.477    4.312
  432.992    0.346    0.412   64.311  159.621    4.216
  433.242    0.345    0.417   64.927  162.513    4.175
  433.492    0.335    0.391   64.330  164.582    4.150
  433.742    0.316    0.367   63.430  165.212    4.178
  433.992    0.294    0.339   62.893  164.817    4.317
  434.242    0.254    0.306   62.175  165.554    4.593
  434.492    0.215    0.272   61.881  167.108    5.592
  434.742    0.160    0.245   60.678  168.149    6.832
  434.992    0.205    0.245   61.536  168.576    7.163
  435.242    0.255    0.317   64.637  167.463    6.888
  435.492    0.305    0.403   67.678  166.863    5.821
  435.742    0.326    0.420   66.838  166.366    4.975
  435.992    0.323    0.409   64.241  166.073    4.362
  436.242    0.318    0.397   64.008  165.576    3.755
  436.492    0.313    0.373   65.048  165.385    3.245
  436.742    0.306    0.375   66.209  165.195    3.114
  436.992    0.298    0.388   67.612  165.212    3.159
  437.242    0.309    0.384   68.167  165.432    3.520
  437.492    0.320    0.391   68.965  165.653    3.691
  437.742    0.326    0.410   68.913  165.464    3.689
  437.992    0.333    0.409   69.286  164.761    3.573
  438.242    0.324    0.393   70.145  162.723    3.500
  438.492    0.295    0.376   67.122  162.635    3.472
  438.742    0.268    0.361   64.464  163.883    3.509
  438.992    0.240    0.324   63.018  167.389    3.645
  439.242    0.253    0.329   61.572  165.762    3.850
  439.492    0.295    0.367   61.824  163.315    3.985
  439.742    0.304    0.392   61.955  163.434    3.933
  439.992    0.294    0.398   62.388  163.756    3.859
  440.242    0.296    0.395   63.427  163.981    3.758
  440.492    0.301    0.388   65.013  164.198    3.668
  440.742    0.302    0.377   66.781  164.319    3.573
  440.992    0.300    0.362   68.003  164.333    3.551
  441.242    0.297    0.382   67.223  164.452    3.542
  441.492    0.298    0.382   67.960  164.469    3.547
  441.742    0.304    0.378   65.666  164.590    3.551
  441.992    0.307    0.367   63.371  164.705    3.517
  442.242    0.309    0.370   65.927  164.720    3.483
  442.492    0.308    0.385   68.786  164.838    3.474
  442.742    0.305    0.381   68.553  164.854    3.505
  442.992    0.298    0.368   67.773  164.970    3.588
  443.242    0.301    0.346   66.630  165.089    3.749
  443.492    0.314    0.362   65.306  165.004    4.026
  443.742    0.327    0.374   65.315  165.018    4.182
  443.992    0.338    0.380   66.658  164.932    4.119
  444.242    0.346    0.388   68.608  164.949    3.938
  444.492    0.346    0.396   68.617  164.966    3.611
  444.742    0.344    0.412   67.596  164.977    3.464
  444.992    0.343    0.412   67.544  164.995    3.325
  445.242    0.343    0.406   67.978  164.909    3.198
  445.492    0.341    0.413   67.442  165.024    3.114
  445.742    0.335    0.419   65.086  165.143    3.056
  445.992    0.328    0.412   63.034  165.261    3.009
  446.242    0.325    0.410   62.255  165.276    2.986
  446.492    0.329    0.413   62.022  164.987    2.968
  446.742    0.323    0.400   63.123  165.002    2.971
  446.992    0.319    0.395   64.587  165.119    3.014
  447.242    0.321    0.407   66.778  165.340    3.074
  447.492    0.320    0.398   68.728  165.356    3.205
  447.742    0.310    0.383   67.646  165.577    3.379
  447.992    0.307    0.386   66.382  165.696    3.410
  448.242    0.308    0.406   67.058  165.916    3.321
  448.492    0.303    0.399   69.734  166.136    3.187
  448.742    0.290    0.388   74.655  166.459    3.064
  448.992    0.258    0.381   80.181  166.475    2.991
  449.242    0.238    0.398   86.738  166.593    3.033
  449.492    0.230    0.426  104.027  176.670    3.122
  449.742    0.225    0.455  107.067  176.480    3.322
  449.992    0.217    0.471  108.653  175.882    3.484
  450.242    0.213    0.467  109.149  175.589    3.592
  450.492    0.225    0.457  108.671  175.091    3.664
  450.742    0.219    0.447  108.742  174.597    3.676
  450.992    0.205    0.449  111.903  174.098    3.701
  451.242    0.212    0.453  116.277  173.906    3.761
  451.492    0.219    0.453  115.135  174.333    3.843
  451.742    0.207    0.447  110.840  175.065    3.970
  451.992    0.194    0.431  106.424  177.032    4.217
  452.242    0.183    0.415  103.947  178.280    4.786
  452.492    0.173    0.405  104.017  178.298    5.187
  452.742    0.184    0.394  107.482  178.105    5.370
  452.992    0.193    0.386  110.704  178.123    5.377
  453.242    0.188    0.386  111.986  178.549    5.355
  453.492    0.172    0.395  111.270  178.565    5.352
  453.742    0.158    0.421  108.792  178.168    5.369
  453.992    0.144    0.421  104.921  176.850    5.436
  454.242    0.132    0.397  100.383  174.298    5.484
  454.492    0.121    0.379   99.422  173.184    5.562
  454.742    0.168    0.382  102.524  174.023    5.684
  454.992    0.162    0.425  107.262  174.757    5.774
  455.242    0.175    0.405  111.454  176.004    5.900
  455.492    0.202    0.418  114.737  178.072    5.975
  455.742    0.205    0.386  111.957  173.879    6.014
  455.992    0.192    0.373  106.510  173.486    6.034
  456.242    0.181    0.389  106.520  175.040    6.042
  456.492    0.178    0.402  108.045  177.006    6.060
  456.742    0.192    0.405  108.540  178.254    5.969
  456.992    0.189    0.398  108.488  178.785    5.677
  457.242    0.181    0.377  109.165  178.182    5.388
  457.492    0.180    0.361  108.263  176.453    5.306
  457.742    0.171    0.349  103.786  173.490    5.402
  457.992    0.152    0.336   97.854  170.016    5.623
  458.242    0.122    0.287   88.830  169.211    6.038
  458.492    0.105    0.251   81.200  169.123    6.930
  458.742    0.116    0.220   74.358  168.936    8.561
  458.992    0.126    0.192   67.213  169.361   12.032
  459.242    0.148    0.170   73.528  169.891   17.290
  459.492    0.107    0.191   80.692  170.316   20.100
  459.742    0.072    0.240   85.914  170.434   22.397
  459.992    0.085    0.255   90.592  170.654   20.304
  460.242    0.128    0.273   94.785  170.878   16.969
  460.492    0.163    0.342   97.825  171.202   13.298
  460.742    0.180    0.363  102.078  171.320   11.178
  460.992    0.182    0.353  102.876  171.641    9.274
  461.242    0.163    0.339  100.340  171.966    7.752
  461.492    0.145    0.337   99.560  172.289    6.835
  461.742    0.154    0.338   99.389  172.510    6.406
  461.992    0.171    0.339   99.518  172.630    6.261
  462.242    0.164    0.339  100.134  172.644    6.133
  462.492    0.165    0.334  100.930  172.763    6.028
  462.742    0.152    0.347  101.607  173.188    5.971
