~VERSION INFORMATION
 VERS.                 2.0:   CWLS LOG ASCII STANDARD -VERSION 2.0
 WRAP.                  NO:   ONE LINE PER DEPTH STEP
~WELL INFORMATION BLOCK
#MNEM.UNIT           DATA                    DESCRIPTION OF MNEMONIC
#---------    -------------------            -------------------------------
# Generated from Intellog Unique Number	CC_80_83/WELL/1166
NULL.         -999.25                        : NULL_VALUE
WELL.         SIEBENS WATCHUSK               : Well_name    - WELL
LOC .         06-34-082-03W4                 : Location     - LOCATION          
UWI .         00/06-34-082-03W400            : Uwi          - UNIQUE WELL ID    
ENTR.         DW                             : Entered      - ENTERED BY        
SRVC.         SCHLUMBERGER                   : Scn          - SERVICE COMPANY   
DATE.         12 FEB 77                      : Date         - LOG DATE
STRT.M        94.488                         : top_depth    - START DEPTH       
STOP.M        310.896                        : bot_depth    - STOP DEPTH        
STEP.M        0.3048                         : increment    - STEP LENGTH       
~CURVE INFORMATION BLOCK
#MNEM UNIT       ERCB CURVE CODE    CURVE DESCRIPTION
#-----------   ------------------   ----------------------------------
DEPT.M        00 001 00 00         : DEPTH        - DEPTH                       
DPHI.V/V      00 890 00 00         : PHID         - DENSITY POROSITY (LIMESTONE)
NPHI.V/V      00 330 00 00         : PHIN         - NEUTRON POROSITY (LIMESTONE)
GR  .API      00 310 00 00         : GR           - GAMMA RAY                   
ILD .OHMM     00 120 00 00         : RESD         - DEEP RESISTIVITY (DIL)      
~PARAMETER INFORMATION       
#MNEM.UNIT           DATA             DESCRIPTION OF MNEMONIC
#---------         -----------     ------------------------------
GL  .M        470.611              : gl           - GROUND LEVEL ELEVATION      
EREF.M        474.116              : kb           - ELEVATION OF DEPTH REFERENCE
DATM.M        474.116              : datum        - DATUM ELEVATION             
TDD .M        319.126              : tdd          - TOTAL DEPTH DRILLER         
RUN .         ONE                  : Run          - RUN NUMBER                  
ENG .         BILL                 : Engineer     - RECORDING ENGINEER          
WIT .         JIM                  : Witness      - WITNESSED BY                
MUD .         GEL                  : Mud_type     - MUD TYPE                    
MATR.         LIMESTONE            : Logunit      - NEUTRON MATRIX              
TMAX.C        19.4444              : BHT          - MAXIMUM RECORDED TEMPERATURE
BHTD.M        319.126              : BHTDEP       - MAXIMUM RECORDED TEMPERATURE
MATR.         1                    : LOGUNIT      - NEUTRON MATRIX              
RMT .C        25                   : MDTP         - TEMPERATURE OF MUD          
NEUT.         1                    : NEUTRON      - NEUTRON TYPE                
RESI.         0                    : RESIST       - RESISTIVITY TYPE            
RMC .OHMM     0.25                 : RMC          - RESISTIVITY OF MUD CAKE     
RMF .OHMM     0.25                 : RMF          - RESISTIVITY OF MUD FILTRATE 
SUFT.C        15                   : SUFT         - SURFACE TEMPERATURE         
~A  DEPTH     PHID     PHIN       GR     RESD
# ...
  147.523    0.327    0.448   70.041   16.413
  147.828    0.325    0.459   73.662   16.107
  148.133    0.336    0.474   75.470   15.806
  148.437    0.331    0.477   74.860   15.223
  148.742    0.328    0.467   76.666   14.664
  149.047    0.327    0.471   77.868   14.391
  149.352    0.321    0.487   78.468   13.605
  149.657    0.327    0.504   79.671   11.289
  149.961    0.336    0.489   83.897   10.476
  150.266    0.336    0.483   85.706   10.091
  150.571    0.328    0.481   85.700   10.088
  150.876    0.321    0.478   83.273    9.900
  151.181    0.312    0.484   85.079    9.360
  151.485    0.311    0.507   86.284    8.686
  151.790    0.307    0.516   86.275    7.911
  152.095    0.301    0.523   85.663    7.073
  152.400    0.295    0.507   86.866    5.654
  152.705    0.304    0.507   89.884    4.436
  153.009    0.307    0.573   95.928    3.354
  153.314    0.309    0.585  101.970    2.888
  153.619    0.316    0.609  106.198    2.731
  153.924    0.320    0.592  101.351    2.781
  154.229    0.323    0.572   98.925    2.941
  154.533    0.315    0.584  106.176    3.109
  154.838    0.303    0.604  109.799    3.288
  155.143    0.292    0.603  109.187    3.476
  155.448    0.278    0.597  108.574    3.675
  155.752    0.285    0.583  109.778    3.674
  156.057    0.288    0.572  107.352    3.813
  156.362    0.289    0.555  109.763    4.107
  156.667    0.294    0.543  107.942    4.679
  156.972    0.292    0.506  104.306    5.533
  157.276    0.296    0.487  101.878    6.072
  157.581    0.285    0.511  101.267    6.301
  157.886    0.268    0.528   98.840    6.184
  158.191    0.260    0.512   93.993    6.182
  158.496    0.279    0.527   91.566    6.416
  158.800    0.282    0.523   89.139    7.174
  159.105    0.288    0.497   86.713    7.873
  159.410    0.299    0.488   83.680    8.481
  159.715    0.286    0.490   81.255    8.322
  160.020    0.270    0.488   80.037    7.867
  160.324    0.291    0.486   79.425    7.866
  160.629    0.270    0.487   80.024    8.012
  160.934    0.265    0.474   81.225    8.315
  161.239    0.278    0.458   80.009    8.791
  161.544    0.321    0.481   78.188    8.956
  161.848    0.324    0.520   81.206    8.954
  162.153    0.313    0.532   83.013    9.120
  162.458    0.304    0.530   82.401    9.642
  162.763    0.324    0.504   86.024   10.006
  163.068    0.327    0.478   88.436   10.193
  163.372    0.308    0.459   88.430   10.002
  163.677    0.290    0.462   86.608    9.816
  163.982    0.285    0.459   90.836   10.186
  164.287    0.290    0.444   92.039   10.376
  164.592    0.308    0.445   90.216   10.183
  164.896    0.301    0.464   87.184    9.449
  165.201    0.290    0.469   86.572    9.102
  165.506    0.285    0.474   89.591    8.290
  165.811    0.306    0.484   95.028    7.275
  166.115    0.278    0.510   99.861    7.139
  166.420    0.256    0.510  104.693    7.272
  166.725    0.278    0.496  104.686    7.688
  167.030    0.251    0.473  101.653    7.979
  167.335    0.269    0.452   99.226    7.543
  167.639    0.280    0.473   96.195    7.000
  167.944    0.303    0.504   93.164    6.029
  168.249    0.273    0.540   96.182    5.192
  168.554    0.261    0.553  102.829    4.909
  168.859    0.265    0.537  105.242    4.641
  169.163    0.280    0.492  103.421    4.470
  169.468    0.285    0.485  100.388    4.387
  169.773    0.278    0.509  100.985    4.726
  170.078    0.277    0.574  102.190    5.383
  170.383    0.279    0.572  102.788    6.019
  170.687    0.297    0.563  102.780    6.131
  170.992    0.283    0.548   98.539    4.811
  171.297    0.281    0.505   92.484    3.637
  171.602    0.293    0.523   95.500    3.704
  171.907    0.276    0.562  105.172    3.844
  172.211    0.283    0.565  107.585    4.141
  172.516    0.289    0.554  105.762    4.717
  172.821    0.287    0.514  101.523    5.682
  173.126    0.281    0.497   94.859    6.236
  173.431    0.275    0.511   93.038    6.844
  173.735    0.265    0.524   93.636    7.652
  174.040    0.259    0.499   94.839    7.942
  174.345    0.259    0.487   94.831    7.649
  174.650    0.270    0.468   91.195    6.588
  174.955    0.283    0.471   85.744    5.781
  175.259    0.277    0.519   87.551    5.569
  175.564    0.258    0.522   91.779    5.998
  175.869    0.288    0.499   88.749    6.582
  176.174    0.337    0.449   82.692    6.831
  176.479    0.332    0.446   86.918    6.830
  176.783    0.304    0.465   96.591    6.829
  177.088    0.266    0.484   97.790    6.956
  177.393    0.276    0.501   97.183    7.218
  177.698    0.277    0.498   92.941    7.491
  178.002    0.270    0.494   93.539    7.490
  178.307    0.268    0.497   91.112    7.489
  178.612    0.262    0.493   87.475    7.348
  178.917    0.255    0.478   84.444    7.915
  179.222    0.253    0.454   86.857    8.063
  179.526    0.248    0.452   88.056    8.062
  179.831    0.218    0.468   87.446    7.480
  180.136    0.259    0.468   88.046    7.206
  180.441    0.308    0.472   85.619    6.812
  180.746    0.322    0.479   84.401    6.090
  181.050    0.334    0.479   86.812    5.758
  181.355    0.311    0.486   88.622    4.867
  181.660    0.274    0.502   88.614    3.965
  181.965    0.252    0.521   85.584    2.834
  182.270    0.305    0.550   84.972    2.581
  182.574    0.330    0.549   84.359    2.486
  182.879    0.348    0.543   81.931    2.629
  183.184    0.355    0.568   80.714    2.939
  183.489    0.333    0.611   80.710    3.286
  183.794    0.313    0.600   81.307    3.886
  184.098    0.319    0.561   83.719    4.426
  184.403    0.313    0.524   85.527    4.858
  184.708    0.284    0.476   87.334    5.637
  185.013    0.281    0.482   86.116    5.851
  185.318    0.282    0.499   85.507    5.850
  185.622    0.272    0.499   85.500    5.634
  185.927    0.268    0.478   87.910    5.327
  186.232    0.268    0.472   89.116    4.503
  186.537    0.262    0.512   90.318    4.026
  186.842    0.261    0.521   90.916    3.667
  187.146    0.279    0.529   94.538    3.532
  187.451    0.293    0.536   96.952    3.531
  187.756    0.297    0.538   98.154    3.597
  188.061    0.300    0.533   97.542    3.803
  188.365    0.297    0.513   95.719    3.874
  188.670    0.289    0.508   94.504    3.946
  188.975    0.288    0.502   89.052    3.872
  189.280    0.266    0.504   89.649    3.800
  189.585    0.267    0.557   93.273    3.729
  189.889    0.279    0.548   98.709    3.659
  190.194    0.277    0.550   99.307    3.659
  190.499    0.286    0.597   98.091    3.658
  190.804    0.295    0.575   96.874    3.940
  191.109    0.301    0.561   95.658    4.324
  191.413    0.288    0.528   93.836    4.835
  191.718    0.284    0.512   91.410    5.112
  192.023    0.291    0.463   88.378    5.207
  192.328    0.274    0.489   90.789    5.206
  192.633    0.263    0.499   94.412    5.205
  192.937    0.250    0.472   93.195    5.302
  193.242    0.222    0.455   86.533    5.819
  193.547    0.203    0.429   82.293    6.039
  193.852    0.186    0.433   73.211    5.500
  194.157    0.218    0.471   65.946    4.081
  194.461    0.293    0.453   55.654    3.717
  194.766    0.300    0.427   35.080    3.262
  195.071    0.312    0.347   15.715    2.971
  195.376    0.307    0.342   15.101    2.757
  195.681    0.302    0.346   17.514    2.756
  195.985    0.301    0.346   24.163    2.756
  196.290    0.302    0.356   37.465    2.807
  196.595    0.299    0.387   51.371    2.913
  196.900    0.283    0.441   62.253    3.138
  197.205    0.278    0.415   67.690    3.196
  197.509    0.298    0.421   73.733    3.574
  197.814    0.311    0.424   77.356    3.709
  198.119    0.293    0.419   76.136    3.921
  198.424    0.276    0.403   76.735    4.069
  198.728    0.284    0.410   77.940    4.145
  199.033    0.278    0.416   82.166    4.302
  199.338    0.259    0.410   88.210    4.634
  199.643    0.248    0.412   97.277    5.279
  199.948    0.247    0.418   99.687    5.686
  200.252    0.244    0.413   98.472    5.901
