~VERSION INFORMATION
 VERS.                 2.0:   CWLS LOG ASCII STANDARD -VERSION 2.0
 WRAP.                  NO:   ONE LINE PER DEPTH STEP
~WELL INFORMATION BLOCK
#MNEM.UNIT           DATA                    DESCRIPTION OF MNEMONIC
#---------    -------------------            -------------------------------
# Generated from Intellog Unique Number	CC_80_83/WELL/1182
NULL.         -999.25                        : NULL_VALUE
WELL.         GULF RESDELN                   : Well_name    - WELL              
LOC .         07-12-081-07W4                 : Location     - LOCATION          
UWI .         00/07-12-081-07W4/0            : Uwi          - UNIQUE WELL ID    
ENTR.         DW                             : Entered      - ENTERED BY        
SRVC.         SCHLUMBERGER                   : Scn          - SERVICE COMPANY   
DATE.         19 FEB 79                      : Date         - LOG DATE
STRT.M        130                            : top_depth    - START DEPTH       
STOP.M        349.897                        : bot_depth    - STOP DEPTH        
STEP.M        0.3                            : increment    - STEP LENGTH       
~CURVE INFORMATION BLOCK
#MNEM UNIT       ERCB CURVE CODE    CURVE DESCRIPTION
#-----------   ------------------   ----------------------------------
DEPT.M        00 001 00 00         : DEPTH        - DEPTH                       
NPHI.V/V      00 330 00 00         : PHIN         - NEUTRON POROSITY (LIMESTONE)
GR  .API      00 310 00 00         : GR           - GAMMA RAY                   
DPHI.V/V      00 890 00 00         : PHID         - DENSITY POROSITY (LIMESTONE)
ILD .OHMM     00 120 00 00         : RESD         - DEEP RESISTIVITY (DIL)      
~PARAMETER INFORMATION       
#MNEM.UNIT           DATA             DESCRIPTION OF MNEMONIC
#---------         -----------     ------------------------------
GL  .M        548                  : gl           - GROUND LEVEL ELEVATION      
EREF.M        551.5                : kb           - ELEVATION OF DEPTH REFERENCE
DATM.M        551.5                : datum        - DATUM ELEVATION             
TDD .M        365                  : tdd          - TOTAL DEPTH DRILLER         
RUN .         ONE                  : Run          - RUN NUMBER                  
ENG .         BILL                 : Engineer     - RECORDING ENGINEER          
WIT .         JIM                  : Witness      - WITNESSED BY                
MUD .         GEL                  : Mud_type     - MUD TYPE                    
MATR.         LIMESTONE            : Logunit      - NEUTRON MATRIX              
TMAX.C        20                   : BHT          - MAXIMUM RECORDED TEMPERATURE
BHTD.M        365                  : BHTDEP       - MAXIMUM RECORDED TEMPERATURE
MATR.         1                    : LOGUNIT      - NEUTRON MATRIX              
RMT .C        25                   : MDTP         - TEMPERATURE OF MUD          
NEUT.         1                    : NEUTRON      - NEUTRON TYPE                
RESI.         0                    : RESIST       - RESISTIVITY TYPE            
RMC .OHMM     0.25                 : RMC          - RESISTIVITY OF MUD CAKE     
RMF .OHMM     0.25                 : RMF          - RESISTIVITY OF MUD FILTRATE 
SUFT.C        4                    : SUFT         - SURFACE TEMPERATURE         
~A  DEPTH     PHIN       GR     PHID     RESD
# ...
  182.201    0.408   60.679    0.320   24.073
  182.501    0.415   59.419    0.327   24.576
  182.801    0.413   60.647    0.338   25.073
  183.101    0.396   63.743    0.328   25.110
  183.401    0.386   68.705    0.329   24.680
  183.701    0.402   71.804    0.329   24.703
  184.001    0.401   73.034    0.327   25.201
  184.301    0.401   69.283    0.326   25.712
  184.601    0.398   66.156    0.319   26.246
  184.901    0.398   66.761    0.333   26.294
  185.201    0.406   61.764    0.333   26.318
  185.501    0.417   55.526    0.332   26.342
  185.801    0.412   55.506    0.333   25.886
  186.101    0.413   61.095    0.333   25.429
  186.401    0.419   68.547    0.333   24.517
  186.701    0.424   64.171    0.322   24.076
  187.001    0.416   64.778    0.318   24.573
  187.301    0.408   72.234    0.342   24.598
  187.601    0.416   72.219    0.342   24.635
  187.901    0.423   57.885    0.342   25.136
  188.201    0.433   68.451    0.343   23.782
  188.501    0.450   73.415    0.336   23.371
  188.801    0.434   69.041    0.346   23.395
  189.101    0.410   66.532    0.341   23.413
  189.401    0.417   62.161    0.337   23.903
  189.701    0.427   62.145    0.340   23.932
  190.001    0.404   68.353    0.345   23.067
  190.301    0.415   66.467    0.340   22.663
  190.601    0.422   64.586    0.331   23.136
  190.901    0.435   65.188    0.332   23.154
  191.201    0.433   67.040    0.335   23.637
  191.501    0.430   68.896    0.334   23.651
  191.801    0.412   67.012    0.325   24.148
  192.101    0.411   66.996    0.324   25.113
  192.401    0.431   70.092    0.331   25.620
  192.701    0.417   70.697    0.317   26.146
  193.001    0.419   73.173    0.277   25.678
  193.301    0.390   75.023    0.272   23.394
  193.601    0.415   71.896    0.328   22.973
  193.901    0.430   73.125    0.326   23.448
  194.201    0.437   69.370    0.309   28.378
  194.501    0.445   64.374    0.275   41.534
  194.801    0.271   63.114    0.114   38.549
  195.101    0.293   64.968    0.197   23.119
  195.401    0.380   70.553    0.270   15.247
  195.701    0.424   74.896    0.327    9.867
  196.001    0.440   83.594    0.249    5.807
  196.301    0.441   96.026    0.233    5.288
  196.601    0.472  103.475    0.270    4.909
  196.901    0.491  102.836    0.241    4.824
  197.201    0.500  102.824    0.268    5.513
  197.501    0.523   99.696    0.263    8.708
  197.801    0.508   98.434    0.248    8.391
  198.101    0.464  115.847    0.227    7.219
  198.401    0.457  114.586    0.249    6.453
  198.701    0.492  107.720    0.217    6.337
  199.001    0.521  102.727    0.254    6.225
  199.301    0.487  100.844    0.241    4.265
  199.601    0.476  105.803    0.237    4.111
  199.901    0.501  105.163    0.238    8.466
  200.201    0.508   97.061    0.238   11.928
  200.501    0.506   80.240    0.238   15.293
  200.801    0.477   76.487    0.288   15.898
  201.101    0.433   77.095    0.311   16.539
  201.401    0.442   79.568    0.320   15.650
  201.701    0.454   75.816    0.327   15.366
  202.001    0.453   70.821    0.343   15.099
  202.301    0.448   64.580    0.351   14.551
  202.601    0.454   62.697    0.345   13.505
  202.901    0.446   63.928    0.332   11.186
  203.201    0.448   69.512    0.327    7.808
  203.501    0.455   76.964    0.321    5.149
  203.801    0.447   83.796    0.295    3.596
  204.101    0.443   93.116    0.277    3.212
  204.401    0.451  103.681    0.260    2.926
  204.701    0.534  110.512    0.240    3.043
  205.001    0.548  116.092    0.233    3.479
  205.301    0.550  114.215    0.243    3.757
  205.601    0.525  115.442    0.270    3.984
  205.901    0.515  117.917    0.250    4.066
  206.201    0.512  112.922    0.273    3.995
  206.501    0.546  101.080    0.260    3.922
  206.801    0.527  109.155    0.271    3.711
  207.101    0.517  115.360    0.235    3.444
  207.401    0.531  119.081    0.235    3.319
  207.701    0.558  116.575    0.276    3.200
  208.001    0.574  111.578    0.274    3.205
  208.301    0.551  117.788    0.244    3.269
  208.601    0.532  115.280    0.216    3.400
  208.901    0.514  110.284    0.245    3.470
  209.201    0.498  112.135    0.236    3.345
  209.501    0.515  115.234    0.244    3.225
  209.801    0.505  117.080    0.255    3.417
  210.101    0.487  115.820    0.237    4.217
  210.401    0.511  107.714    0.250    4.303
  210.701    0.497  100.231    0.275    4.072
  211.001    0.500  102.701    0.249    3.998
  211.301    0.520  109.534    0.274    3.711
  211.601    0.545  107.652    0.260    3.379
  211.901    0.568  110.125    0.237    3.137
  212.201    0.581  118.199    0.256    3.080
  212.501    0.576  119.430    0.278    3.204
  212.801    0.566  108.830    0.277    3.462
  213.101    0.566  112.550    0.286    3.886
  213.401    0.556  114.400    0.294    4.195
  213.701    0.534  108.783    0.272    4.889
  214.001    0.504   98.807    0.282    6.148
  214.301    0.471   88.208    0.291    7.441
  214.601    0.444   88.816    0.273    8.200
  214.901    0.434   90.045    0.259    8.208
  215.201    0.438   87.541    0.245    8.375
  215.501    0.453   93.124    0.234    8.382
  215.801    0.465   95.598    0.244    8.396
  216.101    0.460   91.225    0.265    8.566
  216.401    0.448   92.454    0.265    8.909
  216.701    0.462   90.571    0.269    9.091
  217.001    0.483   83.709    0.277    9.274
  217.301    0.479   78.709    0.282    9.463
  217.601    0.457   81.810    0.270    9.477
  217.901    0.433   87.396    0.249    9.491
  218.201    0.421   92.359    0.261    9.688
  218.501    0.421   88.606    0.272    9.881
  218.801    0.437   87.344    0.284   10.478
  219.101    0.446   84.842    0.289   10.687
  219.401    0.451   78.600    0.289   11.328
  219.701    0.421   79.208    0.278   11.781
  220.001    0.431   80.434    0.283   12.251
  220.301    0.446   78.551    0.280   12.500
  220.601    0.455   79.159    0.275   12.284
  220.901    0.463   84.743    0.290   12.066
  221.201    0.469   86.597    0.296   11.633
  221.501    0.442   78.487    0.296   11.007
  221.801    0.441   85.939    0.288   10.809
  222.101    0.447   90.283    0.300   10.421
  222.401    0.444   85.909    0.287    9.854
  222.701    0.429   85.892    0.282    8.806
  223.001    0.426   89.611    0.297    8.816
  223.301    0.433   86.483    0.308    9.352
  223.601    0.438   82.731    0.291    9.359
  223.901    0.470   83.338    0.284    9.735
  224.201    0.444   87.677    0.307    9.934
  224.501    0.425   90.775    0.280   10.333
  224.801    0.416   92.005    0.290   10.145
  225.101    0.421   86.384    0.247    9.784
  225.401    0.437   85.125    0.258    9.432
  225.701    0.449   86.971    0.283    9.447
  226.001    0.465   87.582    0.274    9.455
  226.301    0.475   81.964    0.284    9.464
  226.601    0.458   85.059    0.290    9.846
  226.901    0.453   85.043    0.269    9.855
  227.201    0.453   81.294    0.273    9.868
  227.501    0.439   79.406    0.296    9.879
  227.801    0.449   81.881    0.290    9.524
  228.101    0.438   89.338    0.284    9.536
  228.401    0.460   89.322    0.282    9.733
  228.701    0.445   85.570    0.283    9.932
  229.001    0.438   87.421    0.294   10.137
  229.301    0.441   86.161    0.293   10.341
  229.601    0.428   84.896    0.293   10.361
  229.901    0.423   86.748    0.302   10.369
  230.201    0.442   88.600    0.297   10.187
  230.501    0.467   89.204    0.297   10.010
  230.801    0.451   89.191    0.299    9.654
  231.101    0.424   88.550    0.302    9.661
  231.401    0.422   85.425    0.299    9.670
  231.701    0.435   79.805    0.296    9.686
  232.001    0.447   81.654    0.284    9.696
  232.301    0.425   82.265    0.281    9.711
  232.601    0.418   79.753    0.291    9.539
  232.901    0.422   79.115    0.297    9.192
  233.201    0.447   80.350    0.290    8.371
  233.501    0.457   85.933    0.285    7.480
  233.801    0.464   94.008    0.281    6.945
  234.101    0.515  103.954    0.313    6.822
