~VERSION INFORMATION
 VERS.                 2.0:   CWLS LOG ASCII STANDARD -VERSION 2.0
 WRAP.                  NO:   ONE LINE PER DEPTH STEP
~WELL INFORMATION BLOCK
#MNEM.UNIT           DATA                    DESCRIPTION OF MNEMONIC
#---------    -------------------            -------------------------------
# Generated from Intellog Unique Number	CS_73_76/WELL/2391
WELL.         ALLIED ROXANA MINERALS LT      : Well_name    - WELL
LOC .         00/07-25-075-16W4/0            : Location     - LOCATION
UWI .         00/07-25-075-16W4/0            : Uwi          - UNIQUE WELL ID
ENTR.         SP                             : Entered      - ENTERED BY
SRVC.         SCHLUMBERGER                   : Scn          - SERVICE COMPANY
STRT.M        371.856                        : top_depth    - START DEPTH
STOP.M        581.856                        : bot_depth    - STOP DEPTH
STEP.M        0.25                           : increment    - STEP LENGTH
 NULL. -999.2500:NULL Value
~CURVE INFORMATION BLOCK
#MNEM UNIT       ERCB CURVE CODE    CURVE DESCRIPTION
#-----------   ------------------   ----------------------------------
DEPT.M        00 001 00 00         : DEPTH        - DEPTH
GR  .API      00 310 00 00         : GR           - GAMMA RAY
DPHI.V/V      00 890 00 00         : PHID         - DENSITY POROSITY (SANDSTONE)
NPHI.V/V      00 330 00 00         : PHIN         - NEUTRON POROSITY (SANDSTONE)
ILD .OHMM     00 120 00 00         : RESD         - DEEP RESISTIVITY (DIL)
~PARAMETER INFORMATION
#MNEM.UNIT           DATA             DESCRIPTION OF MNEMONIC
#---------         -----------     ------------------------------
GL  .M        742.493              : gl           - GROUND LEVEL ELEVATION
EREF.M        745.541              : kb           - ELEVATION OF DEPTH REFERENCE
DATM.M        742.493              : datum        - DATUM ELEVATION
TDD .M        600.456              : tdd          - TOTAL DEPTH DRILLER
RUN .         ONE                  : Run          - RUN NUMBER
ENG .         BILL                 : Engineer     - RECORDING ENGINEER
WIT .         JIM                  : Witness      - WITNESSED BY
MUD .         GEL                  : Mud_type     - MUD TYPE
MATR.         SANDSTONE            : Logunit      - NEUTRON MATRIX
TMAX.C        10.5556              : BHT          - MAXIMUM RECORDED TEMPERATURE
BHTD.M        448.056              : BHTDEP       - MAXIMUM RECORDED TEMPERATURE
MATR.         1                    : LOGUNIT      - NEUTRON MATRIX
RMT .C        25                   : MDTP         - TEMPERATURE OF MUD
NEUT.         1                    : NEUTRON      - NEUTRON TYPE
RESI.         0                    : RESIST       - RESISTIVITY TYPE
RMC .OHMM     0.25                 : RMC          - RESISTIVITY OF MUD CAKE
RMF .OHMM     0.25                 : RMF          - RESISTIVITY OF MUD FILTRATE
SUFT.C        15                   : SUFT         - SURFACE TEMPERATURE
~A  DEPTH       GR     PHID     PHIN     RESD
# ...
  458.856   73.446    0.342    0.506   12.934
  459.106   71.662    0.328    0.505   11.697
  459.356   69.719    0.304    0.500   10.245
  459.606   68.640    0.276    0.499    9.007
  459.856   70.020    0.232    0.495    7.379
  460.106   71.719    0.185    0.492    5.957
  460.356   74.538    0.169    0.495    5.484
  460.606   77.562    0.270    0.501    5.576
  460.856   78.292    0.348    0.506    5.591
  461.106   77.674    0.358    0.512    6.308
  461.356   76.862    0.350    0.498    7.602
  461.606   76.942    0.338    0.489    8.679
  461.856   80.198    0.311    0.484    9.077
  462.106   83.537    0.285    0.487    7.809
  462.356   87.061    0.258    0.491    6.852
  462.606   89.927    0.234    0.492    6.317
  462.856   92.124    0.234    0.498    5.889
  463.106   92.662    0.233    0.503    5.623
  463.356   92.657    0.219    0.511    5.479
  463.606   92.639    0.227    0.511    5.346
  463.856   92.435    0.238    0.506    5.213
  464.106   91.922    0.224    0.493    5.067
  464.356   91.365    0.231    0.485    4.800
  464.606   92.721    0.222    0.499    4.575
  464.856   92.644    0.213    0.510    4.435
  465.106   92.076    0.211    0.522    4.306
  465.356   90.320    0.213    0.523    4.309
  465.606   86.129    0.244    0.508    4.427
  465.856   81.240    0.264    0.484    4.817
  466.106   75.243    0.281    0.469    5.356
  466.356   70.122    0.296    0.460    6.085
  466.606   64.191    0.299    0.461    6.621
  466.856   58.337    0.318    0.468    7.285
  467.106   55.994    0.322    0.477    7.810
  467.356   56.333    0.321    0.479    7.894
  467.606   57.280    0.309    0.474    7.890
  467.856   58.863    0.306    0.476    7.967
  468.106   60.228    0.309    0.479    7.965
  468.356   61.633    0.316    0.478    8.071
  468.606   63.597    0.317    0.481    8.130
  468.856   66.192    0.307    0.483    8.258
  469.106   68.097    0.312    0.476    8.295
  469.356   71.418    0.310    0.463    8.435
  469.606   75.865    0.302    0.450    8.407
  469.856   80.015    0.295    0.448    7.559
  470.106   86.167    0.294    0.483    6.637
  470.356   93.424    0.274    0.504    5.276
  470.606   97.754    0.249    0.533    4.099
  470.856  101.433    0.262    0.554    3.133
  471.106  103.549    0.273    0.587    2.515
  471.356  105.598    0.259    0.602    2.009
  471.606  105.499    0.276    0.606    1.780
  471.856  103.879    0.280    0.604    1.756
  472.106  104.876    0.262    0.594    1.755
  472.356  105.727    0.266    0.603    1.770
  472.606  103.196    0.262    0.596    2.087
  472.856   99.489    0.248    0.572    2.337
  473.106   94.260    0.249    0.556    2.711
  473.356   88.908    0.245    0.534    3.580
  473.606   83.891    0.272    0.502    4.017
  473.856   78.759    0.310    0.483    5.328
  474.106   75.231    0.324    0.476    7.245
  474.356   73.099    0.333    0.473   10.024
  474.606   72.597    0.336    0.479   11.340
  474.856   71.478    0.334    0.482   11.836
  475.106   71.095    0.326    0.470   12.057
  475.356   71.440    0.322    0.460   11.749
  475.606   72.735    0.313    0.458   10.890
  475.856   74.868    0.299    0.457   10.081
  476.106   76.855    0.278    0.457    8.983
  476.356   78.868    0.263    0.484    8.249
  476.606   79.952    0.263    0.473    7.707
  476.856   81.546    0.265    0.463    7.256
  477.106   83.578    0.274    0.464    7.076
  477.356   84.844    0.287    0.469    6.914
  477.606   86.333    0.301    0.457    6.781
  477.856   87.325    0.287    0.456    6.651
  478.106   87.464    0.261    0.462    6.527
  478.356   85.028    0.249    0.465    6.524
  478.606   80.055    0.239    0.466    6.609
  478.856   77.936    0.253    0.463    6.788
  479.106   77.348    0.252    0.436    7.222
  479.356   77.558    0.236    0.347    8.861
  479.606   73.757    0.208    0.247   10.833
  479.856   66.140    0.067    0.216   12.182
  480.106   61.002   -0.002    0.201   14.043
  480.356   58.660    0.000    0.209   16.890
  480.606   66.028    0.012    0.247   16.771
  480.856   74.637    0.121    0.396   13.163
  481.106   82.757    0.160    0.440   10.225
  481.356   84.266    0.220    0.470    7.960
  481.606   83.963    0.241    0.467    7.272
  481.856   85.469    0.225    0.473    6.747
  482.106   86.718    0.217    0.472    6.291
  482.356   88.750    0.201    0.469    6.045
  482.606   89.439    0.201    0.470    5.860
  482.856   87.813    0.223    0.477    5.708
  483.106   87.483    0.238    0.482    5.574
  483.356   88.126    0.242    0.482    5.436
  483.606   87.982    0.238    0.487    5.409
  483.856   86.989    0.250    0.486    5.485
  484.106   85.325    0.256    0.498    5.524
  484.356   84.471    0.270    0.498    5.661
  484.606   83.514    0.281    0.487    5.853
  484.856   82.423    0.269    0.482    6.082
  485.106   77.651    0.261    0.479    6.297
  485.356   73.401    0.280    0.469    6.422
  485.606   69.848    0.293    0.460    6.539
  485.856   66.441    0.308    0.463    6.445
  486.106   64.423    0.321    0.466    6.320
  486.356   63.276    0.325    0.474    6.445
  486.606   62.285    0.325    0.477    6.365
  486.856   61.648    0.332    0.467    6.191
  487.106   60.943    0.338    0.452    6.031
  487.356   61.568    0.336    0.463    5.900
  487.606   61.853    0.332    0.475    5.808
  487.856   62.905    0.346    0.485    5.721
  488.106   63.407    0.347    0.492    5.735
  488.356   64.533    0.337    0.488    5.638
  488.606   65.869    0.336    0.474    5.646
  488.856   68.473    0.341    0.464    5.647
  489.106   70.321    0.326    0.455    5.652
  489.356   70.008    0.310    0.460    5.568
  489.606   68.950    0.314    0.473    5.568
  489.856   68.652    0.332    0.475    5.566
  490.106   68.193    0.323    0.472    5.566
  490.356   67.431    0.335    0.465    5.563
  490.606   68.125    0.339    0.459    5.554
  490.856   67.881    0.335    0.467    5.482
  491.106   71.460    0.325    0.469    5.485
  491.356   74.348    0.328    0.468    5.485
  491.606   74.103    0.334    0.473    5.485
  491.856   71.991    0.337    0.465    5.485
  492.106   72.972    0.332    0.470    5.484
  492.356   74.585    0.325    0.473    5.484
  492.606   74.483    0.318    0.475    5.484
  492.856   72.364    0.313    0.483    5.484
  493.106   72.294    0.305    0.488    5.486
  493.356   73.050    0.293    0.494    5.498
  493.606   74.490    0.281    0.492    5.565
  493.856   76.949    0.292    0.479    5.565
  494.106   77.050    0.312    0.474    5.571
  494.356   76.368    0.311    0.480    5.644
  494.606   79.388    0.312    0.477    5.613
  494.856   81.973    0.298    0.485    5.474
  495.106   85.343    0.266    0.488    5.009
  495.356   89.062    0.225    0.498    4.726
  495.606   92.102    0.213    0.505    4.291
  495.856   88.887    0.222    0.489    3.970
  496.106   88.532    0.225    0.498    3.774
  496.356   89.073    0.227    0.514    3.572
  496.606   88.527    0.237    0.507    3.589
  496.856   86.532    0.254    0.492    3.909
  497.106   85.451    0.254    0.496    4.161
  497.356   85.539    0.247    0.504    4.405
  497.606   85.550    0.234    0.486    4.532
  497.856   86.032    0.244    0.481    4.668
  498.106   87.106    0.252    0.490    4.675
  498.356   88.448    0.249    0.493    4.764
  498.606   89.483    0.241    0.494    4.761
  498.856   89.593    0.250    0.493    4.763
  499.106   90.168    0.253    0.479    4.759
  499.356   91.772    0.233    0.475    4.850
  499.606   93.514    0.216    0.476    4.854
  499.856   95.404    0.236    0.466    4.990
  500.106   97.842    0.251    0.459    5.121
  500.356   97.888    0.248    0.472    5.251
  500.606   95.827    0.248    0.485    5.380
  500.856   95.304    0.243    0.504    5.485
  501.106   98.072    0.230    0.503    5.479
  501.356   98.980    0.217    0.497    5.418
  501.606   99.816    0.207    0.488    5.401
  501.856   99.778    0.210    0.479    5.397
  502.106   99.172    0.208    0.472    5.477
