~VERSION INFORMATION
 VERS.                 2.0:   CWLS LOG ASCII STANDARD -VERSION 2.0
 WRAP.                  NO:   ONE LINE PER DEPTH STEP
~WELL INFORMATION BLOCK
#MNEM.UNIT           DATA                    DESCRIPTION OF MNEMONIC
#---------    -------------------            -------------------------------
# Generated from Intellog Unique Number	CS_69_70/WELL/833
NULL.         -999.25                        : NULL_VALUE
WELL.         GULF CANADA LIMITED            : Well_name    - WELL              
LOC .         00/07-17-070-15W4/0            : Location     - LOCATION          
UWI .         00/07-17-070-15W4/0            : Uwi          - UNIQUE WELL ID    
ENTR.         SP                             : Entered      - ENTERED BY        
SRVC.         SCHLUMBERGER                   : Scn          - SERVICE COMPANY   
STRT.M        245                            : top_depth    - START DEPTH       
STOP.M        509                            : bot_depth    - STOP DEPTH        
STEP.M        0.25                           : increment    - STEP LENGTH       
~CURVE INFORMATION BLOCK
#MNEM UNIT       ERCB CURVE CODE    CURVE DESCRIPTION
#-----------   ------------------   ----------------------------------
DEPT.M        00 001 00 00         : DEPTH        - DEPTH                       
GR  .API      00 310 00 00         : GR           - GAMMA RAY                   
NPHI.V/V      00 330 00 00         : PHIN         - NEUTRON POROSITY (LIMESTONE)
DPHI.V/V      00 890 00 00         : PHID         - DENSITY POROSITY (LIMESTONE)
ILD .OHMM     00 120 00 00         : RESD         - DEEP RESISTIVITY (DIL)      
~PARAMETER INFORMATION       
#MNEM.UNIT           DATA             DESCRIPTION OF MNEMONIC
#---------         -----------     ------------------------------
GL  .M        567.89               : gl           - GROUND LEVEL ELEVATION      
EREF.M        572.24               : kb           - ELEVATION OF DEPTH REFERENCE
DATM.M        567.89               : datum        - DATUM ELEVATION             
TDD .M        519                  : tdd          - TOTAL DEPTH DRILLER         
RUN .         ONE                  : Run          - RUN NUMBER                  
ENG .         BILL                 : Engineer     - RECORDING ENGINEER          
WIT .         JIM                  : Witness      - WITNESSED BY                
MUD .         GEL                  : Mud_type     - MUD TYPE                    
MATR.         LIMESTONE            : Logunit      - NEUTRON MATRIX              
TMAX.C        25.5                 : BHT          - MAXIMUM RECORDED TEMPERATURE
BHTD.M        519                  : BHTDEP       - MAXIMUM RECORDED TEMPERATURE
MATR.         1                    : LOGUNIT      - NEUTRON MATRIX              
RMT .C        25                   : MDTP         - TEMPERATURE OF MUD          
NEUT.         1                    : NEUTRON      - NEUTRON TYPE                
RESI.         0                    : RESIST       - RESISTIVITY TYPE            
RMC .OHMM     0.25                 : RMC          - RESISTIVITY OF MUD CAKE     
RMF .OHMM     0.25                 : RMF          - RESISTIVITY OF MUD FILTRATE 
SUFT.C        15                   : SUFT         - SURFACE TEMPERATURE         
~A  DEPTH       GR     PHIN     PHID     RESD
# ...
  288.500   95.428    0.442    0.170    3.360
  288.750  100.999    0.451    0.169    3.501
  289.000  104.391    0.455    0.181    3.600
  289.250  102.823    0.469    0.179    3.647
  289.500  100.467    0.479    0.177    3.695
  289.750  101.924    0.469    0.177    3.702
  290.000  103.622    0.455    0.178    3.675
  290.250  104.776    0.436    0.197    3.662
  290.500  105.264    0.458    0.214    3.655
  290.750  105.389    0.469    0.196    3.648
  291.000  103.699    0.476    0.184    3.676
  291.250  101.646    0.480    0.184    3.724
  291.500  100.137    0.491    0.182    3.724
  291.750   99.053    0.486    0.177    3.773
  292.000   98.150    0.443    0.172    3.866
  292.250   97.669    0.414    0.173    3.924
  292.500   98.884    0.432    0.170    3.931
  292.750  104.212    0.445    0.165    3.953
  293.000  101.736    0.429    0.163    3.946
  293.250   98.170    0.437    0.171    3.924
  293.500   95.693    0.466    0.181    3.852
  293.750   98.783    0.495    0.185    3.760
  294.000   99.816    0.479    0.178    3.664
  294.250   99.881    0.451    0.184    3.583
  294.500   99.704    0.456    0.183    3.517
  294.750  101.160    0.450    0.179    3.485
  295.000  102.193    0.437    0.188    3.466
  295.250  102.318    0.429    0.200    3.498
  295.500   99.841    0.445    0.196    3.611
  295.750   95.247    0.449    0.191    3.839
  296.000   87.506    0.299    0.225    4.658
  296.250   70.567    0.265    0.248    5.621
  296.500   57.441    0.245    0.258    7.078
  296.750   51.334    0.215    0.307    8.290
  297.000   47.708    0.201    0.347   10.267
  297.250   44.807    0.199    0.391   11.869
  297.500   42.512    0.202    0.413   13.494
  297.750   46.692    0.212    0.392   13.799
  298.000   50.629    0.215    0.379   12.206
  298.250   51.601    0.215    0.386   10.638
  298.500   56.688    0.223    0.374    8.999
  298.750   64.074    0.244    0.336    8.080
  299.000   70.674    0.270    0.311    7.642
  299.250   63.720    0.267    0.347    8.171
  299.500   55.253    0.227    0.389    8.984
  299.750   52.171    0.214    0.389   10.252
  300.000   49.453    0.215    0.386   11.003
  300.250   45.947    0.212    0.398   11.549
  300.500   44.499    0.210    0.397   11.766
  300.750   44.201    0.210    0.393   11.723
  301.000   45.355    0.226    0.394   10.944
  301.250   46.932    0.247    0.397   10.293
  301.500   50.144    0.261    0.376    9.450
  301.750   52.870    0.272    0.348    8.660
  302.000   54.871    0.281    0.322    7.950
  302.250   53.726    0.288    0.301    7.286
  302.500   52.581    0.295    0.300    6.789
  302.750   51.920    0.278    0.335    6.303
  303.000   51.137    0.256    0.366    5.701
  303.250   51.443    0.279    0.386    4.778
  303.500   55.199    0.319    0.356    3.616
  303.750   61.072    0.388    0.326    3.076
  304.000   64.707    0.423    0.297    2.676
  304.250   59.871    0.436    0.319    2.447
  304.500   55.518    0.421    0.321    2.341
  304.750   57.700    0.413    0.308    2.276
  305.000   59.218    0.427    0.305    2.264
  305.250   55.047    0.432    0.311    2.281
  305.500   54.325    0.414    0.321    2.281
  305.750   55.177    0.414    0.323    2.277
  306.000   54.636    0.418    0.326    2.264
  306.250   50.949    0.412    0.334    2.182
  306.500   54.039    0.401    0.346    2.182
  306.750   55.616    0.394    0.338    2.202
  307.000   54.350    0.413    0.327    2.211
  307.250   46.125    0.419    0.325    2.223
  307.500   41.591    0.399    0.322    2.252
  307.750   38.570    0.387    0.324    2.278
  308.000   39.603    0.390    0.328    2.295
  308.250   41.664    0.387    0.330    2.316
  308.500   45.420    0.397    0.324    2.321
  308.750   48.631    0.408    0.309    2.316
  309.000   52.145    0.398    0.303    2.317
  309.250   54.146    0.389    0.312    2.317
  309.500   45.316    0.381    0.323    2.321
  309.750   44.472    0.386    0.330    2.321
  310.000   49.863    0.393    0.325    2.326
  310.250   53.013    0.404    0.323    2.334
  310.500   49.568    0.418    0.327    2.339
  310.750   46.849    0.415    0.327    2.361
  311.000   49.637    0.397    0.318    2.487
  311.250   53.333    0.385    0.312    2.553
  311.500   54.849    0.376    0.309    2.640
  311.750   55.459    0.389    0.315    2.740
  312.000   52.195    0.400    0.315    2.838
  312.250   52.804    0.409    0.269    2.892
  312.500   73.200    0.399    0.136    3.007
  312.750   86.275    0.401    0.108    3.121
  313.000   96.989    0.419    0.124    3.251
  313.250  105.404    0.447    0.160    3.425
  313.500  114.424    0.474    0.181    3.608
  313.750  109.950    0.497    0.163    3.780
  314.000  103.843    0.470    0.143    3.982
  314.250  111.411    0.437    0.159    4.126
  314.500  119.100    0.416    0.191    4.243
  314.750  119.951    0.405    0.210    4.267
  315.000  106.039    0.396    0.209    4.235
  315.250   92.488    0.385    0.225    4.051
  315.500   85.050    0.382    0.245    4.043
  315.750   90.803    0.394    0.245    4.119
  316.000   94.680    0.406    0.243    4.364
  316.250   97.467    0.417    0.247    4.710
  316.500   97.895    0.408    0.241    4.998
  316.750   98.807    0.401    0.233    5.285
  317.000   99.779    0.393    0.226    5.385
  317.250   99.783    0.389    0.222    5.217
  317.500   98.456    0.406    0.225    4.880
  317.750   97.492    0.426    0.235    4.590
  318.000   97.073    0.409    0.245    4.439
  318.250   97.198    0.395    0.238    4.472
  318.500   98.655    0.422    0.225    4.565
  318.750  101.139    0.439    0.219    4.625
  319.000  102.656    0.416    0.215    4.616
  319.250  102.479    0.397    0.220    4.574
  319.500  100.426    0.407    0.231    4.523
  319.750   98.070    0.422    0.245    4.549
  320.000   98.680    0.432    0.243    4.617
  320.250  101.831    0.421    0.212    4.748
  320.500  104.014    0.397    0.204    4.883
  320.750  104.501    0.383    0.204    4.910
  321.000  104.021    0.375    0.202    4.965
  321.250  104.631    0.371    0.198    4.829
  321.500  106.390    0.403    0.191    4.525
  321.750  108.936    0.432    0.186    4.185
  322.000  110.634    0.427    0.178    4.033
  322.250  111.545    0.429    0.161    3.857
  322.500  112.518    0.431    0.160    3.662
  322.750  114.822    0.426    0.171    3.648
  323.000  112.102    0.422    0.188    3.635
  323.250  105.451    0.433    0.206    3.635
  323.500  101.280    0.444    0.223    3.635
  323.750   96.322    0.455    0.232    3.615
  324.000   92.031    0.442    0.239    3.483
  324.250   89.674    0.426    0.247    3.356
  324.500   88.772    0.421    0.255    3.192
  324.750   89.562    0.417    0.266    3.087
  325.000   89.748    0.421    0.280    3.087
  325.250   88.603    0.411    0.287    3.169
  325.500   84.795    0.398    0.274    3.407
  325.750   81.410    0.389    0.265    3.636
  326.000   81.536    0.395    0.264    3.802
  326.250   82.749    0.406    0.259    3.824
  326.500   81.302    0.389    0.250    3.671
  326.750   81.366    0.379    0.245    3.557
  327.000   80.886    0.422    0.262    3.433
  327.250   76.231    0.417    0.277    3.358
  327.500   73.876    0.409    0.288    3.346
  327.750   77.511    0.420    0.305    3.434
  328.000   75.336    0.432    0.313    3.679
  328.250   71.771    0.425    0.291    3.875
  328.500   75.224    0.410    0.269    4.060
  328.750   78.677    0.406    0.253    4.175
  329.000   83.885    0.436    0.252    4.222
  329.250   86.854    0.454    0.264    4.366
  329.500   84.075    0.458    0.270    4.651
  329.750   80.993    0.446    0.256    4.954
  330.000   69.440    0.388    0.182    4.945
  330.250   68.899    0.278    0.155    4.634
  330.500   72.232    0.421    0.257    4.231
  330.750   75.262    0.445    0.285    3.928
  331.000   79.988    0.444    0.301    3.806
  331.250   81.987    0.439    0.289    3.841
  331.500   83.927    0.434    0.273    3.994
  331.750   86.109    0.437    0.267    4.161
