~VERSION INFORMATION
 VERS.                 2.0:   CWLS LOG ASCII STANDARD -VERSION 2.0
 WRAP.                  NO:   ONE LINE PER DEPTH STEP
~WELL INFORMATION BLOCK
#MNEM.UNIT           DATA                    DESCRIPTION OF MNEMONIC
#---------    -------------------            -------------------------------
# Generated from Intellog Unique Number	CX_WELLS/WELL/3196
WELL.         HB HORSER                      : Well_name    - WELL
LOC .         00/06-16-083-13W4/0            : Location     - LOCATION
UWI .         00/06-16-083-13W400            : Uwi          - UNIQUE WELL ID
ENTR.         T                              : Entered      - ENTERED BY
SRVC.         SCHLUMBERGER                   : Scn          - SERVICE COMPANY
STRT.F        400                            : top_depth    - START DEPTH
STOP.F        1199.7                         : bot_depth    - STOP DEPTH
STEP.F        0.82                           : increment    - STEP LENGTH
 NULL. -999.2500:NULL Value
~CURVE INFORMATION BLOCK
#MNEM UNIT       ERCB CURVE CODE    CURVE DESCRIPTION
#-----------   ------------------   ----------------------------------
DEPT.F        00 001 00 00         : DEPTH        - DEPTH
GR  .API      00 310 00 00         : GR           - GAMMA RAY
NPHI.V/V      00 330 00 00         : PHIN         - NEUTRON POROSITY (SANDSTONE)
DPHI.V/V      00 890 00 00         : PHID         - DENSITY POROSITY (SANDSTONE)
ILD .OHMM     00 120 00 00         : RESD         - DEEP RESISTIVITY (DIL)
~PARAMETER INFORMATION
#MNEM.UNIT           DATA             DESCRIPTION OF MNEMONIC
#---------         -----------     ------------------------------
GL  .F        1876                 : gl           - GROUND LEVEL ELEVATION
EREF.F        1884                 : kb           - ELEVATION OF DEPTH REFERENCE
DATM.F        1884                 : datum        - DATUM ELEVATION
TDD .F        1204                 : tdd          - TOTAL DEPTH DRILLER
RUN .         ONE                  : Run          - RUN NUMBER
ENG .         BILL                 : Engineer     - RECORDING ENGINEER
WIT .         JIM                  : Witness      - WITNESSED BY
MUD .         GEL                  : Mud_type     - MUD TYPE
MATR.         SANDSTONE            : Logunit      - NEUTRON MATRIX
TMAX.F        78                   : BHT          - MAXIMUM RECORDED TEMPERATURE
BHTD.F        1204                 : BHTDEP       - MAXIMUM RECORDED TEMPERATURE
MATR.         1                    : LOGUNIT      - NEUTRON MATRIX
RMT .F        77                   : MDTP         - TEMPERATURE OF MUD
NEUT.         1                    : NEUTRON      - NEUTRON TYPE
RESI.         5.25                 : RESIST       - RESISTIVITY TYPE
RMC .OHMM     2.8                  : RMC          - RESISTIVITY OF MUD CAKE
RMF .OHMM     3.02                 : RMF          - RESISTIVITY OF MUD FILTRATE
SUFT.F        32                   : SUFT         - SURFACE TEMPERATURE
~A  DEPTH       GR     PHIN     PHID     RESD
# ...
  970.866   73.100    0.414    0.246   10.819
  971.686   73.173    0.416    0.254   11.895
  972.507   73.900    0.415    0.264   12.852
  973.327   74.046    0.406    0.272   14.671
  974.147   74.096    0.403    0.266   15.838
  974.967   75.425    0.404    0.226   16.483
  975.787   79.145    0.402    0.225   16.856
  976.608   86.488    0.396    0.217   16.897
  977.428   91.489    0.390    0.221   16.644
  978.248   91.538    0.388    0.230   16.409
  979.068   92.843    0.411    0.239   15.870
  979.888  102.021    0.442    0.212   14.516
  980.709  106.973    0.461    0.222   12.821
  981.529  107.071    0.463    0.228   11.314
  982.349  104.200    0.450    0.237   10.540
  983.169  102.462    0.428    0.260   10.194
  983.990   99.542    0.432    0.270   10.244
  984.810   98.408    0.435    0.275   10.653
  985.630  102.128    0.436    0.278   11.949
  986.450  105.873    0.437    0.272   12.415
  987.270  103.556    0.437    0.268   14.972
  988.091  100.007    0.436    0.269   17.714
  988.911   94.671    0.432    0.271   24.287
  989.731   88.129    0.427    0.272   29.289
  990.551   81.007    0.420    0.276   33.406
  991.371   76.879    0.411    0.277   40.321
  992.192   74.537    0.401    0.280   45.116
  993.012   74.056    0.391    0.281   47.899
  993.832   76.544    0.380    0.277   47.144
  994.652   80.289    0.371    0.268   44.027
  995.472   83.430    0.358    0.260   42.512
  996.293   86.546    0.353    0.252   37.517
  997.113   90.870    0.373    0.221   32.507
  997.933   95.798    0.387    0.226   28.189
  998.753  100.799    0.393    0.226   26.725
  999.573  102.055    0.420    0.196   24.041
 1000.390  103.989    0.422    0.206   22.008
 1001.210  102.251    0.411    0.229   20.130
 1002.030   97.520    0.405    0.235   17.456
 1002.850   97.014    0.401    0.229   17.823
 1003.670  101.966    0.396    0.218   19.991
 1004.490  106.290    0.385    0.196   20.427
 1005.310  103.973    0.385    0.185   20.105
 1006.140   99.241    0.390    0.192   19.461
 1006.960   85.454    0.395    0.195   18.822
 1007.780   78.283    0.399    0.201   18.883
 1008.600   65.679    0.403    0.213   20.032
 1009.420   60.947    0.408    0.241   20.830
 1010.240   59.838    0.417    0.265   23.346
 1011.060   62.375    0.410    0.276   26.144
 1011.880   67.327    0.374    0.272   30.932
 1012.700   71.651    0.387    0.268   38.696
 1013.520   74.188    0.406    0.262   38.179
 1014.340   74.262    0.429    0.256   36.895
 1015.160   75.591    0.434    0.250   35.655
 1015.980   79.940    0.412    0.251   34.512
 1016.800   82.428    0.404    0.248   32.799
 1017.620   83.758    0.398    0.239   31.722
 1018.440   81.441    0.388    0.231   30.681
 1019.260   79.728    0.379    0.220   29.134
 1020.080   78.643    0.386    0.219   26.671
 1020.900   78.113    0.396    0.218   24.846
 1021.720   81.254    0.402    0.230   22.764
 1022.540   84.370    0.378    0.242   21.224
 1023.360   88.091    0.374    0.229   19.805
 1024.180   91.835    0.378    0.222   19.123
 1025.000   90.726    0.385    0.229   18.495
 1025.820   90.220    0.392    0.249   17.917
 1026.640   90.922    0.400    0.249   17.946
 1027.460   94.666    0.402    0.218   17.678
 1028.280   98.411    0.390    0.202   17.428
 1029.100   99.088    0.379    0.190   17.485
 1029.920  100.997    0.379    0.189   17.223
 1030.740  101.144    0.387    0.199   16.965
 1031.560   99.456    0.394    0.206   16.725
 1032.380   98.297    0.402    0.216   16.475
 1033.200   96.584    0.404    0.208   16.229
 1034.020   97.889    0.383    0.094   16.570
 1034.840  101.006    0.374    0.115   16.931
 1035.660  106.586    0.379    0.148   17.961
 1036.480  108.495    0.388    0.179   18.707
 1037.300  108.569    0.395    0.188   19.484
 1038.120  108.087    0.404    0.205   19.516
 1038.940  108.838    0.405    0.218   19.256
 1039.760  108.911    0.410    0.221   18.285
 1040.580  109.613    0.412    0.223   17.670
 1041.400  109.083    0.417    0.231   17.406
 1042.220  108.602    0.422    0.239   18.115
 1043.040  108.096    0.416    0.237   18.852
 1043.860  106.986    0.405    0.207   19.279
 1044.690  102.858    0.389    0.189   18.646
 1045.510  104.792    0.375    0.185   17.385
 1046.330  107.884    0.370    0.180   15.063
 1047.150  112.861    0.368    0.176   13.539
 1047.970  111.751    0.371    0.179   12.857
 1048.790  110.038    0.376    0.177   13.148
 1049.610  108.300    0.389    0.176   14.217
 1050.430  104.776    0.400    0.178   14.784
 1051.250  101.276    0.398    0.185   15.082
 1052.070   98.959    0.395    0.199   16.322
 1052.890   97.246    0.388    0.222   16.958
 1053.710   97.948    0.382    0.195   18.322
 1054.530  101.668    0.381    0.189   18.382
 1055.350  109.010    0.381    0.187   17.456
 1056.170  110.944    0.381    0.180   16.275
 1056.990  111.670    0.379    0.173   15.162
 1057.810  111.768    0.379    0.165   13.902
 1058.630  112.470    0.379    0.156   13.424
 1059.450  113.171    0.380    0.167   12.758
 1060.270  109.672    0.382    0.178   12.567
 1061.090  107.330    0.380    0.176   12.154
 1061.910  105.013    0.376    0.176   12.204
 1062.730  106.343    0.378    0.175   12.244
 1063.550  108.228    0.383    0.173   12.284
 1064.370  110.161    0.386    0.172   12.324
 1065.190  108.473    0.382    0.166   12.374
 1066.010  106.131    0.378    0.161   12.199
 1066.830  103.186    0.384    0.158   12.229
 1067.650   97.851    0.397    0.164   12.495
 1068.470   91.912    0.410    0.190   13.234
 1069.290   87.180    0.417    0.207   14.563
 1070.110   81.266    0.410    0.233   16.012
 1070.930   77.162    0.395    0.238   16.664
 1071.750   76.004    0.384    0.236   18.367
 1072.570   75.498    0.378    0.234   19.084
 1073.390   78.639    0.372    0.232   19.500
 1074.210   83.012    0.372    0.234   19.564
 1075.030   84.293    0.376    0.236   19.287
 1075.850   85.574    0.380    0.236   19.350
 1076.670   87.507    0.381    0.233   19.413
 1077.490   90.624    0.380    0.230   19.508
 1078.310   94.948    0.377    0.222   19.540
 1079.130  102.314    0.372    0.214   19.603
 1079.950  107.846    0.367    0.195   18.615
 1080.770  112.194    0.363    0.175   17.370
 1081.590  112.920    0.360    0.162   16.495
 1082.410  112.994    0.363    0.171   15.404
 1083.230  110.701    0.371    0.181   14.616
 1084.060  107.756    0.391    0.189   14.125
 1084.880  100.634    0.407    0.198   13.413
 1085.700   98.921    0.408    0.223   12.972
 1086.520  100.830    0.408    0.245   13.750
 1087.340  102.739    0.408    0.254   15.118
 1088.160  107.063    0.405    0.260   16.637
 1088.980  113.223    0.403    0.258   17.000
 1089.800  118.150    0.394    0.249   16.745
 1090.620  124.913    0.386    0.220   15.901
 1091.440  125.615    0.392    0.189   14.304
 1092.260  122.695    0.386    0.199   13.583
 1093.080  118.591    0.383    0.204   13.148
 1093.900  116.299    0.375    0.199   13.413
 1094.720  115.768    0.406    0.203   15.882
 1095.540  121.903    0.416    0.233   17.785
 1096.360  128.038    0.428    0.281   21.449
 1097.180  123.911    0.434    0.294   27.834
 1098.000  113.745    0.444    0.286   34.161
 1098.820  104.184    0.438    0.272   31.297
 1099.640  101.867    0.405    0.106   27.118
 1100.460   95.300    0.386    0.085   24.805
 1101.280   88.153    0.346    0.067   21.120
 1102.100   83.446    0.297    0.052   18.638
 1102.920   82.337    0.295    0.033   17.076
 1103.740   81.807    0.291    0.031   16.793
 1104.560   81.929    0.287    0.032   16.242
 1105.380   82.606    0.285    0.034   15.999
 1106.200   82.704    0.284    0.034   16.064
 1107.020   82.851    0.285    0.027   16.103
 1107.840   82.345    0.289    0.032   16.182
 1108.660   82.419    0.292    0.035   15.927
 1109.480   82.541    0.294    0.037   15.979
 1110.300   82.639    0.299    0.037   15.753
 1111.120   83.945    0.302    0.039   15.804
 1111.940   84.646    0.304    0.042   15.843
 1112.760   86.025    0.306    0.043   15.606
