~VERSION INFORMATION
 VERS.                 2.0:   CWLS LOG ASCII STANDARD -VERSION 2.0
 WRAP.                  NO:   ONE LINE PER DEPTH STEP
~WELL INFORMATION BLOCK
#MNEM.UNIT           DATA                    DESCRIPTION OF MNEMONIC
#---------    -------------------            -------------------------------
# Generated from Intellog Unique Number	CS_67_68/WELL/2178
WELL.         07-25-067-05W4                 : Well_name    - WELL
LOC .         00/07-25-067-05W4/0            : Location     - LOCATION
UWI .         00/07-25-067-05W4/0            : Uwi          - UNIQUE WELL ID
ENTR.         SP                             : Entered      - ENTERED BY
SRVC.         SCHLUMBERGER                   : Scn          - SERVICE COMPANY
STRT.M        330                            : top_depth    - START DEPTH
STOP.M        560                            : bot_depth    - STOP DEPTH
STEP.M        0.25                           : increment    - STEP LENGTH
 NULL. -999.2500:NULL Value
~CURVE INFORMATION BLOCK
#MNEM UNIT       ERCB CURVE CODE    CURVE DESCRIPTION
#-----------   ------------------   ----------------------------------
DEPT.M        00 001 00 00         : DEPTH        - DEPTH
ILD .OHMM     00 120 00 00         : RESD         - DEEP RESISTIVITY (DIL)
DPHI.V/V      00 890 00 00         : PHID         - DENSITY POROSITY (LIMESTONE)
NPHI.V/V      00 330 00 00         : PHIN         - NEUTRON POROSITY (LIMESTONE)
GR  .API      00 310 00 00         : GR           - GAMMA RAY
CALI.MM       00 280 01 00         : CAL          - CALIPER
~PARAMETER INFORMATION
#MNEM.UNIT           DATA             DESCRIPTION OF MNEMONIC
#---------         -----------     ------------------------------
GL  .M        673.74               : gl           - GROUND LEVEL ELEVATION
EREF.M        677.64               : kb           - ELEVATION OF DEPTH REFERENCE
DATM.M        677.64               : datum        - DATUM ELEVATION
TDD .M        566                  : tdd          - TOTAL DEPTH DRILLER
RUN .         ONE                  : Run          - RUN NUMBER
ENG .         BILL                 : Engineer     - RECORDING ENGINEER
WIT .         JIM                  : Witness      - WITNESSED BY
MUD .         GEL                  : Mud_type     - MUD TYPE
MATR.         LIMESTONE            : Logunit      - NEUTRON MATRIX
TMAX.C        18.8                 : BHT          - MAXIMUM RECORDED TEMPERATURE
BHTD.M        566                  : BHTDEP       - MAXIMUM RECORDED TEMPERATURE
MATR.         1                    : LOGUNIT      - NEUTRON MATRIX
RMT .C        25                   : MDTP         - TEMPERATURE OF MUD
NEUT.         1                    : NEUTRON      - NEUTRON TYPE
RESI.         0                    : RESIST       - RESISTIVITY TYPE
RMC .OHMM     0.25                 : RMC          - RESISTIVITY OF MUD CAKE
RMF .OHMM     0.25                 : RMF          - RESISTIVITY OF MUD FILTRATE
SUFT.C        15                   : SUFT         - SURFACE TEMPERATURE
~A  DEPTH     RESD     PHID     PHIN       GR      CAL
# ...
  403.000    6.660    0.333    0.443   51.604  150.082
  403.250    6.590    0.333    0.436   51.545  150.493
  403.500    6.580    0.333    0.431   49.777  150.802
  403.750    6.498    0.332    0.427   48.864  151.213
  404.000    6.441    0.341    0.423   49.782  151.419
  404.250    6.395    0.351    0.419   51.798  151.626
  404.500    6.339    0.342    0.424   53.326  151.731
  404.750    6.249    0.336    0.425   53.572  151.735
  405.000    6.217    0.333    0.432   49.424  152.044
  405.250    6.196    0.335    0.438   54.553  152.150
  405.500    6.188    0.340    0.426   57.484  152.051
  405.750    6.191    0.344    0.421   51.689  151.343
  406.000    6.252    0.338    0.413   46.321  150.431
  406.250    6.409    0.336    0.408   51.815  150.334
  406.500    5.379    0.335    0.408   58.592  150.540
  406.750    4.892    0.330    0.417   61.279  151.053
  407.000    4.457    0.327    0.423   65.431  151.463
  407.250    4.138    0.337    0.414   72.756  151.874
  407.500    4.049    0.303    0.422   79.288  152.794
  407.750    4.365    0.267    0.447   90.885  154.018
  408.000    4.663    0.246    0.480   95.891  154.936
  408.250    4.990    0.231    0.475   85.702  155.855
  408.500    5.241    0.223    0.444   79.053  156.267
  408.750    5.567    0.254    0.427   74.539  156.269
  409.000    5.880    0.283    0.420   70.147  156.273
  409.250    6.210    0.301    0.417   73.323  156.073
  409.500    6.414    0.316    0.449   76.132  155.568
  409.750    6.441    0.328    0.456   77.477  155.064
  410.000    6.301    0.299    0.417   79.066  154.966
  410.250    6.073    0.282    0.434   80.594  155.580
  410.500    5.865    0.260    0.463   72.113  156.397
  410.750    5.726    0.292    0.485   65.708  157.113
  411.000    5.613    0.321    0.463   60.828  157.218
  411.250    5.532    0.334    0.442   56.742  157.323
  411.500    5.392    0.322    0.423   61.687  157.327
  411.750    5.235    0.307    0.435   68.280  157.230
  412.000    4.971    0.296    0.445   73.470  157.233
  412.250    4.746    0.290    0.452   79.025  156.931
  412.500    4.566    0.291    0.459   84.092  156.630
  412.750    4.433    0.284    0.454   87.695  156.329
  413.000    4.469    0.280    0.470   88.552  156.129
  413.250    4.720    0.284    0.487   88.371  155.929
  413.500    5.061    0.285    0.511   87.641  155.730
  413.750    5.286    0.301    0.540   76.902  155.530
  414.000    5.541    0.333    0.489   68.666  154.923
  414.250    5.755    0.342    0.460   58.782  154.215
  414.500    5.922    0.336    0.470   51.705  153.507
  414.750    6.036    0.332    0.460   47.558  153.205
  415.000    6.176    0.357    0.453   45.546  153.005
  415.250    6.261    0.356    0.457   44.267  152.806
  415.500    6.311    0.351    0.437   41.462  152.097
  415.750    6.327    0.356    0.417   41.525  151.288
  416.000    6.317    0.359    0.433   41.222  150.681
  416.250    6.273    0.355    0.452   40.675  150.481
  416.500    6.207    0.354    0.434   40.128  150.486
  416.750    6.107    0.355    0.420   37.202  150.489
  417.000    6.030    0.361    0.425   34.762  150.697
  417.250    5.999    0.376    0.428   32.568  150.699
  417.500    5.968    0.378    0.427   35.011  150.703
  417.750    5.971    0.368    0.421   37.637  150.911
  418.000    6.030    0.363    0.426   39.958  151.015
  418.250    6.113    0.363    0.448   42.279  151.223
  418.500    6.220    0.366    0.472   42.770  151.430
  418.750    6.352    0.370    0.467   42.285  151.942
  419.000    6.475    0.373    0.440   42.103  152.455
  419.250    6.576    0.376    0.452   42.167  152.763
  419.500    6.628    0.373    0.488   43.267  153.072
  419.750    6.669    0.359    0.509   44.246  153.076
  420.000    6.710    0.349    0.491   44.980  153.079
  420.250    6.713    0.349    0.472   45.105  152.677
  420.500    6.654    0.357    0.459   44.130  152.375
  420.750    6.583    0.360    0.461   43.461  152.277
  421.000    6.501    0.358    0.447   46.637  152.179
  421.250    6.348    0.346    0.438   50.545  152.284
  421.500    6.118    0.330    0.443   56.772  152.288
  421.750    5.885    0.320    0.455   61.595  152.394
  422.000    5.536    0.333    0.463   67.700  152.295
  422.250    4.960    0.287    0.475   74.842  152.604
  422.500    4.834    0.267    0.507   82.899  153.727
  422.750    5.021    0.251    0.513   88.577  155.967
  423.000    5.137    0.259    0.508   89.372  158.107
  423.250    5.326    0.266    0.488   86.385  158.213
  423.500    5.490    0.263    0.474   85.105  157.302
  423.750    5.681    0.259    0.461   85.168  156.796
  424.000    5.867    0.256    0.464   83.584  156.597
  424.250    6.060    0.251    0.474   80.474  156.498
  424.500    6.259    0.245    0.464   80.293  157.112
  424.750    6.380    0.241    0.428   83.163  158.947
  425.000    6.468    0.239    0.419   85.118  161.087
  425.250    6.519    0.240    0.442   85.731  162.820
  425.500    6.498    0.241    0.463   85.672  163.433
  425.750    6.380    0.246    0.474   86.345  164.047
  426.000    6.242    0.245    0.461   85.554  163.339
  426.250    6.164    0.245    0.472   85.862  163.037
  426.500    6.133    0.246    0.481   87.085  163.753
  426.750    6.170    0.243    0.473   87.941  164.062
  427.000    6.185    0.239    0.461   88.126  163.353
  427.250    6.142    0.238    0.460   85.688  161.933
  427.500    6.145    0.238    0.467   83.798  160.818
  427.750    6.148    0.247    0.462   83.251  159.805
  428.000    6.082    0.260    0.456   86.610  160.114
  428.250    5.940    0.241    0.464   90.639  160.321
  428.500    5.843    0.244    0.477   93.022  159.206
  428.750    5.610    0.257    0.488   87.654  157.684
  429.000    5.337    0.270    0.495   83.628  157.382
  429.250    5.134    0.265    0.474   89.184  157.386
  429.500    4.865    0.263    0.473   92.786  157.593
  429.750    4.568    0.261    0.485   88.761  157.495
  430.000    4.386    0.260    0.500   84.553  157.194
  430.250    4.405    0.259    0.480   83.212  156.588
  430.500    4.549    0.268    0.450   84.923  156.184
  430.750    4.655    0.250    0.457   85.597  155.882
  431.000    4.727    0.247    0.480   86.026  155.784
  431.250    4.810    0.243    0.477   84.198  155.483
  431.500    4.786    0.236    0.465   82.552  155.385
  431.750    4.725    0.246    0.457   81.273  155.796
  432.000    4.580    0.246    0.451   86.035  156.410
  432.250    4.430    0.238    0.452   92.445  156.820
  432.500    4.278    0.235    0.456   97.146  156.722
  432.750    4.224    0.240    0.481   99.162  156.421
  433.000    4.404    0.246    0.488   96.784  155.407
  433.250    4.766    0.252    0.497   93.064  153.987
  433.500    5.081    0.259    0.508   87.207  152.465
  433.750    5.408    0.266    0.519   82.145  151.756
  434.000    5.648    0.285    0.528   76.044  151.862
  434.250    5.888    0.299    0.500   68.479  151.968
  434.500    6.069    0.313    0.462   63.355  152.175
  434.750    6.152    0.329    0.459   62.747  152.280
  435.000    6.167    0.329    0.453   65.129  152.284
  435.250    6.170    0.323    0.444   64.644  152.186
  435.500    6.173    0.324    0.434   63.608  151.884
  435.750    6.199    0.333    0.433   62.390  151.481
  436.000    6.261    0.349    0.448   61.477  151.180
  436.250    6.252    0.358    0.455   60.381  150.573
  436.500    6.279    0.352    0.454   58.613  150.577
  436.750    6.293    0.347    0.459   58.493  150.479
  437.000    6.285    0.342    0.449   58.862  150.483
  437.250    6.241    0.338    0.439   58.803  150.588
  437.500    6.209    0.334    0.433   58.195  150.286
  437.750    6.247    0.331    0.433   57.648  149.783
  438.000    6.500    0.327    0.434   57.345  149.785
  438.250    7.695    0.321    0.445   56.249  150.094
  438.500    9.282    0.315    0.457   52.345  151.217
  438.750   10.604    0.286    0.468   49.052  153.967
  439.000   11.958    0.248    0.175   45.271  155.902
  439.250   13.235    0.034    0.150   43.503  158.450
