~VERSION INFORMATION
 VERS.                 2.0:   CWLS LOG ASCII STANDARD -VERSION 2.0
 WRAP.                  NO:   ONE LINE PER DEPTH STEP
~WELL INFORMATION BLOCK
#MNEM.UNIT           DATA                    DESCRIPTION OF MNEMONIC
#---------    -------------------            -------------------------------
# Generated from Intellog Unique Number	CS_67_68/WELL/772
WELL.         BURNT LAKE                     : Well_name    - WELL
LOC .         00/07-16-068-03W4/0            : Location     - LOCATION
UWI .         00/07-16-068-03W4/0            : Uwi          - UNIQUE WELL ID
ENTR.         SP                             : Entered      - ENTERED BY
SRVC.         SCHLUMBERGER                   : Scn          - SERVICE COMPANY
STRT.M        370                            : top_depth    - START DEPTH
STOP.M        605                            : bot_depth    - STOP DEPTH
STEP.M        0.25                           : increment    - STEP LENGTH
 NULL. -999.2500:NULL Value
~CURVE INFORMATION BLOCK
#MNEM UNIT       ERCB CURVE CODE    CURVE DESCRIPTION
#-----------   ------------------   ----------------------------------
DEPT.M        00 001 00 00         : DEPTH        - DEPTH
ILD .OHMM     00 120 00 00         : RESD         - DEEP RESISTIVITY (DIL)
DPHI.V/V      00 890 00 00         : PHID         - DENSITY POROSITY (LIMESTONE)
NPHI.V/V      00 330 00 00         : PHIN         - NEUTRON POROSITY (LIMESTONE)
GR  .API      00 310 00 00         : GR           - GAMMA RAY
~PARAMETER INFORMATION
#MNEM.UNIT           DATA             DESCRIPTION OF MNEMONIC
#---------         -----------     ------------------------------
GL  .M        736.44               : gl           - GROUND LEVEL ELEVATION
EREF.M        740.9                : kb           - ELEVATION OF DEPTH REFERENCE
DATM.M        736.44               : datum        - DATUM ELEVATION
TDD .M        608                  : tdd          - TOTAL DEPTH DRILLER
RUN .         ONE                  : Run          - RUN NUMBER
ENG .         BILL                 : Engineer     - RECORDING ENGINEER
WIT .         JIM                  : Witness      - WITNESSED BY
MUD .         GEL                  : Mud_type     - MUD TYPE
MATR.         LIMESTONE            : Logunit      - NEUTRON MATRIX
TMAX.C        25.5                 : BHT          - MAXIMUM RECORDED TEMPERATURE
BHTD.M        608                  : BHTDEP       - MAXIMUM RECORDED TEMPERATURE
MATR.         1                    : LOGUNIT      - NEUTRON MATRIX
RMT .C        25                   : MDTP         - TEMPERATURE OF MUD
NEUT.         1                    : NEUTRON      - NEUTRON TYPE
RESI.         0                    : RESIST       - RESISTIVITY TYPE
RMC .OHMM     0.25                 : RMC          - RESISTIVITY OF MUD CAKE
RMF .OHMM     0.25                 : RMF          - RESISTIVITY OF MUD FILTRATE
SUFT.C        15                   : SUFT         - SURFACE TEMPERATURE
~A  DEPTH     RESD     PHID     PHIN       GR
# ...
  500.500    9.746    0.375    0.399   63.620
  500.750    8.891    0.353    0.425   65.146
  501.000    8.158    0.344    0.439   66.793
  501.250    7.556    0.337    0.447   67.827
  501.500    7.131    0.337    0.454   68.063
  501.750    6.744    0.344    0.463   65.655
  502.000    6.634    0.349    0.462   62.698
  502.250    6.664    0.355    0.460   59.861
  502.500    6.731    0.359    0.464   59.297
  502.750    6.941    0.362    0.469   59.041
  503.000    7.295    0.353    0.475   59.459
  503.250    7.903    0.320    0.466   59.634
  503.500    8.257    0.286    0.414   55.446
  503.750    8.662    0.249    0.384   52.365
  504.000    8.917    0.267    0.372   53.275
  504.250    8.789    0.332    0.410   55.842
  504.500    7.973    0.359    0.434   57.369
  504.750    7.441    0.372    0.444   58.770
  505.000    7.103    0.371    0.449   58.331
  505.250    6.858    0.363    0.456   54.571
  505.500    6.758    0.356    0.464   52.658
  505.750    6.673    0.353    0.461   51.234
  506.000    6.628    0.360    0.453   52.452
  506.250    6.733    0.365    0.446   56.004
  506.500    7.143    0.368    0.453   57.836
  506.750    8.004    0.369    0.469   58.623
  507.000    8.969    0.367    0.479   58.613
  507.250   10.012    0.358    0.460   57.619
  507.500   10.742    0.348    0.447   56.440
  507.750   11.483    0.341    0.452   55.325
  508.000   12.605    0.337    0.468   52.858
  508.250   13.626    0.334    0.475   53.645
  508.500   15.046    0.339    0.480   57.136
  508.750   15.192    0.350    0.470   57.555
  509.000   14.805    0.356    0.455   59.387
  509.250   10.353    0.351    0.441   68.588
  509.500    7.719    0.324    0.468   71.589
  509.750    6.194    0.297    0.497   74.833
  510.000    5.152    0.274    0.516   76.481
  510.250    5.059    0.295    0.505   78.682
  510.500    5.439    0.306    0.496   80.390
  510.750    6.187    0.319    0.488   80.748
  511.000    7.092    0.301    0.488   76.867
  511.250    7.769    0.312    0.502   73.356
  511.500    8.415    0.329    0.510   70.029
  511.750    9.080    0.342    0.492   67.376
  512.000    9.760    0.337    0.480   68.963
  512.250    9.748    0.329    0.460   76.322
  512.500    8.662    0.319    0.422   80.919
  512.750    7.917    0.303    0.417   84.962
  513.000    7.361    0.280    0.421   86.979
  513.250    6.869    0.270    0.431   85.125
  513.500    6.458    0.283    0.439   81.183
  513.750    6.050    0.297    0.448   77.978
  514.000    5.667    0.310    0.458   74.341
  514.250    5.219    0.319    0.451   71.692
  514.500    4.276    0.317    0.448   73.646
  514.750    3.451    0.295    0.470   80.331
  515.000    2.865    0.280    0.486   85.908
  515.250    2.604    0.270    0.500   86.882
  515.500    2.389    0.284    0.522   81.957
  515.750    2.188    0.312    0.547   77.277
  516.000    2.038    0.331    0.566   73.828
  516.250    1.986    0.319    0.588   70.622
  516.500    1.950    0.307    0.572   68.954
  516.750    1.940    0.316    0.557   71.093
  517.000    1.953    0.329    0.552   75.014
  517.250    1.984    0.325    0.571   75.371
  517.500    2.015    0.325    0.562   74.132
  517.750    2.086    0.330    0.548   72.892
  518.000    2.217    0.330    0.539   72.821
  518.250    2.357    0.327    0.537   73.792
  518.500    2.491    0.323    0.537   76.358
  518.750    2.554    0.316    0.544   78.130
  519.000    2.551    0.316    0.538   79.841
  519.250    2.468    0.314    0.529   82.103
  519.500    2.429    0.300    0.529   83.260
  519.750    2.434    0.288    0.534   82.941
  520.000    2.463    0.279    0.526   81.272
  520.250    2.507    0.289    0.522   78.683
  520.500    2.595    0.295    0.530   77.444
  520.750    2.651    0.293    0.540   80.626
  521.000    2.703    0.291    0.530   81.537
  521.250    2.752    0.287    0.506   81.464
  521.500    2.774    0.281    0.480   80.715
  521.750    2.792    0.273    0.459   80.522
  522.000    2.815    0.269    0.469   81.617
  522.250    2.854    0.269    0.484   83.325
  522.500    2.916    0.273    0.511   84.053
  522.750    3.076    0.276    0.527   83.612
  523.000    3.275    0.272    0.517   77.887
  523.250    3.862    0.269    0.482   75.483
  523.500    4.910    0.268    0.469   77.990
  523.750    6.162    0.274    0.450   78.654
  524.000    7.211    0.288    0.426   77.046
  524.250    7.810    0.299    0.396   73.105
  524.500    8.147    0.299    0.358   70.144
  524.750    8.213    0.300    0.350   68.783
  525.000    8.188    0.307    0.387   68.342
  525.250    7.743    0.303    0.403   68.209
  525.500    7.198    0.296    0.414   68.076
  525.750    6.384    0.288    0.417   68.372
  526.000    5.803    0.282    0.400   70.573
  526.250    5.456    0.279    0.403   74.678
  526.500    4.979    0.276    0.436   80.070
  526.750    4.850    0.270    0.435   82.887
  527.000    4.630    0.256    0.430   86.070
  527.250    4.721    0.242    0.433   89.131
  527.500    5.567    0.233    0.388   88.321
  527.750    6.868    0.248    0.362   78.789
  528.000    8.424    0.258    0.350   71.348
  528.250   10.692    0.247    0.337   62.000
  528.500   12.301    0.197    0.322   56.585
  528.750   12.734    0.117    0.328   56.143
  529.000   12.694    0.153    0.356   59.142
  529.250   12.655    0.261    0.360   63.184
  529.500   12.711    0.296    0.345   65.754
  529.750   13.010    0.316    0.308   66.051
  530.000   13.068    0.328    0.284   65.426
  530.250   12.404    0.367    0.264   62.590
  530.500   11.862    0.390    0.284   59.569
  530.750   12.537    0.364    0.310   59.559
  531.000   13.917    0.331    0.319   55.187
  531.250   15.951    0.349    0.274   52.228
  531.500   19.348    0.387    0.251   52.769
  531.750   24.095    0.406    0.238   56.136
  532.000   28.305    0.401    0.232   58.031
  532.250   30.542    0.395    0.237   60.600
  532.500   28.448    0.388    0.246   62.125
  532.750   26.647    0.389    0.243   60.579
  533.000   25.151    0.391    0.259   60.139
  533.250   24.009    0.370    0.279   66.943
  533.500   23.352    0.353    0.289   68.655
  533.750   22.931    0.367    0.271   65.633
  534.000   23.076    0.395    0.251   62.858
  534.250   23.094    0.408    0.241   60.944
  534.500   22.462    0.395    0.266   64.371
  534.750   20.962    0.385    0.289   65.959
  535.000   18.945    0.378    0.301   66.378
  535.250   17.612    0.370    0.299   65.324
  535.500   15.595    0.365    0.301   67.892
  535.750   14.825    0.356    0.325   72.734
  536.000   13.550    0.344    0.373   74.381
  536.250   12.410    0.334    0.351   74.187
  536.500   11.668    0.325    0.336   73.992
  536.750   11.075    0.319    0.321   74.903
  537.000   10.512    0.304    0.347   75.507
  537.250   10.168    0.295    0.355   75.434
  537.500    9.835    0.279    0.348   71.983
  537.750    9.621    0.267    0.343   68.902
  538.000    9.324    0.258    0.343   72.084
  538.250    9.018    0.273    0.388   74.039
  538.500    8.561    0.279    0.419   77.407
  538.750    8.248    0.288    0.430   81.572
  539.000    7.755    0.304    0.432   83.651
  539.250    7.529    0.293    0.439   84.746
  539.500    7.707    0.285    0.454   80.743
  539.750    7.876    0.300    0.467   71.703
  540.000    7.942    0.309    0.421   63.462
  540.250    7.900    0.296    0.383   60.871
  540.500    7.829    0.298    0.343   65.713
  540.750    7.631    0.326    0.344   63.122
  541.000    7.423    0.332    0.366   55.556
  541.250    7.316    0.313    0.390   55.422
  541.500    7.293    0.301    0.415   58.913
  541.750    7.381    0.308    0.385   64.492
  542.000    7.498    0.314    0.364   68.167
  542.250    7.661    0.300    0.350   57.468
  542.500    7.841    0.287    0.338   52.297
  542.750    7.935    0.269    0.330   51.796
  543.000    7.985    0.297    0.338   51.171
  543.250    7.827    0.331    0.351   47.843
  543.500    7.656    0.326    0.367   49.244
  543.750    7.546    0.319    0.376   54.210
