~VERSION INFORMATION
 VERS.                 2.0:   CWLS LOG ASCII STANDARD -VERSION 2.0
 WRAP.                  NO:   ONE LINE PER DEPTH STEP
~WELL INFORMATION BLOCK
#MNEM.UNIT           DATA                    DESCRIPTION OF MNEMONIC
#---------    -------------------            -------------------------------
# Generated from Intellog Unique Number	CN_91_93/WELL/1069
WELL.         PARAMOUNT RESOURCES LTD.       : Well_name    - WELL
LOC .         00/04-07-091-19W4/0            : Location     - LOCATION
UWI .         00/04-07-091-19W4/0            : Uwi          - UNIQUE WELL ID
ENTR.         JOETTE                         : Entered      - ENTERED BY
SRVC.         SCHLUMBERGER                   : Scn          - SERVICE COMPANY
DATE.         01/31/92                       : Date         - LOG DATE
STRT.F        295.276                        : top_depth    - START DEPTH
STOP.F        761.155                        : bot_depth    - STOP DEPTH
STEP.F        0.82                           : increment    - STEP LENGTH
 NULL. -999.2500:NULL Value
~CURVE INFORMATION BLOCK
#MNEM UNIT       ERCB CURVE CODE    CURVE DESCRIPTION
#-----------   ------------------   ----------------------------------
DEPT.F        00 001 00 00         : DEPTH        - DEPTH
ILD .OHMM     00 120 00 00         : RESD         - DEEP RESISTIVITY (DIL)
DPHI.V/V      00 890 00 00         : PHID         - DENSITY POROSITY (SANDSTONE)
NPHI.V/V      00 330 00 00         : PHIN         - NEUTRON POROSITY (SANDSTONE)
CALI.IN       00 280 01 00         : CAL          - CALIPER
GR  .API      00 310 00 00         : GR           - GAMMA RAY
~PARAMETER INFORMATION
#MNEM.UNIT           DATA             DESCRIPTION OF MNEMONIC
#---------         -----------     ------------------------------
GL  .F        1674.54              : gl           - GROUND LEVEL ELEVATION
EREF.F        1684.71              : kb           - ELEVATION OF DEPTH REFERENCE
DATM.F        1684.71              : datum        - DATUM ELEVATION
TDD .F        766.404              : tdd          - TOTAL DEPTH DRILLER
RUN .         ONE                  : Run          - RUN NUMBER
ENG .         JO                   : Engineer     - RECORDING ENGINEER
WIT .         TIM                  : Witness      - WITNESSED BY
MUD .         GEL                  : Mud_type     - MUD TYPE
MATR.         SANDSTONE            : Logunit      - NEUTRON MATRIX
TMAX.F        71.6                 : BHT          - MAXIMUM RECORDED TEMPERATURE
BHTD.F        766.404              : BHTDEP       - MAXIMUM RECORDED TEMPERATURE
RMT .F        53.6                 : MDTP         - TEMPERATURE OF MUD
MUDD.LB/G     9.5                  : MWT          - MUD DENSITY
NEUT.         1                    : NEUTRON      - NEUTRON TYPE
RESI.         0                    : RESIST       - RESISTIVITY TYPE
RM  .OHMM     1.5                  : RM           - RESISTIVITY OF MUD
RMC .OHMM     6.5                  : RMC          - RESISTIVITY OF MUD CAKE
RMF .OHMM     5.7                  : RMF          - RESISTIVITY OF MUD FILTRATE
SUFT.F        39.2                 : SUFT         - SURFACE TEMPERATURE
~A  DEPTH     RESD     PHID     PHIN      CAL       GR
# ...
  534.777   19.383    0.212    0.402    6.266  100.177
  535.597   18.872    0.191    0.380    6.266   99.629
  536.417   18.246    0.191    0.381    6.270   99.951
  537.238   17.642    0.188    0.391    6.311  101.161
  538.058   17.059    0.179    0.395    6.332  102.663
  538.878   16.838    0.177    0.399    6.332  103.571
  539.698   17.200    0.157    0.408    6.337   91.298
  540.518   17.939    0.103    0.413    6.320   86.352
  541.339   18.971    0.059    0.412    6.323   84.042
  542.159   19.513    0.076    0.411    6.305   87.009
  542.979   20.073    0.099    0.407    6.309   87.042
  543.799   20.791    0.115    0.402    6.272   86.499
  544.619   20.791    0.162    0.388    6.272   87.700
  545.440   21.558    0.171    0.368    6.256   90.072
  546.260   22.634    0.194    0.358    6.181   95.094
  547.080   23.442    0.209    0.361    6.145   92.198
  547.900   23.948    0.232    0.364    6.147   90.177
  548.720   24.468    0.242    0.362    6.150   89.336
  549.541   24.823    0.232    0.360    6.172   89.073
  550.361   25.891    0.185    0.329    6.173   82.369
  551.181   28.730    0.150    0.305    6.177   66.580
  552.001   29.147    0.104    0.283    6.178   59.588
  552.822   28.379    0.038    0.286    6.200   66.354
  553.642   27.061    0.029    0.311    6.202   78.695
  554.462   24.430    0.107    0.345    6.205   91.031
  555.282   23.946    0.149    0.376    6.187   98.396
  556.102   23.315    0.151    0.386    6.187   97.551
  556.923   22.539    0.173    0.393    6.192   97.287
  557.743   22.555    0.183    0.405    6.193  100.250
  558.563   22.113    0.157    0.406    6.196   97.359
  559.383   21.384    0.148    0.404    6.217   99.451
  560.203   21.251    0.162    0.399    6.239   98.016
  561.024   21.265    0.175    0.379    6.239   94.534
  561.844   21.280    0.102    0.380    6.244   90.459
  562.664   21.300    0.065    0.382    6.207   95.183
  563.484   21.607    0.085    0.383    6.207  103.418
  564.304   21.923    0.170    0.390    6.211  109.901
  565.125   22.711    0.189    0.392    6.211  104.377
  565.945   23.686    0.183    0.384    6.197   99.134
  566.765   24.700    0.161    0.359    6.160   93.016
  567.585   26.481    0.130    0.342    6.165   85.132
  568.406   28.001    0.144    0.320    6.146   82.240
  569.226   28.410    0.120    0.314    6.146   81.981
  570.046   28.235    0.096    0.329    6.152   83.186
  570.866   27.113    0.148    0.338    6.153   86.446
  571.686   26.036    0.217    0.348    6.153   89.991
  572.507   25.005    0.221    0.358    6.177   97.347
  573.327   24.677    0.225    0.366    6.198  102.365
  574.147   23.860    0.227    0.367    6.219   96.540
  574.967   23.551    0.225    0.362    6.240   92.765
  575.787   23.250    0.217    0.358    6.240   93.971
  576.608   23.108    0.184    0.357    6.283   96.933
  577.428   23.285    0.180    0.362    6.343  101.658
  578.248   23.302    0.181    0.370    6.269  104.035
  579.068   23.805    0.180    0.379    6.175   99.963
  579.888   24.151    0.194    0.375    6.139   94.724
  580.709   24.335    0.173    0.369    6.122   92.711
  581.529   24.025    0.149    0.362    6.122   89.523
  582.349   23.229    0.167    0.367    6.126   91.900
  583.169   22.769    0.193    0.384    6.186   97.499
  583.990   22.769    0.207    0.390    6.186   99.876
  584.810   22.646    0.199    0.397    6.211  100.788
  585.630   22.049    0.162    0.397    6.231   93.205
  586.450   22.371    0.142    0.377    6.235   89.732
  587.270   22.696    0.103    0.361    6.235   90.929
  588.091   22.561    0.173    0.365    6.239   95.068
  588.911   22.421    0.185    0.369    6.240  100.081
  589.731   22.283    0.180    0.354    6.242   91.616
  590.551   20.819    0.148    0.346    6.245   85.205
  591.371   18.153    0.096    0.384    6.209   85.824
  592.192   16.161    0.183    0.409    6.209   95.528
  593.012   14.191    0.217    0.436    6.213  101.420
  593.832   12.720    0.224    0.459    6.213  112.003
  594.652   12.731    0.214    0.471    6.218  112.037
  595.472   13.461    0.207    0.462    6.220  106.216
  596.293   14.529    0.188    0.432    6.223  103.609
  597.113   16.232    0.161    0.413    6.225   98.370
  597.933   18.138    0.140    0.388    6.207   93.717
  598.753   19.714    0.125    0.393    6.211   91.993
  599.573   20.560    0.184    0.399    6.211   97.596
  600.394   20.575    0.168    0.393    6.211   93.525
  601.214   20.170    0.105    0.398    6.216   90.047
  602.034   19.774    0.110    0.420    6.199   88.620
  602.854   19.384    0.156    0.426    6.163   90.403
  603.675   19.396    0.200    0.425    6.165  100.107
  604.495   19.817    0.198    0.421    6.165  102.777
  605.315   20.387    0.188    0.416    6.151  102.811
  606.135   21.115    0.160    0.376    6.133   93.178
  606.955   22.484    0.097    0.342    6.116   83.545
  607.776   23.936    0.015    0.315    6.118   78.013
  608.596   25.837    0.107    0.337    6.140   83.612
  609.416   26.398    0.167    0.352    6.142   94.776
  610.236   25.703    0.208    0.361    6.145   93.638
  611.056   24.507    0.218    0.371    6.127   97.488
  611.877   25.037    0.208    0.362    6.129   91.659
  612.697   26.659    0.175    0.339    6.112   87.592
  613.517   27.995    0.166    0.333    6.096   82.934
  614.337   29.403    0.163    0.326    6.096   78.289
  615.157   29.422    0.167    0.333    6.101   76.264
  615.978   29.239    0.192    0.337    6.083   79.817
  616.798   29.465    0.224    0.343    6.027   83.658
  617.618   29.893    0.218    0.352    5.991   84.282
  618.438   30.542    0.174    0.347    5.936   81.679
  619.259   31.855    0.128    0.327    5.938   78.779
  620.079   32.995    0.114    0.310    5.940   68.268
  620.899   33.474    0.111    0.313    5.943   62.736
  621.719   33.268    0.210    0.338    5.945   61.020
  622.539   32.389    0.228    0.355    5.949   59.296
  623.360   31.535    0.241    0.341    5.950   56.396
  624.180   31.773    0.247    0.331    5.932   53.785
  625.000   32.687    0.249    0.319    5.936   56.170
  625.820   33.856    0.247    0.303    5.937   58.250
  626.640   35.309    0.152    0.286    5.939   58.576
  627.461   36.825    0.039    0.272    5.960   58.321
  628.281   38.142    0.014    0.252    6.001   58.351
  629.101   39.243    0.032    0.276    6.081   61.318
  629.921   40.087    0.104    0.293    6.081   64.280
  630.741   37.448    0.139    0.315    6.163   67.536
  631.562   34.505    0.167    0.333    6.241   71.671
  632.382   31.576    0.205    0.354    6.263   79.324
  633.202   26.788    0.207    0.364    6.264   89.024
  634.022   24.346    0.198    0.359    6.268   99.022
  634.843   22.904    0.141    0.363    6.269   92.025
  635.663   22.904    0.107    0.372    6.233   83.271
  636.483   22.789    0.065    0.378    6.237   83.308
  637.303   22.793    0.119    0.382    6.218   88.029
  638.123   22.793    0.144    0.382    6.201   92.452
  638.944   22.833    0.176    0.381    6.184   94.247
  639.764   22.843    0.124    0.380    6.186   89.594
  640.584   22.087    0.117    0.389    6.189   90.799
  641.404   21.507    0.140    0.392    6.191   95.812
  642.224   21.523    0.189    0.395    6.193  100.537
  643.045   21.837    0.187    0.403    6.193   98.236
  643.865   22.008    0.176    0.412    6.198   96.796
  644.685   22.020    0.160    0.419    6.200   95.369
  645.505   21.883    0.153    0.413    6.200   94.223
  646.325   21.458    0.163    0.404    6.223   92.214
  647.146   21.180    0.176    0.397    6.245   91.666
  647.966   21.205    0.188    0.394    6.267   94.620
  648.786   21.066    0.176    0.388    6.268  100.512
  649.606   20.936    0.145    0.393    6.268   99.081
  650.427   20.952    0.081    0.407    6.293   92.679
  651.247   20.963    0.097    0.415    6.256   92.122
  652.067   20.981    0.131    0.417    6.220   95.085
  652.887   20.998    0.149    0.411    6.203  100.688
  653.707   21.015    0.162    0.408    6.186  100.722
