~VERSION INFORMATION
 VERS.                 2.0:   CWLS LOG ASCII STANDARD -VERSION 2.0
 WRAP.                  NO:   ONE LINE PER DEPTH STEP
~WELL INFORMATION BLOCK
#MNEM.UNIT           DATA                    DESCRIPTION OF MNEMONIC
#---------    -------------------            -------------------------------
# Generated from Intellog Unique Number	CS_77_79/WELL/840
WELL.         DOME COWPAR                    : Well_name    - WELL
LOC .         00/02-17-079-03W4/0            : Location     - LOCATION
UWI .         00/02-17-079-03W4/0            : Uwi          - UNIQUE WELL ID
ENTR.         JHS                            : Entered      - ENTERED BY
SRVC.         SCHLUMBERGER                   : Scn          - SERVICE COMPANY
STRT.M        140                            : top_depth    - START DEPTH
STOP.M        400                            : bot_depth    - STOP DEPTH
STEP.M        0.25                           : increment    - STEP LENGTH
 NULL. -999.2500:NULL Value
~CURVE INFORMATION BLOCK
#MNEM UNIT       ERCB CURVE CODE    CURVE DESCRIPTION
#-----------   ------------------   ----------------------------------
DEPT.M        00 001 00 00         : DEPTH        - DEPTH
DPHI.V/V      00 890 00 00         : PHID         - DENSITY POROSITY (LIMESTONE)
NPHI.V/V      00 330 00 00         : PHIN         - NEUTRON POROSITY (LIMESTONE)
GR  .API      00 310 00 00         : GR           - GAMMA RAY
ILD .OHMM     00 120 00 00         : RESD         - DEEP RESISTIVITY (DIL)
RHOB.KG/M3    00 350 00 00         : DENS         - BULK DENSITY
~PARAMETER INFORMATION
#MNEM.UNIT           DATA             DESCRIPTION OF MNEMONIC
#---------         -----------     ------------------------------
GL  .M        549.2                : gl           - GROUND LEVEL ELEVATION
EREF.M        553.1                : kb           - ELEVATION OF DEPTH REFERENCE
DATM.M        553.1                : datum        - DATUM ELEVATION
TDD .M        402                  : tdd          - TOTAL DEPTH DRILLER
RUN .         ONE                  : Run          - RUN NUMBER
ENG .         BILL                 : Engineer     - RECORDING ENGINEER
WIT .         JIM                  : Witness      - WITNESSED BY
MUD .         GEL                  : Mud_type     - MUD TYPE
MATR.         LIMESTONE            : Logunit      - NEUTRON MATRIX
TMAX.C        24.4                 : BHT          - MAXIMUM RECORDED TEMPERATURE
BHTD.M        402                  : BHTDEP       - MAXIMUM RECORDED TEMPERATURE
MATR.         1                    : LOGUNIT      - NEUTRON MATRIX
RMT .C        25                   : MDTP         - TEMPERATURE OF MUD
NEUT.         1                    : NEUTRON      - NEUTRON TYPE
RESI.         0                    : RESIST       - RESISTIVITY TYPE
RMC .OHMM     0.25                 : RMC          - RESISTIVITY OF MUD CAKE
RMF .OHMM     0.25                 : RMF          - RESISTIVITY OF MUD FILTRATE
SUFT.C        15                   : SUFT         - SURFACE TEMPERATURE
~A  DEPTH     PHID     PHIN       GR     RESD     DENS
# ...
  286.000    0.089    0.381   77.841    7.269 2557.300
  286.250    0.083    0.349   84.520    7.405 2567.630
  286.500    0.162    0.353   91.805    7.270 2433.170
  286.750    0.265    0.416   96.661    6.625 2257.340
  287.000    0.256    0.480   97.266    5.818 2271.810
  287.250    0.230    0.508   94.836    5.015 2317.310
  287.500    0.220    0.541   88.154    4.323 2333.860
  287.750    0.225    0.557   77.828    4.323 2325.570
  288.000    0.203    0.503   79.648    4.405 2362.800
  288.250    0.218    0.492   82.075    4.487 2337.970
  288.500    0.267    0.516   81.466    4.745 2253.160
  288.750    0.274    0.527   80.856    4.925 2240.740
  289.000    0.274    0.503   82.069    4.925 2240.730
  289.250    0.270    0.492   83.890    4.925 2249.000
  289.500    0.278    0.518   83.887    4.835 2234.520
  289.750    0.291    0.539   82.670    4.659 2211.760
  290.000    0.285    0.520   80.847    4.489 2222.090
  290.250    0.268    0.516   82.667    4.407 2251.040
  290.500    0.265    0.526   85.095    4.490 2257.240
  290.750    0.255    0.531   85.699    4.574 2273.790
  291.000    0.248    0.537   85.090    4.660 2286.190
  291.250    0.268    0.532   85.089    4.837 2251.020
  291.500    0.250    0.513   85.087    5.114 2282.040
  291.750    0.251    0.512   86.300    5.509 2279.970
  292.000    0.241    0.498   86.297    5.718 2298.580
  292.250    0.224    0.496   86.296    5.825 2327.530
  292.500    0.209    0.490   85.079    5.825 2352.340
  292.750    0.277    0.483   82.041    5.719 2236.500
  293.000    0.267    0.473   85.075    5.310 2253.040
  293.250    0.261    0.463   87.503    4.930 2263.380
  293.500    0.241    0.468   88.715    4.493 2298.540
  293.750    0.241    0.504   86.891    4.172 2298.530
  294.000    0.266    0.518   84.461    3.596 2255.090
  294.250    0.252    0.531   83.851    2.987 2279.900
  294.500    0.261    0.554   83.850    2.481 2263.350
  294.750    0.288    0.579   82.025    2.138 2217.830
  295.000    0.278    0.610   79.595    1.985 2234.370
  295.250    0.268    0.607   79.593    1.985 2250.910
  295.500    0.276    0.587   82.020    2.061 2238.500
  295.750    0.284    0.577   84.448    2.139 2224.010
  296.000    0.287    0.585   86.267    2.100 2219.870
  296.250    0.270    0.591   83.836    2.061 2248.820
  296.500    0.262    0.577   82.013    2.220 2261.220
  296.750    0.254    0.577   78.974    2.391 2275.700
  297.000    0.239    0.582   77.757    2.724 2300.510
  297.250    0.236    0.543   78.363    3.219 2306.710
  297.500    0.239    0.494   81.397    3.533 2300.500
  297.750    0.227    0.484   83.825    3.877 2321.180
  298.000    0.226    0.495   83.216    4.099 2323.240
  298.250    0.220    0.518   80.784    4.498 2333.580
  298.500    0.210    0.510   80.176    4.936 2350.120
  298.750    0.213    0.490   82.603    5.123 2345.980
  299.000    0.241    0.473   81.994    5.317 2298.390
  299.250    0.232    0.452   82.599    5.219 2312.870
  299.500    0.227    0.461   87.455    5.124 2321.140
  299.750    0.243    0.478   91.704    4.584 2294.240
  300.000    0.244    0.538   95.346    3.482 2292.540
  300.250    0.226    0.510   94.173    3.356 2323.800
  300.500    0.216    0.508   94.204    3.235 2340.530
  300.750    0.226    0.514   94.841    3.176 2324.020
  301.000    0.204    0.504   94.266    3.119 2361.530
  301.250    0.198    0.504   93.685    3.120 2372.010
  301.500    0.227    0.513   91.900    3.063 2322.270
  301.750    0.222    0.521   91.322    3.065 2330.690
  302.000    0.219    0.533   91.349    3.066 2334.970
  302.250    0.217    0.516   90.775    3.010 2339.200
  302.500    0.202    0.509   93.237    3.068 2364.240
  302.750    0.208    0.528   92.059    3.185 2353.960
  303.000    0.240    0.534   89.050    3.433 2300.070
  303.250    0.223    0.534   86.044    3.700 2329.260
  303.500    0.226    0.498   83.650    3.914 2323.140
  303.750    0.242    0.465   82.468    4.297 2296.250
  304.000    0.226    0.444   83.104    4.380 2323.350
  304.250    0.220    0.433   83.747    4.382 2333.860
  304.500    0.209    0.437   84.389    4.383 2352.660
  304.750    0.202    0.466   86.237    4.385 2365.230
  305.000    0.199    0.486   88.695    4.387 2369.500
  305.250    0.203    0.486   85.086    4.470 2363.360
  305.500    0.217    0.453   82.081    4.909 2338.540
  305.750    0.207    0.430   79.077    5.290 2355.270
  306.000    0.166    0.413   73.034    5.595 2426.000
  306.250    0.114    0.386   65.778    5.598 2515.410
  306.500    0.093    0.352   61.557    5.102 2550.820
  306.750    0.184    0.351   67.058    4.398 2395.170
  307.000    0.242    0.427   70.733    3.790 2295.590
  307.250    0.269    0.446   71.376    3.267    0.000
  307.500    0.258    0.447   73.231    2.764 2268.820
  307.750    0.243    0.458   75.081    2.427 2293.840
  308.000    0.240    0.479   75.113    2.340 2300.190
  308.250    0.255    0.493   77.572    2.429 2273.280
  308.500    0.250    0.496   81.854    2.475 2281.720
  308.750    0.242    0.502   84.921    2.523 2296.360
  309.000    0.232    0.498   86.775    2.719 2313.070
  309.250    0.221    0.477   84.381    2.930 2331.880
  309.500    0.221    0.449   81.374    3.100 2331.980
  309.750    0.233    0.421   75.939    3.159 2311.340
  310.000    0.238    0.404   71.722    3.280 2303.120
  310.250    0.218    0.393   70.538    3.343 2336.460
  310.500    0.198    0.386   71.176    3.407 2371.880
  310.750    0.205    0.393   74.246    3.346 2359.520
  311.000    0.206    0.404   73.063    3.225 2357.550
  311.250    0.193    0.406   70.663    3.166 2380.510
  311.500    0.219    0.395   65.231    3.052 2334.930
  311.750    0.253    0.383   62.839    2.887 2276.890
  312.000    0.258    0.376   62.869    2.681 2268.680
  312.250    0.242    0.396   62.291    2.536 2295.790
  312.500    0.263    0.400   59.893    2.537 2260.610
  312.750    0.259    0.390   56.282    2.586 2266.930
  313.000    0.266    0.387   54.489    2.635 2254.590
  313.250    0.253    0.389   58.167    2.588 2277.540
  313.500    0.253    0.386   61.236    2.494 2277.650
  313.750    0.243    0.395   60.050    2.404 2294.370
  314.000    0.265    0.396   57.049    2.317 2257.090
  314.250    0.264    0.390   49.185    2.151 2259.290
  314.500    0.268    0.389   44.361    2.073 2251.090
  314.750    0.296    0.381   43.784    1.890 2203.420
  315.000    0.286    0.367   44.426    1.855 2220.140
  315.250    0.291    0.375   44.456    1.856 2211.940
  315.500    0.281    0.390   42.668    1.892 2228.670
  315.750    0.297    0.385   43.305    1.964 2201.790
  316.000    0.290    0.383   45.153    2.117 2214.350
  316.250    0.272    0.377   45.799    2.198 2245.610
  316.500    0.281    0.375   48.256    2.325 2229.100
  316.750    0.262    0.375   54.361    2.370 2262.450
  317.000    0.248    0.378   55.612    2.415 2285.390
  317.250    0.237    0.370   53.818    2.416 2304.220
  317.500    0.254    0.367   52.637    2.329 2275.230
  317.750    0.240    0.376   52.057    2.244 2300.280
  318.000    0.254    0.380   49.057    2.204 2275.450
  318.250    0.270    0.372   48.479    2.124 2248.570
  318.500    0.269    0.374   51.555    2.086 2250.750
  318.750    0.276    0.373   54.011    2.048 2238.390
  319.000    0.259    0.373   54.653    2.049 2267.600
  319.250    0.250    0.381   52.254    2.011 2282.220
  319.500    0.278    0.398   48.643    1.903 2234.580
  319.750    0.263    0.403   46.239    1.834 2259.610
  320.000    0.260    0.398   43.239    1.801 2265.940
  320.250    0.284    0.399   42.665    1.736 2224.510
  320.500    0.297    0.392   43.297    1.705 2201.780
  320.750    0.300    0.385   45.155    1.737 2197.730
  321.000    0.301    0.383   46.398    1.804 2195.770
  321.250    0.291    0.382   50.686    1.944 2212.480
  321.500    0.279    0.389   54.967    2.056 2233.360
  321.750    0.282    0.377   56.820    2.096 2227.260
  322.000    0.283    0.358   59.885    2.096 2225.280
  322.250    0.279    0.360   60.525    2.058 2233.720
