~VERSION INFORMATION
 VERS.                 2.0:   CWLS LOG ASCII STANDARD -VERSION 2.0
 WRAP.                  NO:   ONE LINE PER DEPTH STEP
~WELL INFORMATION BLOCK
#MNEM.UNIT           DATA                    DESCRIPTION OF MNEMONIC
#---------    -------------------            -------------------------------
# Generated from Intellog Unique Number	CW_76_78/WELL/642
WELL.         07-32-077-22W4                 : Well_name    - WELL
LOC .         00/07-32-077-22W4/0            : Location     - LOCATION
UWI .         00/07-32-077-22W4/0            : Uwi          - UNIQUE WELL ID
ENTR.         jj                             : Entered      - ENTERED BY
SRVC.         WESTERN ATLAS                  : Scn          - SERVICE COMPANY
DATE.         06 MAR 1983                    : Date         - LOG DATE
STRT.M        300                            : top_depth    - START DEPTH
STOP.M        537                            : bot_depth    - STOP DEPTH
STEP.M        0.25                           : increment    - STEP LENGTH
 NULL. -999.2500:NULL Value
~CURVE INFORMATION BLOCK
#MNEM UNIT       ERCB CURVE CODE    CURVE DESCRIPTION
#-----------   ------------------   ----------------------------------
DEPT.M        00 001 00 00         : DEPTH        - DEPTH
ILD .OHMM     00 120 00 00         : RESD         - DEEP RESISTIVITY (DIL)
DPHI.V/V      00 890 00 00         : PHID         - DENSITY POROSITY (SANDSTONE)
NPHI.V/V      00 330 00 00         : PHIN         - NEUTRON POROSITY (SANDSTONE)
GR  .API      00 310 00 00         : GR           - GAMMA RAY
CALI.MM       00 280 01 00         : CAL          - CALIPER
~PARAMETER INFORMATION
#MNEM.UNIT           DATA             DESCRIPTION OF MNEMONIC
#---------         -----------     ------------------------------
GL  .M        630.9                : gl           - GROUND LEVEL ELEVATION
EREF.M        635.4                : kb           - ELEVATION OF DEPTH REFERENCE
DATM.M        630.9                : datum        - DATUM ELEVATION
TDD .M        537                  : tdd          - TOTAL DEPTH DRILLER
RUN .         ONE                  : Run          - RUN NUMBER
ENG .         RUTHERFORD           : Engineer     - RECORDING ENGINEER
WIT .         RAGHER               : Witness      - WITNESSED BY
BASE.         RED DEER             : Branch       - HOME BASE OF LOGGING UNIT
MUD .         GEL CHEM             : Mud_type     - MUD TYPE
MATR.         SANDSTONE            : Logunit      - NEUTRON MATRIX
TMAX.C        27                   : BHT          - MAXIMUM RECORDED TEMPERATURE
BHTD.M        536                  : BHTDEP       - MAXIMUM RECORDED TEMPERATURE
RMT .C        17                   : MDTP         - TEMPERATURE OF MUD
MUDD.KG/M     1055                 : MWT          - MUD DENSITY
NEUT.         1                    : NEUTRON      - NEUTRON TYPE
RESI.         0                    : RESIST       - RESISTIVITY TYPE
RM  .OHMM     0.4                  : RM           - RESISTIVITY OF MUD
RMC .OHMM     0.44                 : RMC          - RESISTIVITY OF MUD CAKE
RMF .OHMM     0.34                 : RMF          - RESISTIVITY OF MUD FILTRATE
SUFT.C        4.5                  : SUFT         - SURFACE TEMPERATURE
~A  DEPTH     RESD     PHID     PHIN       GR      CAL
  300.000    2.555    0.225    0.483   92.557  171.926
  300.250    2.580    0.242    0.485   90.353  171.597
  300.500    2.620    0.244    0.487   89.653  171.058
  300.750    2.655    0.235    0.489   90.709  170.310
  301.000    2.646    0.224    0.476   93.333  170.083
  301.250    2.622    0.213    0.475   96.145  169.545
  301.500    2.593    0.215    0.457   97.013  169.842
  301.750    2.545    0.230    0.454   97.066  169.511
  302.000    2.541    0.242    0.454   96.428  169.286
  302.250    2.527    0.258    0.457   96.857  169.479
  302.500    2.514    0.252    0.461   97.538  169.462
  302.750    2.486    0.245    0.466   97.778  169.759
  303.000    2.454    0.234    0.460   97.079  170.474
  303.250    2.482    0.226    0.443   95.251  171.503
  303.500    2.569    0.220    0.437   94.112  170.964
  303.750    2.618    0.220    0.434   96.735  169.797
  304.000    2.609    0.223    0.430   98.231  169.572
  304.250    2.610    0.228    0.431   96.841  170.392
  304.500    2.610    0.257    0.450   94.825  171.630
  304.750    2.611    0.283    0.469   92.181  172.658
  305.000    2.631    0.295    0.475   89.726  173.373
  305.250    2.642    0.278    0.447   87.521  174.924
  305.500    2.688    0.253    0.423   84.250  174.699
  305.750    2.770    0.258    0.397   79.286  173.951
  306.000    3.062    0.285    0.364   74.072  171.425
  306.250    3.541    0.283    0.284   58.636  167.856
  306.500    4.907    0.289    0.306   42.823  163.554
  306.750    6.306    0.313    0.321   44.443  162.387
  307.000    7.129    0.332    0.346   48.132  161.535
  307.250    8.106    0.329    0.354   49.816  161.519
  307.500    8.694    0.323    0.377   50.935  160.979
  307.750    8.679    0.316    0.390   52.807  160.752
  308.000    8.503    0.315    0.385   54.740  160.736
  308.250    8.206    0.315    0.374   54.104  160.721
  308.500    8.224    0.319    0.367   52.651  161.019
  308.750    8.445    0.319    0.372   51.012  161.107
  309.000    8.624    0.313    0.387   49.810  161.298
  309.250    8.741    0.308    0.399   50.866  161.596
  309.500    8.776    0.306    0.398   52.110  161.370
  309.750    8.778    0.307    0.381   51.787  161.353
  310.000    8.698    0.312    0.362   51.025  161.128
  310.250    8.554    0.321    0.366   50.889  161.216
  310.500    8.412    0.326    0.386   50.315  161.198
  310.750    8.319    0.325    0.392   49.364  161.393
  311.000    8.089    0.319    0.351   49.731  161.270
  311.250    7.821    0.310    0.329   52.417  161.568
  311.500    7.310    0.300    0.380   57.423  163.328
  311.750    6.884    0.287    0.410   63.121  166.030
  312.000    6.410    0.274    0.424   73.019  170.611
  312.250    5.913    0.303    0.404   79.968  181.883
  312.500    5.372    0.359    0.408   81.903  191.690
  312.750    4.754    0.412    0.425   83.148  204.738
  313.000    4.036    0.520    0.429   78.937  212.665
  313.250    3.552    0.539    0.400   73.847  216.724
  313.500    3.173    0.497    0.440   73.148  210.333
  313.750    2.926    0.302    0.469   77.715  193.489
  314.000    2.751    0.260    0.462   82.973  175.496
  314.250    2.670    0.255    0.445   85.534  171.194
  314.500    2.620    0.264    0.434   85.962  170.446
  314.750    2.534    0.271    0.436   85.263  169.908
  315.000    2.390    0.284    0.455   85.190  169.263
  315.250    2.311    0.306    0.460   86.121  168.933
  315.500    2.299    0.325    0.439   87.553  168.081
  315.750    2.429    0.322    0.388   87.419  166.183
  316.000    2.689    0.314    0.335   81.514  164.598
  316.250    2.984    0.308    0.332   67.646  163.955
  316.500    3.431    0.287    0.338   64.061  164.357
  316.750    4.105    0.276    0.344   68.252  165.176
  317.000    4.791    0.272    0.351   73.197  165.682
  317.250    6.516    0.289    0.354   74.692  166.397
  317.500    7.883    0.312    0.344   71.296  166.590
  317.750   10.761    0.331    0.335   61.441  166.365
  318.000   11.628    0.343    0.335   53.216  165.825
  318.250   11.609    0.343    0.351   50.510  164.973
  318.500   10.850    0.340    0.351   52.256  164.330
  318.750   10.141    0.336    0.349   51.242  163.790
  319.000    9.861    0.330    0.354   50.981  163.670
  319.250   10.108    0.323    0.355   52.288  163.339
  319.500   10.264    0.314    0.353   53.156  163.323
  319.750   10.247    0.305    0.346   52.582  163.201
  320.000   10.230    0.295    0.331   51.945  162.871
  320.250   10.194    0.284    0.336   53.064  162.854
  320.500   10.101    0.272    0.362   56.754  162.943
  320.750    9.933    0.267    0.367   60.130  164.285
  321.000    9.695    0.269    0.360   64.008  164.791
  321.250    9.463    0.269    0.359   68.450  165.298
  321.500    9.167    0.277    0.361   71.263  165.699
  321.750    8.698    0.293    0.350   69.497  165.473
  322.000    8.176    0.309    0.354   64.784  164.621
  322.250    7.787    0.325    0.374   60.321  165.545
  322.500    7.402    0.347    0.392   58.932  168.663
  322.750    6.931    0.379    0.430   70.085  173.141
  323.000    6.490    0.403    0.440   80.547  176.887
  323.250    5.908    0.396    0.379   93.016  176.347
  323.500    5.358    0.323    0.352   89.306  172.255
  323.750    4.877    0.289    0.359   83.151  168.686
  324.000    4.149    0.299    0.377   73.986  165.639
  324.250    3.989    0.318    0.380   66.450  163.114
  324.500    4.467    0.316    0.379   61.361  163.410
  324.750    5.041    0.303    0.362   56.586  163.812
  325.000    5.786    0.285    0.346   58.708  164.422
  325.250    6.541    0.271    0.337   63.025  165.138
  325.500    6.555    0.249    0.357   69.223  166.480
  325.750    6.243    0.243    0.369   69.965  168.136
  326.000    6.059    0.247    0.354   70.395  169.373
  326.250    6.130    0.244    0.343   72.956  169.566
  326.500    6.415    0.240    0.347   71.378  168.818
  326.750    6.790    0.239    0.356   68.672  167.964
  327.000    7.227    0.236    0.362   64.649  166.590
  327.250    7.422    0.231    0.374   67.021  165.215
  327.500    7.452    0.219    0.363   70.147  164.257
  327.750    7.328    0.184    0.325   68.005  163.823
  328.000    7.554    0.154    0.302   61.035  163.074
  328.250    7.920    0.160    0.296   54.440  162.536
  328.500    8.134    0.206    0.313   55.120  161.997
  328.750    8.229    0.259    0.330   60.190  161.666
  329.000    7.619    0.277    0.356   61.685  161.962
  329.250    7.081    0.296    0.353   61.550  162.678
  329.500    6.531    0.300    0.342   63.107  164.125
  329.750    6.139    0.302    0.346   64.979  165.467
  330.000    6.014    0.301    0.352   65.031  166.600
  330.250    6.165    0.298    0.359   64.269  167.421
  330.500    6.307    0.300    0.371   63.068  167.195
  330.750    6.417    0.305    0.383   60.863  166.447
  331.000    6.479    0.303    0.384   58.721  165.908
  331.250    6.456    0.297    0.369   57.520  165.682
  331.500    6.302    0.292    0.367   57.133  165.874
  331.750    6.151    0.299    0.375   58.942  167.007
  332.000    6.389    0.340    0.387   64.827  168.663
  332.250    6.660    0.355    0.395   69.834  170.319
  332.500    6.650    0.322    0.393   77.223  171.556
  332.750    6.527    0.292    0.371   81.602  171.331
  333.000    6.516    0.251    0.341   84.727  171.105
  333.250    6.832    0.241    0.325   86.725  170.567
  333.500    7.272    0.240    0.330   87.091  170.133
  333.750    7.567    0.241    0.333   85.890  169.801
  334.000    7.964    0.247    0.332   84.500  169.470
  334.250    8.836    0.251    0.325   82.421  169.351
  334.500    9.160    0.250    0.309   80.593  169.125
  334.750    9.337    0.244    0.295   80.834  169.004
  335.000    9.357    0.265    0.289   80.573  168.465
  335.250    9.573    0.278    0.290   79.121  166.776
  335.500    9.703    0.300    0.307   63.434  164.460
  335.750    8.933    0.323    0.306   39.908  163.086
  336.000    7.714    0.323    0.301   31.495  162.547
  336.250    6.775    0.317    0.302   22.456  162.425
