~VERSION INFORMATION
 VERS.                 2.0:   CWLS LOG ASCII STANDARD -VERSION 2.0
 WRAP.                  NO:   ONE LINE PER DEPTH STEP
~WELL INFORMATION BLOCK
#MNEM.UNIT           DATA                    DESCRIPTION OF MNEMONIC
#---------    -------------------            -------------------------------
# Generated from Intellog Unique Number	CW_79_81/WELL/502
WELL.         06-16-079-21W4                 : Well_name    - WELL
LOC .         00/06-16-079-21W4/0            : Location     - LOCATION
UWI .         00/06-16-079-21W4/0            : Uwi          - UNIQUE WELL ID
ENTR.         MAX                            : Entered      - ENTERED BY
SRVC.         SCHLUMBERGER                   : Scn          - SERVICE COMPANY
STRT.M        195                            : top_depth    - START DEPTH
STOP.M        425                            : bot_depth    - STOP DEPTH
STEP.M        0.25                           : increment    - STEP LENGTH
 NULL. -999.2500:NULL Value
~CURVE INFORMATION BLOCK
#MNEM UNIT       ERCB CURVE CODE    CURVE DESCRIPTION
#-----------   ------------------   ----------------------------------
DEPT.M        00 001 00 00         : DEPTH        - DEPTH
ILD .OHMM     00 120 00 00         : RESD         - DEEP RESISTIVITY (DIL)
NPHI.V/V      00 330 00 00         : PHIN         - NEUTRON POROSITY (SANDSTONE)
DPHI.V/V      00 890 00 00         : PHID         - DENSITY POROSITY (SANDSTONE)
CALI.MM       00 280 01 00         : CAL          - CALIPER
GR  .API      00 310 00 00         : GR           - GAMMA RAY
~PARAMETER INFORMATION
#MNEM.UNIT           DATA             DESCRIPTION OF MNEMONIC
#---------         -----------     ------------------------------
GL  .M        563.5                : gl           - GROUND LEVEL ELEVATION
EREF.M        566.8                : kb           - ELEVATION OF DEPTH REFERENCE
DATM.M        563.5                : datum        - DATUM ELEVATION
TDD .M        435                  : tdd          - TOTAL DEPTH DRILLER
RUN .         ONE                  : Run          - RUN NUMBER
ENG .         BILL                 : Engineer     - RECORDING ENGINEER
WIT .         JIM                  : Witness      - WITNESSED BY
MUD .         GEL                  : Mud_type     - MUD TYPE
MATR.         SANDSTONE            : Logunit      - NEUTRON MATRIX
TMAX.C        27.2                 : BHT          - MAXIMUM RECORDED TEMPERATURE
BHTD.M        435                  : BHTDEP       - MAXIMUM RECORDED TEMPERATURE
RMT .C        15.6                 : MDTP         - TEMPERATURE OF MUD
MUDD.KG/M     1130                 : MWT          - MUD DENSITY
NEUT.         1                    : NEUTRON      - NEUTRON TYPE
RESI.         0                    : RESIST       - RESISTIVITY TYPE
RM  .OHMM     5.35                 : RM           - RESISTIVITY OF MUD
RMC .OHMM     0.25                 : RMC          - RESISTIVITY OF MUD CAKE
RMF .OHMM     6                    : RMF          - RESISTIVITY OF MUD FILTRATE
SUFT.C        -5                   : SUFT         - SURFACE TEMPERATURE
~A  DEPTH     RESD     PHIN     PHID      CAL       GR
# ...
  377.500   14.092    0.380    0.196  163.644  102.395
  377.750   14.386    0.384    0.177  165.225  100.087
  378.000   15.087    0.381    0.160  168.296   92.176
  378.250   16.123    0.365    0.155  168.880   87.217
  378.500   17.380    0.320    0.142  166.031   84.917
  378.750   19.985    0.271    0.098  162.703   83.503
  379.000   21.747    0.262    0.110  161.823   87.709
  379.250   21.791    0.304    0.157  161.422   92.792
  379.500   20.674    0.355    0.176  161.047   96.990
  379.750   18.898    0.374    0.165  160.167  100.605
  380.000   16.808    0.380    0.185  159.793  106.582
  380.250   15.093    0.375    0.172  158.420  104.585
  380.500   14.181    0.374    0.186  159.004   97.839
  380.750   13.581    0.387    0.175  161.091   97.910
  381.000   13.355    0.394    0.183  164.175   97.382
  381.250   13.143    0.400    0.189  163.269   96.854
  381.500   13.054    0.400    0.175  162.389   97.499
  381.750   13.077    0.386    0.158  162.027   95.798
  382.000   12.981    0.379    0.117  162.611   94.384
  382.250   12.659    0.381    0.095  162.702   97.408
  382.500   12.117    0.396    0.113  162.327  103.082
  382.750   11.595    0.410    0.181  162.419  108.756
  383.000   10.898    0.407    0.182  163.042  109.418
  383.250   10.431    0.393    0.189  162.641  106.224
  383.500   10.431    0.387    0.203  161.774   96.540
  383.750   10.395    0.373    0.190  163.342   90.392
  384.000   10.690    0.373    0.184  165.908   85.139
  384.250   13.106    0.384    0.188  167.010   78.991
  384.500   15.781    0.404    0.216  163.682   67.240
  384.750   18.473    0.413    0.246  159.369   51.338
  385.000   23.494    0.409    0.263  158.463   45.198
  385.250   30.439    0.386    0.282  158.567   44.375
  385.500   36.970    0.370    0.290  158.685   43.559
  385.750   43.287    0.362    0.290  157.805   40.972
  386.000   48.873    0.366    0.285  157.896   39.262
  386.250   50.337    0.362    0.277  158.506   39.014
  386.500   49.074    0.366    0.280  160.087   39.667
  386.750   47.406    0.350    0.278  162.174   41.805
  387.000   45.377    0.352    0.270  161.799   46.003
  387.250   43.061    0.372    0.268  161.877   50.511
  387.500   41.980    0.379    0.265  162.487   51.165
  387.750   41.672    0.375    0.259  162.592   51.228
  388.000   41.822    0.373    0.259  162.696   53.645
  388.250   42.617    0.377    0.262  162.322   54.019
  388.500   45.106    0.384    0.270  162.413   54.976
  388.750   56.324    0.385    0.276  161.533   56.507
  389.000   58.027    0.387    0.279  161.171   57.743
  389.250   47.090    0.381    0.262  160.771   60.472
  389.500   38.215    0.346    0.240  160.862   64.670
  389.750   30.457    0.342    0.227  160.487   74.782
  390.000   21.544    0.365    0.224  160.099   82.532
  390.250   17.483    0.374    0.218  160.709   88.517
  390.500   14.319    0.376    0.192  162.277   94.782
  390.750   12.396    0.383    0.188  165.841  106.372
  391.000   11.024    0.389    0.193  168.420  106.737
  391.250    8.393    0.401    0.192  170.001  106.800
  391.500    7.672    0.408    0.185  168.136  108.036
  391.750    6.827    0.403    0.171  165.780  100.715
  392.000    6.902    0.369    0.159  163.902   91.319
  392.250    7.511    0.319    0.096  164.006   85.187
  392.500    9.381    0.272    0.068  164.629   84.659
  392.750   12.037    0.285    0.098  164.228   99.194
  393.000   13.590    0.361    0.127  164.825  109.011
  393.250   13.615    0.405    0.155  166.912  114.103
  393.500   10.175    0.400    0.190  167.509  114.173
  393.750    7.817    0.393    0.164  166.629  111.274
  394.000    7.834    0.377    0.176  165.243  111.632
  394.250    7.999    0.389    0.181  163.897  109.628
  394.500    8.011    0.411    0.188  163.496   97.573
  394.750    7.959    0.428    0.200  163.122   88.480
  395.000    7.973    0.416    0.213  162.747   76.721
  395.250    9.958    0.371    0.233  161.854   71.763
  395.500   14.791    0.318    0.233  161.945   70.349
  395.750   23.015    0.326    0.224  161.570   70.714
  396.000   27.699    0.338    0.210  162.167   72.246
  396.250   26.771    0.338    0.198  163.269   75.853
  396.500   21.919    0.333    0.189  163.853   84.193
  396.750   20.042    0.332    0.169  163.970   88.103
  397.000   18.665    0.333    0.163  164.062   85.213
  397.250   18.035    0.337    0.155  164.179   69.614
  397.500   18.072    0.334    0.144  164.284   59.922
  397.750   18.439    0.317    0.138  163.896   54.956
  398.000   19.887    0.281    0.153  164.001   56.503
  398.250   19.206    0.277    0.172  163.613   69.865
  398.500   15.025    0.312    0.183  162.746   92.094
  398.750   11.545    0.402    0.195  162.345  108.712
  399.000    7.872    0.442    0.199  161.465  108.480
  399.250    5.672    0.464    0.190  161.090   98.197
  399.500    5.045    0.414    0.185  160.716   89.710
  399.750    6.300    0.359    0.188  161.312   89.167
  400.000    7.937    0.368    0.182  163.386   90.722
  400.250   10.568    0.363    0.178  164.462   90.769
  400.500   12.376    0.356    0.176  164.592   87.878
  400.750   12.631    0.346    0.175  164.592   86.169
  401.000   12.431    0.339    0.152  164.815   84.475
  401.250   12.230    0.367    0.137  164.893   83.636
  401.500   11.923    0.371    0.137  164.997   80.745
  401.750   11.944    0.356    0.118  164.623   68.986
  402.000   12.422    0.355    0.116  164.222   61.369
  402.250   12.562    0.327    0.105  163.873   60.554
  402.500   12.356    0.323    0.134  163.952   67.402
  402.750   11.610    0.380    0.195  164.069   82.543
  403.000   10.140    0.486    0.297  164.174   89.111
  403.250    8.615    0.525    0.302  162.814   84.448
  403.500    8.023    0.488    0.282  160.937   79.482
  403.750    7.966    0.398    0.282  160.057   88.413
  404.000    8.435    0.377    0.363  160.174   96.769
  404.250    9.184    0.415    0.406  160.758  103.617
  404.500    9.899    0.540    0.402  161.847  115.502
  404.750    9.561    0.586    0.292  162.470  134.187
  405.000    8.903    0.530    0.203  162.548  133.364
  405.250    8.764    0.419    0.217  164.635  129.004
  405.500    9.274    0.428    0.243  165.219  125.810
  405.750   10.861    0.391    0.230  165.336  118.186
  406.000   12.148    0.368    0.213  163.977  114.114
  406.250   12.867    0.363    0.214  159.638  116.835
  406.500   13.008    0.342    0.201  159.263  121.343
  406.750   13.525    0.344    0.187  164.783  112.825
  407.000   14.055    0.367    0.191  164.408  104.027
  407.250   14.883    0.439    0.232  162.543   88.716
  407.500   15.474    0.500    0.349  159.668   74.299
  407.750   15.938    0.429    0.310  158.296   71.711
  408.000   16.118    0.409    0.315  159.411   80.044
  408.250   15.713    0.506    0.352  161.964   81.583
  408.500   15.175    0.538    0.438  163.079   87.265
  408.750   14.529    0.388    0.271  163.183   98.854
  409.000   14.423    0.351    0.202  164.259   96.850
  409.250   14.859    0.367    0.235  162.900   84.795
  409.500   16.021    0.362    0.251  161.023   82.207
  409.750   16.961    0.349    0.237  160.635   86.110
  410.000   16.540    0.338    0.216  161.737   99.479
  410.250   15.258    0.329    0.195  162.334  106.039
  410.500   13.202    0.320    0.183  164.407  110.532
  410.750   11.219    0.338    0.154  165.988  115.033
  411.000    9.273    0.366    0.148  165.614  119.821
  411.250    8.640    0.390    0.172  164.721  113.682
  411.500    8.496    0.396    0.207  163.854  115.812
  411.750    8.514    0.368    0.237  162.481  114.398
  412.000    9.015    0.341    0.223  160.138  107.667
  412.250   10.556    0.336    0.197  161.227  105.072
  412.500   11.178    0.322    0.176  161.810  102.788
  412.750   11.304    0.324    0.171  159.959  105.205
  413.000   11.327    0.325    0.184  159.558  113.242
  413.250   11.455    0.330    0.219  159.183  118.350
  413.500   11.909    0.360    0.236  158.796  118.397
  413.750   12.158    0.354    0.201  159.392  119.050
