~VERSION INFORMATION
 VERS.                 2.0:   CWLS LOG ASCII STANDARD -VERSION 2.0
 WRAP.                  NO:   ONE LINE PER DEPTH STEP
~WELL INFORMATION BLOCK
#MNEM.UNIT           DATA                    DESCRIPTION OF MNEMONIC
#---------    -------------------            -------------------------------
# Generated from Intellog Unique Number	CW_70_72/WELL/879
NULL.         -999.25                        : NULL_VALUE
WELL.         ICG ET AL CALL W 07-10         : Well_name    - WELL              
LOC .         07-10-072-20W4                 : Location     - LOCATION          
UWI .         00/07-10-072-20W4/0            : Uwi          - UNIQUE WELL ID    
ENTR.         JAYE                           : Entered      - ENTERED BY        
SRVC.         SCHLUMBERGER                   : Scn          - SERVICE COMPANY   
DATE.         22 MAR 77                      : Date         - LOG DATE          
STRT.M        320.04                         : top_depth    - START DEPTH       
STOP.M        503.04                         : bot_depth    - STOP DEPTH        
STEP.M        0.25                           : increment    - STEP LENGTH       
~CURVE INFORMATION BLOCK
#MNEM UNIT       ERCB CURVE CODE    CURVE DESCRIPTION
#-----------   ------------------   ----------------------------------
DEPT.M        00 001 00 00         : DEPTH        - DEPTH                       
DPHI.V/V      00 890 00 00         : PHID         - DENSITY POROSITY (SANDSTONE)
NPHI.V/V      00 330 00 00         : PHIN         - NEUTRON POROSITY (SANDSTONE)
GR  .API      00 310 00 00         : GR           - GAMMA RAY                   
CALI.MM       00 280 01 00         : CAL          - CALIPER                     
ILD .OHMM     00 120 00 00         : RESD         - DEEP RESISTIVITY (DIL)      
~PARAMETER INFORMATION       
#MNEM.UNIT           DATA             DESCRIPTION OF MNEMONIC
#---------         -----------     ------------------------------
GL  .M        594.36               : gl           - GROUND LEVEL ELEVATION      
EREF.M        597.408              : kb           - ELEVATION OF DEPTH REFERENCE
DATM.M        594.36               : datum        - DATUM ELEVATION             
TDD .M        504.444              : tdd          - TOTAL DEPTH DRILLER         
RUN .         ONE                  : Run          - RUN NUMBER                  
ENG .         WORONUK              : Engineer     - RECORDING ENGINEER          
WIT .         GREEN                : Witness      - WITNESSED BY                
BASE.         EDM                  : Branch       - HOME BASE OF LOGGING UNIT   
MUD .         GEL CHEM             : Mud_type     - MUD TYPE                    
MATR.         SANDSTONE            : Logunit      - NEUTRON MATRIX              
TMAX.C        22.7778              : BHT          - MAXIMUM RECORDED TEMPERATURE
BHTD.M        504.444              : BHTDEP       - MAXIMUM RECORDED TEMPERATURE
RMT .C        17.2222              : MDTP         - TEMPERATURE OF MUD          
MUDD.KG/M     1140                 : MWT          - MUD DENSITY                 
NEUT.         1                    : NEUTRON      - NEUTRON TYPE                
RESI.         0                    : RESIST       - RESISTIVITY TYPE            
RM  .OHMM     4.75                 : RM           - RESISTIVITY OF MUD          
RMC .OHMM     0                    : RMC          - RESISTIVITY OF MUD CAKE     
RMF .OHMM     5.46                 : RMF          - RESISTIVITY OF MUD FILTRATE 
SUFT.C        -17.7778             : SUFT         - SURFACE TEMPERATURE         
~A  DEPTH     PHID     PHIN       GR      CAL     RESD
# ...
  466.040    0.275    0.442   79.113  140.916    3.461
  466.290    0.285    0.448   84.848  137.764    3.358
  466.540    0.260    0.450   97.204  142.537    3.330
  466.790    0.240    0.459  105.307  147.926    3.400
  467.040    0.204    0.469  113.959  152.801    3.570
  467.290    0.177    0.483  124.189  157.782    3.776
  467.540    0.183    0.493  132.352  161.010    3.842
  467.790    0.200    0.505  133.835  163.424    3.789
  468.040    0.198    0.514  130.334  164.487    3.743
  468.290    0.192    0.505  128.414  164.836    3.658
  468.540    0.202    0.495  130.625  165.288    3.555
  468.790    0.210    0.506  135.511  164.913    3.448
  469.040    0.210    0.505  139.299  163.618    3.407
  469.290    0.202    0.495  144.124  163.759    3.435
  469.540    0.193    0.496  146.760  164.422    3.534
  469.790    0.193    0.505  147.634  164.251    3.669
  470.040    0.198    0.512  148.143  165.322    3.866
  470.290    0.208    0.524  147.012  168.035    4.165
  470.540    0.205    0.525  141.690  169.620    4.445
  470.790    0.180    0.515  133.512  169.348    4.754
  471.040    0.162    0.489  125.334  163.528    4.954
  471.290    0.140    0.461  120.984  162.022    5.040
  471.540    0.117    0.452  126.779  163.093    5.234
  471.790    0.121    0.461  135.855  163.753    5.142
  472.040    0.178    0.458  141.043  164.613    5.044
  472.290    0.180    0.450  141.309  165.063    5.076
  472.540    0.191    0.445  139.936  163.666    5.146
  472.790    0.194    0.460  138.198  160.825    5.285
  473.040    0.184    0.445  135.427  163.439    5.477
  473.290    0.170    0.447  134.113  165.536    5.719
  473.540    0.151    0.451  133.898  164.030    5.883
  473.790    0.131    0.427  134.830  160.782    6.008
  474.040    0.106    0.419  137.040  158.454    6.125
  474.290    0.150    0.428  139.372  158.187    6.220
  474.540    0.145    0.433  141.401  158.642    6.225
  474.790    0.136    0.443  144.100  160.323    6.162
  475.040    0.151    0.427  146.492  163.655    6.055
  475.290    0.166    0.416  148.884  157.112    5.820
  475.540    0.193    0.425  147.330  155.201    5.688
  475.790    0.181    0.438  148.871  157.708    5.619
  476.040    0.163    0.451  151.690  161.346    5.634
  476.290    0.157    0.439  147.764  165.709    5.680
  476.540    0.166    0.431  140.802  165.645    5.866
  476.790    0.163    0.432  134.386  162.601    6.249
  477.040    0.139    0.385  126.998  160.685    6.732
  477.290    0.089    0.380  120.521  159.287    7.719
  477.540    0.085    0.373  110.945  158.297    9.133
  477.790    0.107    0.357   98.698  157.207   10.647
  478.040    0.009    0.282   76.487  156.321   13.659
  478.290   -0.013    0.183   68.856  155.024   17.782
  478.540   -0.009    0.162   74.103  154.444   24.779
  478.790   -0.006    0.183   85.913  154.073   28.155
  479.040    0.013    0.241  104.040  153.909   20.090
  479.290    0.045    0.366  115.547  153.746   11.926
  479.540    0.076    0.393  123.226  153.685    8.699
  479.790    0.164    0.437  124.768  152.795    7.488
  480.040    0.169    0.430  118.170  145.838    6.674
  480.290    0.173    0.422  118.195  151.024    6.082
  480.540    0.169    0.432  119.492  156.312    5.802
  480.790    0.156    0.431  121.218  158.413    5.660
  481.040    0.143    0.421  123.370  158.449    5.541
  481.290    0.142    0.427  124.913  157.870    5.465
  481.540    0.165    0.432  126.209  157.295    5.490
  481.790    0.161    0.433  125.627  157.135    5.586
  482.040    0.151    0.432  122.066  156.763    5.768
  482.290    0.140    0.410  122.758  156.797    5.955
  482.540    0.124    0.398  125.213  156.119    6.150
  482.790    0.112    0.425  128.213  154.102    6.327
  483.040    0.158    0.420  130.301  150.645    6.379
  483.290    0.164    0.409  129.657  144.718    6.384
  483.540    0.143    0.398  129.438  152.471    6.366
  483.790    0.167    0.401  131.163  158.685    6.477
  484.040    0.160    0.410  133.615  158.727    6.901
  484.290    0.152    0.417  131.939  158.459    7.461
  484.540    0.136    0.408  128.257  157.679    7.634
  484.790    0.118    0.377  123.055  157.506    7.446
  485.040    0.100    0.377  126.543  157.037    7.118
  485.290    0.169    0.386  134.038  156.970    6.766
  485.540    0.163    0.382  140.260  157.013    6.503
  485.790    0.165    0.386  144.109  156.952    6.216
  486.040    0.157    0.386  142.858  156.888    5.867
  486.290    0.140    0.389  140.149  156.723    5.711
  486.540    0.138    0.394  137.437  156.765    5.621
  486.790    0.151    0.400  134.365  156.799    5.678
  487.040    0.143    0.410  131.835  157.157    5.918
  487.290    0.153    0.421  129.126  157.399    6.133
  487.540    0.147    0.423  126.295  157.542    6.321
  487.790    0.123    0.419  124.130  157.785    6.361
  488.040    0.100    0.410  116.013  150.211    6.002
  488.290    0.071    0.395  118.955  149.018    4.791
  488.540    0.088    0.394  124.446  155.439    3.660
  488.790    0.165    0.405  127.993  157.847    2.986
  489.040    0.184    0.443  133.971  157.887    2.556
  489.290    0.186    0.503  140.372  156.791    2.295
  489.540    0.171    0.540  144.588  156.009    2.174
  489.790    0.178    0.543  142.606  146.172    2.412
  490.040    0.179    0.546  142.024  143.229    3.099
  490.290    0.180    0.551  131.112  149.341    3.925
  490.540    0.168    0.541  122.084  148.971    4.661
  490.790    0.116    0.509  114.027  147.567    5.374
  491.040    0.060    0.357  113.260  149.356    6.670
  491.290    0.038    0.378  114.379  151.248    6.542
  491.540    0.097    0.376  118.412  151.701    5.767
  491.790    0.122    0.377  125.786  153.183    5.075
  492.040    0.130    0.388  131.703  153.845    4.905
  492.290    0.149    0.404  136.283  153.984    5.037
  492.540    0.156    0.424  139.648  154.023    5.629
  492.790    0.142    0.437  135.966  154.167    6.360
  493.040    0.122    0.436  120.133  154.515    7.161
  493.290    0.072    0.374  109.525  154.971    7.988
  493.540    0.076    0.316  109.366  155.316    9.262
  493.790    0.106    0.354  105.259  155.566    9.270
  494.040    0.101    0.343   99.087  155.706    8.604
  494.290    0.073    0.319  105.003  155.746    7.446
  494.540    0.121    0.418  120.640  155.475    6.564
  494.790    0.125    0.409  123.884  156.034    6.149
  495.040    0.110    0.386  119.657  156.593    6.008
  495.290    0.082    0.366  123.931  156.945    5.829
  495.540    0.086    0.384  128.147  156.766    5.571
  495.790    0.121    0.405  131.089  156.605    5.394
  496.040    0.137    0.438  132.387  156.444    5.252
  496.290    0.136    0.465  126.700  156.479    5.141
  496.540    0.139    0.452  119.433  156.836    5.070
  496.790    0.087    0.420  113.685  156.975    5.149
  497.040    0.039    0.391  108.607  157.010    5.135
  497.290    0.098    0.428  109.727  157.366    4.945
  497.540    0.135    0.452  110.418  157.706    4.718
  497.790    0.139    0.479  112.018  157.853    4.560
  498.040    0.120    0.468  109.915  158.097    4.538
  498.290    0.128    0.452  106.781  158.244    4.695
  498.540    0.137    0.438  105.712  158.690    4.821
  498.790    0.122    0.429  105.979  157.598    4.896
  499.040    0.082    0.421  107.277  157.023    4.891
  499.290    0.077    0.330  109.549  157.685    4.797
  499.540    0.142    0.262  112.732  157.409    4.688
  499.790    0.126    0.252  106.620  157.346    4.564
  500.040    0.135    0.255  104.091  156.672    4.460
  500.290    0.166    0.255  104.359  156.506    4.407
  500.540    0.167    0.256  106.144  156.236    4.386
  500.790    0.140    0.253  109.752  156.073    4.342
  501.040    0.124    0.252  108.317  155.494    4.345
  501.290    0.080    0.259  104.577  155.019    4.356
  501.540    0.094    0.264  103.993  154.750    4.449
  501.790    0.114    0.261  103.832  154.794    4.569
  502.040    0.119    0.257  104.524  154.830    4.709
  502.290    0.114    0.255  105.887  154.874    4.872
