~VERSION INFORMATION
 VERS.                 2.0:   CWLS LOG ASCII STANDARD -VERSION 2.0
 WRAP.                  NO:   ONE LINE PER DEPTH STEP
~WELL INFORMATION BLOCK
#MNEM.UNIT           DATA                    DESCRIPTION OF MNEMONIC
#---------    -------------------            -------------------------------
# Generated from Intellog Unique Number	CS_77_79/WELL/878
WELL.         C.W.W.E. HARDY                 : Well_name    - WELL
LOC .         00/06-19-078-04W4/0            : Location     - LOCATION
UWI .         00/06-19-078-04W4/0            : Uwi          - UNIQUE WELL ID
ENTR.         JHS                            : Entered      - ENTERED BY
SRVC.         SCHLUMBERGER                   : Scn          - SERVICE COMPANY
STRT.M        140                            : top_depth    - START DEPTH
STOP.M        380                            : bot_depth    - STOP DEPTH
STEP.M        0.25                           : increment    - STEP LENGTH
 NULL. -999.2500:NULL Value
~CURVE INFORMATION BLOCK
#MNEM UNIT       ERCB CURVE CODE    CURVE DESCRIPTION
#-----------   ------------------   ----------------------------------
DEPT.M        00 001 00 00         : DEPTH        - DEPTH
DPHI.V/V      00 890 00 00         : PHID         - DENSITY POROSITY (LIMESTONE)
NPHI.V/V      00 330 00 00         : PHIN         - NEUTRON POROSITY (LIMESTONE)
GR  .API      00 310 00 00         : GR           - GAMMA RAY
ILD .OHMM     00 120 00 00         : RESD         - DEEP RESISTIVITY (DIL)
RHOB.KG/M3    00 350 00 00         : DENS         - BULK DENSITY
~PARAMETER INFORMATION
#MNEM.UNIT           DATA             DESCRIPTION OF MNEMONIC
#---------         -----------     ------------------------------
GL  .M        562.1                : gl           - GROUND LEVEL ELEVATION
EREF.M        566                  : kb           - ELEVATION OF DEPTH REFERENCE
DATM.M        566                  : datum        - DATUM ELEVATION
TDD .M        385                  : tdd          - TOTAL DEPTH DRILLER
RUN .         ONE                  : Run          - RUN NUMBER
ENG .         BILL                 : Engineer     - RECORDING ENGINEER
WIT .         JIM                  : Witness      - WITNESSED BY
MUD .         GEL                  : Mud_type     - MUD TYPE
MATR.         LIMESTONE            : Logunit      - NEUTRON MATRIX
TMAX.C        18                   : BHT          - MAXIMUM RECORDED TEMPERATURE
BHTD.M        385                  : BHTDEP       - MAXIMUM RECORDED TEMPERATURE
MATR.         1                    : LOGUNIT      - NEUTRON MATRIX
RMT .C        25                   : MDTP         - TEMPERATURE OF MUD
NEUT.         1                    : NEUTRON      - NEUTRON TYPE
RESI.         0                    : RESIST       - RESISTIVITY TYPE
RMC .OHMM     0.25                 : RMC          - RESISTIVITY OF MUD CAKE
RMF .OHMM     0.25                 : RMF          - RESISTIVITY OF MUD FILTRATE
SUFT.C        15                   : SUFT         - SURFACE TEMPERATURE
~A  DEPTH     PHID     PHIN       GR     RESD     DENS
# ...
  213.000    0.203    0.426   77.434   16.773    0.000
  213.250    0.127    0.448   86.084   14.714    0.000
  213.500    0.120    0.466   95.348   12.905    0.000
  213.750    0.121    0.449  107.073   10.699    0.000
  214.000    0.178    0.418  108.966    9.209    0.000
  214.250    0.238    0.393  101.628    8.078    0.000
  214.500    0.289    0.435   94.908    8.556    0.000
  214.750    0.294    0.441   99.869    9.961    0.000
  215.000    0.293    0.427   99.915   12.043    0.000
  215.250    0.284    0.414   96.272   14.022    0.000
  215.500    0.287    0.414   89.557   16.641    0.000
  215.750    0.284    0.418   85.907   17.962    0.000
  216.000    0.260    0.416   86.578   18.328    0.000
  216.250    0.248    0.410   90.920   18.003    0.000
  216.500    0.238    0.398   90.959   17.025    0.000
  216.750    0.236    0.403   81.787   15.804    0.000
  217.000    0.258    0.432   72.614   15.820    0.000
  217.250    0.287    0.440   67.124   17.078    0.000
  217.500    0.288    0.435   63.472   18.437    0.000
  217.750    0.290    0.407   61.674   19.916    0.000
  218.000    0.303    0.393   62.336   19.929    0.000
  218.250    0.296    0.390   64.222   19.579    0.000
  218.500    0.286    0.395   66.723   18.876    0.000
  218.750    0.274    0.386   68.616   18.537    0.000
  219.000    0.270    0.381   66.200   18.215    0.000
  219.250    0.281    0.390   74.855   17.897    0.000
  219.500    0.274    0.384   81.658   17.573    0.000
  219.750    0.271    0.381   79.862   17.592    0.000
  220.000    0.261    0.387   76.831   17.281    0.000
  220.250    0.242    0.396   72.571   17.296    0.000
  220.500    0.235    0.403   68.309   17.328    0.000
  220.750    0.250    0.407   72.663   17.017    0.000
  221.000    0.252    0.398   76.384   17.029    0.000
  221.250    0.240    0.379   73.975   17.048    0.000
  221.500    0.231    0.369   77.716   16.751    0.000
  221.750    0.227    0.380   77.755   16.766    0.000
  222.000    0.262    0.385   75.957   16.782    0.000
  222.250    0.271    0.379   74.768   16.799    0.000
  222.500    0.263    0.374   76.038   16.817    0.000
  222.750    0.256    0.373   78.553   16.521    0.000
  223.000    0.250    0.382   81.053   15.934    0.000
  223.250    0.249    0.393   78.637   15.941    0.000
  223.500    0.280    0.401   72.530   15.373    0.000
  223.750    0.294    0.403   68.268   14.820    0.000
  224.000    0.300    0.393   67.693   14.830    0.000
  224.250    0.284    0.389   72.662   14.570    0.000
  224.500    0.268    0.400   74.558   14.584    0.000
  224.750    0.254    0.415   72.761   14.597    0.000
  225.000    0.261    0.429   73.405   14.341    0.000
  225.250    0.269    0.418   77.749   13.825    0.000
  225.500    0.243    0.401   84.562   13.076    0.000
  225.750    0.224    0.388   90.753   12.605    0.000
  226.000    0.213    0.390   94.500   11.270    0.000
  226.250    0.213    0.417   98.222   10.076    0.000
  226.500    0.219    0.422  102.560    9.897    0.000
  226.750    0.213    0.408  103.229   10.097    0.000
  227.000    0.197    0.398   97.737   10.106    0.000
  227.250    0.203    0.408  102.081   10.117    0.000
  227.500    0.199    0.414  106.425    9.938    0.000
  227.750    0.189    0.415  104.009    9.227    0.000
  228.000    0.188    0.423  102.210    8.893    0.000
  228.250    0.193    0.419  105.328    8.740    0.000
  228.500    0.199    0.411  107.223    8.911    0.000
  228.750    0.201    0.425  102.344    9.265    0.000
  229.000    0.197    0.453   87.017   10.003    0.000
  229.250    0.179    0.464   68.622   11.213    0.000
  229.500    0.167    0.447   64.985   12.335    0.000
  229.750    0.243    0.434   67.484   13.569    0.000
  230.000    0.283    0.423   72.456   14.649    0.000
  230.250    0.291    0.424   76.801   14.945    0.000
  230.500    0.281    0.432   78.676   14.405    0.000
  230.750    0.271    0.434   83.026   13.371    0.000
  231.000    0.270    0.435   85.540   11.953    0.000
  231.250    0.260    0.441   86.805   11.308    0.000
  231.500    0.248    0.435   87.476   10.695    0.000
  231.750    0.233    0.428   88.118   10.314    0.000
  232.000    0.232    0.455   86.323    9.755    0.000
  232.250    0.248    0.471   86.363    9.580    0.000
  232.500    0.242    0.446   92.564    9.237    0.000
  232.750    0.223    0.424   95.672    9.073    0.000
  233.000    0.221    0.421   98.795    8.913    0.000
  233.250    0.219    0.430   99.448    8.755    0.000
  233.500    0.217    0.426   98.889    8.285    0.000
  233.750    0.215    0.443  103.226    7.986    0.000
  234.000    0.220    0.459  106.956    7.553    0.000
  234.250    0.228    0.446  103.929    7.146    0.000
  234.500    0.234    0.440   98.442    6.890    0.000
  234.750    0.224    0.433   96.649    6.895    0.000
  235.000    0.221    0.424   97.913    6.901    0.000
  235.250    0.222    0.433   98.575    7.043    0.000
  235.500    0.217    0.440   98.008    7.051    0.000
  235.750    0.217    0.435   99.907    7.058    0.000
  236.000    0.229    0.438   98.704    6.933    0.000
  236.250    0.234    0.457   97.532    6.941    0.000
  236.500    0.235    0.446  101.257    6.945    0.000
  236.750    0.234    0.436  105.603    6.697    0.000
  237.000    0.234    0.437  106.882    6.577    0.000
  237.250    0.229    0.460  103.238    6.341    0.000
  237.500    0.213    0.461  100.829    6.112    0.000
  237.750    0.205    0.464  100.870    6.007    0.000
  238.000    0.221    0.470  101.523    6.011    0.000
  238.250    0.236    0.470   97.873    6.016    0.000
  238.500    0.235    0.462   99.769    6.254    0.000
  238.750    0.225    0.461  102.885    6.628    0.000
  239.000    0.213    0.461  102.936    6.634    0.000
  239.250    0.206    0.447  101.747    6.397    0.000
  239.500    0.211    0.435  101.173    6.281    0.000
  239.750    0.213    0.430  101.208    6.170    0.000
  240.000    0.211    0.442  102.496    5.950    0.000
  240.250    0.213    0.467  104.990    5.846    0.000
  240.500    0.218    0.486  100.728    5.742    0.000
  240.750    0.219    0.497  103.249    5.746    0.000
  241.000    0.220    0.482  104.506    5.862    0.000
  241.250    0.214    0.477  106.402    5.758    0.000
  241.500    0.206    0.488  105.209    5.764    0.000
  241.750    0.205    0.485  102.177    5.663    0.000
  242.000    0.216    0.470   99.775    5.777    0.000
  242.250    0.217    0.455   98.581    5.893    0.000
  242.500    0.230    0.456   98.026    5.790    0.000
  242.750    0.233    0.469   96.823    5.478    0.000
  243.000    0.226    0.469   93.803    5.380    0.000
  243.250    0.249    0.467   89.543    5.385    0.000
  243.500    0.273    0.472   86.513    5.599    0.000
  243.750    0.293    0.462   84.704    6.044    0.000
  244.000    0.309    0.450   81.675    6.649    0.000
  244.250    0.307    0.445   75.581    7.455    0.000
  244.500    0.304    0.460   73.182    8.202    0.000
  244.750    0.312    0.470   73.214    8.687    0.000
  245.000    0.309    0.456   73.254    9.203    0.000
  245.250    0.305    0.435   74.531    9.754    0.000
  245.500    0.308    0.435   73.952    9.761    0.000
  245.750    0.311    0.452   70.310    9.772    0.000
  246.000    0.314    0.473   68.508    9.782    0.000
  246.250    0.315    0.466   68.559    9.983    0.000
  246.500    0.316    0.453   70.444    9.988    0.000
  246.750    0.312    0.446   71.097    9.998    0.000
  247.000    0.306    0.448   69.304   10.009    0.000
  247.250    0.301    0.465   67.509    9.649    0.000
  247.500    0.303    0.465   72.477    9.127    0.000
  247.750    0.298    0.450   74.967    8.633    0.000
  248.000    0.288    0.444   78.706    7.869    0.000
  248.250    0.273    0.451   83.044    7.726    0.000
  248.500    0.255    0.439   89.852    6.907    0.000
  248.750    0.242    0.436   92.972    6.292    0.000
  249.000    0.233    0.450   91.180    5.950    0.000
  249.250    0.236    0.480   90.595    5.630    0.000
