~VERSION INFORMATION
 VERS.                 2.0:   CWLS LOG ASCII STANDARD -VERSION 2.0
 WRAP.                  NO:   ONE LINE PER DEPTH STEP
~WELL INFORMATION BLOCK
#MNEM.UNIT           DATA                    DESCRIPTION OF MNEMONIC
#---------    -------------------            -------------------------------
# Generated from Intellog Unique Number	CS_67_68/WELL/2177
WELL.         07-23-067-06W4                 : Well_name    - WELL
LOC .         00/07-23-067-06W4/0            : Location     - LOCATION
UWI .         00/07-23-067-06W4/0            : Uwi          - UNIQUE WELL ID
ENTR.         SP                             : Entered      - ENTERED BY
SRVC.         SCHLUMBERGER                   : Scn          - SERVICE COMPANY
STRT.M        325                            : top_depth    - START DEPTH
STOP.M        536                            : bot_depth    - STOP DEPTH
STEP.M        0.25                           : increment    - STEP LENGTH
 NULL. -999.2500:NULL Value
~CURVE INFORMATION BLOCK
#MNEM UNIT       ERCB CURVE CODE    CURVE DESCRIPTION
#-----------   ------------------   ----------------------------------
DEPT.M        00 001 00 00         : DEPTH        - DEPTH
ILD .OHMM     00 120 00 00         : RESD         - DEEP RESISTIVITY (DIL)
DPHI.V/V      00 890 00 00         : PHID         - DENSITY POROSITY (LIMESTONE)
NPHI.V/V      00 330 00 00         : PHIN         - NEUTRON POROSITY (LIMESTONE)
GR  .API      00 310 00 00         : GR           - GAMMA RAY
CALI.MM       00 280 01 00         : CAL          - CALIPER
~PARAMETER INFORMATION
#MNEM.UNIT           DATA             DESCRIPTION OF MNEMONIC
#---------         -----------     ------------------------------
GL  .M        653.7                : gl           - GROUND LEVEL ELEVATION
EREF.M        657                  : kb           - ELEVATION OF DEPTH REFERENCE
DATM.M        657                  : datum        - DATUM ELEVATION
TDD .M        545                  : tdd          - TOTAL DEPTH DRILLER
RUN .         ONE                  : Run          - RUN NUMBER
ENG .         BILL                 : Engineer     - RECORDING ENGINEER
WIT .         JIM                  : Witness      - WITNESSED BY
MUD .         GEL                  : Mud_type     - MUD TYPE
MATR.         LIMESTONE            : Logunit      - NEUTRON MATRIX
TMAX.C        23                   : BHT          - MAXIMUM RECORDED TEMPERATURE
BHTD.M        545                  : BHTDEP       - MAXIMUM RECORDED TEMPERATURE
MATR.         1                    : LOGUNIT      - NEUTRON MATRIX
RMT .C        25                   : MDTP         - TEMPERATURE OF MUD
NEUT.         1                    : NEUTRON      - NEUTRON TYPE
RESI.         0                    : RESIST       - RESISTIVITY TYPE
RMC .OHMM     0.25                 : RMC          - RESISTIVITY OF MUD CAKE
RMF .OHMM     0.25                 : RMF          - RESISTIVITY OF MUD FILTRATE
SUFT.C        15                   : SUFT         - SURFACE TEMPERATURE
~A  DEPTH     RESD     PHID     PHIN       GR      CAL
# ...
  434.500    4.870    0.312    0.426   75.892  161.727
  434.750    4.805    0.320    0.417   75.338  161.721
  435.000    4.813    0.329    0.410   74.905  161.511
  435.250    4.820    0.322    0.406   75.575  161.200
  435.500    4.892    0.315    0.410   76.428  160.785
  435.750    5.165    0.318    0.422   76.975  160.575
  436.000    5.706    0.324    0.430   77.156  160.569
  436.250    6.315    0.328    0.429   76.784  160.563
  436.500    7.016    0.330    0.425   75.985  160.659
  436.750    7.422    0.330    0.430   75.676  160.756
  437.000    7.882    0.288    0.441   74.876  160.545
  437.250    9.897    0.238    0.350   72.242  160.539
  437.500   12.289    0.196    0.244   63.548  160.634
  437.750   11.501    0.054    0.177   54.854  160.629
  438.000    9.740    0.015    0.144   50.566  160.419
  438.250    8.110    0.000    0.312   61.395  160.106
  438.500    6.830    0.273    0.369   74.305  160.407
  438.750    5.549    0.288    0.423   76.993  161.013
  439.000    4.709    0.305    0.441   76.377  161.415
  439.250    4.398    0.319    0.450   76.252  161.511
  439.500    4.644    0.318    0.458   78.390  161.607
  439.750    4.820    0.303    0.464   80.651  161.600
  440.000    5.023    0.292    0.457   81.688  161.798
  440.250    5.166    0.294    0.445   83.153  161.895
  440.500    5.283    0.285    0.437   85.536  161.787
  440.750    5.182    0.282    0.440   87.919  161.475
  441.000    5.027    0.272    0.441   89.874  161.162
  441.250    4.839    0.263    0.433   91.645  161.157
  441.500    4.615    0.253    0.433   94.763  161.354
  441.750    4.385    0.245    0.450   96.901  162.062
  442.000    4.213    0.236    0.465   98.489  163.381
  442.250    4.056    0.229    0.453   98.302  164.091
  442.500    3.803    0.220    0.445   97.319  165.002
  442.750    3.441    0.210    0.468   96.825  165.915
  443.000    3.043    0.224    0.490   97.862  166.928
  443.250    2.377    0.238    0.505   98.593  167.535
  443.500    2.074    0.272    0.519   98.528  168.038
  443.750    2.082    0.289    0.517   98.525  168.645
  444.000    2.173    0.283    0.525   98.154  169.555
  444.250    2.308    0.272    0.544   97.477  170.468
  444.500    2.373    0.264    0.564   97.045  170.972
  444.750    2.354    0.263    0.540   96.613  171.170
  445.000    2.349    0.280    0.528   96.365  171.470
  445.250    2.495    0.294    0.537   96.606  171.872
  445.500    2.808    0.305    0.545   97.213  172.070
  445.750    3.203    0.294    0.550   97.455  171.962
  446.000    3.593    0.294    0.558   97.268  170.834
  446.250    4.168    0.289    0.551   97.020  168.992
  446.500    5.040    0.280    0.530   95.914  166.333
  446.750    7.114    0.273    0.509   93.096  164.797
  447.000   10.194    0.272    0.484   84.279  163.466
  447.250   16.825    0.283    0.468   76.870  162.541
  447.500   22.826    0.301    0.490   71.665  161.923
  447.750   25.122    0.328    0.478   68.662  161.918
  448.000   25.304    0.337    0.448   64.803  161.912
  448.250   20.951    0.325    0.421   60.944  162.008
  448.500   18.149    0.326    0.420   62.226  162.002
  448.750   16.388    0.318    0.435   64.425  161.792
  449.000   15.956    0.313    0.444   66.196  161.378
  449.250   18.373    0.314    0.453   67.233  161.269
  449.500   21.157    0.323    0.462   66.250  160.958
  449.750   25.681    0.324    0.454   66.186  160.645
  450.000   29.075    0.316    0.444   68.507  160.435
  450.250   33.414    0.314    0.435   66.362  160.123
  450.500   36.638    0.316    0.437   63.115  159.505
  450.750   40.020    0.319    0.439   60.847  159.091
  451.000   43.059    0.311    0.438   60.659  158.779
  451.250   45.464    0.311    0.446   60.656  158.773
  451.500   46.754    0.317    0.436   59.122  158.767
  451.750   46.389    0.325    0.429   57.282  158.761
  452.000   43.989    0.322    0.429   57.524  158.754
  452.250   41.092    0.320    0.430   58.253  158.749
  452.500   37.244    0.316    0.429   58.679  158.641
  452.750   33.314    0.315    0.442   59.104  158.737
  453.000   30.081    0.320    0.435   60.018  158.731
  453.250   27.782    0.322    0.428   60.566  158.929
  453.500   26.149    0.327    0.434   60.623  155.761
  453.750   24.657    0.335    0.441   61.048  157.897
  454.000   22.645    0.329    0.434   62.085  159.727
  454.250   21.595    0.327    0.428   62.142  160.741
  454.500   21.147    0.327    0.431   60.853  160.937
  454.750   20.512    0.329    0.431   59.931  160.830
  455.000   19.636    0.328    0.427   59.072  160.417
  455.250   19.630    0.324    0.422   58.701  160.309
  455.500   19.960    0.320    0.422   58.635  160.200
  455.750   21.315    0.318    0.418   60.712  159.377
  456.000   24.916    0.257    0.406   62.117  158.964
  456.250   28.854    0.187    0.386   63.888  158.653
  456.500   32.298    0.131    0.367   61.804  158.341
  456.750   35.478    0.059    0.334   57.271  158.334
  457.000   37.390    0.011    0.207   53.779  158.226
  457.250   34.861    0.000    0.154   51.083  158.118
  457.500   28.165    0.000    0.130   48.754  157.806
  457.750   21.748    0.000    0.124   47.648  157.493
  458.000   18.315    0.000    0.198   55.784  157.590
  458.250   15.193    0.251    0.371   60.738  157.584
  458.500   13.875    0.294    0.414   65.630  157.476
  458.750   13.688    0.312    0.440   68.993  157.776
  459.000   14.535    0.330    0.441   69.111  158.280
  459.250   15.434    0.324    0.427   68.189  158.886
  459.500   16.022    0.315    0.417   66.839  159.288
  459.750   15.051    0.311    0.427   66.224  159.281
  460.000   13.311    0.313    0.440   67.016  159.275
  460.250   11.663    0.319    0.429   69.705  159.473
  460.500   10.853    0.316    0.428   73.374  159.264
  460.750   11.546    0.314    0.444   74.961  159.358
  461.000   12.306    0.314    0.449   74.713  159.251
  461.250   13.117    0.315    0.443   72.751  158.940
  461.500   13.772    0.315    0.440   70.605  158.832
  461.750   14.003    0.318    0.443   70.296  158.825
  462.000   13.711    0.324    0.446   71.271  158.820
  462.250   13.300    0.317    0.432   69.860  158.508
  462.500   12.732    0.310    0.426   68.143  158.603
  462.750   12.680    0.306    0.429   66.548  158.494
  463.000   12.652    0.312    0.433   67.707  158.387
  463.250   12.720    0.309    0.437   70.886  158.279
  463.500   12.740    0.305    0.440   72.229  158.375
  463.750   12.809    0.304    0.432   72.164  158.471
  464.000   12.878    0.310    0.433   71.609  158.465
  464.250   13.045    0.314    0.444   70.321  158.458
  464.500   12.797    0.318    0.432   69.338  158.453
  464.750   12.343    0.323    0.436   68.416  158.447
  465.000   11.928    0.330    0.437   68.290  158.237
  465.250   11.613    0.336    0.431   67.919  158.333
  465.500   11.393    0.327    0.438   69.568  158.429
  465.750   11.093    0.319    0.448   67.667  158.729
  466.000   10.619    0.319    0.446   67.419  159.130
  466.250   10.204    0.331    0.447   68.088  159.431
  466.500    9.805    0.327    0.449   68.880  159.425
  466.750    9.404    0.308    0.443   69.856  159.419
  467.000    9.002    0.293    0.436   70.648  159.718
  467.250    8.798    0.284    0.424   71.562  160.019
  467.500    8.599    0.277    0.415   71.375  160.317
  467.750    8.404    0.279    0.418   71.127  160.415
  468.000    8.060    0.299    0.442   72.286  160.715
  468.250    7.486    0.312    0.456   70.691  160.913
  468.500    6.400    0.325    0.446   70.259  161.008
  468.750    4.456    0.333    0.414   72.520  161.308
  469.000    2.942    0.316    0.434   76.066  161.609
  469.250    2.176    0.317    0.492   78.816  162.419
  469.500    1.979    0.309    0.509   82.055  168.533
  469.750    1.818    0.299    0.525   81.012  172.505
  470.000    1.721    0.304    0.545   78.192  170.253
  470.250    1.675    0.318    0.559   76.415  173.615
  470.500    1.694    0.311    0.568   75.983  180.748
  470.750    2.022    0.309    0.519   77.203  186.760
