~VERSION INFORMATION
 VERS.                 2.0:   CWLS LOG ASCII STANDARD -VERSION 2.0
 WRAP.                  NO:   ONE LINE PER DEPTH STEP
~WELL INFORMATION BLOCK
#MNEM.UNIT           DATA                    DESCRIPTION OF MNEMONIC
#---------    -------------------            -------------------------------
# Generated from Intellog Unique Number	CC_80_83/WELL/2308
NULL.         -999.25                        : NULL_VALUE
WELL.         BVX ET AL ALGAR                : Well_name    - WELL
LOC .         07-34-083-16W4                 : Location     - LOCATION          
UWI .         00/07-34-083-16W400            : Uwi          - UNIQUE WELL ID    
ENTR.         DW                             : Entered      - ENTERED BY        
SRVC.         SCHLUMBERGER                   : Scn          - SERVICE COMPANY   
DATE.         03 MAR 80                      : Date         - LOG DATE
STRT.M        95                             : top_depth    - START DEPTH       
STOP.M        283.101                        : bot_depth    - STOP DEPTH        
STEP.M        0.3                            : increment    - STEP LENGTH       
~CURVE INFORMATION BLOCK
#MNEM UNIT       ERCB CURVE CODE    CURVE DESCRIPTION
#-----------   ------------------   ----------------------------------
DEPT.M        00 001 00 00         : DEPTH        - DEPTH                       
DPHI.V/V      00 890 00 00         : PHID         - DENSITY POROSITY (LIMESTONE)
NPHI.V/V      00 330 00 00         : PHIN         - NEUTRON POROSITY (LIMESTONE)
GR  .API      00 310 00 00         : GR           - GAMMA RAY                   
ILD .OHMM     00 120 00 00         : RESD         - DEEP RESISTIVITY (DIL)      
~PARAMETER INFORMATION       
#MNEM.UNIT           DATA             DESCRIPTION OF MNEMONIC
#---------         -----------     ------------------------------
GL  .M        526.5                : gl           - GROUND LEVEL ELEVATION      
EREF.M        529.5                : kb           - ELEVATION OF DEPTH REFERENCE
DATM.M        529.5                : datum        - DATUM ELEVATION             
TDD .M        282                  : tdd          - TOTAL DEPTH DRILLER         
RUN .         ONE                  : Run          - RUN NUMBER                  
ENG .         BILL                 : Engineer     - RECORDING ENGINEER          
WIT .         JIM                  : Witness      - WITNESSED BY                
MUD .         GEL                  : Mud_type     - MUD TYPE                    
MATR.         LIMESTONE            : Logunit      - NEUTRON MATRIX              
TMAX.C        18                   : BHT          - MAXIMUM RECORDED TEMPERATURE
BHTD.M        282                  : BHTDEP       - MAXIMUM RECORDED TEMPERATURE
MATR.         1                    : LOGUNIT      - NEUTRON MATRIX              
RMT .C        25                   : MDTP         - TEMPERATURE OF MUD          
NEUT.         1                    : NEUTRON      - NEUTRON TYPE                
RESI.         0                    : RESIST       - RESISTIVITY TYPE            
RMC .OHMM     0.25                 : RMC          - RESISTIVITY OF MUD CAKE     
RMF .OHMM     0.25                 : RMF          - RESISTIVITY OF MUD FILTRATE 
SUFT.C        15                   : SUFT         - SURFACE TEMPERATURE         
~A  DEPTH     PHID     PHIN       GR     RESD
# ...
  147.201    0.263    0.455   95.533    5.999
  147.501    0.255    0.454   88.174    6.231
  147.801    0.255    0.460   86.329    6.722
  148.101    0.252    0.465   85.098    7.117
  148.401    0.247    0.442   84.480    7.534
  148.701    0.257    0.431   82.024    7.975
  149.001    0.276    0.444   77.729    8.604
  149.301    0.279    0.447   70.370   10.013
  149.601    0.274    0.427   70.364   10.205
  149.901    0.263    0.417   75.873   10.402
  150.201    0.261    0.411   77.707    9.114
  150.501    0.283    0.414   78.927    8.776
  150.801    0.273    0.425   84.437    8.451
  151.101    0.267    0.451   89.333    8.454
  151.401    0.286    0.458   78.298    8.781
  151.701    0.303    0.445   69.100    9.473
  152.001    0.310    0.416   65.417   10.028
  152.301    0.310    0.424   66.025   11.026
  152.601    0.288    0.425   74.599   11.453
  152.901    0.282    0.429   70.915   11.455
  153.201    0.293    0.432   68.459   11.677
  153.501    0.297    0.427   72.742   11.678
  153.801    0.307    0.424   74.576   11.903
  154.101    0.307    0.422   64.153   12.601
  154.401    0.304    0.424   63.534   13.596
  154.701    0.305    0.424   67.207   13.598
  155.001    0.314    0.424   71.490   13.345
  155.301    0.305    0.421   73.936   12.142
  155.601    0.297    0.416   75.155   10.841
  155.901    0.323    0.414   70.861   10.052
  156.201    0.320    0.411   67.791    9.865
  156.501    0.315    0.397   64.721   10.643
  156.801    0.330    0.386   62.265   11.482
  157.101    0.334    0.405   64.710   13.111
  157.401    0.351    0.419   64.704   14.415
  157.701    0.355    0.420   62.248   14.973
  158.001    0.335    0.423   59.176   16.153
  158.301    0.315    0.421   59.173   17.101
  158.601    0.303    0.418   65.907   16.469
  158.901    0.343    0.426   68.966   16.162
  159.201    0.330    0.430   68.347   15.275
  159.501    0.339    0.434   64.665   14.990
  159.801    0.356    0.414   65.886   14.993
  160.101    0.357    0.413   67.717   14.995
  160.401    0.341    0.415   66.487   15.285
  160.701    0.333    0.420   62.192   16.181
  161.001    0.327    0.430   60.348   17.128
  161.301    0.335    0.430   60.955   17.792
  161.601    0.339    0.420   63.402   18.135
  161.901    0.328    0.430   69.524   17.799
  162.201    0.325    0.458   79.935   15.301
  162.501    0.307    0.452   78.704   12.428
  162.801    0.287    0.451   69.507    9.905
  163.101    0.316    0.433   66.437    8.843
  163.401    0.303    0.422   69.496    8.357
  163.701    0.293    0.438   79.906    8.202
  164.001    0.302    0.430   81.740    8.050
  164.301    0.284    0.417   87.862    8.051
  164.601    0.254    0.412   88.471    7.466
  164.901    0.269    0.451   82.950    7.189
  165.201    0.270    0.436   99.489    7.056
  165.501    0.252    0.425  102.548    7.330
  165.801    0.255    0.451   97.640    7.614
  166.101    0.264    0.464   94.569    7.909
  166.401    0.274    0.457   93.952    7.910
  166.701    0.247    0.445   90.269    7.763
  167.001    0.255    0.436   87.199    7.477
  167.301    0.239    0.432   87.806    7.200
  167.601    0.210    0.407   89.026    6.804
  167.901    0.206    0.416   89.635    6.552
  168.201    0.238    0.427   88.404    6.431
  168.501    0.254    0.446   89.010    6.555
  168.801    0.217    0.456   89.618    6.556
  169.101    0.241    0.449   83.484    6.434
  169.401    0.255    0.451   81.641    6.080
  169.701    0.272    0.438   83.472    5.638
  170.001    0.306    0.434   81.629    5.533
  170.301    0.320    0.435   77.947    5.748
  170.601    0.305    0.454   76.716    5.971
  170.901    0.326    0.464   72.421    6.320
  171.201    0.323    0.435   73.641    7.355
  171.501    0.305    0.442   79.151    7.356
  171.801    0.306    0.480   78.532    7.084
  172.101    0.280    0.518   69.334    6.446
  172.401    0.272    0.508   69.329    5.755
  172.701    0.315    0.477   74.838    5.438
  173.001    0.306    0.453   77.896    5.867
  173.301    0.295    0.434   76.666    7.648
  173.601    0.312    0.417   72.370    8.409
  173.901    0.316    0.408   69.301    8.571
  174.201    0.302    0.434   72.359    8.255
  174.501    0.312    0.431   77.257    7.949
  174.801    0.315    0.438   86.443    7.802
  175.101    0.306    0.449   76.632    7.657
  175.401    0.306    0.444   72.951    7.374
  175.701    0.298    0.418   74.783    7.101
  176.001    0.274    0.406   81.518    6.969
  176.301    0.277    0.418   87.027    6.712
  176.601    0.279    0.447   90.086    6.587
  176.901    0.259    0.459   92.530    5.881
  177.201    0.253    0.469   94.365    5.056
  177.501    0.247    0.474   95.584    4.869
  177.801    0.260    0.460   96.192    4.689
  178.101    0.276    0.452   94.960    4.779
  178.401    0.257    0.448   93.730    4.780
  178.701    0.264    0.470   85.758    4.965
  179.001    0.294    0.497   83.912    5.061
  179.301    0.306    0.480   85.747    5.257
  179.601    0.316    0.465   87.579    6.725
  179.901    0.330    0.341   88.186    8.766
  180.201    0.356    0.343   86.343   11.213
  180.501    0.348    0.330   82.048   13.811
  180.801    0.321    0.299   75.914   14.346
  181.101    0.329    0.321   71.619   13.557
  181.401    0.339    0.336   67.937   12.811
  181.701    0.332    0.329   64.254   11.657
  182.001    0.325    0.367   63.024   10.810
  182.301    0.320    0.396   61.180   10.608
  182.601    0.320    0.405   60.560   10.610
  182.901    0.324    0.412   59.943   10.414
  183.201    0.327    0.417   56.261   10.818
  183.501    0.337    0.411   50.740   10.818
  183.801    0.332    0.420   51.348   11.028
  184.101    0.329    0.436   58.083   11.030
  184.401    0.342    0.446   59.915   10.825
  184.701    0.345    0.417   60.522   10.229
  185.001    0.332    0.410   56.228    9.851
  185.301    0.315    0.401   56.221    9.487
  185.601    0.323    0.399   59.279    9.311
  185.901    0.331    0.413   59.888    9.313
  186.201    0.333    0.392   59.882    9.492
  186.501    0.335    0.387   63.552    9.676
  186.801    0.342    0.394   63.546    9.678
  187.101    0.329    0.409   60.477    9.498
  187.401    0.333    0.419   58.632    9.499
  187.701    0.338    0.427   58.015    9.322
  188.001    0.324    0.416   59.234    8.978
  188.301    0.349    0.413   60.455    8.979
  188.601    0.319    0.429   62.287    8.813
  188.901    0.336    0.442   62.283    8.983
  189.201    0.349    0.421   61.052    8.984
  189.501    0.334    0.405   59.208    8.987
  189.801    0.327    0.407   60.428    8.988
  190.101    0.327    0.415   62.874    8.989
  190.401    0.325    0.396   65.319    8.822
  190.701    0.329    0.413   65.925    8.824
  191.001    0.333    0.429   64.695    8.826
  191.301    0.319    0.414   64.077    9.521
  191.601    0.085    0.399   67.747   10.468
  191.901    0.000    0.329   68.968   12.893
  192.201    0.036    0.143   58.545   19.187
  192.501    0.077    0.160   54.249   25.490
  192.801    0.132    0.199   53.018   25.494
  193.101    0.168    0.264   56.077   20.319
  193.401    0.218    0.343   72.004   11.519
  193.701    0.298    0.398   79.352   10.285
  194.001    0.298    0.430   78.119    9.906
  194.301    0.282    0.439   76.890   10.097
  194.601    0.276    0.438   73.819   10.291
  194.901    0.279    0.417   73.202   10.489
  195.201    0.293    0.417   75.647   10.691
  195.501    0.297    0.430   79.931   10.296
  195.801    0.289    0.424   82.989    9.369
  196.101    0.285    0.436   84.209    9.022
  196.401    0.291    0.449   81.753    7.904
  196.701    0.273    0.444   76.844    7.906
  197.001    0.266    0.439   77.451    8.529
  197.301    0.268    0.422   79.898    8.860
  197.601    0.273    0.430   83.568    9.203
  197.901    0.287    0.425   87.853    9.205
  198.201    0.260    0.427   92.750    9.034
  198.501    0.228    0.438   91.517    7.766
  198.801    0.259    0.451   91.512    7.201
  199.101    0.270    0.449   91.508    7.340
