~VERSION INFORMATION
 VERS.                 2.0:   CWLS LOG ASCII STANDARD -VERSION 2.0
 WRAP.                  NO:   ONE LINE PER DEPTH STEP
~WELL INFORMATION BLOCK
#MNEM.UNIT           DATA                    DESCRIPTION OF MNEMONIC
#---------    -------------------            -------------------------------
# Generated from Intellog Unique Number	CS_67_68/WELL/2177
WELL.         07-23-067-06W4                 : Well_name    - WELL
LOC .         00/07-23-067-06W4/0            : Location     - LOCATION
UWI .         00/07-23-067-06W4/0            : Uwi          - UNIQUE WELL ID
ENTR.         SP                             : Entered      - ENTERED BY
SRVC.         SCHLUMBERGER                   : Scn          - SERVICE COMPANY
STRT.M        325                            : top_depth    - START DEPTH
STOP.M        536                            : bot_depth    - STOP DEPTH
STEP.M        0.25                           : increment    - STEP LENGTH
 NULL. -999.2500:NULL Value
~CURVE INFORMATION BLOCK
#MNEM UNIT       ERCB CURVE CODE    CURVE DESCRIPTION
#-----------   ------------------   ----------------------------------
DEPT.M        00 001 00 00         : DEPTH        - DEPTH
ILD .OHMM     00 120 00 00         : RESD         - DEEP RESISTIVITY (DIL)
DPHI.V/V      00 890 00 00         : PHID         - DENSITY POROSITY (LIMESTONE)
NPHI.V/V      00 330 00 00         : PHIN         - NEUTRON POROSITY (LIMESTONE)
GR  .API      00 310 00 00         : GR           - GAMMA RAY
CALI.MM       00 280 01 00         : CAL          - CALIPER
~PARAMETER INFORMATION
#MNEM.UNIT           DATA             DESCRIPTION OF MNEMONIC
#---------         -----------     ------------------------------
GL  .M        653.7                : gl           - GROUND LEVEL ELEVATION
EREF.M        657                  : kb           - ELEVATION OF DEPTH REFERENCE
DATM.M        657                  : datum        - DATUM ELEVATION
TDD .M        545                  : tdd          - TOTAL DEPTH DRILLER
RUN .         ONE                  : Run          - RUN NUMBER
ENG .         BILL                 : Engineer     - RECORDING ENGINEER
WIT .         JIM                  : Witness      - WITNESSED BY
MUD .         GEL                  : Mud_type     - MUD TYPE
MATR.         LIMESTONE            : Logunit      - NEUTRON MATRIX
TMAX.C        23                   : BHT          - MAXIMUM RECORDED TEMPERATURE
BHTD.M        545                  : BHTDEP       - MAXIMUM RECORDED TEMPERATURE
MATR.         1                    : LOGUNIT      - NEUTRON MATRIX
RMT .C        25                   : MDTP         - TEMPERATURE OF MUD
NEUT.         1                    : NEUTRON      - NEUTRON TYPE
RESI.         0                    : RESIST       - RESISTIVITY TYPE
RMC .OHMM     0.25                 : RMC          - RESISTIVITY OF MUD CAKE
RMF .OHMM     0.25                 : RMF          - RESISTIVITY OF MUD FILTRATE
SUFT.C        15                   : SUFT         - SURFACE TEMPERATURE
~A  DEPTH     RESD     PHID     PHIN       GR      CAL
# ...
  507.500    3.161    0.250    0.386   76.916  152.315
  507.750    2.958    0.280    0.380   71.649  152.615
  508.000    3.019    0.292    0.382   70.849  153.017
  508.250    3.292    0.300    0.382   71.274  153.317
  508.500    3.450    0.288    0.376   76.105  154.331
  508.750    3.635    0.278    0.365   80.875  155.139
  509.000    3.760    0.276    0.355   85.462  155.339
  509.250    3.881    0.281    0.367   90.477  155.843
  509.500    4.006    0.275    0.394   97.511  156.244
  509.750    4.222    0.244    0.409  104.178  156.646
  510.000    4.449    0.224    0.405  110.355  156.947
  510.250    4.707    0.208    0.395  114.636  156.941
  510.500    5.007    0.197    0.369  113.408  156.833
  510.750    5.257    0.183    0.345  112.487  156.929
  511.000    5.499    0.169    0.335  111.748  156.923
  511.250    5.687    0.161    0.359  111.133  156.916
  511.500    6.153    0.154    0.346  109.905  156.911
  511.750    7.139    0.170    0.364  103.659  156.700
  512.000    8.650    0.199    0.382   92.334  156.695
  512.250   10.323    0.242    0.393   74.521  156.586
  512.500   11.276    0.268    0.397   65.705  156.478
  512.750   11.209    0.286    0.386   57.378  156.166
  513.000    9.970    0.301    0.372   58.048  155.854
  513.250    7.207    0.287    0.359   88.338  155.542
  513.500    5.725    0.267    0.346  108.958  155.026
  513.750    5.035    0.245    0.364  119.910  154.305
  514.000    4.512    0.203    0.441  122.599  153.892
  514.250    4.113    0.222    0.443  113.966  153.580
  514.500    3.686    0.254    0.415   85.872  153.370
  514.750    3.906    0.277    0.374   75.464  153.160
  515.000    4.397    0.287    0.356   86.537  152.847
  515.250    4.904    0.228    0.343   99.264  152.944
  515.500    5.366    0.161    0.327  111.316  153.142
  515.750    5.592    0.149    0.309   97.726  153.135
  516.000    5.601    0.147    0.295   86.095  153.232
  516.250    5.599    0.143    0.285   78.808  153.225
  516.500    5.555    0.154    0.289   70.604  153.526
  516.750    5.248    0.196    0.312   66.194  153.825
  517.000    4.122    0.234    0.334   68.700  154.227
  517.250    3.564    0.253    0.343   66.309  154.630
  517.500    3.624    0.265    0.340   70.528  154.828
  517.750    3.951    0.223    0.338   76.951  155.127
  518.000    4.140    0.188    0.337   84.108  155.223
  518.250    4.430    0.190    0.335   90.530  155.524
  518.500    4.748    0.196    0.333   96.463  155.722
  518.750    5.128    0.195    0.330  102.946  155.613
  519.000    5.334    0.161    0.327  109.613  156.015
  519.250    5.620    0.135    0.344  116.097  156.213
  519.500    5.824    0.129    0.350  119.826  156.207
  519.750    6.103    0.128    0.340  117.497  156.201
  520.000    6.456    0.133    0.328  110.271  156.093
  520.250    6.778    0.152    0.342  104.944  155.985
  520.500    6.997    0.170    0.342  100.656  155.673
  520.750    6.916    0.189    0.341   91.779  155.565
  521.000    5.957    0.205    0.353   84.370  155.253
  521.250    5.122    0.219    0.355   80.450  154.839
  521.500    4.704    0.212    0.347   80.446  154.221
  521.750    4.589    0.211    0.341   81.483  153.909
  522.000    4.527    0.219    0.336   82.948  153.699
  522.250    4.509    0.215    0.331   84.412  153.489
  522.500    4.474    0.209    0.326   84.960  153.176
  522.750    4.497    0.204    0.324   84.283  153.171
  523.000    4.429    0.204    0.328   83.117  152.858
  523.250    4.345    0.217    0.330   83.235  152.649
  523.500    4.215    0.226    0.330   83.905  152.642
  523.750    4.065    0.219    0.328   83.718  152.637
  524.000    3.973    0.214    0.327   82.307  152.629
  524.250    3.927    0.217    0.326   80.406  152.624
  524.500    3.852    0.221    0.325   78.077  152.617
  524.750    3.830    0.224    0.326   75.380  152.613
  525.000    3.743    0.239    0.327   75.805  152.401
  525.250    3.583    0.230    0.329   80.269  152.498
  525.500    3.423    0.222    0.340   78.858  152.492
  525.750    3.277    0.246    0.346   65.574  152.587
  526.000    3.061    0.270    0.341   55.228  152.582
  526.250    2.822    0.283    0.337   51.307  152.781
  526.500    2.717    0.286    0.335   54.609  152.774
  526.750    2.747    0.243    0.342   71.924  152.870
  527.000    2.922    0.220    0.349   78.959  153.272
  527.250    3.127    0.210    0.354   80.118  153.266
  527.500    3.345    0.216    0.358   78.584  153.464
  527.750    3.552    0.234    0.351   75.276  153.968
  528.000    3.687    0.247    0.341   75.211  154.166
  528.250    3.693    0.253    0.348   76.920  154.567
  528.500    3.596    0.249    0.354   76.550  154.664
  528.750    3.468    0.251    0.342   76.179  154.658
  529.000    3.333    0.253    0.340   73.116  155.059
  529.250    3.143    0.255    0.348   63.504  155.360
  529.500    2.935    0.271    0.357   50.465  155.762
  529.750    2.567    0.287    0.361   39.935  156.368
  530.000    2.371    0.303    0.350   30.812  156.464
  530.250    2.227    0.321    0.337   26.708  156.764
  530.500    2.269    0.306    0.339   32.458  156.656
  530.750    2.369    0.286    0.348   39.247  156.751
  531.000    2.558    0.276    0.353   43.895  156.541
  531.250    2.821    0.277    0.352   46.400  156.535
  531.500    3.104    0.274    0.342   50.925  156.734
  531.750    3.297    0.244    0.326   63.957  156.524
  532.000    3.534    0.220    0.335   80.906  156.518
  532.250    3.675    0.210    0.349   88.124  156.511
  532.500    3.751    0.214    0.356   88.059  156.403
  532.750    3.785    0.216    0.346   83.588  155.989
  533.000    3.727    0.223    0.350   79.178  155.473
  533.250    3.677    0.242    0.353   74.768  154.550
  533.500    3.527    0.256    0.369   70.419  154.442
  533.750    3.185    0.253    0.385   66.315  154.536
  534.000    2.712    0.254    0.396   62.761  154.939
  534.250    4.028    0.287    0.412   65.451  155.341
  534.500    7.998    0.102    0.319   70.955  155.742
  534.750   15.581    0.004    0.157   58.038  156.042
  535.000   28.151    0.000    0.122   44.938  156.343
  535.250   40.261    0.004    0.096   35.510  156.745
  535.500   51.231    0.016    0.107   29.876  157.351
  535.750   55.643    0.027    0.116   29.750  157.957
  536.000   43.292    0.039    0.124   30.052  158.767
