~VERSION INFORMATION
 VERS.                 2.0:   CWLS LOG ASCII STANDARD -VERSION 2.0
 WRAP.                  NO:   ONE LINE PER DEPTH STEP
~WELL INFORMATION BLOCK
#MNEM.UNIT           DATA                    DESCRIPTION OF MNEMONIC
#---------    -------------------            -------------------------------
# Generated from Intellog Unique Number	CS_73_76/WELL/702
WELL.         AMOCO AEC IPIATIK              : Well_name    - WELL
LOC .         00/07-03-073-06W4/0            : Location     - LOCATION
UWI .         00/07-03-073-06W4/0            : Uwi          - UNIQUE WELL ID
ENTR.         SP                             : Entered      - ENTERED BY
SRVC.         SCHLUMBERGER                   : Scn          - SERVICE COMPANY
STRT.M        315                            : top_depth    - START DEPTH
STOP.M        560                            : bot_depth    - STOP DEPTH
STEP.M        0.25                           : increment    - STEP LENGTH
 NULL. -999.2500:NULL Value
~CURVE INFORMATION BLOCK
#MNEM UNIT       ERCB CURVE CODE    CURVE DESCRIPTION
#-----------   ------------------   ----------------------------------
DEPT.M        00 001 00 00         : DEPTH        - DEPTH
ILD .OHMM     00 120 00 00         : RESD         - DEEP RESISTIVITY (DIL)
DPHI.V/V      00 890 00 00         : PHID         - DENSITY POROSITY (LIMESTONE)
NPHI.V/V      00 330 00 00         : PHIN         - NEUTRON POROSITY (LIMESTONE)
GR  .API      00 310 00 00         : GR           - GAMMA RAY
~PARAMETER INFORMATION
#MNEM.UNIT           DATA             DESCRIPTION OF MNEMONIC
#---------         -----------     ------------------------------
GL  .M        703.68               : gl           - GROUND LEVEL ELEVATION
EREF.M        702.89               : kb           - ELEVATION OF DEPTH REFERENCE
DATM.M        703.68               : datum        - DATUM ELEVATION
TDD .M        578                  : tdd          - TOTAL DEPTH DRILLER
RUN .         ONE                  : Run          - RUN NUMBER
ENG .         BILL                 : Engineer     - RECORDING ENGINEER
WIT .         JIM                  : Witness      - WITNESSED BY
MUD .         GEL                  : Mud_type     - MUD TYPE
MATR.         LIMESTONE            : Logunit      - NEUTRON MATRIX
TMAX.C        17                   : BHT          - MAXIMUM RECORDED TEMPERATURE
BHTD.M        578                  : BHTDEP       - MAXIMUM RECORDED TEMPERATURE
MATR.         1                    : LOGUNIT      - NEUTRON MATRIX
RMT .C        25                   : MDTP         - TEMPERATURE OF MUD
NEUT.         1                    : NEUTRON      - NEUTRON TYPE
RESI.         0                    : RESIST       - RESISTIVITY TYPE
RMC .OHMM     0.25                 : RMC          - RESISTIVITY OF MUD CAKE
RMF .OHMM     0.25                 : RMF          - RESISTIVITY OF MUD FILTRATE
SUFT.C        15                   : SUFT         - SURFACE TEMPERATURE
~A  DEPTH     RESD     PHID     PHIN       GR
# ...
  445.500    4.080    0.339    0.509   86.066
  445.750    4.002    0.349    0.505   84.855
  446.000    4.228    0.402    0.568   83.040
  446.250    4.988    0.390    0.596   83.039
  446.500    5.270    0.365    0.568   84.248
  446.750    5.672    0.332    0.520   82.433
  447.000    5.773    0.311    0.480   81.222
  447.250    5.259    0.293    0.471   80.617
  447.500    3.908    0.309    0.488   81.825
  447.750    3.306    0.311    0.497   83.034
  448.000    2.695    0.345    0.547   84.243
  448.250    2.409    0.373    0.574   83.033
  448.500    2.363    0.385    0.599   80.612
  448.750    2.450    0.391    0.612   84.240
  449.000    2.541    0.366    0.610   86.659
  449.250    2.635    0.356    0.608   89.078
  449.500    2.888    0.374    0.608   92.706
  449.750    3.409    0.360    0.607   94.519
  450.000    3.950    0.360    0.595   95.124
  450.250    4.331    0.347    0.574   96.333
  450.500    5.018    0.305    0.559   93.912
  450.750    5.605    0.285    0.544   88.468
  451.000    6.494    0.268    0.526   84.233
  451.250    7.251    0.258    0.502   81.813
  451.500    7.660    0.268    0.481   78.183
  451.750    7.799    0.273    0.468   77.578
  452.000    7.793    0.262    0.457   79.391
  452.250    7.229    0.262    0.453   83.020
  452.500    7.092    0.264    0.469   83.623
  452.750    6.958    0.274    0.475   83.623
  453.000    6.822    0.281    0.475   86.041
  453.250    6.946    0.279    0.459   87.250
  453.500    6.942    0.270    0.464   85.435
  453.750    7.064    0.285    0.463   83.015
  454.000    7.190    0.291    0.476   82.409
  454.250    7.184    0.276    0.486   84.828
  454.500    7.312    0.279    0.515   88.456
  454.750    7.308    0.258    0.512   92.084
  455.000    7.304    0.263    0.495   92.688
  455.250    7.301    0.270    0.497   92.082
  455.500    7.161    0.255    0.497   90.267
  455.750    7.025    0.266    0.485   90.266
  456.000    6.765    0.259    0.476   89.660
  456.250    6.512    0.244    0.473   90.264
  456.500    6.509    0.252    0.478   90.869
  456.750    6.265    0.251    0.490   92.682
  457.000    6.147    0.258    0.495   95.100
  457.250    6.028    0.276    0.504   96.310
  457.500    5.915    0.290    0.514   98.728
  457.750    6.020    0.301    0.499  101.147
  458.000    6.242    0.295    0.484  101.146
  458.250    6.356    0.332    0.480   98.121
  458.500    6.712    0.284    0.468   90.257
  458.750    6.833    0.243    0.458   83.603
  459.000    6.829    0.250    0.441   78.159
  459.250    6.337    0.306    0.439   76.344
  459.500    5.773    0.329    0.463   76.343
  459.750    5.065    0.332    0.489   79.366
  460.000    4.790    0.347    0.524   81.180
  460.250    4.281    0.348    0.549   84.203
  460.500    4.048    0.325    0.553   86.622
  460.750    3.487    0.290    0.513   87.226
  461.000    3.005    0.277    0.491   86.620
  461.250    2.738    0.290    0.514   86.014
  461.500    2.493    0.303    0.534   82.989
  461.750    2.538    0.302    0.519   81.779
  462.000    2.536    0.304    0.521   82.383
  462.250    2.535    0.311    0.525   83.592
  462.500    2.486    0.277    0.530   85.405
  462.750    2.530    0.261    0.543   87.824
  463.000    2.624    0.269    0.557   90.847
  463.250    2.672    0.272    0.542   91.451
  463.500    2.928    0.260    0.555   89.636
  463.750    3.151    0.261    0.559   86.611
  464.000    3.454    0.258    0.538   85.400
  464.250    3.649    0.256    0.545   82.980
  464.500    4.228    0.269    0.519   80.560
  464.750    4.550    0.281    0.489   78.745
  465.000    5.081    0.295    0.501   77.534
  465.250    6.702    0.309    0.519   75.114
  465.500    8.365    0.336    0.534   72.089
  465.750   11.451    0.334    0.536   69.064
  466.000   16.571    0.340    0.502   66.039
  466.250   23.975    0.328    0.473   63.014
  466.500   31.050    0.330    0.443   61.804
  466.750   34.035    0.331    0.454   59.989
  467.000   35.949    0.332    0.467   58.778
  467.250   36.586    0.341    0.465   58.172
  467.500   36.563    0.348    0.467   58.171
  467.750   37.221    0.345    0.471   57.566
  468.000   37.185    0.349    0.469   57.565
  468.250   36.481    0.352    0.457   57.564
  468.500   35.794    0.352    0.445   58.168
  468.750   34.460    0.352    0.451   59.377
  469.000   33.179    0.351    0.466   57.562
  469.250   32.557    0.347    0.469   56.956
  469.500   31.924    0.343    0.478   57.560
  469.750   32.506    0.343    0.461   59.978
  470.000   32.483    0.348    0.448   60.583
  470.250   32.454    0.346    0.439   59.977
  470.500   33.029    0.343    0.438   58.162
  470.750   33.627    0.337    0.439   59.370
  471.000   34.226    0.335    0.447   59.974
  471.250   34.210    0.329    0.456   59.974
  471.500   34.174    0.330    0.456   59.367
  471.750   33.529    0.324    0.439   58.762
  472.000   33.506    0.310    0.426   58.157
  472.250   33.472    0.289    0.402   56.946
  472.500   34.080    0.243    0.356   56.341
  472.750   34.059    0.210    0.340   56.340
  473.000   33.403    0.244    0.382   56.339
  473.250   32.163    0.301    0.417   56.338
  473.500   30.404    0.329    0.443   56.942
  473.750   29.819    0.336    0.457   58.151
  474.000   29.804    0.330    0.473   59.965
  474.250   30.333    0.330    0.482   60.569
  474.500   30.314    0.325    0.472   59.963
  474.750   30.847    0.323    0.465   58.753
  475.000   30.832    0.321    0.467   58.147
  475.250   30.816    0.328    0.471   58.146
  475.500   29.665    0.325    0.461   58.145
  475.750   29.650    0.323    0.459   57.540
  476.000   30.737    0.321    0.476   56.329
  476.250   31.872    0.325    0.487   55.119
  476.500   33.054    0.341    0.454   55.723
  476.750   34.279    0.333    0.437   55.722
  477.000   35.549    0.328    0.454   54.511
  477.250   37.548    0.334    0.447   53.906
  477.500   38.940    0.340    0.436   53.300
  477.750   41.881    0.346    0.424   53.904
  478.000   43.437    0.352    0.441   55.113
  478.250   44.227    0.356    0.467   56.927
  478.500   45.017    0.361    0.490   56.321
  478.750   44.985    0.356    0.510   54.505
  479.000   41.746    0.353    0.523   55.110
  479.250   35.968    0.358    0.488   56.319
  479.500   29.866    0.353    0.478   58.132
  479.750   30.966    0.346    0.473   59.946
  480.000   32.715    0.324    0.476   60.550
  480.250   35.860    0.287    0.487   58.735
  480.500   37.880    0.175    0.359   56.919
  480.750   40.008    0.104    0.239   55.709
  481.000   39.245    0.141    0.223   56.918
  481.250   37.105    0.266    0.460   59.336
  481.500   34.425    0.320    0.469   60.545
  481.750   32.540    0.335    0.477   60.544
  482.000   31.922    0.335    0.467   58.729
  482.250   30.731    0.326    0.458   56.309
  482.500   31.273    0.318    0.471   54.494
  482.750   31.257    0.320    0.464   54.493
  483.000   31.241    0.334    0.470   56.306
  483.250   31.805    0.333    0.486   58.120
  483.500   32.977    0.332    0.503   56.910
  483.750   34.193    0.344    0.509   57.514
  484.000   34.175    0.347    0.509   58.722
  484.250   33.511    0.352    0.500   58.722
  484.500   33.497    0.351    0.494   59.326
  484.750   33.467    0.341    0.483   58.115
  485.000   33.446    0.339    0.470   59.929
  485.250   34.047    0.335    0.467   58.718
  485.500   34.654    0.332    0.493   56.298
  485.750   35.267    0.328    0.504   55.693
  486.000   35.907    0.335    0.475   56.297
  486.250   35.212    0.329    0.463   56.901
  486.500   35.195    0.337    0.470   56.900
  486.750   34.526    0.343    0.477   56.294
  487.000   33.249    0.339    0.477   55.688
  487.250   32.610    0.343    0.477   54.478
  487.500   33.199    0.337    0.483   53.872
  487.750   35.058    0.328    0.483   54.477
  488.000   37.035    0.326    0.480   56.895
  488.250   39.850    0.314    0.480   57.499
  488.500   40.576    0.302    0.455   57.498
  488.750   43.649    0.277    0.428   53.868
