~VERSION INFORMATION
 VERS.                 2.0:   CWLS LOG ASCII STANDARD -VERSION 2.0
 WRAP.                  NO:   ONE LINE PER DEPTH STEP
~WELL INFORMATION BLOCK
#MNEM.UNIT           DATA                    DESCRIPTION OF MNEMONIC
#---------    -------------------            -------------------------------
# Generated from Intellog Unique Number	CS_67_68/WELL/699
WELL.         ESSO RESOURCES CANADA          : Well_name    - WELL
LOC .         00/06-26-068-07W4/0            : Location     - LOCATION
UWI .         00/06-26-068-07W4/0            : Uwi          - UNIQUE WELL ID
ENTR.         SP                             : Entered      - ENTERED BY
SRVC.         SCHLUMBERGER                   : Scn          - SERVICE COMPANY
STRT.M        290                            : top_depth    - START DEPTH
STOP.M        515                            : bot_depth    - STOP DEPTH
STEP.M        0.25                           : increment    - STEP LENGTH
 NULL. -999.2500:NULL Value
~CURVE INFORMATION BLOCK
#MNEM UNIT       ERCB CURVE CODE    CURVE DESCRIPTION
#-----------   ------------------   ----------------------------------
DEPT.M        00 001 00 00         : DEPTH        - DEPTH
ILD .OHMM     00 120 00 00         : RESD         - DEEP RESISTIVITY (DIL)
DPHI.V/V      00 890 00 00         : PHID         - DENSITY POROSITY (LIMESTONE)
NPHI.V/V      00 330 00 00         : PHIN         - NEUTRON POROSITY (LIMESTONE)
GR  .API      00 310 00 00         : GR           - GAMMA RAY
~PARAMETER INFORMATION
#MNEM.UNIT           DATA             DESCRIPTION OF MNEMONIC
#---------         -----------     ------------------------------
GL  .M        632.88               : gl           - GROUND LEVEL ELEVATION
EREF.M        636.48               : kb           - ELEVATION OF DEPTH REFERENCE
DATM.M        632.88               : datum        - DATUM ELEVATION
TDD .M        526                  : tdd          - TOTAL DEPTH DRILLER
RUN .         ONE                  : Run          - RUN NUMBER
ENG .         BILL                 : Engineer     - RECORDING ENGINEER
WIT .         JIM                  : Witness      - WITNESSED BY
MUD .         GEL                  : Mud_type     - MUD TYPE
MATR.         LIMESTONE            : Logunit      - NEUTRON MATRIX
TMAX.C        26                   : BHT          - MAXIMUM RECORDED TEMPERATURE
BHTD.M        526                  : BHTDEP       - MAXIMUM RECORDED TEMPERATURE
MATR.         1                    : LOGUNIT      - NEUTRON MATRIX
RMT .C        25                   : MDTP         - TEMPERATURE OF MUD
NEUT.         1                    : NEUTRON      - NEUTRON TYPE
RESI.         0                    : RESIST       - RESISTIVITY TYPE
RMC .OHMM     0.25                 : RMC          - RESISTIVITY OF MUD CAKE
RMF .OHMM     0.25                 : RMF          - RESISTIVITY OF MUD FILTRATE
SUFT.C        15                   : SUFT         - SURFACE TEMPERATURE
~A  DEPTH     RESD     PHID     PHIN       GR
# ...
  377.000    6.126    0.340    0.356   50.845
  377.250    5.895    0.310    0.377   67.238
  377.500    5.630    0.276    0.375   82.102
  377.750    5.397    0.263    0.382   89.621
  378.000    5.068    0.261    0.383   94.142
  378.250    4.840    0.257    0.384  100.193
  378.500    4.792    0.252    0.394  101.837
  378.750    4.850    0.249    0.417   99.014
  379.000    4.956    0.256    0.416   95.884
  379.250    5.045    0.265    0.354   93.429
  379.500    5.117    0.275    0.344   91.585
  379.750    5.199    0.281    0.373   91.394
  380.000    5.293    0.270    0.405   90.100
  380.250    5.388    0.277    0.441   81.831
  380.500    5.476    0.298    0.410   72.521
  380.750    5.564    0.309    0.395   65.414
  381.000    5.675    0.310    0.390   71.281
  381.250    5.788    0.309    0.427   76.291
  381.500    5.849    0.311    0.419   72.917
  381.750    5.844    0.321    0.396   67.707
  382.000    5.698    0.326    0.392   69.840
  382.250    5.492    0.324    0.384   72.097
  382.500    5.255    0.320    0.382   79.189
  382.750    4.991    0.312    0.410   85.424
  383.000    4.866    0.304    0.430   84.436
  383.250    4.674    0.300    0.414   84.672
  383.500    4.590    0.299    0.394   84.420
  383.750    4.459    0.295    0.383   87.105
  384.000    4.339    0.283    0.381   97.684
  384.250    4.223    0.271    0.383  105.572
  384.500    4.125    0.267    0.378  107.828
  384.750    3.984    0.269    0.377  102.189
  385.000    3.929    0.277    0.380   93.981
  385.250    3.999    0.292    0.440   88.404
  385.500    4.157    0.304    0.511   86.070
  385.750    4.426    0.317    0.381   78.229
  386.000    5.092    0.318    0.347   73.386
  386.250    5.980    0.263    0.397   76.866
  386.500    6.688    0.238    0.433   81.814
  386.750    7.299    0.238    0.412   84.990
  387.000    7.556    0.240    0.385   88.042
  387.250    7.708    0.239    0.371   89.320
  387.500    7.644    0.239    0.366   88.944
  387.750    7.537    0.240    0.380   88.141
  388.000    7.417    0.244    0.395   86.664
  388.250    7.287    0.248    0.405   86.595
  388.500    7.198    0.251    0.404   88.852
  388.750    7.124    0.248    0.396   86.702
  389.000    7.092    0.241    0.384   87.979
  389.250    7.124    0.239    0.371   95.192
  389.500    7.226    0.249    0.370   99.285
  389.750    7.328    0.249    0.376   94.992
  390.000    7.476    0.243    0.367   93.577
  390.250    7.539    0.240    0.373   94.303
  390.500    7.603    0.240    0.368   95.703
  390.750    7.682    0.235    0.344   96.307
  391.000    7.776    0.209    0.332   93.729
  391.250    7.962    0.167    0.350   85.153
  391.500    8.227    0.144    0.355   77.067
  391.750    8.424    0.143    0.345   77.855
  392.000    8.464    0.168    0.378   83.538
  392.250    8.346    0.207    0.386   87.631
  392.500    7.910    0.203    0.365   89.825
  392.750    7.470    0.214    0.354   91.103
  393.000    7.121    0.221    0.352   95.501
  393.250    6.916    0.227    0.361   99.594
  393.500    6.769    0.233    0.369  100.565
  393.750    6.662    0.239    0.372   98.599
  394.000    6.583    0.240    0.373   97.122
  394.250    6.565    0.234    0.377   99.133
  394.500    6.535    0.228    0.386   99.554
  394.750    6.538    0.225    0.394   94.650
  395.000    6.497    0.224    0.401   91.093
  395.250    6.369    0.226    0.396   85.700
  395.500    6.083    0.255    0.394   88.078
  395.750    5.765    0.276    0.396   94.985
  396.000    5.435    0.270    0.408  100.608
  396.250    5.209    0.270    0.408   98.335
  396.500    4.930    0.275    0.391   92.085
  396.750    4.779    0.275    0.374   92.077
  397.000    4.642    0.264    0.364   93.168
  397.250    4.568    0.256    0.403   94.082
  397.500    4.564    0.247    0.385   94.624
  397.750    4.551    0.243    0.352   94.860
  398.000    4.530    0.241    0.356   97.056
  398.250    4.535    0.256    0.380  100.229
  398.500    4.539    0.270    0.400   94.960
  398.750    4.552    0.281    0.410   90.056
  399.000    4.591    0.290    0.384   96.351
  399.250    4.629    0.287    0.392   98.546
  399.500    4.696    0.289    0.451   91.745
  399.750    4.727    0.303    0.460   88.983
  400.000    4.776    0.327    0.415   90.322
  400.250    4.844    0.308    0.396   91.171
  400.500    4.960    0.288    0.415   91.099
  400.750    5.087    0.289    0.393   90.665
  401.000    5.248    0.294    0.373   89.861
  401.250    5.292    0.296    0.367   85.203
  401.500    5.287    0.287    0.384   82.501
  401.750    5.194    0.307    0.398   84.575
  402.000    5.101    0.328    0.428   81.506
  402.250    4.984    0.343    0.462   80.764
  402.500    4.923    0.351    0.465   80.937
  402.750    4.882    0.350    0.446   81.115
  403.000    4.868    0.353    0.435   80.740
  403.250    4.882    0.357    0.446   77.979
  403.500    4.888    0.358    0.424   73.870
  403.750    4.902    0.355    0.437   71.658
  404.000    4.896    0.352    0.451   71.100
  404.250    4.913    0.352    0.424   70.052
  404.500    4.925    0.351    0.396   69.432
  404.750    4.948    0.351    0.377   68.812
  405.000    4.990    0.347    0.365   68.497
  405.250    5.014    0.330    0.363   69.286
  405.500    5.046    0.315    0.412   70.991
  405.750    5.167    0.302    0.461   72.636
  406.000    5.359    0.294    0.463   71.098
  406.250    5.613    0.317    0.469   65.888
  406.500    5.856    0.334    0.480   67.043
  406.750    6.085    0.330    0.452   68.381
  407.000    6.265    0.331    0.427   65.803
  407.250    6.390    0.331    0.428   65.917
  407.500    6.457    0.332    0.430   69.704
  407.750    7.154    0.331    0.415   73.123
  408.000    8.401    0.293    0.385   72.380
  408.250   10.034    0.236    0.268   71.638
  408.500   11.541    0.191    0.167   68.876
  408.750   12.690    0.043    0.152   62.871
  409.000   10.430    0.011    0.149   54.111
  409.250    8.999   -0.002    0.164   44.985
  409.500    7.793   -0.005    0.303   48.159
  409.750    6.638    0.338    0.352   58.005
  410.000    5.991    0.339    0.415   63.994
  410.250    5.448    0.340    0.443   67.230
  410.500    5.194    0.336    0.451   68.506
  410.750    5.036    0.334    0.455   67.336
  411.000    4.938    0.339    0.456   66.410
  411.250    4.851    0.343    0.449   67.809
  411.500    4.811    0.343    0.437   67.679
  411.750    4.825    0.341    0.431   67.243
  412.000    4.866    0.330    0.429   68.766
  412.250    4.897    0.325    0.429   64.290
  412.500    4.966    0.325    0.443   68.199
  412.750    5.037    0.339    0.443   72.412
  413.000    5.110    0.344    0.428   74.609
  413.250    5.181    0.342    0.428   75.396
  413.500    5.225    0.341    0.440   75.143
  413.750    5.270    0.339    0.414   75.380
  414.000    5.304    0.333    0.399   76.413
  414.250    5.360    0.327    0.396   77.505
  414.500    5.488    0.324    0.413   78.172
  414.750    5.576    0.325    0.396   79.265
  415.000    5.699    0.322    0.416   81.827
  415.250    5.780    0.314    0.424   85.002
  415.500    5.873    0.308    0.414   83.647
  415.750    5.924    0.299    0.412   83.150
  416.000    5.929    0.286    0.389   87.548
  416.250    5.912    0.275    0.378   89.683
  416.500    5.907    0.267    0.380   88.757
  416.750    5.935    0.263    0.396   91.625
  417.000    5.940    0.260    0.414   95.595
  417.250    5.946    0.257    0.453   93.323
  417.500    5.930    0.253    0.435   90.316
  417.750    5.890    0.251    0.402   86.696
  418.000    5.808    0.251    0.387   84.486
  418.250    5.674    0.253    0.400   85.519
  418.500    5.562    0.257    0.389   90.957
  418.750    5.283    0.257    0.393   94.376
  419.000    4.896    0.252    0.407   96.266
  419.250    4.329    0.251    0.409   97.237
  419.500    3.639    0.269    0.399   98.453
  419.750    3.340    0.279    0.392   99.240
  420.000    3.113    0.284    0.392  100.028
  420.250    3.041    0.284    0.410  100.510
