~VERSION INFORMATION
 VERS.                 2.0:   CWLS LOG ASCII STANDARD -VERSION 2.0
 WRAP.                  NO:   ONE LINE PER DEPTH STEP
~WELL INFORMATION BLOCK
#MNEM.UNIT           DATA                    DESCRIPTION OF MNEMONIC
#---------    -------------------            -------------------------------
# Generated from Intellog Unique Number	CW_70_72/WELL/694
NULL.         -999.25                        : NULL_VALUE
WELL.         MAXUS CALLING LAKE 06-23       : Well_name    - WELL              
LOC .         06-23-072-19W4                 : Location     - LOCATION          
UWI .         00/06-23-072-19W4/0            : Uwi          - UNIQUE WELL ID    
ENTR.         JAYE                           : Entered      - ENTERED BY        
SRVC.         WESTERN ATLAS                  : Scn          - SERVICE COMPANY   
DATE.         7 MAR 88                       : Date         - LOG DATE          
STRT.M        335                            : top_depth    - START DEPTH       
STOP.M        565                            : bot_depth    - STOP DEPTH        
STEP.M        0.25                           : increment    - STEP LENGTH       
~CURVE INFORMATION BLOCK
#MNEM UNIT       ERCB CURVE CODE    CURVE DESCRIPTION
#-----------   ------------------   ----------------------------------
DEPT.M        00 001 00 00         : DEPTH        - DEPTH                       
DPHI.V/V      00 890 00 00         : PHID         - DENSITY POROSITY (SANDSTONE)
NPHI.V/V      00 330 00 00         : PHIN         - NEUTRON POROSITY (SANDSTONE)
GR  .API      00 310 00 00         : GR           - GAMMA RAY                   
CALI.MM       00 280 01 00         : CAL          - CALIPER                     
ILD .OHMM     00 120 00 00         : RESD         - DEEP RESISTIVITY (DIL)      
~PARAMETER INFORMATION       
#MNEM.UNIT           DATA             DESCRIPTION OF MNEMONIC
#---------         -----------     ------------------------------
GL  .M        628.2                : gl           - GROUND LEVEL ELEVATION      
EREF.M        631.8                : kb           - ELEVATION OF DEPTH REFERENCE
DATM.M        628.2                : datum        - DATUM ELEVATION             
TDD .M        620                  : tdd          - TOTAL DEPTH DRILLER         
RUN .         ONE                  : Run          - RUN NUMBER                  
ENG .         RORMOWSKI            : Engineer     - RECORDING ENGINEER          
WIT .         HERRON               : Witness      - WITNESSED BY                
BASE.         SLAVE LAKE           : Branch       - HOME BASE OF LOGGING UNIT   
MUD .         GEL CHEM MUDD        : Mud_type     - MUD TYPE                    
MATR.         SANDSTONE            : Logunit      - NEUTRON MATRIX              
TMAX.C        25                   : BHT          - MAXIMUM RECORDED TEMPERATURE
BHTD.M        618.8                : BHTDEP       - MAXIMUM RECORDED TEMPERATURE
RMT .C        16                   : MDTP         - TEMPERATURE OF MUD          
MUDD.KG/M     1140                 : MWT          - MUD DENSITY                 
NEUT.         1                    : NEUTRON      - NEUTRON TYPE                
RESI.         0                    : RESIST       - RESISTIVITY TYPE            
RM  .OHMM     4.1                  : RM           - RESISTIVITY OF MUD          
RMC .OHMM     4.8                  : RMC          - RESISTIVITY OF MUD CAKE     
RMF .OHMM     3.5                  : RMF          - RESISTIVITY OF MUD FILTRATE 
SUFT.C        32                   : SUFT         - SURFACE TEMPERATURE         
~A  DEPTH     PHID     PHIN       GR      CAL     RESD
# ...
  371.500    0.333    0.432  110.362  194.171    4.070
  371.750    0.262    0.416  102.607  179.923    4.781
  372.000    0.248    0.424   94.914  169.951    5.382
  372.250    0.204    0.404   87.098  169.350    5.818
  372.500    0.217    0.400   85.026  170.071    6.061
  372.750    0.232    0.398   83.992  170.690    6.141
  373.000    0.253    0.387   82.715  171.310    6.165
  373.250    0.269    0.396   81.375  171.217    6.155
  373.500    0.286    0.407   78.448  171.226    6.077
  373.750    0.299    0.400   76.376  171.030    5.923
  374.000    0.302    0.392   77.541  170.835    5.564
  374.250    0.295    0.386   77.730  170.640    5.112
  374.500    0.280    0.381   82.501  171.667    4.766
  374.750    0.268    0.384   89.288  173.304    4.569
  375.000    0.272    0.392   99.924  180.339    4.629
  375.250    0.251    0.423  103.229  175.358    4.940
  375.500    0.260    0.434  102.806  168.443    5.330
  375.750    0.256    0.430  106.111  167.534    5.583
  376.000    0.243    0.416  100.800  166.729    5.837
  376.250    0.245    0.409   93.474  166.431    6.047
  376.500    0.250    0.402   87.552  166.338    6.116
  376.750    0.253    0.392   86.274  166.143    6.084
  377.000    0.245    0.391   89.457  165.847    6.018
  377.250    0.241    0.396   90.195  165.753    6.019
  377.500    0.240    0.403   91.177  165.558    6.021
  377.750    0.228    0.410   95.154  165.465    6.022
  378.000    0.220    0.416   91.982  165.575    6.012
  378.250    0.264    0.418   83.739  165.788    6.013
  378.500    0.284    0.409   74.945  165.897    5.993
  378.750    0.308    0.387   67.496  165.907    5.994
  379.000    0.326    0.374   60.536  165.507    5.984
  379.250    0.332    0.362   58.953  159.711    5.974
  379.500    0.325    0.366   60.057  157.377    5.965
  379.750    0.315    0.377   62.507  157.997    5.944
  380.000    0.297    0.373   56.341  159.534    5.934
  380.250    0.289    0.364   49.564  162.087    5.892
  380.500    0.297    0.363   44.131  166.576    5.753
  380.750    0.282    0.375   44.014  168.216    5.566
  381.000    0.276    0.373   47.991  168.121    5.248
  381.250    0.295    0.366   57.038  167.926    4.984
  381.500    0.285    0.382   72.930  169.156    4.949
  381.750    0.272    0.398   79.228  169.369    5.108
  382.000    0.253    0.412   90.475  167.238    5.321
  382.250    0.242    0.407   85.531  163.683    5.615
  382.500    0.291    0.413   71.545  162.368    5.774
  382.750    0.310    0.399   55.358  161.868    5.883
  383.000    0.320    0.383   49.071  161.673    5.961
  383.250    0.322    0.390   48.892  161.783    6.040
  383.500    0.316    0.392   50.119  161.792    6.064
  383.750    0.308    0.392   51.713  161.902    6.076
  384.000    0.296    0.387   54.346  161.910    6.123
  384.250    0.289    0.380   58.872  162.122    6.102
  384.500    0.286    0.372   59.855  162.334    6.014
  384.750    0.288    0.360   57.171  162.344    5.970
  385.000    0.286    0.372   58.948  162.353    5.873
  385.250    0.290    0.386   60.847  162.666    5.821
  385.500    0.295    0.389   61.158  162.878    5.779
  385.750    0.305    0.378   61.774  162.886    5.780
  386.000    0.313    0.378   61.536  162.692    5.771
  386.250    0.313    0.374   60.746  162.803    5.751
  386.500    0.308    0.372   61.362  162.912    5.720
  386.750    0.307    0.374   63.995  162.819    5.648
  387.000    0.308    0.378   66.260  162.623    5.525
  387.250    0.307    0.378   62.477  162.531    5.456
  387.500    0.306    0.375   62.116  162.335    5.377
  387.750    0.313    0.371   62.793  162.343    5.319
  388.000    0.327    0.375   63.226  162.455    5.310
  388.250    0.329    0.380   63.903  162.564    5.370
  388.500    0.325    0.383   64.886  162.778    5.462
  388.750    0.305    0.384   67.579  162.990    5.721
  389.000    0.286    0.374   65.507  163.405    6.037
  389.250    0.277    0.361   62.702  163.414    6.151
  389.500    0.293    0.361   60.996  163.320    6.119
  389.750    0.302    0.373   58.313  163.229    6.053
  390.000    0.306    0.386   54.774  163.237    5.954
  390.250    0.314    0.389   51.846  163.449    5.771
  390.500    0.320    0.367   50.691  163.559    5.615
  390.750    0.317    0.353   55.889  163.771    5.473
  391.000    0.309    0.365   56.628  163.881    5.393
  391.250    0.309    0.374   55.227  163.787    5.315
  391.500    0.312    0.378   54.500  163.796    5.258
  391.750    0.314    0.378   53.221  163.702    5.201
  392.000    0.319    0.376   53.654  163.508    5.154
  392.250    0.319    0.373   52.071  163.823    5.127
  392.500    0.322    0.367   48.165  163.831    5.119
  392.750    0.325    0.352   48.598  163.941    5.110
  393.000    0.321    0.362   48.665  163.949    5.093
  393.250    0.326    0.378   48.425  164.061    5.056
  393.500    0.327    0.393   49.591  164.272    5.039
  393.750    0.327    0.407   50.819  164.382    5.040
  394.000    0.328    0.399   50.641  164.595    5.022
  394.250    0.323    0.396   50.707  164.706    5.005
  394.500    0.327    0.410   48.879  164.918    5.006
  394.750    0.331    0.406   49.128  165.130    4.998
  395.000    0.335    0.391   53.044  165.648    4.990
  395.250    0.346    0.375   54.577  165.757    4.973
  395.500    0.345    0.382   52.688  165.766    4.983
  395.750    0.336    0.380   53.426  165.673    4.984
  396.000    0.345    0.372   54.164  165.580    4.985
  396.250    0.339    0.365   52.519  165.384    4.986
  396.500    0.332    0.365   50.875  165.393    4.978
  396.750    0.333    0.370   51.002  165.299    4.979
  397.000    0.333    0.378   53.451  165.002    4.953
  397.250    0.331    0.388   57.306  164.910    4.936
  397.500    0.324    0.394   59.877  165.021    4.891
  397.750    0.316    0.394   60.066  164.926    4.874
  398.000    0.307    0.391   55.122  164.936    4.857
  398.250    0.314    0.389   54.821  164.842    4.823
  398.500    0.325    0.384   55.559  164.953    4.797
  398.750    0.325    0.381   52.937  164.961    4.772
  399.000    0.331    0.377   52.942  164.971    4.746
  399.250    0.344    0.385   54.475  165.182    4.756
  399.500    0.340    0.394   54.969  165.088    4.784
  399.750    0.336    0.389   55.280  165.403    4.829
  400.000    0.336    0.391   56.201  165.716    4.848
  400.250    0.331    0.390   58.589  166.030    4.876
  400.500    0.333    0.383   57.678  166.344    4.913
  400.750    0.335    0.372   57.500  166.454    4.978
  401.000    0.326    0.376   59.582  166.667    5.332
  401.250    0.315    0.373   61.543  167.185    7.775
  401.500    0.286    0.357   58.798  168.109    9.269
  401.750    0.223    0.332   56.299  169.238   11.445
  402.000    0.076    0.253   54.470  169.756   14.993
  402.250    0.029    0.192   51.298  169.663   19.641
  402.500    0.002    0.168   47.332  169.569   22.986
  402.750    0.007    0.165   43.793  169.578   21.994
  403.000    0.010    0.161   43.004  169.688   17.047
  403.250    0.005    0.156   48.691  169.595   12.947
  403.500    0.020    0.163   46.436  168.381    9.833
  403.750    0.027    0.185   45.036  163.095    8.130
  404.000    0.021    0.221   49.868  165.954    7.015
  404.250    0.045    0.338   55.616  171.869    6.280
  404.500    0.273    0.361   60.876  170.757    6.064
  404.750    0.299    0.382   58.009  170.461    6.827
  405.000    0.283    0.278   54.104  170.877    8.587
  405.250    0.190    0.222   49.343  171.292   10.333
  405.500    0.062    0.160   44.033  171.607   12.641
  405.750   -0.061    0.126   40.739  171.616   10.726
  406.000   -0.081    0.107   42.210  171.624    8.869
  406.250   -0.049    0.126   47.348  171.836    7.107
  406.500    0.193    0.184   52.669  171.846    5.695
  406.750    0.316    0.320   57.317  171.853    5.079
  407.000    0.327    0.407   60.072  171.760    4.824
  407.250    0.321    0.409   63.926  171.973    4.667
  407.500    0.304    0.373   62.465  171.981    4.592
  407.750    0.293    0.392   62.959  171.989    4.601
