~VERSION INFORMATION
 VERS.                 2.0:   CWLS LOG ASCII STANDARD -VERSION 2.0
 WRAP.                  NO:   ONE LINE PER DEPTH STEP
~WELL INFORMATION BLOCK
#MNEM.UNIT           DATA                    DESCRIPTION OF MNEMONIC
#---------    -------------------            -------------------------------
# Generated from Intellog Unique Number	CS_77_79/WELL/845
WELL.         CANADIAN OCCIDENTAL            : Well_name    - WELL
LOC .         00/03-28-077-02W4/0            : Location     - LOCATION
UWI .         00/03-28-077-02W4/0            : Uwi          - UNIQUE WELL ID
ENTR.         SP                             : Entered      - ENTERED BY
SRVC.         SCHLUMBERGER                   : Scn          - SERVICE COMPANY
STRT.M        204.12                         : top_depth    - START DEPTH
STOP.M        463.12                         : bot_depth    - STOP DEPTH
STEP.M        0.25                           : increment    - STEP LENGTH
 NULL. -999.2500:NULL Value
~CURVE INFORMATION BLOCK
#MNEM UNIT       ERCB CURVE CODE    CURVE DESCRIPTION
#-----------   ------------------   ----------------------------------
DEPT.M        00 001 00 00         : DEPTH        - DEPTH
GR  .API      00 310 00 00         : GR           - GAMMA RAY
DPHI.V/V      00 890 00 00         : PHID         - DENSITY POROSITY (SANDSTONE)
NPHI.V/V      00 330 00 00         : PHIN         - NEUTRON POROSITY (SANDSTONE)
ILD .OHMM     00 120 00 00         : RESD         - DEEP RESISTIVITY (DIL)
~PARAMETER INFORMATION
#MNEM.UNIT           DATA             DESCRIPTION OF MNEMONIC
#---------         -----------     ------------------------------
GL  .M        592.531              : gl           - GROUND LEVEL ELEVATION
EREF.M        595.884              : kb           - ELEVATION OF DEPTH REFERENCE
DATM.M        592.531              : datum        - DATUM ELEVATION
TDD .M        472.44               : tdd          - TOTAL DEPTH DRILLER
RUN .         ONE                  : Run          - RUN NUMBER
ENG .         BILL                 : Engineer     - RECORDING ENGINEER
WIT .         JIM                  : Witness      - WITNESSED BY
MUD .         GEL                  : Mud_type     - MUD TYPE
MATR.         SANDSTONE            : Logunit      - NEUTRON MATRIX
TMAX.C        23.8889              : BHT          - MAXIMUM RECORDED TEMPERATURE
BHTD.M        472.44               : BHTDEP       - MAXIMUM RECORDED TEMPERATURE
MATR.         1                    : LOGUNIT      - NEUTRON MATRIX
RMT .C        25                   : MDTP         - TEMPERATURE OF MUD
NEUT.         1                    : NEUTRON      - NEUTRON TYPE
RESI.         0                    : RESIST       - RESISTIVITY TYPE
RMC .OHMM     0.25                 : RMC          - RESISTIVITY OF MUD CAKE
RMF .OHMM     0.25                 : RMF          - RESISTIVITY OF MUD FILTRATE
SUFT.C        15                   : SUFT         - SURFACE TEMPERATURE
~A  DEPTH       GR     PHID     PHIN     RESD
# ...
  247.620   77.520    0.254    0.422   10.547
  247.870   76.496    0.260    0.424    9.815
  248.120   76.604    0.270    0.415    9.648
  248.370   78.905    0.278    0.415    9.461
  248.620   82.560    0.257    0.422    9.697
  248.870   82.486    0.251    0.419   10.389
  249.120   81.801    0.257    0.430   10.790
  249.370   79.714    0.275    0.436   11.741
  249.620   78.261    0.293    0.445   12.240
  249.870   78.141    0.310    0.459   12.229
  250.120   79.683    0.314    0.452   12.172
  250.370   81.565    0.314    0.453   11.640
  250.620   86.025    0.308    0.463   10.830
  250.870   89.935    0.296    0.469   10.312
  251.120   96.738    0.279    0.448    9.844
  251.370   99.076    0.270    0.436    9.555
  251.620   99.746    0.273    0.435    9.268
  251.870  100.694    0.267    0.448    8.974
  252.120  102.497    0.248    0.455    8.923
  252.370  104.464    0.211    0.464    8.775
  252.620  105.812    0.223    0.475    8.607
  252.870  107.098    0.222    0.474    8.397
  253.120  108.715    0.228    0.459    8.300
  253.370  105.950    0.234    0.468    8.199
  253.620  106.189    0.231    0.476    8.273
  253.870  105.793    0.248    0.476    8.517
  254.120  101.353    0.256    0.481    8.967
  254.370   98.176    0.249    0.467    9.627
  254.620   93.557    0.257    0.462   10.207
  254.870   89.190    0.272    0.475   10.825
  255.120   82.735    0.303    0.478   11.728
  255.370   79.672    0.324    0.460   12.333
  255.620   79.330    0.324    0.449   12.387
  255.870   79.685    0.312    0.452   12.172
  256.120   81.826    0.301    0.456   11.935
  256.370   86.460    0.298    0.463   11.683
  256.620   91.212    0.292    0.466   11.718
  256.870   97.216    0.284    0.471   11.465
  257.120  100.951    0.263    0.481   11.486
  257.370   99.582    0.258    0.490   11.304
  257.620   94.847    0.250    0.495   11.193
  257.870   92.147    0.267    0.492   11.060
  258.120   88.772    0.271    0.483   10.800
  258.370   88.722    0.253    0.468   10.190
  258.620   90.309    0.246    0.461    9.900
  258.870   88.425    0.263    0.471    9.757
  259.120   80.569    0.289    0.482   10.554
  259.370   65.221    0.308    0.474   11.373
  259.620   53.931    0.332    0.457   12.440
  259.870   49.405    0.324    0.441   13.576
  260.120   56.343    0.311    0.429   13.741
  260.370   60.931    0.292    0.434   13.648
  260.620   67.123    0.276    0.444   13.220
  260.870   70.559    0.265    0.450   12.655
  261.120   76.069    0.275    0.438   11.830
  261.370   74.000    0.280    0.441   11.001
  261.620   72.682    0.273    0.452   10.602
  261.870   73.604    0.268    0.462   10.386
  262.120   73.981    0.268    0.462   10.408
  262.370   73.986    0.279    0.457   10.499
  262.620   73.027    0.287    0.463   10.829
  262.870   70.059    0.294    0.458   11.167
  263.120   66.986    0.286    0.453   11.716
  263.370   64.722    0.282    0.454   12.298
  263.620   61.543    0.257    0.458   13.100
  263.870   54.837    0.218    0.465   13.522
  264.120   50.350    0.186    0.491   13.932
  264.370   48.207    0.218    0.514   13.913
  264.620   47.471    0.256    0.488   13.856
  264.870   49.795    0.279    0.458   13.411
  265.120   52.722    0.293    0.414   13.331
  265.370   56.760    0.289    0.425   12.411
  265.620   60.927    0.259    0.438   12.046
  265.870   66.667    0.232    0.446   11.785
  266.120   67.773    0.249    0.452   11.514
  266.370   68.272    0.273    0.452   11.320
  266.620   68.595    0.280    0.445   11.528
  266.870   68.921    0.266    0.432   12.286
  267.120   65.886    0.270    0.446   12.063
  267.370   58.501    0.282    0.444   13.148
  267.620   52.030    0.277    0.428   13.874
  267.870   50.701    0.283    0.445   14.641
  268.120   46.405    0.304    0.466   16.621
  268.370   43.147    0.315    0.479   17.806
  268.620   40.148    0.317    0.432   20.230
  268.870   42.750    0.302    0.404   22.173
  269.120   43.509    0.312    0.416   23.472
  269.370   42.678    0.321    0.426   24.259
  269.620   40.980    0.327    0.420   24.467
  269.870   38.877    0.312    0.416   25.307
  270.120   36.954    0.310    0.405   25.721
  270.370   35.672    0.318    0.390   26.266
  270.620   34.741    0.323    0.388   26.273
  270.870   37.399    0.325    0.412   26.258
  271.120   39.280    0.321    0.420   26.251
  271.370   40.860    0.329    0.431   26.227
  271.620   41.507    0.330    0.421   26.121
  271.870   39.340    0.330    0.407   25.736
  272.120   38.231    0.331    0.402   25.721
  272.370   38.776    0.329    0.412   25.658
  272.620   39.661    0.323    0.398   25.242
  272.870   42.944    0.316    0.390   25.277
  273.120   48.749    0.309    0.387   24.714
  273.370   56.363    0.321    0.408   24.326
  273.620   66.636    0.333    0.427   23.518
  273.870   80.110    0.334    0.444   22.563
  274.120   81.058    0.335    0.468   21.448
  274.370   68.463    0.342    0.460   21.547
  274.620   56.914    0.221    0.332   25.089
  274.870   47.784    0.100    0.237   30.951
  275.120   42.906    0.010    0.178   37.557
  275.370   39.814    0.001    0.172   44.940
  275.620   38.106    0.007    0.176   49.901
  275.870   37.261    0.018    0.152   51.639
  276.120   38.050    0.013    0.133   52.625
  276.370   43.185    0.026    0.144   50.288
  276.620   47.147    0.054    0.170   43.917
  276.870   55.553    0.086    0.193   34.130
  277.120   62.673    0.125    0.244   24.339
  277.370   68.367    0.188    0.309   16.152
  277.620   75.420    0.231    0.412   12.517
  277.870   80.695    0.233    0.448   10.135
  278.120   84.911    0.238    0.462    8.381
  278.370   88.177    0.265    0.463    7.178
  278.620   90.600    0.251    0.450    6.762
  278.870   91.053    0.239    0.460    6.679
  279.120   88.889    0.235    0.474    6.489
  279.370   83.515    0.252    0.485    6.295
  279.620   82.007    0.270    0.485    6.197
  279.870   82.257    0.277    0.490    5.998
  280.120   82.619    0.274    0.482    5.640
  280.370   84.484    0.261    0.476    5.289
  280.620   85.897    0.263    0.483    5.215
  280.870   87.400    0.278    0.480    5.238
  281.120   81.499    0.282    0.490    5.477
  281.370   68.706    0.270    0.504    6.267
  281.620   63.127    0.296    0.511    7.831
  281.870   58.989    0.327    0.510    9.234
  282.120   57.408    0.349    0.490   10.851
  282.370   60.042    0.351    0.474   11.855
  282.620   61.646    0.343    0.486   11.603
  282.870   67.083    0.337    0.480    9.082
  283.120   70.727    0.295    0.463    7.008
  283.370   76.801    0.273    0.462    6.230
  283.620   78.830    0.284    0.470    5.519
  283.870   80.075    0.276    0.485    5.646
  284.120   76.700    0.266    0.499    6.228
  284.370   69.465    0.292    0.512    7.343
  284.620   66.939    0.328    0.491    9.088
  284.870   66.592    0.327    0.457   11.696
  285.120   65.011    0.320    0.452   13.105
  285.370   63.813    0.300    0.437   14.435
  285.620   60.966    0.299    0.426   15.448
  285.870   56.568    0.292    0.434   15.626
  286.120   50.037    0.284    0.441   15.784
  286.370   46.235    0.307    0.450   15.963
  286.620   45.529    0.315    0.453   15.961
  286.870   46.965    0.321    0.454   15.955
  287.120   46.859    0.326    0.444   15.948
  287.370   46.845    0.346    0.434   15.946
  287.620   48.963    0.328    0.422   15.956
  287.870   49.793    0.337    0.430   15.665
  288.120   48.640    0.324    0.432   15.615
  288.370   45.222    0.320    0.440   15.936
  288.620   41.596    0.317    0.435   16.167
  288.870   40.567    0.316    0.409   16.200
  289.120   42.648    0.328    0.394   16.203
  289.370   43.967    0.339    0.409   16.199
  289.620   45.979    0.344    0.421   16.195
  289.870   47.299    0.349    0.434   16.188
  290.120   48.051    0.340    0.446   16.006
  290.370   49.239    0.330    0.428   15.515
  290.620   50.199    0.333    0.417   15.035
  290.870   51.908    0.341    0.417   14.945
