~VERSION INFORMATION
 VERS.                 2.0:   CWLS LOG ASCII STANDARD -VERSION 2.0
 WRAP.                  NO:   ONE LINE PER DEPTH STEP
~WELL INFORMATION BLOCK
#MNEM.UNIT           DATA                    DESCRIPTION OF MNEMONIC
#---------    -------------------            -------------------------------
# Generated from Intellog Unique Number	CN_94_101/WELL/2618
WELL.         PARAMOUNT RESOURCES LTD.       : Well_name    - WELL
LOC .         00/07-05-094-18W4/0            : Location     - LOCATION
UWI .         00/07-05-094-18W400            : Uwi          - UNIQUE WELL ID
ENTR.         JOETTE                         : Entered      - ENTERED BY
SRVC.         COMPUTALOG                     : Scn          - SERVICE COMPANY
DATE.         06\18\92                       : Date         - LOG DATE
STRT.M        100                            : top_depth    - START DEPTH
STOP.M        254                            : bot_depth    - STOP DEPTH
STEP.M        0.25                           : increment    - STEP LENGTH
 NULL. -999.2500:NULL Value
~CURVE INFORMATION BLOCK
#MNEM UNIT       ERCB CURVE CODE    CURVE DESCRIPTION
#-----------   ------------------   ----------------------------------
DEPT.M        00 001 00 00         : DEPTH        - DEPTH
CALI.MM       00 280 01 00         : CAL          - CALIPER
GR  .API      00 310 00 00         : GR           - GAMMA RAY
NPHI.V/V      00 330 00 00         : PHIN         - NEUTRON POROSITY (SANDSTONE)
DPHI.V/V      00 890 00 00         : PHID         - DENSITY POROSITY (SANDSTONE)
ILD .OHMM     00 120 00 00         : RESD         - DEEP RESISTIVITY (DIL)
~PARAMETER INFORMATION
#MNEM.UNIT           DATA             DESCRIPTION OF MNEMONIC
#---------         -----------     ------------------------------
GL  .M        522                  : gl           - GROUND LEVEL ELEVATION
EREF.M        525.8                : kb           - ELEVATION OF DEPTH REFERENCE
DATM.M        525.8                : datum        - DATUM ELEVATION
TDD .M        253                  : tdd          - TOTAL DEPTH DRILLER
RUN .         ONE                  : Run          - RUN NUMBER
ENG .         JO                   : Engineer     - RECORDING ENGINEER
WIT .         TIM                  : Witness      - WITNESSED BY
MUD .         GEL                  : Mud_type     - MUD TYPE
MATR.         SANDSTONE            : Logunit      - NEUTRON MATRIX
TMAX.C        26                   : BHT          - MAXIMUM RECORDED TEMPERATURE
BHTD.M        253                  : BHTDEP       - MAXIMUM RECORDED TEMPERATURE
RMT .C        16                   : MDTP         - TEMPERATURE OF MUD
MUDD.KG/M     1090                 : MWT          - MUD DENSITY
NEUT.         1                    : NEUTRON      - NEUTRON TYPE
RESI.         0                    : RESIST       - RESISTIVITY TYPE
RM  .OHMM     3.4                  : RM           - RESISTIVITY OF MUD
RMC .OHMM     3.4                  : RMC          - RESISTIVITY OF MUD CAKE
RMF .OHMM     3.4                  : RMF          - RESISTIVITY OF MUD FILTRATE
SUFT.C        4                    : SUFT         - SURFACE TEMPERATURE
~A  DEPTH      CAL       GR     PHIN     PHID     RESD
# ...
  173.000  161.773   74.649    0.332    0.098   12.056
  173.250  163.010   80.114    0.365    0.163   10.784
  173.500  163.131   86.772    0.410    0.176    9.121
  173.750  165.322   94.051    0.439    0.205    8.159
  174.000  166.397   91.166    0.457    0.220    7.306
  174.250  166.560   84.727    0.427    0.229    7.612
  174.500  164.815   83.583    0.406    0.244    7.770
  174.750  164.896   84.276    0.401    0.260    7.633
  175.000  165.058   88.597    0.396    0.255    6.965
  175.250  165.260   89.912    0.394    0.250    6.231
  175.500  165.382   89.960    0.409    0.246    5.171
  175.750  165.585   90.703    0.423    0.240    4.631
  176.000  165.747   91.348    0.437    0.232    4.224
  176.250  165.909   93.235    0.445    0.202    4.072
  176.500  166.071   95.718    0.444    0.205    4.007
  176.750  166.274   99.418    0.460    0.212    4.172
  177.000  165.401  103.690    0.483    0.217    4.680
  177.250  165.563  107.366    0.486    0.218    5.771
  177.500  165.726  103.289    0.479    0.211    6.480
  177.750  165.928   80.696    0.490    0.179    6.498
  178.000  166.090   75.401    0.365    0.130    6.383
  178.250  166.293   69.534    0.367    0.096    6.647
  178.500  166.374   77.385    0.407    0.085    7.320
  178.750  166.617   90.629    0.460    0.219    8.380
  179.000  165.745   97.908    0.471    0.230    8.549
  179.250  164.872   96.836    0.406    0.237    9.071
  179.500  165.034   98.127    0.398    0.231    9.435
  179.750  164.203  104.164    0.409    0.225    9.825
  180.000  165.359  120.986    0.411    0.220   10.028
  180.250  165.521  121.084    0.380    0.223   10.247
  180.500  165.683  103.859    0.365    0.223   10.465
  180.750  166.839   93.245    0.355    0.221   10.494
  181.000  167.001   91.553    0.352    0.225   10.706
  181.250  167.164   92.271    0.343    0.232   11.141
  181.500  167.366   93.537    0.332    0.221   11.829
  181.750  166.534   95.448    0.333    0.191   10.587
  182.000  167.731   97.334    0.346    0.185   10.206
  182.250  168.806   97.383    0.401    0.203    9.140
  182.500  171.951   94.522    0.405    0.214    8.651
  182.750  173.107   91.637    0.409    0.211    8.354
  183.000  170.327   90.542    0.437    0.211    8.368
  183.250  169.495   94.242    0.453    0.213    8.709
  183.500  170.611   97.273    0.461    0.219    9.596
  183.750  174.830  101.570    0.459    0.223   10.376
  184.000  174.952  101.667    0.429    0.226   10.792
  184.250  173.126   95.800    0.389    0.244   11.022
  184.500  172.294   95.276    0.383    0.250   11.058
  184.750  167.486   94.181    0.386    0.242   11.077
  185.000  161.683   90.103    0.385    0.225   11.312
  185.250  157.910   86.025    0.377    0.214   11.779
  185.500  157.991   81.947    0.352    0.170   12.252
  185.750  160.182   80.255    0.340    0.157   13.742
  186.000  161.338   82.714    0.349    0.201   13.780
  186.250  159.471   87.010    0.376    0.248   12.561
  186.500  155.657   89.518    0.385    0.246   11.242
  186.750  155.860   90.236    0.372    0.242   10.259
  187.000  158.010   91.478    0.377    0.241    9.357
  187.250  160.120   91.575    0.394    0.242    9.030
  187.500  164.299   89.883    0.399    0.244    8.876
  187.750  167.484   92.390    0.397    0.246    9.243
  188.000  169.593   94.849    0.387    0.240    9.434
  188.250  172.778   99.766    0.386    0.226    9.455
  188.500  174.929   99.243    0.384    0.212    9.481
  188.750  178.114   95.786    0.386    0.216    9.324
  189.000  178.235   95.859    0.394    0.209    9.340
  189.250  178.357   96.577    0.403    0.207    9.360
  189.500  173.589   96.698    0.362    0.213    9.381
  189.750  166.793   96.151    0.355    0.217    9.586
  190.000  162.978   96.248    0.374    0.210    9.789
  190.250  163.100  100.545    0.405    0.202    8.757
  190.500  165.250  103.003    0.434    0.198    7.691
  190.750  169.389  105.486    0.444    0.193    7.560
  191.000  173.527   95.444    0.382    0.177    8.330
  191.250  174.724   88.360    0.323    0.122    9.002
  191.500  173.892   87.885    0.322    0.095    8.863
  191.750  171.072   92.754    0.385    0.197    8.707
  192.000  170.199   98.815    0.429    0.208    8.093
  192.250  166.426   98.913    0.440    0.213    7.243
  192.500  166.628   91.853    0.383    0.218    6.856
  192.750  166.709   86.558    0.373    0.225    6.253
  193.000  166.872   89.065    0.393    0.225    5.495
  193.250  167.074   95.127    0.426    0.226    5.009
  193.500  167.236  101.188    0.453    0.233    4.483
  193.750  167.358  103.720    0.472    0.240    4.012
  194.000  167.561  102.004    0.488    0.251    3.946
  194.250  167.682   99.715    0.461    0.236    5.553
  194.500  167.925   96.830    0.426    0.226    7.966
  194.750  168.047   93.945    0.400    0.231    7.984
  195.000  168.169   91.632    0.389    0.246    6.756
  195.250  166.383   89.940    0.372    0.231    6.162
  195.500  164.557   93.616    0.399    0.211    5.941
  195.750  166.707   97.292    0.410    0.205    5.737
  196.000  173.869  101.613    0.426    0.205    5.859
  196.250  175.025  100.494    0.442    0.205    6.213
  196.500  175.146   97.012    0.450    0.203    6.715
  196.750  174.355   97.706    0.453    0.196    7.535
  197.000  173.564  100.189    0.461    0.176    8.781
  197.250  173.685  100.907    0.457    0.123   10.042
  197.500  173.807   97.377    0.380    0.087   11.071
  197.750  174.963   92.703    0.349    0.058   11.300
  198.000  174.131   93.396    0.338    0.157   11.325
  198.250  169.323   95.283    0.352    0.179   11.566
  198.500  165.549   93.591    0.366    0.198   12.044
  198.750  164.677   94.309    0.368    0.210   12.064
  199.000  164.879   95.003    0.379    0.207   12.555
  199.250  165.995   96.889    0.405    0.200   12.836
  199.500  167.151  101.186    0.403    0.194   12.381
  199.750  169.302  103.693    0.393    0.199   12.177
  200.000  171.533  100.163    0.382    0.198   11.746
  200.250  171.614   97.875    0.382    0.192   11.336
  200.500  172.770   96.779    0.387    0.194   10.736
  200.750  172.932   96.876    0.380    0.197   10.361
  201.000  173.135   97.570    0.375    0.197   10.196
  201.250  172.303   98.860    0.378    0.192   10.218
  201.500  171.431   99.579    0.381    0.188   10.241
  201.750  170.599   97.886    0.377    0.181   10.453
  202.000  169.807   97.412    0.368    0.180   10.890
  202.250  169.929   98.057    0.358    0.187   11.110
  202.500  170.091   99.395    0.359    0.192   12.242
  202.750  171.247  100.065    0.393    0.177   13.223
  203.000  171.490  100.138    0.369    0.153   14.847
  203.250  171.612   99.663    0.294    0.102   15.737
  203.500  171.774   94.392    0.250    0.068   17.349
  203.750  170.983   89.121    0.258    0.040   18.046
  204.000  169.076   85.591    0.284    0.199   16.781
  204.250  165.261   80.917    0.303    0.224   15.588
  204.500  162.522   85.786    0.334    0.233   14.217
  204.750  161.609   92.468    0.374    0.227   13.457
  205.000  161.771   91.994    0.361    0.217   11.826
  205.250  161.934   89.109    0.359    0.215   11.413
  205.500  163.171   87.989    0.368    0.223   12.104
  205.750  163.292   86.297    0.370    0.234   13.330
  206.000  164.408   85.797    0.331    0.244   14.405
  206.250  165.564   85.895    0.329    0.250   14.175
  206.500  165.726   86.613    0.355    0.258   13.673
  206.750  166.923   86.710    0.382    0.171   13.447
  207.000  167.085   84.421    0.373    0.141   15.387
  207.250  167.288   82.681    0.329    0.112   17.258
  207.500  168.404   76.217    0.312    0.091   17.960
  207.750  168.566   72.139    0.232    0.064   15.783
  208.000  167.734   79.394    0.232    0.069   14.661
  208.250  166.902   86.697    0.297    0.172   13.626
  208.500  166.110   86.198    0.382    0.195   12.912
  208.750  164.244   83.313    0.403    0.169   14.212
  209.000  163.452   79.783    0.263    0.123   16.252
  209.250  163.574   67.951    0.228    0.074   18.940
