~VERSION INFORMATION
 VERS.                 2.0:   CWLS LOG ASCII STANDARD -VERSION 2.0
 WRAP.                  NO:   ONE LINE PER DEPTH STEP
~WELL INFORMATION BLOCK
#MNEM.UNIT           DATA                    DESCRIPTION OF MNEMONIC
#---------    -------------------            -------------------------------
# Generated from Intellog Unique Number	CS_77_79/WELL/870
WELL.         NORCEN                         : Well_name    - WELL
LOC .         00/06-11-077-13W4/0            : Location     - LOCATION
UWI .         00/06-11-077-13W4/0            : Uwi          - UNIQUE WELL ID
ENTR.         SP                             : Entered      - ENTERED BY
SRVC.         SCHLUMBERGER                   : Scn          - SERVICE COMPANY
STRT.M        274.32                         : top_depth    - START DEPTH
STOP.M        517.82                         : bot_depth    - STOP DEPTH
STEP.M        0.25                           : increment    - STEP LENGTH
 NULL. -999.2500:NULL Value
~CURVE INFORMATION BLOCK
#MNEM UNIT       ERCB CURVE CODE    CURVE DESCRIPTION
#-----------   ------------------   ----------------------------------
DEPT.M        00 001 00 00         : DEPTH        - DEPTH
GR  .API      00 310 00 00         : GR           - GAMMA RAY
DPHI.V/V      00 890 00 00         : PHID         - DENSITY POROSITY (SANDSTONE)
NPHI.V/V      00 330 00 00         : PHIN         - NEUTRON POROSITY (SANDSTONE)
ILD .OHMM     00 120 00 00         : RESD         - DEEP RESISTIVITY (DIL)
~PARAMETER INFORMATION
#MNEM.UNIT           DATA             DESCRIPTION OF MNEMONIC
#---------         -----------     ------------------------------
GL  .M        677.692              : gl           - GROUND LEVEL ELEVATION
EREF.M        681.045              : kb           - ELEVATION OF DEPTH REFERENCE
DATM.M        677.692              : datum        - DATUM ELEVATION
TDD .M        524.256              : tdd          - TOTAL DEPTH DRILLER
RUN .         ONE                  : Run          - RUN NUMBER
ENG .         BILL                 : Engineer     - RECORDING ENGINEER
WIT .         JIM                  : Witness      - WITNESSED BY
MUD .         GEL                  : Mud_type     - MUD TYPE
MATR.         SANDSTONE            : Logunit      - NEUTRON MATRIX
TMAX.C        23.8889              : BHT          - MAXIMUM RECORDED TEMPERATURE
BHTD.M        524.256              : BHTDEP       - MAXIMUM RECORDED TEMPERATURE
MATR.         1                    : LOGUNIT      - NEUTRON MATRIX
RMT .C        25                   : MDTP         - TEMPERATURE OF MUD
NEUT.         1                    : NEUTRON      - NEUTRON TYPE
RESI.         0                    : RESIST       - RESISTIVITY TYPE
RMC .OHMM     0.25                 : RMC          - RESISTIVITY OF MUD CAKE
RMF .OHMM     0.25                 : RMF          - RESISTIVITY OF MUD FILTRATE
SUFT.C        15                   : SUFT         - SURFACE TEMPERATURE
~A  DEPTH       GR     PHID     PHIN     RESD
# ...
  448.320  102.668    0.181    0.421    6.735
  448.570  102.476    0.191    0.432    6.329
  448.820   99.478    0.211    0.443    6.067
  449.070   97.310    0.205    0.447    5.949
  449.320   98.741    0.201    0.451    5.783
  449.570  100.531    0.199    0.450    5.535
  449.820   99.754    0.207    0.443    4.968
  450.070   97.015    0.245    0.447    4.240
  450.320   97.571    0.233    0.472    3.693
  450.570   97.413    0.246    0.492    3.160
  450.820   94.928    0.256    0.532    2.693
  451.070   93.849    0.242    0.544    2.503
  451.320   94.078    0.240    0.557    2.341
  451.570   93.817    0.245    0.557    2.245
  451.820   90.900    0.238    0.550    2.218
  452.070   91.432    0.232    0.541    2.216
  452.320   94.302    0.232    0.523    2.243
  452.570   99.662    0.227    0.531    2.303
  452.820  102.684    0.214    0.536    2.486
  453.070  105.836    0.205    0.545    2.686
  453.320  103.690    0.193    0.516    3.057
  453.570  102.239    0.179    0.474    3.561
  453.820  102.728    0.170    0.454    4.292
  454.070  102.241    0.165    0.445    5.119
  454.320   99.125    0.156    0.431    6.088
  454.570   98.603    0.137    0.419    6.920
  454.820   97.537    0.123    0.409    7.314
  455.070   96.729    0.157    0.398    7.025
  455.320  100.122    0.167    0.402    5.688
  455.570  103.327    0.169    0.436    5.093
  455.820  105.173    0.167    0.465    4.817
  456.070  106.101    0.160    0.478    5.063
  456.320  106.888    0.158    0.484    5.438
  456.570  102.538    0.151    0.477    6.087
  456.820   99.785    0.148    0.451    6.544
  457.070   97.822    0.169    0.432    7.024
  457.320   97.220    0.170    0.436    7.356
  457.570   97.223    0.161    0.437    7.713
  457.820   97.217    0.141    0.427    8.143
  458.070   94.386    0.111    0.411    8.672
  458.320   91.308    0.087    0.395    9.270
  458.570   89.937    0.090    0.355    9.798
  458.820   88.873    0.137    0.357   10.336
  459.070   88.628    0.146    0.385   10.423
  459.320   89.768    0.121    0.365   10.237
  459.570   91.832    0.150    0.353    9.574
  459.820   96.997    0.155    0.376    8.338
  460.070  101.563    0.161    0.391    7.754
  460.320  102.905    0.164    0.407    7.540
  460.570  100.046    0.168    0.417    7.090
  460.820   98.056    0.161    0.429    6.669
  461.070   95.981    0.156    0.433    6.627
  461.320   95.263    0.166    0.451    6.486
  461.570   95.515    0.161    0.464    6.768
  461.820   98.370    0.142    0.443    7.221
  462.070  101.218    0.140    0.435    7.928
  462.320   99.199    0.144    0.438    8.740
  462.570   92.830    0.140    0.420   10.061
  462.820   89.444    0.151    0.395   11.052
  463.070   87.084    0.176    0.380   11.709
  463.320   84.069    0.175    0.379   13.316
  463.570   82.750    0.187    0.390   14.829
  463.820   80.548    0.215    0.397   16.758
  464.070   77.492    0.206    0.402   18.162
  464.320   78.406    0.216    0.403   19.876
  464.570   78.663    0.228    0.395   22.203
  464.820   79.296    0.240    0.394   23.506
  465.070   82.537    0.245    0.385   25.576
  465.320   88.490    0.228    0.380   26.619
  465.570   91.034    0.212    0.380   29.302
  465.820   84.786    0.216    0.386   31.018
  466.070   79.941    0.219    0.391   30.465
  466.320   73.984    0.247    0.379   27.317
  466.570   80.545    0.222    0.382   24.874
  466.820   95.756    0.208    0.410   24.456
  467.070  104.042    0.224    0.419   25.099
  467.320   99.786    0.226    0.418   28.042
  467.570   92.535    0.224    0.412   29.440
  467.820   86.969    0.218    0.410   32.371
  468.070   83.418    0.207    0.411   34.724
  468.320   84.021    0.196    0.410   36.837
  468.570   82.442    0.187    0.400   35.402
  468.820   79.964    0.181    0.391   27.903
  469.070   83.940    0.172    0.396   21.809
  469.320   91.359    0.160    0.399   19.245
  469.570  101.003    0.128    0.394   15.860
  469.820  104.301    0.146    0.409   12.097
  470.070  111.687    0.146    0.433    9.064
  470.320  116.354    0.150    0.459    9.218
  470.570  121.107    0.170    0.447    9.817
  470.820  120.390    0.181    0.449   10.512
  471.070  116.167    0.193    0.454   10.889
  471.320  117.172    0.162    0.438   11.132
  471.570  117.027    0.107    0.423   10.834
  471.820  115.614    0.102    0.409   10.504
  472.070  112.311    0.147    0.406   10.084
  472.320  109.760    0.135    0.419    9.692
  472.570  109.353    0.137    0.425    9.553
  472.820  109.393    0.129    0.420    9.350
  473.070  108.678    0.136    0.412    9.374
  473.320  107.188    0.152    0.406    9.553
  473.570  105.881    0.147    0.412    9.588
  473.820  104.451    0.127    0.414    9.900
  474.070  104.590    0.135    0.419   10.023
  474.320  104.875    0.143    0.422   10.079
  474.570  102.123    0.152    0.411   10.083
  474.820   98.183    0.117    0.400   10.084
  475.070   94.458    0.133    0.387   10.096
  475.320   95.686    0.161    0.390    9.749
  475.570   97.491    0.170    0.403    9.715
  475.820   97.720    0.159    0.418    9.702
  476.070   98.813    0.151    0.414    9.834
  476.320   99.111    0.144    0.414   10.077
  476.570   99.476    0.152    0.432   10.280
  476.820   98.678    0.160    0.440   10.940
  477.070   96.624    0.147    0.417   11.698
  477.320   94.597    0.180    0.409   12.591
  477.570   93.590    0.198    0.422   13.827
  477.820   92.504    0.197    0.413   14.784
  478.070   89.404    0.185    0.394   15.450
  478.320   84.063    0.154    0.390   15.918
  478.570   80.383    0.179    0.400   16.374
  478.820   80.992    0.198    0.404   16.602
  479.070   84.147    0.204    0.417   17.100
  479.320   86.696    0.183    0.420   18.027
  479.570   84.336    0.195    0.415   19.458
  479.820   80.753    0.208    0.415   20.844
  480.070   74.936    0.220    0.402   22.911
  480.320   68.905    0.230    0.382   23.422
  480.570   66.410    0.203    0.375   24.119
  480.820   75.386    0.152    0.371   23.373
  481.070   83.007    0.122    0.366   20.638
  481.320   89.113    0.153    0.374   18.658
  481.570   94.292    0.169    0.376   17.295
  481.820   95.396    0.148    0.377   16.757
  482.070   94.888    0.162    0.390   16.615
  482.320   93.508    0.130    0.403   16.079
  482.570   90.953    0.117    0.410   15.506
  482.820   90.062    0.127    0.386   14.567
  483.070   93.305    0.131    0.361   13.892
  483.320   95.636    0.155    0.382   14.728
  483.570   94.334    0.175    0.405   15.997
  483.820   88.572    0.170    0.418   18.029
  484.070   81.474    0.184    0.389   19.470
  484.320   79.209    0.199    0.395   19.995
  484.570   77.199    0.199    0.399   20.479
  484.820   76.162    0.188    0.401   20.010
  485.070   78.641    0.166    0.393   19.721
  485.320   84.472    0.159    0.392   18.919
  485.570   88.773    0.189    0.399   18.551
  485.820   86.970    0.181    0.393   18.444
  486.070   86.892    0.176    0.391   18.945
  486.320   86.879    0.165    0.403   18.918
  486.570   83.816    0.156    0.408   18.902
  486.820   82.112    0.168    0.390   18.791
  487.070   83.160    0.159    0.374   16.955
  487.320   88.347    0.108    0.359   15.446
  487.570   93.786    0.121    0.368   14.506
  487.820   89.933    0.206    0.407   15.462
  488.070   87.304    0.196    0.391   16.572
  488.320   83.130    0.193    0.378   18.646
  488.570   77.947    0.225    0.385   22.297
  488.820   75.781    0.204    0.380   21.636
  489.070   77.606    0.201    0.379   19.687
  489.320   79.654    0.221    0.397   24.138
  489.570   77.073    0.233    0.407   27.616
  489.820   70.777    0.251    0.404   29.984
  490.070   72.563    0.199    0.394   28.882
  490.320   81.259    0.178    0.404   25.416
  490.570   85.341    0.196    0.415   24.077
  490.820   82.780    0.210    0.417   21.938
  491.070   81.479    0.195    0.407   20.459
  491.320   85.676    0.178    0.398   18.981
  491.570   89.410    0.158    0.389   17.094
