~VERSION INFORMATION
 VERS.                 2.0:   CWLS LOG ASCII STANDARD -VERSION 2.0
 WRAP.                  NO:   ONE LINE PER DEPTH STEP
~WELL INFORMATION BLOCK
#MNEM.UNIT           DATA                    DESCRIPTION OF MNEMONIC
#---------    -------------------            -------------------------------
# Generated from Intellog Unique Number	CW_79_81/WELL/2443
WELL.         04-01-080-22W4                 : Well_name    - WELL
LOC .         00/04-01-080-22W4/0            : Location     - LOCATION
UWI .         00/04-01-080-22W4/0            : Uwi          - UNIQUE WELL ID
ENTR.         MAX                            : Entered      - ENTERED BY
SRVC.         COMPUTALOG                     : Scn          - SERVICE COMPANY
STRT.M        215                            : top_depth    - START DEPTH
STOP.M        474.75                         : bot_depth    - STOP DEPTH
STEP.M        0.25                           : increment    - STEP LENGTH
 NULL. -999.2500:NULL Value
~CURVE INFORMATION BLOCK
#MNEM UNIT       ERCB CURVE CODE    CURVE DESCRIPTION
#-----------   ------------------   ----------------------------------
DEPT.M        00 001 00 00         : DEPTH        - DEPTH
ILD .OHMM     00 120 00 00         : RESD         - DEEP RESISTIVITY (DIL)
NPHI.V/V      00 330 00 00         : PHIN         - NEUTRON POROSITY (SANDSTONE)
DPHI.V/V      00 890 00 00         : PHID         - DENSITY POROSITY (SANDSTONE)
GR  .API      00 310 00 00         : GR           - GAMMA RAY
CALI.MM       00 280 01 00         : CAL          - CALIPER
~PARAMETER INFORMATION
#MNEM.UNIT           DATA             DESCRIPTION OF MNEMONIC
#---------         -----------     ------------------------------
GL  .M        585.4                : gl           - GROUND LEVEL ELEVATION
EREF.M        590                  : kb           - ELEVATION OF DEPTH REFERENCE
DATM.M        585.4                : datum        - DATUM ELEVATION
TDD .M        477                  : tdd          - TOTAL DEPTH DRILLER
RUN .         ONE                  : Run          - RUN NUMBER
ENG .         BILL                 : Engineer     - RECORDING ENGINEER
WIT .         JIM                  : Witness      - WITNESSED BY
MUD .         GEL                  : Mud_type     - MUD TYPE
MATR.         SANDSTONE            : Logunit      - NEUTRON MATRIX
TMAX.C        30                   : BHT          - MAXIMUM RECORDED TEMPERATURE
BHTD.M        477                  : BHTDEP       - MAXIMUM RECORDED TEMPERATURE
MATR.         1                    : LOGUNIT      - NEUTRON MATRIX
RMT .C        20                   : MDTP         - TEMPERATURE OF MUD
NEUT.         1                    : NEUTRON      - NEUTRON TYPE
RESI.         0                    : RESIST       - RESISTIVITY TYPE
RMC .OHMM     8                    : RMC          - RESISTIVITY OF MUD CAKE
RMF .OHMM     10                   : RMF          - RESISTIVITY OF MUD FILTRATE
SUFT.C        -20                  : SUFT         - SURFACE TEMPERATURE
~A  DEPTH     RESD     PHIN     PHID       GR      CAL
# ...
  324.500    9.164    0.398    0.201   87.925  215.589
  324.750    9.165    0.401    0.209   93.659  215.555
  325.000    9.064    0.401    0.210  101.373  215.821
  325.250    8.965    0.400    0.204  103.152  215.989
  325.500    8.899    0.395    0.195   98.097  215.958
  325.750    8.861    0.384    0.193   91.119  215.918
  326.000    8.998    0.391    0.195   85.104  215.887
  326.250    9.334    0.409    0.208   82.928  216.246
  326.500    9.788    0.411    0.225   81.829  216.316
  326.750   10.269    0.405    0.241   80.850  216.487
  327.000   10.716    0.405    0.251   78.971  216.754
  327.250   11.102    0.434    0.244   76.709  216.708
  327.500   11.018    0.435    0.223   84.683  216.680
  327.750   10.384    0.414    0.222   88.981  217.449
  328.000    9.732    0.396    0.212   91.119  218.515
  328.250    9.179    0.401    0.202   92.176  219.880
  328.500    8.803    0.421    0.196   92.275  221.345
  328.750    8.675    0.425    0.195   90.428  222.754
  329.000    8.675    0.440    0.197   89.657  223.972
  329.250    8.739    0.460    0.193   96.111  224.737
  329.500    8.852    0.479    0.191   95.374  224.906
  329.750    9.049    0.479    0.202   89.240  224.473
  330.000    9.320    0.455    0.220   82.326  223.238
  330.250    9.643    0.409    0.230   82.110  220.383
  330.500    9.868    0.389    0.238   82.341  218.267
  330.750   10.015    0.380    0.242   84.001  217.840
  331.000   10.219    0.393    0.237   82.423  217.708
  331.250   10.371    0.399    0.224   79.643  217.675
  331.500   10.505    0.386    0.195   77.163  217.742
  331.750   10.902    0.359    0.128   75.345  218.353
  332.000   11.329    0.346    0.082   72.326  219.564
  332.250   11.582    0.326    0.109   70.630  219.933
  332.500   11.711    0.372    0.155   69.651  220.003
  332.750   11.755    0.415    0.209   70.831  219.968
  333.000   11.733    0.423    0.251   73.089  219.930
  333.250   11.594    0.404    0.240   72.922  219.809
  333.500   11.331    0.401    0.201   73.404  219.358
  333.750   11.083    0.402    0.223   76.263  219.331
  334.000   10.660    0.363    0.204   78.580  219.299
  334.250   10.200    0.334    0.181   81.199  219.068
  334.500    9.704    0.343    0.181   86.037  218.737
  334.750    8.929    0.395    0.218   95.933  218.696
  335.000    8.213    0.414    0.224   95.161  218.661
  335.250    7.974    0.398    0.208   94.903  218.624
  335.500    7.699    0.406    0.210   98.961  218.595
  335.750    7.644    0.427    0.208  100.860  218.565
  336.000    7.829    0.446    0.201   98.083  218.632
  336.250    8.125    0.432    0.206   89.419  219.078
  336.500    8.444    0.421    0.223   76.160  219.459
  336.750    8.506    0.435    0.223   76.379  219.825
  337.000    8.381    0.429    0.218   83.074  220.193
  337.250    8.014    0.438    0.212   88.928  220.759
  337.500    7.532    0.456    0.209   90.165  221.622
  337.750    7.123    0.443    0.214   86.048  222.949
  338.000    6.962    0.440    0.219   83.527  223.753
  338.250    6.962    0.449    0.213   82.792  224.512
  338.500    6.923    0.427    0.204   84.030  224.682
  338.750    6.873    0.399    0.196   85.929  225.051
  339.000    6.822    0.379    0.191   87.830  225.817
  339.250    6.783    0.381    0.193   89.773  226.660
  339.500    6.835    0.420    0.197   90.000  227.049
  339.750    6.937    0.416    0.212   89.502  226.216
  340.000    7.233    0.362    0.206   86.307  224.484
  340.250    7.776    0.315    0.190   83.170  223.248
  340.500    8.562    0.298    0.166   81.890  222.910
  340.750    9.559    0.315    0.138   83.356  222.956
  341.000   10.246    0.341    0.168   83.582  223.333
  341.250   10.322    0.407    0.191   86.443  223.307
  341.500   10.114    0.448    0.194   86.426  223.579
  341.750    9.747    0.460    0.193   85.448  223.747
  342.000    9.398    0.450    0.191   85.606  223.411
  342.250    9.247    0.436    0.188   89.476  222.004
  342.500    9.176    0.418    0.188   90.960  221.146
  342.750    9.381    0.400    0.191   95.972  220.713
  343.000    9.590    0.387    0.193   96.673  220.879
  343.250    9.662    0.377    0.195   91.738  221.447
  343.500    9.573    0.372    0.197   85.664  222.413
  343.750    9.375    0.380    0.199   88.956  224.215
  344.000    9.093    0.404    0.200   89.932  225.432
  344.250    8.961    0.406    0.199   90.156  225.805
  344.500    8.830    0.408    0.197   87.321  226.170
  344.750    8.668    0.409    0.190   89.700  225.937
  345.000    8.480    0.411    0.184   97.411  225.108
  345.250    8.282    0.413    0.194  102.770  224.020
  345.500    8.219    0.416    0.190  104.500  222.729
  345.750    8.220    0.420    0.203  100.166  221.903
  346.000    8.356    0.431    0.211   96.012  221.069
  346.250    8.697    0.438    0.208   92.036  220.438
  346.500    9.242    0.436    0.204   86.622  220.110
  346.750   10.013    0.427    0.225   74.628  219.986
  347.000   10.733    0.429    0.245   65.115  219.539
  347.250   11.712    0.406    0.244   66.052  219.498
  347.500   12.653    0.386    0.215   69.511  219.468
  347.750   13.285    0.366    0.172   73.809  219.238
  348.000   13.357    0.355    0.144   79.304  218.906
  348.250   12.664    0.370    0.176   90.692  218.868
  348.500   12.098    0.365    0.185  102.163  218.829
  348.750   11.746    0.374    0.192  102.862  218.802
  349.000   11.661    0.385    0.190   97.087  219.065
  349.250   11.747    0.390    0.181   89.513  219.430
  349.500   11.900    0.386    0.171   84.396  219.699
  349.750   11.876    0.373    0.178   86.335  219.779
  350.000   11.349    0.351    0.185   90.135  220.331
  350.250   11.363    0.354    0.188   95.188  218.769
  350.500   11.378    0.363    0.177   97.729  217.509
  350.750   11.392    0.370    0.166   96.553  217.947
  351.000   11.384    0.376    0.165   92.860  219.883
  351.250   11.319    0.387    0.181   90.053  221.612
  351.500   11.330    0.390    0.191   89.080  222.060
  351.750   11.097    0.400    0.186   93.412  222.893
  352.000   10.870    0.434    0.166  100.261  222.834
  352.250   10.685    0.466    0.155  102.201  222.671
  352.500   10.540    0.471    0.164   99.949  222.804
  352.750   10.370    0.419    0.187  101.624  223.251
  353.000   10.224    0.378    0.188   97.905  223.295
  353.250   10.387    0.399    0.186   95.049  223.330
  353.500   10.786    0.413    0.189   90.222  223.964
  353.750   11.247    0.397    0.204   88.689  224.000
  354.000   11.580    0.366    0.218   90.266  222.643
  354.250   11.559    0.378    0.200   88.835  219.416
  354.500   11.398    0.384    0.206   86.364  219.036
  354.750   11.329    0.367    0.212   90.219  221.865
  355.000   11.135    0.372    0.208   92.636  222.898
  355.250   10.866    0.374    0.197   96.132  222.538
  355.500   10.565    0.372    0.184  100.167  221.880
  355.750   10.194    0.390    0.179  100.055  223.053
  356.000    9.823    0.397    0.180   94.588  224.753
  356.250    9.691    0.415    0.183   94.613  223.598
  356.500    9.614    0.407    0.174   97.689  224.530
  356.750    9.660    0.397    0.172  100.944  226.561
  357.000    9.868    0.398    0.183  103.181  227.998
  357.250   10.334    0.409    0.204  103.688  225.202
  357.500   10.755    0.399    0.213   97.721  218.996
  357.750   11.086    0.387    0.199   86.248  211.051
  358.000   11.743    0.424    0.199   84.293  207.293
  358.250   12.519    0.461    0.204   82.999  205.937
  358.500   13.431    0.473    0.204   79.130  205.879
  358.750   15.197    0.444    0.187   74.933  206.801
  359.000   16.697    0.387    0.166   74.206  207.261
  359.250   18.504    0.364    0.161   74.950  209.288
  359.500   21.494    0.274    0.148   73.355  213.118
  359.750   25.329    0.190    0.118   71.340  219.343
  360.000   29.739    0.143    0.068   68.128  224.768
  360.250   36.080    0.122   -0.010   58.901  222.336
  360.500   39.947    0.117   -0.013   52.185  221.960
  360.750   39.407    0.125   -0.010   54.127  222.402
