~VERSION INFORMATION
 VERS.                 2.0:   CWLS LOG ASCII STANDARD -VERSION 2.0
 WRAP.                  NO:   ONE LINE PER DEPTH STEP
~WELL INFORMATION BLOCK
#MNEM.UNIT           DATA                    DESCRIPTION OF MNEMONIC
#---------    -------------------            -------------------------------
# Generated from Intellog Unique Number	CX_WELLS/WELL/2617
WELL.         05-04-080-11W4                 : Well_name    - WELL
LOC .         00/05-04-080-11W4/0            : Location     - LOCATION
UWI .         00/05-04-080-11W400            : Uwi          - UNIQUE WELL ID
ENTR.         T                              : Entered      - ENTERED BY
SRVC.         SCHLUMBERGER                   : Scn          - SERVICE COMPANY
STRT.M        250                            : top_depth    - START DEPTH
STOP.M        480                            : bot_depth    - STOP DEPTH
STEP.M        0.25                           : increment    - STEP LENGTH
 NULL. -999.2500:NULL Value
~CURVE INFORMATION BLOCK
#MNEM UNIT       ERCB CURVE CODE    CURVE DESCRIPTION
#-----------   ------------------   ----------------------------------
DEPT.M        00 001 00 00         : DEPTH        - DEPTH
GR  .API      00 310 00 00         : GR           - GAMMA RAY
NPHI.V/V      00 330 00 00         : PHIN         - NEUTRON POROSITY (SANDSTONE)
DPHI.V/V      00 890 00 00         : PHID         - DENSITY POROSITY (SANDSTONE)
ILD .OHMM     00 120 00 00         : RESD         - DEEP RESISTIVITY (DIL)
~PARAMETER INFORMATION
#MNEM.UNIT           DATA             DESCRIPTION OF MNEMONIC
#---------         -----------     ------------------------------
GL  .M        682.9                : gl           - GROUND LEVEL ELEVATION
EREF.M        686.7                : kb           - ELEVATION OF DEPTH REFERENCE
DATM.M        686.7                : datum        - DATUM ELEVATION
TDD .M        492                  : tdd          - TOTAL DEPTH DRILLER
RUN .         ONE                  : Run          - RUN NUMBER
ENG .         BILL                 : Engineer     - RECORDING ENGINEER
WIT .         JIM                  : Witness      - WITNESSED BY
MUD .         GEL                  : Mud_type     - MUD TYPE
MATR.         SANDSTONE            : Logunit      - NEUTRON MATRIX
TMAX.C        24                   : BHT          - MAXIMUM RECORDED TEMPERATURE
BHTD.M        492                  : BHTDEP       - MAXIMUM RECORDED TEMPERATURE
MATR.         1                    : LOGUNIT      - NEUTRON MATRIX
RMT .C        25                   : MDTP         - TEMPERATURE OF MUD
NEUT.         1                    : NEUTRON      - NEUTRON TYPE
RESI.         4.5                  : RESIST       - RESISTIVITY TYPE
RMC .OHMM     8                    : RMC          - RESISTIVITY OF MUD CAKE
RMF .OHMM     6                    : RMF          - RESISTIVITY OF MUD FILTRATE
SUFT.C        4                    : SUFT         - SURFACE TEMPERATURE
~A  DEPTH       GR     PHIN     PHID     RESD
  250.000   94.805    0.473    0.229    4.170
  250.250   95.492    0.473    0.227    4.254
  250.500   94.922    0.469    0.225    4.181
  250.750   93.181    0.455    0.226    3.957
  251.000   93.240    0.426    0.231    3.889
  251.250   97.510    0.403    0.236    3.752
  251.500   98.768    0.409    0.243    3.756
  251.750   97.627    0.422    0.243    3.693
  252.000  103.682    0.435    0.238    3.698
  252.250  100.142    0.440    0.239    3.845
  252.500   96.603    0.431    0.241    3.849
  252.750   96.061    0.420    0.234    3.929
  253.000  102.116    0.424    0.230    4.010
  253.250  101.575    0.438    0.230    4.013
  253.500   99.249    0.451    0.229    3.944
  253.750   99.907    0.451    0.232    3.876
  254.000  101.750    0.448    0.236    3.809
  254.250  106.006    0.444    0.239    3.744
  254.500  108.492    0.441    0.244    3.679
  254.750  107.336    0.437    0.245    3.686
  255.000  105.596    0.437    0.246    3.761
  255.250  103.241    0.406    0.242    4.215
  255.500  100.301    0.392    0.235    4.814
  255.750   96.176    0.375    0.217    5.706
  256.000   92.622    0.364    0.199    6.769
  256.250   84.885    0.355    0.161    7.733
  256.500   76.533    0.363    0.129    8.190
  256.750   72.394    0.390    0.178    8.515
  257.000   84.475    0.393    0.220    9.195
  257.250   82.105    0.367    0.255    8.872
  257.500   74.968    0.340    0.303    8.554
  257.750   80.423    0.344    0.268    8.250
  258.000   92.489    0.352    0.251    8.259
  258.250   93.176    0.381    0.241    8.916
  258.500   92.606    0.386    0.232   13.243
  258.750   91.465    0.359    0.240   18.249
  259.000   83.727    0.331    0.264   24.687
  259.250   72.392    0.311    0.357   34.029
  259.500   58.644    0.125    0.403   36.722
  259.750   51.492    0.094    0.422   41.953
  260.000   42.555    0.085    0.434   47.005
  260.250   34.233    0.080    0.432   59.008
  260.500   31.878    0.079    0.424   66.114
  260.750   28.338    0.080    0.385   76.938
  261.000   30.210    0.083    0.390   68.837
  261.250   32.053    0.088    0.397   48.250
  261.500   34.510    0.109    0.408   45.656
  261.750   37.566    0.166    0.415   40.849
  262.000   40.053    0.221    0.415   35.201
  262.250   41.296    0.276    0.413   28.673
  262.500   44.352    0.334    0.407   20.105
  262.750   48.008    0.421    0.400   19.017
  263.000   53.464    0.469    0.394   13.845
  263.250   57.720    0.517    0.469   13.105
  263.500   63.175    0.523    0.529   13.879
  263.750   68.031    0.452    0.453   14.435
  264.000   66.890    0.383    0.301   15.298
  264.250   57.953    0.348    0.277   16.503
  264.500   57.412    0.357    0.277   22.756
  264.750   54.472    0.365    0.282   23.660
  265.000   47.934    0.364    0.291   24.591
  265.250   40.811    0.363    0.321   24.176
  265.500   40.840    0.364    0.327   23.310
  265.750   46.325    0.366    0.327   22.072
  266.000   46.983    0.366    0.327   21.684
  266.250   48.840    0.360    0.326   20.922
  266.500   52.482    0.354    0.326   20.186
  266.750   56.138    0.352    0.326   19.831
  267.000   58.595    0.353    0.325   18.778
  267.250   61.666    0.356    0.322   17.762
  267.500   64.737    0.359    0.322   17.125
  267.750   68.379    0.359    0.323   15.618
  268.000   74.434    0.365    0.327   15.069
  268.250   77.505    0.371    0.328   15.079
  268.500   80.562    0.379    0.325   15.101
  268.750   83.004    0.374    0.308   14.851
  269.000   90.273    0.372    0.293   14.590
  269.250   95.729    0.370    0.272   13.806
  269.500   96.387    0.371    0.242   12.586
  269.750   96.474    0.374    0.236   11.265
  270.000   96.518    0.372    0.241   13.353
  270.250   96.576    0.383    0.249   17.080
  270.500   88.824    0.391    0.278   17.422
  270.750   88.298    0.394    0.349   18.121
  271.000   91.939    0.393    0.343   18.483
  271.250   92.612    0.391    0.339   18.867
  271.500   91.486    0.388    0.341   18.887
  271.750   90.930    0.383    0.342   18.927
  272.000   89.789    0.388    0.344   18.947
  272.250   86.834    0.396    0.343   18.973
  272.500   82.110    0.394    0.338   18.306
  272.750   79.769    0.384    0.333   17.650
  273.000   81.627    0.378    0.329   17.017
  273.250   86.482    0.379    0.328   16.113
  273.500   88.325    0.384    0.328   15.536
  273.750   90.183    0.384    0.325   14.984
  274.000   91.440    0.378    0.330   14.726
  274.250   92.113    0.374    0.322   15.021
  274.500   93.370    0.373    0.327   15.327
  274.750   96.427    0.376    0.328   15.069
  275.000   98.299    0.382    0.315   15.090
  275.250   97.173    0.385    0.287   15.106
  275.500   96.002    0.383    0.264   15.106
  275.750   96.675    0.367    0.255   12.564
  276.000   99.717    0.356    0.249   10.420
  276.250  103.388    0.344    0.241    9.864
  276.500  104.031    0.370    0.226    9.163
  276.750  105.289    0.382    0.216    8.201
  277.000  106.561    0.393    0.204    7.474
  277.250  106.605    0.394    0.181    7.074
  277.500  106.678    0.394    0.156    6.572
  277.750  107.921    0.396    0.171    6.223
  278.000  112.177    0.400    0.196    6.000
  278.250  116.448    0.404    0.157    5.681
  278.500  118.305    0.409    0.133    5.579
  278.750  120.177    0.420    0.122    5.381
  279.000  118.436    0.431    0.151    5.097
  279.250  117.895    0.434    0.174    5.006
  279.500  120.937    0.435    0.192    4.828
  279.750  129.990    0.437    0.210    4.487
  280.000  134.261    0.472    0.210    4.248
  280.250  133.135    0.477    0.207    4.098
  280.500  133.793    0.476    0.209    3.951
  280.750  134.436    0.472    0.212    3.883
  281.000  135.109    0.471    0.216    3.814
  281.250  134.582    0.467    0.222    3.750
  281.500  134.611    0.461    0.227    3.827
  281.750  134.070    0.458    0.236    4.536
  282.000  131.144    0.449    0.253    5.480
  282.250  128.175    0.442    0.265    7.557
  282.500  122.836    0.433    0.283    8.791
  282.750  112.701    0.421    0.267   10.424
  283.000  104.364    0.413    0.264   11.909
  283.250  100.210    0.407    0.269   11.921
  283.500   99.069    0.405    0.289   11.720
  283.750   97.357    0.403    0.303   11.304
  284.000   96.187    0.400    0.300   10.501
  284.250   92.062    0.393    0.288    9.395
  284.500   96.304    0.386    0.217    8.250
  284.750  111.368    0.394    0.202    7.806
  285.000  116.824    0.406    0.188    7.389
  285.250  125.292    0.416    0.175    7.264
  285.500  124.151    0.425    0.208    7.412
  285.750  121.225    0.434    0.233    7.707
  286.000  120.684    0.438    0.247    8.168
  286.250  119.514    0.422    0.259    8.486
  286.500  115.974    0.403    0.263    9.338
  286.750  111.235    0.393    0.267   10.271
  287.000  107.696    0.397    0.273   10.675
  287.250  102.957    0.401    0.286   11.104
  287.500   97.019    0.410    0.304   11.326
  287.750   91.080    0.426    0.324   11.342
  288.000   86.926    0.419    0.326   11.362
  288.250   80.388    0.410    0.305   11.374
  288.500   81.646    0.397    0.289   11.390
  288.750   88.301    0.400    0.289   11.410
  289.000   97.968    0.409    0.289   11.642
  289.250  101.025    0.418    0.292   11.654
  289.500   95.087    0.426    0.298   12.590
  289.750   86.779    0.420    0.304   13.338
  290.000   86.208    0.404    0.310   14.394
  290.250   85.652    0.397    0.311   15.249
  290.500   82.127    0.393    0.301   16.150
  290.750   78.573    0.393    0.287   16.485
  291.000   88.840    0.398    0.276   16.502
  291.250   95.495    0.400    0.267   15.340
  291.500   94.354    0.406    0.271   14.790
  291.750   91.429    0.412    0.274   13.995
  292.000   90.273    0.414    0.278   13.256
  292.250   88.547    0.415    0.279   12.777
  292.500   87.991    0.416    0.278   12.098
  292.750   86.850    0.415    0.279   11.886
  293.000   85.153    0.416    0.283   11.681
  293.250   85.782    0.418    0.286   11.266
