~VERSION INFORMATION
 VERS.                 2.0:   CWLS LOG ASCII STANDARD -VERSION 2.0
 WRAP.                  NO:   ONE LINE PER DEPTH STEP
~WELL INFORMATION BLOCK
#MNEM.UNIT           DATA                    DESCRIPTION OF MNEMONIC
#---------    -------------------            -------------------------------
# Generated from Intellog Unique Number	CC_84_87/WELL/1170
NULL.         -999.25                        : NULL_VALUE
WELL.         COSEKA ET AL SALESKI           : Well_name    - WELL              
LOC .         07-31-087-18W4                 : Location     - LOCATION          
UWI .         00/07-31-087-18W400            : Uwi          - UNIQUE WELL ID    
ENTR.         JHS                            : Entered      - ENTERED BY        
SRVC.         COMPUTALOG                     : Scn          - SERVICE COMPANY   
DATE.         11 MAR 82                      : Date         - LOG DATE
STRT.M        175                            : top_depth    - START DEPTH       
STOP.M        229.001                        : bot_depth    - STOP DEPTH        
STEP.M        0.3                            : increment    - STEP LENGTH       
~CURVE INFORMATION BLOCK
#MNEM UNIT       ERCB CURVE CODE    CURVE DESCRIPTION
#-----------   ------------------   ----------------------------------
DEPT.M        00 001 00 00         : DEPTH        - DEPTH                       
DPHI.V/V      00 890 00 00         : PHID         - DENSITY POROSITY (LIMESTONE)
NPHI.V/V      00 330 00 00         : PHIN         - NEUTRON POROSITY (LIMESTONE)
GR  .API      00 310 00 00         : GR           - GAMMA RAY                   
ILD .OHMM     00 120 00 00         : RESD         - DEEP RESISTIVITY (DIL)      
~PARAMETER INFORMATION       
#MNEM.UNIT           DATA             DESCRIPTION OF MNEMONIC
#---------         -----------     ------------------------------
GL  .M        514.13               : gl           - GROUND LEVEL ELEVATION      
EREF.M        517.63               : kb           - ELEVATION OF DEPTH REFERENCE
DATM.M        517.63               : datum        - DATUM ELEVATION             
TDD .M        229                  : tdd          - TOTAL DEPTH DRILLER         
RUN .         ONE                  : Run          - RUN NUMBER                  
ENG .         BILL                 : Engineer     - RECORDING ENGINEER          
WIT .         JIM                  : Witness      - WITNESSED BY                
MUD .         GEL                  : Mud_type     - MUD TYPE                    
MATR.         LIMESTONE            : Logunit      - NEUTRON MATRIX              
TMAX.C        29                   : BHT          - MAXIMUM RECORDED TEMPERATURE
BHTD.M        229                  : BHTDEP       - MAXIMUM RECORDED TEMPERATURE
MATR.         1                    : LOGUNIT      - NEUTRON MATRIX              
RMT .C        25                   : MDTP         - TEMPERATURE OF MUD          
NEUT.         1                    : NEUTRON      - NEUTRON TYPE                
RESI.         0                    : RESIST       - RESISTIVITY TYPE            
RMC .OHMM     0.25                 : RMC          - RESISTIVITY OF MUD CAKE     
RMF .OHMM     0.25                 : RMF          - RESISTIVITY OF MUD FILTRATE 
SUFT.C        15                   : SUFT         - SURFACE TEMPERATURE         
~A  DEPTH     PHID     PHIN       GR     RESD
  175.000    0.185    0.385  110.464   11.083
  175.300    0.202    0.379  106.735   11.304
  175.600    0.207    0.397  102.379   11.983
  175.900    0.201    0.417  101.163   12.701
  176.200    0.164    0.421   98.689   14.264
  176.500    0.071    0.332   83.665   16.646
  176.800    0.016    0.286   70.525   19.803
  177.100    0.016    0.246   62.404   25.941
  177.400    0.012    0.219   59.930   32.072
  177.700    0.024    0.222   64.988   30.878
  178.000    0.063    0.276   70.679   25.983
  178.300    0.090    0.283   73.853   21.445
  178.600    0.102    0.339   77.030   18.395
  178.900    0.185    0.352   77.693   16.717
  179.200    0.230    0.391   75.854   16.095
  179.500    0.231    0.342   76.518   16.102
  179.800    0.218    0.341   80.948   15.804
  180.100    0.222    0.382   86.633   14.926
  180.400    0.239    0.420   89.186   14.097
  180.700    0.236    0.392   91.731   13.312
  181.000    0.206    0.417   94.910   12.816
  181.300    0.164    0.323   91.809   14.958
  181.600    0.086    0.251   81.803   18.852
  181.900    0.028    0.216   68.033   24.694
  182.200    0.021    0.221   64.937   27.203
  182.500    0.026    0.209   73.759   25.199
  182.800    0.057    0.259   86.350   20.015
  183.100    0.125    0.305   95.173   17.168
  183.400    0.179    0.365  102.748   15.905
  183.700    0.182    0.395  105.292   14.179
  184.000    0.191    0.401  104.077   13.390
  184.300    0.187    0.413  101.605   13.141
  184.600    0.147    0.395   99.759   13.149
  184.900    0.141    0.380  100.425   12.904
  185.200    0.158    0.372  101.095   12.666
  185.500    0.173    0.397  101.757   12.672
  185.800    0.130    0.423  101.799   12.438
  186.100    0.124    0.411  101.206   12.686
  186.400    0.101    0.382   99.360   13.192
  186.700    0.111    0.350  101.284   13.197
  187.000    0.151    0.375  107.595   12.226
  187.300    0.185    0.399  110.773   11.110
  187.600    0.175    0.420  107.676   10.293
  187.900    0.128    0.429  105.827   10.498
  188.200    0.126    0.395  105.242   11.127
  188.500    0.150    0.395  107.788   11.797
  188.800    0.174    0.379  109.079   11.801
  189.100    0.173    0.392  107.861   11.809
  189.400    0.172    0.386  106.644   12.278
  189.700    0.136    0.364  102.918   13.015
  190.000    0.109    0.361   97.934   13.796
  190.300    0.113    0.369   99.228   14.072
  190.600    0.176    0.420  105.542   14.080
  190.900    0.180    0.425  108.718   14.087
  191.200    0.194    0.377  107.502   14.092
  191.500    0.193    0.384  109.423   13.056
  191.800    0.170    0.414  110.718   12.569
  192.100    0.173    0.429  106.989   12.820
  192.400    0.195    0.361  101.379   14.397
  192.700    0.201    0.350  103.928   15.859
  193.000    0.196    0.374  108.358   16.490
  193.300    0.195    0.389  107.144   16.186
  193.600    0.186    0.387  104.044   16.507
  193.900    0.154    0.342  100.942   18.898
  194.200    0.050    0.221   94.701   23.365
  194.500    0.000    0.190   89.719   25.741
  194.800    0.018    0.208   96.036   25.263
  195.100    0.087    0.256  106.114   23.404
  195.400    0.167    0.335  116.820   20.074
  195.700    0.174    0.393  115.603   15.341
  196.000    0.182    0.387  113.759   13.676
  196.300    0.188    0.379  113.172   13.683
  196.600    0.181    0.368  116.345   14.504
  196.900    0.167    0.423  116.386   15.375
  197.200    0.102    0.349  108.890   15.383
  197.500    0.065    0.311  100.771   15.096
  197.800    0.102    0.298  100.181   14.258
  198.100    0.178    0.363  105.240   12.709
  198.400    0.185    0.377  116.575   11.114
  198.700    0.186    0.375  121.006    9.351
  199.000    0.183    0.373  123.556    8.178
  199.300    0.178    0.379  122.966    8.026
  199.600    0.168    0.422  112.335    8.842
  199.900    0.143    0.329   98.564   10.518
  200.200    0.046    0.282   87.933   14.045
  200.500    0.055    0.266   86.715   16.709
  200.800    0.154    0.330   97.427   18.058
  201.100    0.190    0.344  104.365   16.408
  201.400    0.184    0.371  107.548   13.806
  201.700    0.170    0.428  110.091   11.618
  202.000    0.152    0.435  113.267   10.557
  202.300    0.108    0.435  113.310    9.781
  202.600    0.107    0.390  116.484    9.236
  202.900    0.161    0.392  122.170    8.557
  203.200    0.175    0.422  125.974    8.398
  203.500    0.171    0.429  122.246    8.732
  203.800    0.118    0.368  115.378    9.256
  204.100    0.046    0.340  104.746    9.262
  204.400    0.052    0.343  107.295    9.266
  204.700    0.144    0.389  114.866    9.451
  205.000    0.159    0.423  129.967   10.411
  205.300    0.151    0.434  125.614   11.250
  205.600    0.077    0.335  108.703   12.156
  205.900    0.074    0.303  108.746   13.916
  206.200    0.122    0.364  116.310   15.628
  206.500    0.167    0.370  124.510   15.636
  206.800    0.165    0.356  126.430   15.347
  207.100    0.157    0.343  125.212   14.218
  207.400    0.152    0.348  122.112   13.687
  207.700    0.154    0.357  118.385   13.434
  208.000    0.157    0.363  115.918   13.702
  208.300    0.161    0.393  118.462   13.976
  208.600    0.177    0.418  116.621   14.814
  208.900    0.169    0.414  104.733   16.635
  209.200    0.037    0.256   94.726   21.375
  209.500    0.000    0.192   89.117   26.942
  209.800    0.008    0.203   93.547   26.444
  210.100    0.101    0.292  103.000   24.497
  210.400    0.173    0.342  113.082   21.420
  210.700    0.184    0.344  113.751   18.024
  211.000    0.175    0.357  111.274   16.697
  211.300    0.160    0.365  111.940   15.770
  211.600    0.151    0.340  110.721   15.477
  211.900    0.155    0.324  112.014   15.485
  212.200    0.151    0.354  110.173   16.101
  212.500    0.151    0.349  108.957   16.744
  212.800    0.152    0.353  107.738   16.432
  213.100    0.150    0.362  109.660   15.518
  213.400    0.154    0.387  115.971   14.101
  213.700    0.155    0.380  123.540   11.639
  214.000    0.160    0.406  127.347    8.397
  214.300    0.159    0.470  122.362    8.565
  214.600    0.198    0.452   80.349    9.804
  214.900    0.253    0.375   46.496   15.270
  215.200    0.267    0.369   37.121   29.962
  215.500    0.271    0.415   34.648   67.266
  215.800    0.272    0.413   36.572   81.582
  216.100    0.272    0.376   34.723   69.983
  216.400    0.272    0.347   36.649   70.028
  216.700    0.265    0.368   38.569   75.663
  217.000    0.278    0.413   38.604   78.672
  217.300    0.289    0.411   40.527   75.742
  217.600    0.284    0.392   47.469   70.170
  217.900    0.280    0.408   51.279   72.963
  218.200    0.284    0.403   53.828   72.995
  218.500    0.289    0.385   56.996   57.978
  218.800    0.267    0.390   64.569   42.636
  219.100    0.249    0.386   71.509   35.874
  219.400    0.208    0.366   75.316   30.184
  219.700    0.196    0.362   79.120   23.517
  220.000    0.195    0.346   84.174   18.322
  220.300    0.165    0.331   93.631   13.217
  220.600    0.146    0.352  109.983    9.719
  220.900    0.149    0.381  121.947    7.428
  221.200    0.158    0.396  126.377    5.359
  221.500    0.173    0.440  126.415    4.686
  221.800    0.179    0.465  129.591    4.425
  222.100    0.164    0.437  130.885    4.691
  222.400    0.135    0.373  125.904    5.370
  222.700    0.102    0.340  113.388    6.266
  223.000    0.112    0.314  105.898    7.037
  223.300    0.141    0.336  102.168    7.041
  223.600    0.165    0.437  105.347    7.322
  223.900    0.163    0.464  106.010    7.760
  224.201    0.227    0.345  102.285    9.413
  224.501    0.264    0.263   99.809   12.094
  224.801    0.219    0.247   99.223   17.109
  225.101    0.184    0.386  101.775   22.410
  225.401    0.231    0.350  103.694   21.575
  225.701    0.231    0.255  104.355   18.154
  226.001    0.205    0.216  102.517   15.875
  226.301    0.206    0.198  101.303   15.883
  226.601    0.220    0.218  103.223   15.892
  226.901    0.245    0.211  105.137   16.208
