~VERSION INFORMATION
 VERS.                 2.0:   CWLS LOG ASCII STANDARD -VERSION 2.0
 WRAP.                  NO:   ONE LINE PER DEPTH STEP
~WELL INFORMATION BLOCK
#MNEM.UNIT           DATA                    DESCRIPTION OF MNEMONIC
#---------    -------------------            -------------------------------
# Generated from Intellog Unique Number	CS_69_70/WELL/782
WELL.         UNIVERSAL EXPLORATIONS LT      : Well_name    - WELL
LOC .         00/06-30-069-09W4/0            : Location     - LOCATION
UWI .         00/06-30-069-09W4/0            : Uwi          - UNIQUE WELL ID
ENTR.         SP                             : Entered      - ENTERED BY
SRVC.         SCHLUMBERGER                   : Scn          - SERVICE COMPANY
STRT.M        420                            : top_depth    - START DEPTH
STOP.M        635                            : bot_depth    - STOP DEPTH
STEP.M        0.25                           : increment    - STEP LENGTH
 NULL. -999.2500:NULL Value
~CURVE INFORMATION BLOCK
#MNEM UNIT       ERCB CURVE CODE    CURVE DESCRIPTION
#-----------   ------------------   ----------------------------------
DEPT.M        00 001 00 00         : DEPTH        - DEPTH
ILD .OHMM     00 120 00 00         : RESD         - DEEP RESISTIVITY (DIL)
DPHI.V/V      00 890 00 00         : PHID         - DENSITY POROSITY (LIMESTONE)
NPHI.V/V      00 330 00 00         : PHIN         - NEUTRON POROSITY (LIMESTONE)
GR  .API      00 310 00 00         : GR           - GAMMA RAY
~PARAMETER INFORMATION
#MNEM.UNIT           DATA             DESCRIPTION OF MNEMONIC
#---------         -----------     ------------------------------
GL  .M        749.7                : gl           - GROUND LEVEL ELEVATION
EREF.M        753.2                : kb           - ELEVATION OF DEPTH REFERENCE
DATM.M        749.7                : datum        - DATUM ELEVATION
TDD .M        643                  : tdd          - TOTAL DEPTH DRILLER
RUN .         ONE                  : Run          - RUN NUMBER
ENG .         BILL                 : Engineer     - RECORDING ENGINEER
WIT .         JIM                  : Witness      - WITNESSED BY
MUD .         GEL                  : Mud_type     - MUD TYPE
MATR.         LIMESTONE            : Logunit      - NEUTRON MATRIX
TMAX.C        22                   : BHT          - MAXIMUM RECORDED TEMPERATURE
BHTD.M        643                  : BHTDEP       - MAXIMUM RECORDED TEMPERATURE
MATR.         1                    : LOGUNIT      - NEUTRON MATRIX
RMT .C        25                   : MDTP         - TEMPERATURE OF MUD
NEUT.         1                    : NEUTRON      - NEUTRON TYPE
RESI.         0                    : RESIST       - RESISTIVITY TYPE
RMC .OHMM     0.25                 : RMC          - RESISTIVITY OF MUD CAKE
RMF .OHMM     0.25                 : RMF          - RESISTIVITY OF MUD FILTRATE
SUFT.C        15                   : SUFT         - SURFACE TEMPERATURE
~A  DEPTH     RESD     PHID     PHIN       GR
# ...
  463.500    5.239    0.325    0.456   86.172
  463.750    5.142    0.311    0.473   89.716
  464.000    5.047    0.307    0.486   91.121
  464.250    4.991    0.301    0.499   92.034
  464.500    4.972    0.298    0.481   91.724
  464.750    4.935    0.296    0.469   90.862
  465.000    4.908    0.296    0.465   91.592
  465.250    4.890    0.296    0.460   93.791
  465.500    4.890    0.296    0.460   95.990
  465.750    4.899    0.295    0.454   95.986
  466.000    4.908    0.295    0.464   96.164
  466.250    4.927    0.294    0.494   97.262
  466.500    5.001    0.295    0.516   99.033
  466.750    5.105    0.295    0.496  100.008
  467.000    5.289    0.291    0.469   99.023
  467.250    5.329    0.295    0.440   91.182
  467.500    5.440    0.301    0.420   86.952
  467.750    5.573    0.306    0.410   84.376
  468.000    5.668    0.304    0.414   82.780
  468.250    5.732    0.298    0.420   84.428
  468.500    5.711    0.286    0.424   88.097
  468.750    5.668    0.279    0.411   90.174
  469.000    5.543    0.273    0.397   89.924
  469.250    5.390    0.269    0.392   92.613
  469.500    5.310    0.274    0.401   94.751
  469.750    5.291    0.269    0.454   94.195
  470.000    5.360    0.262    0.471   89.905
  470.250    5.544    0.275    0.458   83.900
  470.500    5.765    0.298    0.441   79.426
  470.750    5.918    0.317    0.448   76.543
  471.000    6.041    0.337    0.463   76.171
  471.250    6.167    0.346    0.457   77.329
  471.500    6.167    0.337    0.451   78.121
  471.750    6.132    0.332    0.462   79.463
  472.000    6.087    0.324    0.467   81.050
  472.250    5.963    0.323    0.461   81.597
  472.500    5.810    0.309    0.448   80.122
  472.750    5.702    0.299    0.433   81.954
  473.000    5.618    0.289    0.445   85.439
  473.250    5.545    0.279    0.460   88.006
  473.500    5.494    0.276    0.471   90.817
  473.750    5.483    0.276    0.473   94.302
  474.000    5.504    0.276    0.475   97.115
  474.250    5.514    0.280    0.455   99.497
  474.500    5.556    0.285    0.441   97.962
  474.750    5.577    0.281    0.433   93.181
  475.000    5.577    0.269    0.432   90.728
  475.250    5.546    0.268    0.434   91.274
  475.500    5.505    0.257    0.444   93.290
  475.750    5.454    0.248    0.451   91.142
  476.000    5.403    0.244    0.449   89.729
  476.250    5.373    0.256    0.449   91.315
  476.500    5.383    0.267    0.461   92.597
  476.750    5.505    0.261    0.452   95.592
  477.000    5.932    0.271    0.441   93.567
  477.250    6.773    0.423    0.494   76.420
  477.500    7.748    0.474    0.676   61.353
  477.750    9.047    0.535    0.714   47.879
  478.000    9.988    0.689    0.731   38.078
  478.250   10.803    0.747    0.743   31.216
  478.500   10.407    0.724    0.751   38.497
  478.750    9.695    0.679    0.724   45.227
  479.000    8.864    0.601    0.682   53.120
  479.250    8.397    0.385    0.525   58.810
  479.500    7.822    0.333    0.462   64.254
  479.750    7.327    0.327    0.439   68.780
  480.000    7.046    0.320    0.428   70.734
  480.250    6.813    0.310    0.425   76.239
  480.500    6.687    0.300    0.426   78.929
  480.750    6.650    0.294    0.428   81.740
  481.000    6.588    0.300    0.439   83.634
  481.250    6.527    0.305    0.471   83.752
  481.500    6.540    0.313    0.469   79.889
  481.750    6.564    0.330    0.452   75.783
  482.000    6.589    0.339    0.435   73.941
  482.250    6.614    0.344    0.424   73.446
  482.500    6.614    0.342    0.428   73.748
  482.750    6.639    0.339    0.438   73.008
  483.000    6.639    0.339    0.434   73.126
  483.250    6.627    0.340    0.430   70.672
  483.500    6.602    0.349    0.430   65.219
  483.750    6.590    0.355    0.432   62.459
  484.000    6.578    0.350    0.436   62.208
  484.250    6.590    0.349    0.445   63.306
  484.500    6.578    0.355    0.453   64.770
  484.750    6.578    0.359    0.460   64.520
  485.000    6.578    0.361    0.448   63.047
  485.250    6.566    0.362    0.439   62.797
  485.500    6.579    0.363    0.433   64.629
  485.750    6.567    0.371    0.437   65.604
  486.000    6.530    0.373    0.445   65.171
  486.250    6.542    0.369    0.455   64.370
  486.500    6.555    0.368    0.467   63.447
  486.750    6.579    0.373    0.475   61.483
  487.000    6.592    0.377    0.464   56.764
  487.250    6.592    0.378    0.450   58.290
  487.500    6.617    0.375    0.438   62.326
  487.750    6.642    0.372    0.428   65.566
  488.000    6.629    0.364    0.418   67.764
  488.250    6.642    0.353    0.419   67.822
  488.500    6.642    0.348    0.413   63.776
  488.750    6.655    0.350    0.406   62.302
  489.000    6.667    0.362    0.437   62.297
  489.250    6.680    0.372    0.459   62.720
  489.500    6.668    0.382    0.471   62.960
  489.750    6.643    0.381    0.462   63.078
  490.000    6.606    0.375    0.451   63.380
  490.250    6.594    0.371    0.449   63.987
  490.500    6.594    0.369    0.452   65.208
  490.750    6.582    0.373    0.452   66.059
  491.000    6.545    0.374    0.449   65.749
  491.250    6.460    0.375    0.448   63.601
  491.500    6.259    0.376    0.446   61.576
  491.750    5.951    0.377    0.428   62.061
  492.000    5.575    0.357    0.418   68.363
  492.250    5.421    0.319    0.414   75.766
  492.500    5.331    0.279    0.424   81.455
  492.750    5.331    0.262    0.443   86.839
  493.000    5.513    0.283    0.456   70.058
  493.250    5.659    0.321    0.465   61.053
  493.500    5.691    0.336    0.464   61.783
  493.750    5.050    0.343    0.459   66.799
  494.000    4.230    0.344    0.456   76.038
  494.250    3.349    0.341    0.491   83.625
  494.500    2.717    0.324    0.529   88.274
  494.750    2.565    0.313    0.516   91.821
  495.000    2.608    0.304    0.493   85.388
  495.250    3.011    0.315    0.472   75.036
  495.500    3.536    0.336    0.449   68.724
  495.750    4.499    0.350    0.440   65.352
  496.000    5.332    0.361    0.436   65.347
  496.250    5.931    0.368    0.431   66.506
  496.500    6.451    0.378    0.440   66.134
  496.750    6.635    0.379    0.454   65.027
  497.000    6.585    0.369    0.454   64.470
  497.250    6.416    0.363    0.451   64.773
  497.500    6.332    0.363    0.445   65.196
  497.750    6.262    0.365    0.450   65.252
  498.000    6.262    0.368    0.472   65.003
  498.250    6.274    0.369    0.488   63.895
  498.500    6.262    0.369    0.485   63.829
  498.750    6.263    0.369    0.472   64.254
  499.000    6.239    0.371    0.464   64.922
  499.250    6.263    0.377    0.466   65.469
  499.500    6.263    0.379    0.450   65.647
  499.750    6.334    0.371    0.443   64.909
  500.000    6.381    0.371    0.439   63.618
  500.250    6.417    0.389    0.475   63.124
  500.500    6.441    0.400    0.494   63.057
  500.750    6.442    0.395    0.483   64.461
  501.000    6.454    0.385    0.472   66.110
  501.250    6.502    0.377    0.479   68.064
  501.500    6.514    0.368    0.487   68.793
  501.750    6.515    0.361    0.462   69.278
  502.000    6.515    0.356    0.446   69.457
  502.250    6.503    0.354    0.433   69.880
  502.500    6.503    0.356    0.442   70.367
  502.750    6.540    0.357    0.451   70.668
  503.000    6.589    0.360    0.456   70.785
  503.250    6.601    0.363    0.457   69.128
  503.500    6.614    0.368    0.469   65.265
  503.750    6.614    0.371    0.469   63.608
  504.000    6.626    0.373    0.452   60.175
  504.250    6.639    0.375    0.440   56.251
  504.500    6.639    0.376    0.434   57.594
  504.750    6.627    0.373    0.434   59.118
  505.000    6.602    0.367    0.445   59.421
  505.250    6.565    0.364    0.451   58.987
  505.500    6.517    0.366    0.446   57.085
  505.750    6.517    0.365    0.442   54.998
  506.000    6.517    0.361    0.440   54.320
  506.250    6.493    0.359    0.437   59.091
  506.500    6.481    0.366    0.435   62.637
  506.750    6.469    0.369    0.442   63.489
