~VERSION INFORMATION
 VERS.                 2.0:   CWLS LOG ASCII STANDARD -VERSION 2.0
 WRAP.                  NO:   ONE LINE PER DEPTH STEP
~WELL INFORMATION BLOCK
#MNEM.UNIT           DATA                    DESCRIPTION OF MNEMONIC
#---------    -------------------            -------------------------------
# Generated from Intellog Unique Number	CW_73_75/WELL/189
WELL.         06-24-074-25W4                 : Well_name    - WELL
LOC .         00/06-24-074-25W4/0            : Location     - LOCATION
UWI .         00/06-24-074-25W4/0            : Uwi          - UNIQUE WELL ID
ENTR.         JJ                             : Entered      - ENTERED BY
SRVC.         WESTERN ATLAS                  : Scn          - SERVICE COMPANY
DATE.         11 JAN 69                      : Date         - LOG DATE
STRT.M        496.824                        : top_depth    - START DEPTH
STOP.M        624.824                        : bot_depth    - STOP DEPTH
STEP.M        0.25                           : increment    - STEP LENGTH
 NULL. -999.2500:NULL Value
~CURVE INFORMATION BLOCK
#MNEM UNIT       ERCB CURVE CODE    CURVE DESCRIPTION
#-----------   ------------------   ----------------------------------
DEPT.M        00 001 00 00         : DEPTH        - DEPTH
DELT.US/F     00 520 00 00         : DELT         - SONIC TRAVEL TIME
GR  .API      00 310 00 00         : GR           - GAMMA RAY
ILD .OHMM     00 120 00 00         : RESD         - DEEP RESISTIVITY (DIL)
~PARAMETER INFORMATION
#MNEM.UNIT           DATA             DESCRIPTION OF MNEMONIC
#---------         -----------     ------------------------------
GL  .M        678.302              : gl           - GROUND LEVEL ELEVATION
EREF.M        681.746              : kb           - ELEVATION OF DEPTH REFERENCE
DATM.M        678.302              : datum        - DATUM ELEVATION
TDD .M        627.888              : tdd          - TOTAL DEPTH DRILLER
RUN .         ONE                  : Run          - RUN NUMBER
ENG .         KOWALCHUK            : Engineer     - RECORDING ENGINEER
WIT .         PASCHKE              : Witness      - WITNESSED BY
BASE.         V.V.                 : Branch       - HOME BASE OF LOGGING UNIT
MUD .         MUD                  : Mud_type     - MUD TYPE
MATR.         SANDSTONE            : Logunit      - NEUTRON MATRIX
TMAX.C        25.5556              : BHT          - MAXIMUM RECORDED TEMPERATURE
BHTD.M        627.888              : BHTDEP       - MAXIMUM RECORDED TEMPERATURE
RMT .C        11.1111              : MDTP         - TEMPERATURE OF MUD
MUDD.KG/M     1128                 : MWT          - MUD DENSITY
NEUT.         1                    : NEUTRON      - NEUTRON TYPE
RESI.         0                    : RESIST       - RESISTIVITY TYPE
RM  .OHMM     3                    : RM           - RESISTIVITY OF MUD
RMC .OHMM     3.5                  : RMC          - RESISTIVITY OF MUD CAKE
RMF .OHMM     2.4                  : RMF          - RESISTIVITY OF MUD FILTRATE
SUFT.C        5                    : SUFT         - SURFACE TEMPERATURE
~A  DEPTH     DELT       GR     RESD
# ...
  551.074  370.561   47.392   17.851
  551.324  367.630   50.319   17.644
  551.574  359.272   50.202   17.110
  551.824  297.269   48.442   16.495
  552.074  307.294   47.330   16.247
  552.324  317.792   47.758   17.017
  552.574  358.356   51.728   18.928
  552.824  367.578   48.821   20.840
  553.074  375.919   49.554   22.425
  553.324  380.713   51.882   23.522
  553.574  376.574   53.306   24.251
  553.824  371.633   54.042   24.330
  554.074  366.688   54.423   23.308
  554.324  362.543   53.558   20.940
  554.574  360.893   51.795   19.470
  554.824  360.519   53.126   17.347
  555.074  357.522   55.299   14.164
  555.324  362.110   53.989   12.001
  555.574  368.976   55.515   10.367
  555.824  359.877   56.995   10.934
  556.074  371.372   57.333   13.008
  556.324  383.885   57.059   15.002
  556.574  377.398   54.753   16.546
  556.824  380.102   53.291   16.502
  557.074  376.441   53.921   15.887
  557.324  369.684   51.020   14.986
  557.574  370.970   51.350   14.371
  557.824  375.828   49.536   13.838
  558.074  379.018   50.669   13.263
  558.324  378.427   52.101   12.811
  558.574  376.315   51.832   12.359
  558.824  377.005   50.569   11.948
  559.074  371.931   50.503   11.619
  559.324  359.270   50.538   11.288
  559.574  366.274   50.867   11.081
  559.824  361.860   52.445   10.996
  560.074  354.374   51.838   10.910
  560.324  346.074   51.716   10.866
  560.574  403.085   52.047   10.904
  560.824  427.539   55.869   11.022
  561.074  375.207   60.087   11.141
  561.324  368.920   52.395   11.420
  561.574  359.616   55.069   11.702
  561.824  337.481   55.302   11.944
  562.074  331.205   54.491   12.470
  562.324  359.352   53.877   13.078
  562.574  368.708   56.099   13.563
  562.824  365.171   55.586   13.723
  563.074  344.456   52.632   13.474
  563.324  336.694   53.862   12.818
  563.574  323.962   54.442   12.204
  563.824  326.869   53.329   11.996
  564.074  336.491   53.164   12.522
  564.324  337.452   53.295   14.026
  564.574  341.707   52.283   15.489
  564.824  349.926   51.868   17.401
  565.074  363.303   52.348   18.334
  565.324  353.862   51.488   17.760
  565.574  332.813   50.770   16.086
  565.824  332.903   53.097   13.433
  566.074  340.579   55.922   11.676
  566.324  355.437   57.845   11.387
  566.574  336.194   54.942   11.098
  566.824  324.671   54.227   10.932
  567.074  325.035   56.650   10.928
  567.324  312.499   55.238   11.006
  567.574  304.465   54.977   11.043
  567.824  301.943   58.194   11.040
  568.074  316.063   59.879   10.913
  568.324  320.318   59.805   10.747
  568.574  313.700   59.597   10.173
  568.824  311.573   60.278    9.557
  569.074  308.041   61.853    9.147
  569.324  307.660   63.580    8.735
  569.574  344.537   67.349    8.241
  569.824  339.452   70.769    8.116
  570.074  334.847   71.353    7.990
  570.324  336.077   70.983    7.701
  570.574  338.377   71.771    7.453
  570.824  337.070   72.545    7.245
  571.074  333.265   74.075    7.160
  571.324  327.720   73.361    7.157
  571.574  339.824   72.445    7.072
  571.824  348.375   73.424    7.149
  572.074  347.050   76.001    7.349
  572.324  343.787   76.381    7.672
  572.574  338.311   77.311    8.197
  572.824  344.779   77.991    9.375
  573.074  351.913   79.573   10.350
  573.324  353.418   79.254   11.690
  573.574  349.612   77.595   11.728
  573.824  338.898   74.144   11.113
  574.074  321.266   70.090    9.927
  574.324  308.539   67.289    8.904
  574.574  274.800   66.419    8.697
  574.824  311.269   69.293    8.897
  575.074  319.149   74.356    9.057
  575.324  328.361   69.411    9.134
  575.574  325.504   67.452    8.641
  575.824  319.624   68.580    8.108
  576.074  316.220   71.752    8.186
  576.324  299.528   69.343    8.631
  576.574  300.287   71.667    9.523
  576.824  319.031   72.301   10.864
  577.074  319.538   71.284   12.816
  577.324  323.392   71.568   14.280
  577.574  330.732   71.353   17.006
  577.824  332.297   67.400   19.488
  578.074  297.083   61.854   15.776
  578.324  280.927   56.408   12.594
  578.574  260.678   51.108   10.227
  578.824  256.809   54.584   10.018
  579.074  286.369   57.308    9.893
  579.324  313.579   61.274   10.175
  579.574  333.270   64.594    9.723
  579.824  345.231   61.840    9.188
  580.074  339.616   61.725    8.941
  580.324  323.140   63.997    9.344
  580.574  306.849   61.887    9.667
  580.824  305.935   61.523   10.153
  581.074  332.070   65.145   10.066
  581.324  331.217   66.575    9.452
  581.574  316.810   65.012    8.673
  581.824  306.702   64.548    8.181
  582.074  287.395   65.979    8.056
  582.324  335.278   69.145    8.092
  582.574  336.772   74.414    8.211
  582.824  326.197   73.653    8.533
  583.074  325.412   72.190    9.100
  583.324  332.887   70.126    8.037
  583.574  330.422   68.720    5.140
  583.824  328.232   70.990   25.878
  584.074  338.062   70.628   52.280
  584.324  332.448   72.252   63.971
  584.574  310.849   71.494   22.973
  584.824  330.883   68.733    8.463
  585.074  331.843   65.880    2.428
  585.324  298.443   64.715    3.035
  585.574  325.251   69.731    4.335
  585.824  339.168   73.251    6.369
  586.074  328.987   73.533    7.832
  586.324  324.514   71.926    8.195
  586.574  314.069   73.948    7.987
  586.824  318.856   73.134    7.128
  587.074  311.898   70.775    5.821
  587.324  308.166   70.075    4.717
  587.574  316.176   69.949    3.775
  587.824  327.271   70.133    3.323
  588.074  340.658   70.810    3.157
  588.324  383.573   71.291    3.274
  588.574  459.381   72.123    3.596
  588.824  442.688   74.447    3.838
  589.074  419.222   70.944    4.365
  589.324  413.333   69.432    5.135
  589.574  418.661   73.354    6.068
  589.824  378.950   70.796    6.513
  590.074  323.393   67.143    6.550
  590.324  306.571   66.876    6.302
  590.574  332.572   65.264    6.176
  590.824  328.831   65.051    6.050
  591.074  330.267   65.784    5.882
  591.324  337.677   66.715    5.757
  591.574  353.070   68.089    5.754
  591.824  335.773   66.035    6.197
  592.074  325.598   63.871    7.620
  592.324  327.765   60.671   12.303
  592.574  340.680   57.313   25.339
  592.824  350.302   51.866   67.716
  593.074  347.845   42.333   88.372
  593.324  329.611   34.746  100.023
  593.574  335.338   29.546  103.442
  593.824  395.106   27.695  105.232
  594.074  423.521   27.571   68.594
  594.324  398.040   28.105   44.588
  594.574  381.680   28.342   35.538
  594.824  378.217   27.324   27.628
  595.074  377.903   27.154   22.897
  595.324  383.233   26.992   18.207
  595.574  382.039   27.471   14.658
  595.824  378.247   28.699   11.965
  596.074  375.450   30.079    9.475
  596.324  366.144   28.616    8.290
  596.574  353.279   27.911    6.656
  596.824  339.742   27.790    5.960
  597.074  427.231   28.317    5.386
  597.324  437.793   31.245    5.096
  597.574  401.771   33.965    4.970
  597.824  366.486   34.750    5.130
  598.074  363.355   35.030    5.777
  598.324  366.195   35.211    6.100
  598.574  369.242   35.546    6.379
  598.824  371.215   36.572    6.418
  599.074  372.580   38.004    6.496
  599.324  373.008   37.436    6.493
  599.574  372.427   37.821    6.448
  599.824  370.032   42.534    6.159
  600.074  366.632   41.870    5.829
  600.324  362.025   40.964    5.377
  600.574  361.240   40.847    5.007
  600.824  362.409   41.876    4.759
  601.074  340.883   43.353    4.632
  601.324  320.169   41.389    4.588
  601.574  243.533   40.876    4.624
  601.824  239.935   41.656    4.622
  602.074  366.754   43.538    4.821
  602.324  380.001   44.415    4.939
  602.574  358.276   47.487    4.896
  602.824  325.406   48.415    4.729
  603.074  329.124   48.409    4.522
  603.324  335.796   48.834    4.395
  603.574  335.272   49.562    4.392
  603.824  334.231   50.891    5.040
  604.074  331.907   52.867    6.748
  604.324  328.353   54.744    8.904
  604.574  327.326   56.624   11.141
  604.824  323.722   58.747   12.645
  605.074  319.782   61.570   12.683
