~VERSION INFORMATION
 VERS.                 2.0:   CWLS LOG ASCII STANDARD -VERSION 2.0
 WRAP.                  NO:   ONE LINE PER DEPTH STEP
~WELL INFORMATION BLOCK
#MNEM.UNIT           DATA                    DESCRIPTION OF MNEMONIC
#---------    -------------------            -------------------------------
# Generated from Intellog Unique Number	CS_71_72/WELL/776
WELL.         SULPETRO BRENDA IPIATIK        : Well_name    - WELL
LOC .         00/06-24-072-10W4/0            : Location     - LOCATION
UWI .         00/06-24-072-10W4/0            : Uwi          - UNIQUE WELL ID
ENTR.         SP                             : Entered      - ENTERED BY
SRVC.         SCHLUMBERGER                   : Scn          - SERVICE COMPANY
STRT.M        315                            : top_depth    - START DEPTH
STOP.M        505                            : bot_depth    - STOP DEPTH
STEP.M        0.25                           : increment    - STEP LENGTH
 NULL. -999.2500:NULL Value
~CURVE INFORMATION BLOCK
#MNEM UNIT       ERCB CURVE CODE    CURVE DESCRIPTION
#-----------   ------------------   ----------------------------------
DEPT.M        00 001 00 00         : DEPTH        - DEPTH
ILD .OHMM     00 120 00 00         : RESD         - DEEP RESISTIVITY (DIL)
DPHI.V/V      00 890 00 00         : PHID         - DENSITY POROSITY (LIMESTONE)
NPHI.V/V      00 330 00 00         : PHIN         - NEUTRON POROSITY (LIMESTONE)
GR  .API      00 310 00 00         : GR           - GAMMA RAY
~PARAMETER INFORMATION
#MNEM.UNIT           DATA             DESCRIPTION OF MNEMONIC
#---------         -----------     ------------------------------
GL  .M        666.96               : gl           - GROUND LEVEL ELEVATION
EREF.M        666.93               : kb           - ELEVATION OF DEPTH REFERENCE
DATM.M        666.96               : datum        - DATUM ELEVATION
TDD .M        520                  : tdd          - TOTAL DEPTH DRILLER
RUN .         ONE                  : Run          - RUN NUMBER
ENG .         BILL                 : Engineer     - RECORDING ENGINEER
WIT .         JIM                  : Witness      - WITNESSED BY
MUD .         GEL                  : Mud_type     - MUD TYPE
MATR.         LIMESTONE            : Logunit      - NEUTRON MATRIX
TMAX.C        20                   : BHT          - MAXIMUM RECORDED TEMPERATURE
BHTD.M        520                  : BHTDEP       - MAXIMUM RECORDED TEMPERATURE
MATR.         1                    : LOGUNIT      - NEUTRON MATRIX
RMT .C        25                   : MDTP         - TEMPERATURE OF MUD
NEUT.         1                    : NEUTRON      - NEUTRON TYPE
RESI.         0                    : RESIST       - RESISTIVITY TYPE
RMC .OHMM     0.25                 : RMC          - RESISTIVITY OF MUD CAKE
RMF .OHMM     0.25                 : RMF          - RESISTIVITY OF MUD FILTRATE
SUFT.C        15                   : SUFT         - SURFACE TEMPERATURE
~A  DEPTH     RESD     PHID     PHIN       GR
# ...
  445.500    5.272    0.216    0.428   78.665
  445.750    5.273    0.211    0.441   80.508
  446.000    5.475    0.216    0.462   81.740
  446.250    5.579    0.214    0.491   72.562
  446.500    5.903    0.189    0.410   71.346
  446.750    6.129    0.141    0.383   73.187
  447.000    6.484    0.084    0.372   68.910
  447.250    6.990    0.107    0.349   69.526
  447.500    7.394    0.141    0.353   78.720
  447.750    7.678    0.171    0.439   81.172
  448.000    7.679    0.192    0.468   85.465
  448.250    7.261    0.190    0.453   80.573
  448.500    6.866    0.189    0.448   79.967
  448.750    6.253    0.185    0.438   81.810
  449.000    5.913    0.182    0.435   75.696
  449.250    5.804    0.179    0.443   73.252
  449.500    5.698    0.177    0.453   70.809
  449.750    5.806    0.180    0.431   73.879
  450.000    5.917    0.188    0.420   76.334
  450.250    6.030    0.189    0.393   76.338
  450.500    6.031    0.188    0.381   72.671
  450.750    6.146    0.187    0.402   76.351
  451.000    6.147    0.185    0.409   80.032
  451.250    6.148    0.185    0.413   83.714
  451.500    6.266    0.189    0.421   85.555
  451.750    6.266    0.196    0.431   74.541
  452.000    6.268    0.200    0.441   70.261
  452.250    6.269    0.189    0.441   70.267
  452.500    6.154    0.189    0.436   73.948
  452.750    6.154    0.194    0.435   77.628
  453.000    6.155    0.197    0.430   81.919
  453.250    6.273    0.195    0.428   86.212
  453.500    6.393    0.186    0.436   88.056
  453.750    6.394    0.178    0.433   88.676
  454.000    6.394    0.170    0.426   94.805
  454.250    6.395    0.177    0.433   96.034
  454.500    6.048    0.180    0.416   83.184
  454.750    5.718    0.177    0.400   79.516
  455.000    5.306    0.176    0.393   79.523
  455.250    4.744    0.181    0.379   78.305
  455.500    4.009    0.186    0.383   72.801
  455.750    3.517    0.205    0.423   73.420
  456.000    3.203    0.237    0.498   77.711
  456.250    2.863    0.251    0.533   81.391
  456.500    2.608    0.243    0.558   79.560
  456.750    2.420    0.235    0.539   83.243
  457.000    2.288    0.241    0.515   83.859
  457.250    2.205    0.249    0.483   85.094
  457.500    2.205    0.250    0.479   85.710
  457.750    2.165    0.240    0.486   86.941
  458.000    2.206    0.240    0.499   87.560
  458.250    2.291    0.236    0.499   88.177
  458.500    2.423    0.219    0.480   82.674
  458.750    2.815    0.212    0.465   77.169
  459.000    2.978    0.198    0.454   75.951
  459.250    3.396    0.192    0.461   82.695
  459.500    3.730    0.193    0.456   79.026
  459.750    4.021    0.196    0.464   76.583
  460.000    4.097    0.198    0.428   75.978
  460.250    4.175    0.201    0.405   75.373
  460.500    4.176    0.196    0.392   74.153
  460.750    4.177    0.181    0.385   71.098
  461.000    4.337    0.173    0.410   71.717
  461.250    4.503    0.180    0.440   71.112
  461.500    4.764    0.193    0.351   64.996
  461.750    5.135    0.215    0.303   58.879
  462.000    5.536    0.214    0.266   53.376
  462.250    6.195    0.061    0.244   50.932
  462.500    6.932    0.041    0.244   52.779
  462.750    7.473    0.079    0.297   52.782
  463.000    7.906    0.153    0.363   49.727
  463.250    7.907    0.193    0.405   54.633
  463.500    7.202    0.222    0.429   58.313
  463.750    6.201    0.231    0.430   59.542
  464.000    5.754    0.230    0.439   60.161
  464.250    5.340    0.235    0.456   60.167
  464.500    5.145    0.241    0.455   57.726
  464.750    5.051    0.247    0.435   55.894
  465.000    4.958    0.239    0.420   63.862
  465.250    4.688    0.217    0.416   74.275
  465.500    4.350    0.203    0.425   80.404
  465.750    4.037    0.193    0.462   79.186
  466.000    3.677    0.192    0.476   77.968
  466.250    3.412    0.194    0.450   81.649
  466.500    3.108    0.203    0.428   84.716
  466.750    2.994    0.201    0.419   88.396
  467.000    2.939    0.200    0.444   92.076
  467.250    2.940    0.199    0.426   90.245
  467.500    2.996    0.188    0.408   83.518
  467.750    3.170    0.173    0.398   87.809
  468.000    3.291    0.166    0.385   89.041
  468.250    3.548    0.166    0.392   89.659
  468.500    3.683    0.188    0.398   87.829
  468.750    3.825    0.196    0.413   80.490
  469.000    3.825    0.200    0.433   77.433
  469.250    3.685    0.199    0.434   82.338
  469.500    3.420    0.197    0.430   91.528
  469.750    3.057    0.194    0.447   93.372
  470.000    2.945    0.189    0.442   91.544
  470.250    2.946    0.182    0.441   90.935
  470.500    3.235    0.181    0.421   90.329
  470.750    3.621    0.179    0.430   89.112
  471.000    3.830    0.175    0.446   88.508
  471.250    4.207    0.170    0.440   88.513
  471.500    4.535    0.176    0.424   87.298
  471.750    4.981    0.182    0.376   87.300
  472.000    5.471    0.186    0.349   78.735
  472.250    6.122    0.205    0.326   67.108
  472.500    6.851    0.227    0.295   59.155
  472.750    8.109    0.217    0.265   54.876
  473.000    9.075    0.118    0.253   56.721
  473.250    9.600    0.051    0.250   56.726
  473.500    9.968    0.028    0.285   56.733
  473.750   10.159    0.070    0.318   57.963
  474.000    8.747    0.138    0.330   60.419
  474.250    6.989    0.167    0.341   54.915
  474.500    6.018    0.222    0.350   48.798
  474.750    5.085    0.262    0.355   50.029
  475.000    4.719    0.247    0.372   62.280
  475.250    4.380    0.226    0.406   70.860
  475.500    4.547    0.211    0.416   70.865
  475.750    4.902    0.234    0.425   69.034
  476.000    5.186    0.252    0.408   59.246
  476.250    5.487    0.265    0.381   50.681
  476.500    5.697    0.271    0.356   45.177
  476.750    5.698    0.260    0.340   40.896
  477.000    5.489    0.254    0.344   48.863
  477.250    5.190    0.255    0.350   52.544
  477.500    4.728    0.244    0.345   51.937
  477.750    4.641    0.233    0.347   58.680
  478.000    4.471    0.228    0.340   63.584
  478.250    4.307    0.223    0.338   69.713
  478.500    4.308    0.210    0.351   73.392
  478.750    4.473    0.194    0.356   73.399
  479.000    4.645    0.198    0.365   72.792
  479.250    4.733    0.211    0.372   72.799
  479.500    4.915    0.202    0.376   70.968
  479.750    5.009    0.196    0.382   75.263
  480.000    5.010    0.201    0.390   80.779
  480.250    5.105    0.197    0.380   83.846
  480.500    5.301    0.200    0.393   80.180
  480.750    5.503    0.204    0.410   76.511
  481.000    6.045    0.185    0.426   82.641
  481.250    6.276    0.181    0.445   93.668
  481.500    6.640    0.190    0.453  110.205
  481.750    7.025    0.201    0.417  100.415
  482.000    7.294    0.204    0.375   82.053
  482.250    7.573    0.199    0.355   66.754
  482.500    7.718    0.190    0.330   55.126
  482.750    7.576    0.178    0.321   69.828
  483.000    7.299    0.170    0.330   72.895
  483.250    6.901    0.187    0.340   70.454
  483.500    6.649    0.192    0.347   69.235
  483.750    6.650    0.183    0.334   71.078
  484.000    6.905    0.176    0.319   75.371
  484.250    7.305    0.170    0.303   79.050
  484.500    7.875    0.183    0.298   77.221
  484.750    8.331    0.180    0.296   79.675
  485.000    8.650    0.157    0.303   82.743
  485.250    8.815    0.126    0.313   79.687
  485.500    8.817    0.110    0.319   85.206
  485.750    8.494    0.133    0.332   90.722
  486.000    8.184    0.167    0.345   89.504
  486.250    8.185    0.184    0.346   69.918
  486.500    7.886    0.197    0.351   60.129
  486.750    7.741    0.209    0.360   54.012
  487.000    7.319    0.230    0.373   50.957
  487.250    6.921    0.245    0.365   48.514
  487.500    6.423    0.256    0.367   46.683
  487.750    6.304    0.235    0.394   50.363
  488.000    5.851    0.185    0.422   65.677
  488.250    5.429    0.146    0.434   79.152
  488.500    4.853    0.188    0.430   70.588
  488.750    4.504    0.271    0.413   55.899
