~VERSION INFORMATION
 VERS.                 2.0:   CWLS LOG ASCII STANDARD -VERSION 2.0
 WRAP.                  NO:   ONE LINE PER DEPTH STEP
~WELL INFORMATION BLOCK
#MNEM.UNIT           DATA                    DESCRIPTION OF MNEMONIC
#---------    -------------------            -------------------------------
# Generated from Intellog Unique Number	CW_73_75/WELL/2727
WELL.         CAVALIER ET AL CALL 06-13      : Well_name    - WELL
LOC .         00/06-13-073-22W4/0            : Location     - LOCATION
UWI .         00/06-13-073-22W4/0            : Uwi          - UNIQUE WELL ID
ENTR.         JAYE                           : Entered      - ENTERED BY
SRVC.         SCHLUMBERGER                   : Scn          - SERVICE COMPANY
DATE.         25 JAN 75                      : Date         - LOG DATE
STRT.M        335.28                         : top_depth    - START DEPTH
STOP.M        533.28                         : bot_depth    - STOP DEPTH
STEP.M        0.25                           : increment    - STEP LENGTH
 NULL. -999.2500:NULL Value
~CURVE INFORMATION BLOCK
#MNEM UNIT       ERCB CURVE CODE    CURVE DESCRIPTION
#-----------   ------------------   ----------------------------------
DEPT.M        00 001 00 00         : DEPTH        - DEPTH
ILD .OHMM     00 120 00 00         : RESD         - DEEP RESISTIVITY (DIL)
NPHI.V/V      00 330 00 00         : PHIN         - NEUTRON POROSITY (SANDSTONE)
DPHI.V/V      00 890 00 00         : PHID         - DENSITY POROSITY (SANDSTONE)
GR  .API      00 310 00 00         : GR           - GAMMA RAY
CALI.MM       00 280 01 00         : CAL          - CALIPER
~PARAMETER INFORMATION
#MNEM.UNIT           DATA             DESCRIPTION OF MNEMONIC
#---------         -----------     ------------------------------
GL  .M        634.136              : gl           - GROUND LEVEL ELEVATION
EREF.M        637.184              : kb           - ELEVATION OF DEPTH REFERENCE
DATM.M        634.136              : datum        - DATUM ELEVATION
TDD .M        562.356              : tdd          - TOTAL DEPTH DRILLER
RUN .         ONE                  : Run          - RUN NUMBER
ENG .         EARLEY               : Engineer     - RECORDING ENGINEER
WIT .         CONNELLY             : Witness      - WITNESSED BY
BASE.         EDM                  : Branch       - HOME BASE OF LOGGING UNIT
MUD .         GEL CHEM & LCM DIESL : Mud_type     - MUD TYPE
MATR.         SANDSTONE            : Logunit      - NEUTRON MATRIX
TMAX.C        27.7778              : BHT          - MAXIMUM RECORDED TEMPERATURE
BHTD.M        541.325              : BHTDEP       - MAXIMUM RECORDED TEMPERATURE
RMT .C        13.3333              : MDTP         - TEMPERATURE OF MUD
MUDD.KG/M     960                  : MWT          - MUD DENSITY
NEUT.         1                    : NEUTRON      - NEUTRON TYPE
RESI.         0                    : RESIST       - RESISTIVITY TYPE
RM  .OHMM     2.5                  : RM           - RESISTIVITY OF MUD
RMC .OHMM     1.25                 : RMC          - RESISTIVITY OF MUD CAKE
RMF .OHMM     2.7                  : RMF          - RESISTIVITY OF MUD FILTRATE
SUFT.C        -17.7778             : SUFT         - SURFACE TEMPERATURE
~A  DEPTH     RESD     PHIN     PHID       GR      CAL
# ...
  444.780    4.239    0.487    0.307   76.454  424.166
  445.030    4.202    0.482    0.307   77.273  423.391
  445.280    4.165    0.483    0.328   79.560  424.048
  445.530    4.128    0.484    0.310   79.710  425.544
  445.780    4.131    0.482    0.301   78.697  427.454
  446.030    4.094    0.482    0.314   77.440  429.048
  446.280    4.096    0.486    0.312   76.430  428.992
  446.530    4.100    0.493    0.298   75.598  428.007
  446.780    4.063    0.511    0.290   74.831  427.112
  447.030    4.025    0.520    0.278   77.973  425.501
  447.280    4.029    0.490    0.308   82.765  423.167
  447.530    4.029    0.473    0.313   84.872  420.521
  447.780    4.035    0.490    0.309   85.753  418.086
  448.030    4.037    0.505    0.291   85.412  417.717
  448.280    4.080    0.502    0.303   81.102  420.136
  448.530    4.122    0.471    0.312   77.154  427.841
  448.780    4.125    0.452    0.311   72.538  433.165
  449.030    4.130    0.451    0.317   70.181  436.312
  449.280    4.131    0.467    0.320   71.860  436.976
  449.530    4.134    0.478    0.328   74.083  435.570
  449.780    4.177    0.493    0.330   77.655  431.891
  450.030    4.179    0.495    0.331   78.780  425.628
  450.280    4.262    0.466    0.304   73.858  426.297
  450.530    4.344    0.466    0.313   69.608  430.582
  450.780    4.467    0.476    0.292   66.944  435.382
  451.030    4.549    0.482    0.318   66.971  439.877
  451.280    4.592    0.479    0.332   70.847  438.889
  451.530    4.634    0.460    0.344   72.891  435.210
  451.780    4.637    0.453    0.319   72.856  432.254
  452.030    4.600    0.446    0.328   70.928  431.790
  452.280    4.563    0.439    0.343   68.265  431.928
  452.530    4.528    0.439    0.336   65.909  434.873
  452.780    4.489    0.454    0.308   66.363  435.742
  453.030    4.452    0.477    0.324   68.650  434.341
  453.280    4.456    0.470    0.340   69.717  432.837
  453.530    4.419    0.472    0.332   68.397  432.150
  453.780    4.381    0.476    0.297   68.243  431.375
  454.030    4.344    0.466    0.291   69.490  430.896
  454.280    4.307    0.453    0.307   70.252  430.431
  454.530    4.271    0.460    0.315   70.951  430.057
  454.780    4.233    0.468    0.301   71.646  429.798
  455.030    4.236    0.473    0.309   72.530  429.835
  455.280    4.239    0.474    0.288   74.023  428.948
  455.530    4.242    0.457    0.288   75.819  427.751
  455.780    4.244    0.461    0.299   77.560  426.760
  456.030    4.248    0.472    0.307   78.563  426.084
  456.280    4.250    0.479    0.308   78.894  426.956
  456.530    4.253    0.488    0.324   78.798  431.863
  456.780    4.256    0.493    0.321   80.108  438.839
  457.030    4.219    0.478    0.323   83.434  424.399
  457.280    4.279    0.470    0.328   83.887  425.795
  457.530    4.282    0.477    0.302   82.936  430.287
  457.780    4.285    0.480    0.307   81.743  424.121
  458.030    4.288    0.472    0.304   80.485  420.439
  458.280    4.290    0.470    0.302   78.680  421.009
  458.530    4.293    0.487    0.307   75.587  421.566
  458.780    4.217    0.492    0.291   73.109  422.550
  459.030    4.103    0.488    0.261   69.654  424.141
  459.280    3.987    0.475    0.265   69.924  426.873
  459.530    3.755    0.490    0.265   73.618  429.929
  459.780    3.601    0.481    0.282   74.743  430.487
  460.030    3.603    0.474    0.314   74.892  430.428
  460.280    3.528    0.493    0.316   74.798  430.057
  460.530    3.491    0.496    0.294   74.456  429.792
  460.780    3.455    0.485    0.296   73.627  430.355
  461.030    3.418    0.497    0.296   72.677  431.429
  461.280    3.382    0.495    0.303   71.787  432.819
  461.530    3.306    0.484    0.323   70.957  434.937
  461.780    3.269    0.493    0.345   70.862  436.742
  462.030    3.272    0.519    0.350   72.966  438.443
  462.280    3.275    0.538    0.344   74.887  440.657
  462.530    3.278    0.537    0.351   74.180  438.527
  462.780    3.320    0.520    0.357   74.207  433.919
  463.030    3.284    0.524    0.390   76.861  439.449
  463.280    3.207    0.544    0.433   81.043  446.839
  463.530    3.014    0.558    0.524   84.979  450.816
  463.780    2.938    0.584    0.586   89.161  454.483
  464.030    2.902    0.618    0.513   95.359  467.666
  464.280    3.061    0.650    0.479  100.945  448.154
  464.530    3.260    0.670    0.496   98.466  457.513
  464.780    3.577    0.651    0.492  101.794  471.524
  465.030    3.816    0.589    0.470  104.937  494.438
  465.280    3.976    0.502    0.363  107.958  495.516
  465.530    4.096    0.479    0.256  109.449  433.997
  465.780    4.099    0.486    0.204  109.231  430.733
  466.030    4.023    0.482    0.176  105.041  429.227
  466.280    3.829    0.483    0.168  105.985  428.546
  466.530    3.636    0.488    0.168  106.930  428.279
  466.780    3.522    0.493    0.148  106.283  428.635
  467.030    3.485    0.501    0.179  106.313  429.101
  467.280    3.566    0.515    0.179  106.645  429.448
  467.530    3.805    0.524    0.206  106.972  429.915
  467.780    4.003    0.513    0.194  108.527  430.059
  468.030    4.241    0.499    0.202  111.608  430.105
  468.280    4.480    0.511    0.183  115.790  430.355
  468.530    4.719    0.508    0.202  115.572  430.604
  468.780    4.878    0.504    0.213  114.499  430.856
  469.030    5.038    0.499    0.185  114.345  430.901
  469.280    5.119    0.503    0.181  115.834  431.161
  469.530    5.201    0.493    0.170  117.817  431.301
  469.780    5.243    0.485    0.175  118.639  431.562
  470.030    5.245    0.478    0.206  118.240  431.508
  470.280    5.248    0.466    0.193  117.044  431.649
  470.530    5.211    0.472    0.185  114.686  431.592
  470.780    5.176    0.488    0.219  112.145  431.734
  471.030    5.099    0.485    0.233  108.630  431.576
  471.280    5.102    0.478    0.218  103.888  431.220
  471.530    5.105    0.468    0.209  108.070  430.943
  471.780    5.108    0.461    0.194  112.680  430.681
  472.030    5.110    0.453    0.188  118.632  430.523
  472.280    5.192    0.454    0.198  116.458  430.362
  472.530    5.234    0.468    0.198  110.254  430.096
  472.780    5.276    0.478    0.205  109.546  430.140
  473.030    5.317    0.473    0.202  109.328  430.068
  473.280    5.320    0.458    0.209  109.110  430.120
  473.530    5.362    0.450    0.199  109.873  430.160
  473.780    5.365    0.439    0.186  108.675  429.996
  474.030    5.368    0.472    0.172  108.763  430.247
  474.280    5.371    0.489    0.180  108.116  430.189
  474.530    5.374    0.477    0.193  107.597  430.041
  474.780    5.377    0.463    0.178  108.783  430.081
  475.030    5.381    0.457    0.180  109.418  429.805
  475.280    5.382    0.449    0.197  110.118  429.856
  475.530    5.385    0.456    0.203  111.245  429.692
  475.780    5.389    0.482    0.187  110.475  429.643
  476.030    5.390    0.481    0.179  107.874  429.574
  476.280    5.393    0.464    0.200  104.601  429.413
  476.530    5.395    0.452    0.188  104.627  429.252
  476.780    5.359    0.456    0.190  107.100  429.191
  477.030    5.324    0.483    0.199  109.510  429.039
  477.280    5.287    0.486    0.200  111.736  429.074
  477.530    5.250    0.474    0.198  112.800  429.119
  477.780    5.214    0.470    0.191  114.048  429.164
  478.030    5.177    0.474    0.179  115.236  429.207
  478.280    5.180    0.491    0.197  117.219  429.573
  478.530    5.182    0.478    0.219  117.000  429.823
  478.780    5.185    0.468    0.190  116.480  430.379
  479.030    5.148    0.465    0.183  117.358  431.465
  479.280    5.073    0.477    0.172  123.067  432.333
  479.530    5.037    0.489    0.160  125.417  432.893
  479.780    5.117    0.477    0.225  120.741  432.522
  480.030    5.552    0.464    0.221  115.085  429.258
  480.280    6.261    0.481    0.211  110.649  426.818
  480.530    7.246    0.489    0.230  101.509  424.793
  480.780    8.308    0.488    0.265   93.225  422.872
  481.030    8.940    0.470    0.265   86.529  426.028
