~VERSION INFORMATION
 VERS.                 2.0:   CWLS LOG ASCII STANDARD -VERSION 2.0
 WRAP.                  NO:   ONE LINE PER DEPTH STEP
~WELL INFORMATION BLOCK
#MNEM.UNIT           DATA                    DESCRIPTION OF MNEMONIC
#---------    -------------------            -------------------------------
# Generated from Intellog Unique Number	CS_73_76/WELL/689
WELL.         SULPETRO BRENDA CLYDE LAKE     : Well_name    - WELL
LOC .         00/06-32-073-09W4/0            : Location     - LOCATION
UWI .         00/06-32-073-09W4/0            : Uwi          - UNIQUE WELL ID
ENTR.         SP                             : Entered      - ENTERED BY
SRVC.         SCHLUMBERGER                   : Scn          - SERVICE COMPANY
STRT.M        285                            : top_depth    - START DEPTH
STOP.M        475                            : bot_depth    - STOP DEPTH
STEP.M        0.25                           : increment    - STEP LENGTH
 NULL. -999.2500:NULL Value
~CURVE INFORMATION BLOCK
#MNEM UNIT       ERCB CURVE CODE    CURVE DESCRIPTION
#-----------   ------------------   ----------------------------------
DEPT.M        00 001 00 00         : DEPTH        - DEPTH
ILD .OHMM     00 120 00 00         : RESD         - DEEP RESISTIVITY (DIL)
DPHI.V/V      00 890 00 00         : PHID         - DENSITY POROSITY (LIMESTONE)
NPHI.V/V      00 330 00 00         : PHIN         - NEUTRON POROSITY (LIMESTONE)
GR  .API      00 310 00 00         : GR           - GAMMA RAY
~PARAMETER INFORMATION
#MNEM.UNIT           DATA             DESCRIPTION OF MNEMONIC
#---------         -----------     ------------------------------
GL  .M        656.52               : gl           - GROUND LEVEL ELEVATION
EREF.M        659.42               : kb           - ELEVATION OF DEPTH REFERENCE
DATM.M        656.52               : datum        - DATUM ELEVATION
TDD .M        486.9                : tdd          - TOTAL DEPTH DRILLER
RUN .         ONE                  : Run          - RUN NUMBER
ENG .         BILL                 : Engineer     - RECORDING ENGINEER
WIT .         JIM                  : Witness      - WITNESSED BY
MUD .         GEL                  : Mud_type     - MUD TYPE
MATR.         LIMESTONE            : Logunit      - NEUTRON MATRIX
TMAX.C        29                   : BHT          - MAXIMUM RECORDED TEMPERATURE
BHTD.M        486.9                : BHTDEP       - MAXIMUM RECORDED TEMPERATURE
MATR.         1                    : LOGUNIT      - NEUTRON MATRIX
RMT .C        25                   : MDTP         - TEMPERATURE OF MUD
NEUT.         1                    : NEUTRON      - NEUTRON TYPE
RESI.         0                    : RESIST       - RESISTIVITY TYPE
RMC .OHMM     0.25                 : RMC          - RESISTIVITY OF MUD CAKE
RMF .OHMM     0.25                 : RMF          - RESISTIVITY OF MUD FILTRATE
SUFT.C        15                   : SUFT         - SURFACE TEMPERATURE
~A  DEPTH     RESD     PHID     PHIN       GR
# ...
  328.500   10.678    0.223    0.374  109.858
  328.750   10.681    0.229    0.384  110.467
  329.000   10.486    0.216    0.408  108.616
  329.250   10.099    0.207    0.426  112.294
  329.500   10.299    0.208    0.436  114.130
  329.750   10.700    0.215    0.447  115.968
  330.000   11.329    0.227    0.427  107.967
  330.250   13.192    0.243    0.410  103.043
  330.500   14.236    0.260    0.412   93.811
  330.750   14.792    0.275    0.438   93.802
  331.000   15.079    0.259    0.458   95.640
  331.250   15.372    0.248    0.448   93.788
  331.500   15.089    0.255    0.426   90.706
  331.750   14.816    0.257    0.406   89.469
  332.000   14.271    0.247    0.394   95.605
  332.250   13.747    0.232    0.394   98.059
  332.500   13.240    0.222    0.400  104.194
  332.750   12.517    0.214    0.388  106.034
  333.000   12.056    0.199    0.373  109.099
  333.250   10.976    0.189    0.348  109.706
  333.500   10.573    0.189    0.345  107.855
  333.750   10.379    0.198    0.345  106.618
  334.000    9.998    0.208    0.350  108.454
  334.250    9.813    0.203    0.372  107.831
  334.500    9.451    0.196    0.398  105.365
  334.750    9.279    0.193    0.464  104.741
  335.000    9.460    0.201    0.438  109.649
  335.250   10.018    0.214    0.408  112.102
  335.500   10.608    0.225    0.384  109.635
  335.750   11.232    0.232    0.372  101.633
  336.000   12.124    0.213    0.357   98.554
  336.250   12.596    0.208    0.351   96.700
  336.500   12.839    0.197    0.346   97.923
  336.750   13.091    0.195    0.357   98.528
  337.000   12.854    0.213    0.350  100.978
  337.250   12.617    0.220    0.349   99.128
  337.500   12.389    0.221    0.346   96.659
  337.750   12.160    0.215    0.373  100.952
  338.000   11.939    0.200    0.403  102.791
  338.250   11.719    0.191    0.404  105.239
  338.500   11.947    0.203    0.398  104.619
  338.750   11.955    0.214    0.388  103.383
  339.000   12.187    0.214    0.396  100.914
  339.250   12.661    0.196    0.405   99.063
  339.500   13.410    0.187    0.412   94.752
  339.750   13.932    0.202    0.383   90.442
  340.000   13.937    0.225    0.370   89.203
  340.250   13.945    0.235    0.378   95.341
  340.500   13.433    0.219    0.388   99.636
  340.750   13.185    0.202    0.392   98.399
  341.000   12.945    0.211    0.377   95.316
  341.250   12.709    0.219    0.356   95.925
  341.500   12.713    0.230    0.324  101.447
  341.750   12.247    0.223    0.335  105.740
  342.000   12.023    0.217    0.349  106.352
  342.250   11.802    0.225    0.364  107.571
  342.500   11.590    0.211    0.360  108.793
  342.750   11.594    0.197    0.354  102.021
  343.000   11.598    0.182    0.398   95.253
  343.250   11.824    0.212    0.442   87.867
  343.500   11.829    0.237    0.439   82.943
  343.750   11.834    0.255    0.406   78.632
  344.000   11.186    0.270    0.398   77.391
  344.250   11.846    0.280    0.408   76.771
  344.500   13.026    0.290    0.429   77.378
  344.750   14.056    0.286    0.443   77.985
  345.000   16.057    0.280    0.438   77.974
  345.250   16.681    0.275    0.408   77.353
  345.500   17.010    0.273    0.401   76.117
  345.750   17.017    0.281    0.397   73.036
  346.000   16.703    0.294    0.384   69.337
  346.250   16.399    0.295    0.371   75.475
  346.500   15.797    0.288    0.364   79.159
  346.750   15.216    0.289    0.349   87.755
  347.000   14.658    0.260    0.339   93.279
  347.250   14.120    0.244    0.344   97.574
  347.500   13.863    0.233    0.401   99.412
  347.750   13.867    0.241    0.447   99.402
  348.000   14.686    0.231    0.420  100.624
  348.250   14.971    0.222    0.394  102.460
  348.500   15.554    0.215    0.370  101.839
  348.750   16.785    0.210    0.412   90.763
  349.000   18.462    0.224    0.436   82.766
  349.250   19.548    0.216    0.409   71.692
  349.500   19.929    0.059    0.199   64.308
  349.750   18.488    0.040    0.188   57.538
  350.000   17.807    0.120    0.250   48.924
  350.250   16.516    0.173    0.337   55.676
  350.500   15.031    0.206    0.385   64.276
  350.750   13.427    0.236    0.395   77.792
  351.000   12.693    0.229    0.396   86.389
  351.250   12.227    0.227    0.395   88.226
  351.500   12.704    0.234    0.395   87.601
  351.750   13.449    0.234    0.409   86.981
  352.000   13.711    0.235    0.416   88.201
  352.250   13.718    0.240    0.434   90.037
  352.500   14.525    0.245    0.452   89.412
  352.750   15.977    0.258    0.473   86.948
  353.000   16.597    0.279    0.488   78.949
  353.250   18.958    0.298    0.465   67.876
  353.500   20.456    0.303    0.402   57.417
  353.750   21.661    0.287    0.389   56.791
  354.000   22.090    0.291    0.388   58.626
  354.250   22.522    0.293    0.392   59.235
  354.500   22.533    0.291    0.384   59.842
  354.750   22.543    0.287    0.396   56.145
  355.000   22.130    0.286    0.383   52.447
  355.250   22.139    0.288    0.363   53.056
  355.500   21.731    0.296    0.352   57.962
  355.750   21.331    0.294    0.346   60.414
  356.000   20.171    0.292    0.368   62.250
  356.250   21.356    0.299    0.387   64.088
  356.500   20.961    0.302    0.397   65.312
  356.750   20.575    0.297    0.383   68.375
  357.000   20.200    0.294    0.362   68.983
  357.250   19.831    0.290    0.397   71.433
  357.500   19.470    0.293    0.414   70.812
  357.750   19.476    0.295    0.443   66.501
  358.000   19.119    0.296    0.428   70.178
  358.250   18.417    0.295    0.418   72.017
  358.500   18.081    0.288    0.411   75.694
  358.750   17.748    0.285    0.428   72.612
  359.000   17.424    0.292    0.435   70.149
  359.250   16.788    0.296    0.449   66.450
  359.500   16.796    0.292    0.450   66.444
  359.750   16.802    0.289    0.433   63.976
  360.000   16.808    0.294    0.397   63.353
  360.250   16.815    0.298    0.379   64.576
  360.500   17.146    0.302    0.392   66.412
  360.750   17.152    0.302    0.397   63.328
  361.000   17.159    0.301    0.400   62.093
  361.250   17.165    0.301    0.386   63.929
  361.500   17.178    0.308    0.373   67.606
  361.750   16.862    0.310    0.378   68.216
  362.000   16.868    0.305    0.394   63.290
  362.250   16.875    0.297    0.407   65.126
  362.500   16.566    0.295    0.421   66.960
  362.750   16.573    0.294    0.401   64.494
  363.000   16.272    0.295    0.385   66.331
  363.250   15.973    0.301    0.393   69.393
  363.500   15.978    0.305    0.379   70.616
  363.750   15.395    0.310    0.394   71.840
  364.000   15.398    0.314    0.400   72.446
  364.250   15.119    0.311    0.412   70.592
  364.500   14.841    0.299    0.384   69.357
  364.750   14.846    0.295    0.425   73.035
  365.000   16.639    0.303    0.442   74.258
  365.250   16.647    0.293    0.384   71.174
  365.500   14.867    0.241    0.310   69.323
  365.750   13.027    0.112    0.188   70.546
  366.000   11.204    0.103    0.225   74.840
  366.250   10.589    0.150    0.308   80.977
  366.500    9.822    0.187    0.467   80.971
  366.750    9.462    0.262    0.487   77.885
  367.000    9.465    0.292    0.448   77.264
  367.250    9.651    0.303    0.437   77.258
  367.500    9.840    0.305    0.450   78.478
  367.750   10.224    0.315    0.461   78.469
  368.000   10.424    0.316    0.478   77.848
  368.250   10.627    0.313    0.445   79.067
  368.500   10.434    0.315    0.468   80.905
  368.750   10.437    0.319    0.430   82.741
  369.000    9.682    0.320    0.399   81.504
  369.250    8.980    0.307    0.367   80.268
  369.500    8.649    0.310    0.409   87.016
  369.750    8.175    0.324    0.444   90.697
  370.000    7.729    0.299    0.439   94.992
  370.250    7.445    0.277    0.408   98.061
  370.500    7.171    0.257    0.387  100.514
  370.750    7.174    0.247    0.382   99.891
  371.000    7.598    0.247    0.403   94.345
  371.250    7.746    0.245    0.423   93.111
  371.500    8.047    0.240    0.436   91.258
  371.750    8.685    0.244    0.439   89.408
