~VERSION INFORMATION
 VERS.                 2.0:   CWLS LOG ASCII STANDARD -VERSION 2.0
 WRAP.                  NO:   ONE LINE PER DEPTH STEP
~WELL INFORMATION BLOCK
#MNEM.UNIT           DATA                    DESCRIPTION OF MNEMONIC
#---------    -------------------            -------------------------------
# Generated from Intellog Unique Number	CS_71_72/WELL/699
WELL.         AMOCO AEC IPIATIK              : Well_name    - WELL
LOC .         00/06-01-072-05W4/0            : Location     - LOCATION
UWI .         00/06-01-072-05W4/0            : Uwi          - UNIQUE WELL ID
ENTR.         SP                             : Entered      - ENTERED BY
SRVC.         SCHLUMBERGER                   : Scn          - SERVICE COMPANY
STRT.M        285                            : top_depth    - START DEPTH
STOP.M        505                            : bot_depth    - STOP DEPTH
STEP.M        0.25                           : increment    - STEP LENGTH
 NULL. -999.2500:NULL Value
~CURVE INFORMATION BLOCK
#MNEM UNIT       ERCB CURVE CODE    CURVE DESCRIPTION
#-----------   ------------------   ----------------------------------
DEPT.M        00 001 00 00         : DEPTH        - DEPTH
ILD .OHMM     00 120 00 00         : RESD         - DEEP RESISTIVITY (DIL)
DPHI.V/V      00 890 00 00         : PHID         - DENSITY POROSITY (LIMESTONE)
NPHI.V/V      00 330 00 00         : PHIN         - NEUTRON POROSITY (LIMESTONE)
GR  .API      00 310 00 00         : GR           - GAMMA RAY
~PARAMETER INFORMATION
#MNEM.UNIT           DATA             DESCRIPTION OF MNEMONIC
#---------         -----------     ------------------------------
GL  .M        671                  : gl           - GROUND LEVEL ELEVATION
EREF.M        674.85               : kb           - ELEVATION OF DEPTH REFERENCE
DATM.M        671                  : datum        - DATUM ELEVATION
TDD .M        517                  : tdd          - TOTAL DEPTH DRILLER
RUN .         ONE                  : Run          - RUN NUMBER
ENG .         BILL                 : Engineer     - RECORDING ENGINEER
WIT .         JIM                  : Witness      - WITNESSED BY
MUD .         GEL                  : Mud_type     - MUD TYPE
MATR.         LIMESTONE            : Logunit      - NEUTRON MATRIX
TMAX.C        22                   : BHT          - MAXIMUM RECORDED TEMPERATURE
BHTD.M        517                  : BHTDEP       - MAXIMUM RECORDED TEMPERATURE
MATR.         1                    : LOGUNIT      - NEUTRON MATRIX
RMT .C        25                   : MDTP         - TEMPERATURE OF MUD
NEUT.         1                    : NEUTRON      - NEUTRON TYPE
RESI.         0                    : RESIST       - RESISTIVITY TYPE
RMC .OHMM     0.25                 : RMC          - RESISTIVITY OF MUD CAKE
RMF .OHMM     0.25                 : RMF          - RESISTIVITY OF MUD FILTRATE
SUFT.C        15                   : SUFT         - SURFACE TEMPERATURE
~A  DEPTH     RESD     PHID     PHIN       GR
# ...
  372.000    2.950    0.286    0.456   75.448
  372.250    3.062    0.276    0.460   74.247
  372.500    3.177    0.258    0.468   79.094
  372.750    3.297    0.248    0.482   83.941
  373.000    3.359    0.252    0.490   88.183
  373.250    3.422    0.254    0.496   90.008
  373.500    3.486    0.252    0.485   90.622
  373.750    3.551    0.247    0.474   91.232
  374.000    3.685    0.255    0.467   89.428
  374.250    3.685    0.240    0.458   88.829
  374.500    3.754    0.232    0.448   90.654
  374.750    3.755    0.222    0.445   91.265
  375.000    3.755    0.217    0.462   89.460
  375.250    3.755    0.229    0.482   88.257
  375.500    3.756    0.241    0.496   87.056
  375.750    3.756    0.246    0.504   86.460
  376.000    3.687    0.234    0.514   87.678
  376.250    3.554    0.226    0.504   88.291
  376.500    3.426    0.235    0.507   89.512
  376.750    3.426    0.245    0.495   89.517
  377.000    3.363    0.252    0.481   88.922
  377.250    3.242    0.245    0.473   87.116
  377.500    3.124    0.235    0.490   86.517
  377.750    3.067    0.240    0.486   85.921
  378.000    2.956    0.253    0.487   82.904
  378.250    2.903    0.267    0.495   79.283
  378.500    2.850    0.281    0.487   73.850
  378.750    2.850    0.299    0.464   70.227
  379.000    2.798    0.314    0.452   66.001
  379.250    2.798    0.310    0.446   66.617
  379.500    2.799    0.305    0.457   67.833
  379.750    2.799    0.305    0.468   69.050
  380.000    2.851    0.301    0.458   70.271
  380.250    2.905    0.303    0.441   70.882
  380.500    2.905    0.305    0.446   68.472
  380.750    2.905    0.305    0.451   66.664
  381.000    2.959    0.296    0.456   66.069
  381.250    2.960    0.292    0.469   69.708
  381.500    3.015    0.286    0.468   71.528
  381.750    3.015    0.284    0.473   72.141
  382.000    3.072    0.295    0.481   72.150
  382.250    3.072    0.286    0.486   71.552
  382.500    3.130    0.281    0.481   72.770
  382.750    3.130    0.269    0.475   75.199
  383.000    3.130    0.266    0.467   75.812
  383.250    3.130    0.263    0.462   77.028
  383.500    3.073    0.266    0.463   78.851
  383.750    3.074    0.262    0.475   82.490
  384.000    3.074    0.252    0.468   84.916
  384.250    3.018    0.240    0.465   91.578
  384.500    2.909    0.234    0.481  101.264
  384.750    2.803    0.224    0.513  109.135
  385.000    2.702    0.234    0.551  110.961
  385.250    2.653    0.232    0.592  110.971
  385.500    2.604    0.220    0.575  110.976
  385.750    2.653    0.212    0.554  110.380
  386.000    2.753    0.227    0.539  109.783
  386.250    2.910    0.237    0.553  109.189
  386.500    2.911    0.234    0.551  109.194
  386.750    2.965    0.226    0.513  108.598
  387.000    2.965    0.221    0.508  107.398
  387.250    2.966    0.233    0.514  106.798
  387.500    3.314    0.236    0.528  104.993
  387.750    3.502    0.235    0.532  102.580
  388.000    3.913    0.227    0.506   97.147
  388.250    4.137    0.230    0.477   94.130
  388.500    4.454    0.226    0.463   90.511
  388.750    4.538    0.222    0.473   87.494
  389.000    4.623    0.227    0.488   89.318
  389.250    4.709    0.229    0.505   91.138
  389.500    4.797    0.227    0.489   94.171
  389.750    4.798    0.220    0.468   94.180
  390.000    4.798    0.215    0.460   93.582
  390.250    4.625    0.218    0.455   91.776
  390.500    4.376    0.214    0.458   89.970
  390.750    4.296    0.204    0.474   91.792
  391.000    4.218    0.197    0.494   94.825
  391.250    4.218    0.201    0.503   98.464
  391.500    4.218    0.200    0.507  100.286
  391.750    4.219    0.194    0.508  100.898
  392.000    4.219    0.192    0.503  101.512
  392.250    4.066    0.191    0.489  103.336
  392.500    4.067    0.206    0.483  106.369
  392.750    3.848    0.214    0.496  108.797
  393.000    3.709    0.225    0.504  110.015
  393.250    3.574    0.220    0.500  110.625
  393.500    3.382    0.217    0.497  108.819
  393.750    3.320    0.213    0.510  110.038
  394.000    3.200    0.206    0.530  113.676
  394.250    3.142    0.193    0.539  116.103
  394.500    3.142    0.186    0.548  116.714
  394.750    3.201    0.200    0.544  110.676
  395.000    3.322    0.194    0.528  111.290
  395.250    3.384    0.187    0.539  112.508
  395.500    3.512    0.189    0.552  112.514
  395.750    3.512    0.205    0.561  108.288
  396.000    3.448    0.211    0.538  110.717
  396.250    3.262    0.213    0.533  112.542
  396.500    3.203    0.220    0.533  111.943
  396.750    3.324    0.218    0.532  110.740
  397.000    3.646    0.223    0.543  108.332
  397.250    4.073    0.234    0.546  107.130
  397.500    4.468    0.243    0.552  105.928
  397.750    4.636    0.230    0.562  103.517
  398.000    4.901    0.224    0.524  101.709
  398.250    4.901    0.224    0.494   97.483
  398.500    4.902    0.222    0.471   98.098
  398.750    4.812    0.213    0.471   98.712
  399.000    4.724    0.211    0.482   96.300
  399.250    4.554    0.210    0.487   95.704
  399.500    4.309    0.207    0.481   95.710
  399.750    4.309    0.218    0.485   96.328
  400.000    4.309    0.231    0.500   95.729
  400.250    4.555    0.249    0.504   93.920
  400.500    4.996    0.227    0.512   91.509
  400.750    5.582    0.243    0.515   88.495
  401.000    5.793    0.264    0.516   84.872
  401.250    6.123    0.269    0.485   80.647
  401.500    6.124    0.250    0.464   76.421
  401.750    6.012    0.212    0.460   71.590
  402.000    5.795    0.165    0.443   67.970
  402.250    5.483    0.120    0.369   71.001
  402.500    5.188    0.160    0.398   75.849
  402.750    4.909    0.216    0.468   79.486
  403.000    4.819    0.245    0.494   81.913
  403.250    4.820    0.287    0.489   81.922
  403.500    4.820    0.310    0.487   83.746
  403.750    4.820    0.297    0.492   84.963
  404.000    4.821    0.293    0.453   83.763
  404.250    5.003    0.300    0.435   80.745
  404.500    5.288    0.305    0.436   77.729
  404.750    5.694    0.309    0.452   77.134
  405.000    6.019    0.288    0.454   76.537
  405.250    6.132    0.268    0.463   74.731
  405.500    6.132    0.232    0.477   72.320
  405.750    6.020    0.198    0.459   69.908
  406.000    5.911    0.159    0.372   69.916
  406.250    5.390    0.145    0.400   77.185
  406.500    5.100    0.223    0.432   82.636
  406.750    5.100    0.245    0.468   85.062
  407.000    5.391    0.232    0.473   86.281
  407.250    5.492    0.230    0.477   87.496
  407.500    5.595    0.221    0.461   90.530
  407.750    5.806    0.212    0.472   92.353
  408.000    5.806    0.215    0.476   91.756
  408.250    5.701    0.224    0.471   89.345
  408.500    5.198    0.227    0.466   87.540
  408.750    4.740    0.212    0.465   88.153
  409.000    4.014    0.222    0.462   90.582
  409.250    3.338    0.233    0.468   92.402
  409.500    3.100    0.227    0.467   94.829
  409.750    2.775    0.231    0.463   98.466
  410.000    2.675    0.239    0.489  102.714
  410.250    2.485    0.232    0.519  103.928
  410.500    2.351    0.229    0.527  106.358
  410.750    2.308    0.238    0.527  108.783
  411.000    2.351    0.247    0.530  107.581
  411.250    2.395    0.254    0.545  107.589
  411.500    2.486    0.255    0.550  109.414
  411.750    2.579    0.237    0.536  108.818
  412.000    2.727    0.229    0.515  107.014
  412.250    2.778    0.225    0.498  106.415
  412.500    2.830    0.225    0.502  105.817
  412.750    2.883    0.222    0.516  105.219
  413.000    2.883    0.216    0.543  104.622
  413.250    2.992    0.222    0.561  102.214
  413.500    3.405    0.234    0.552  100.405
  413.750    4.250    0.240    0.541   96.787
  414.000    5.019    0.236    0.537   95.582
  414.250    5.819    0.225    0.531   91.359
  414.500    6.501    0.215    0.476   88.341
  414.750    6.623    0.211    0.425   83.510
  415.000    6.747    0.208    0.398   77.472
  415.250    6.267    0.219    0.429   75.059
