~VERSION INFORMATION
 VERS.                 2.0:   CWLS LOG ASCII STANDARD -VERSION 2.0
 WRAP.                  NO:   ONE LINE PER DEPTH STEP
~WELL INFORMATION BLOCK
#MNEM.UNIT           DATA                    DESCRIPTION OF MNEMONIC
#---------    -------------------            -------------------------------
# Generated from Intellog Unique Number	CS_73_76/WELL/3217
WELL.         07-36-076-11W4                 : Well_name    - WELL
LOC .         00/07-36-076-11W4/0            : Location     - LOCATION
UWI .         00/07-36-076-11W4/0            : Uwi          - UNIQUE WELL ID
ENTR.         SP                             : Entered      - ENTERED BY
SRVC.         SCHLUMBERGER                   : Scn          - SERVICE COMPANY
STRT.M        256.032                        : top_depth    - START DEPTH
STOP.M        502.782                        : bot_depth    - STOP DEPTH
STEP.M        0.25                           : increment    - STEP LENGTH
 NULL. -999.2500:NULL Value
~CURVE INFORMATION BLOCK
#MNEM UNIT       ERCB CURVE CODE    CURVE DESCRIPTION
#-----------   ------------------   ----------------------------------
DEPT.M        00 001 00 00         : DEPTH        - DEPTH
GR  .API      00 310 00 00         : GR           - GAMMA RAY
DPHI.V/V      00 890 00 00         : PHID         - DENSITY POROSITY (SANDSTONE)
NPHI.V/V      00 330 00 00         : PHIN         - NEUTRON POROSITY (SANDSTONE)
ILD .OHMM     00 120 00 00         : RESD         - DEEP RESISTIVITY (DIL)
~PARAMETER INFORMATION
#MNEM.UNIT           DATA             DESCRIPTION OF MNEMONIC
#---------         -----------     ------------------------------
GL  .M        673.303              : gl           - GROUND LEVEL ELEVATION
EREF.M        677.509              : kb           - ELEVATION OF DEPTH REFERENCE
DATM.M        673.303              : datum        - DATUM ELEVATION
TDD .M        505.968              : tdd          - TOTAL DEPTH DRILLER
RUN .         ONE                  : Run          - RUN NUMBER
ENG .         BILL                 : Engineer     - RECORDING ENGINEER
WIT .         JIM                  : Witness      - WITNESSED BY
MUD .         GEL                  : Mud_type     - MUD TYPE
MATR.         SANDSTONE            : Logunit      - NEUTRON MATRIX
TMAX.C        27.7778              : BHT          - MAXIMUM RECORDED TEMPERATURE
BHTD.M        505.968              : BHTDEP       - MAXIMUM RECORDED TEMPERATURE
MATR.         1                    : LOGUNIT      - NEUTRON MATRIX
RMT .C        25                   : MDTP         - TEMPERATURE OF MUD
NEUT.         1                    : NEUTRON      - NEUTRON TYPE
RESI.         0                    : RESIST       - RESISTIVITY TYPE
RMC .OHMM     0.25                 : RMC          - RESISTIVITY OF MUD CAKE
RMF .OHMM     0.25                 : RMF          - RESISTIVITY OF MUD FILTRATE
SUFT.C        15                   : SUFT         - SURFACE TEMPERATURE
~A  DEPTH       GR     PHID     PHIN     RESD
# ...
  299.532  131.563    0.199    0.549    6.402
  299.782  128.170    0.158    0.532    5.492
  300.032  127.678    0.073    0.490    5.227
  300.282  127.842    0.095    0.493    5.741
  300.532  128.267    0.129    0.498    6.749
  300.782  127.724    0.227    0.492    7.505
  301.032  126.194    0.251    0.470    8.638
  301.282  125.367    0.260    0.471   10.044
  301.532  122.967    0.277    0.485   11.307
  301.782  118.164    0.284    0.506   13.023
  302.032  114.426    0.288    0.501   14.213
  302.282  108.432    0.292    0.493   14.739
  302.532  109.339    0.280    0.473   13.164
  302.782  114.908    0.274    0.466   11.117
  303.032  117.640    0.264    0.476    9.291
  303.282  120.418    0.263    0.486    8.734
  303.532  118.965    0.265    0.488    8.745
  303.782  117.821    0.265    0.488    9.433
  304.032  116.853    0.261    0.483    9.609
  304.282  115.318    0.257    0.470    9.589
  304.532  112.939    0.258    0.489    9.839
  304.782  108.904    0.248    0.507   10.294
  305.032  102.618    0.249    0.511   10.704
  305.282   97.263    0.275    0.490   11.122
  305.532   94.959    0.292    0.474   11.493
  305.782  100.149    0.310    0.477   11.647
  306.032  101.098    0.285    0.472   11.054
  306.282   99.500    0.265    0.476   10.412
  306.532   98.561    0.267    0.492   10.065
  306.782   97.554    0.285    0.507    9.759
  307.032   96.539    0.297    0.482    9.770
  307.282   99.249    0.291    0.486    9.836
  307.532  100.606    0.289    0.496   10.453
  307.782   96.957    0.269    0.504   12.313
  308.032   95.755    0.252    0.515   13.803
  308.282   94.708    0.237    0.514   15.623
  308.532   95.021    0.253    0.505   16.489
  308.782   97.016    0.268    0.498   16.974
  309.032   97.768    0.276    0.500   17.302
  309.282   93.280    0.238    0.489   16.290
  309.532   87.076    0.162    0.271   14.872
  309.782   84.777    0.094    0.258   13.992
  310.032   92.639    0.045    0.284   12.159
  310.282   96.764    0.176    0.335   10.735
  310.532  102.578    0.226    0.425    9.485
  310.782  101.068    0.253    0.493    9.102
  311.032  101.978    0.257    0.511    9.230
  311.282  103.827    0.249    0.524    9.484
  311.532  100.221    0.242    0.537    9.990
  311.782  101.382    0.231    0.532   10.111
  312.032  104.121    0.231    0.509   10.331
  312.282  106.126    0.267    0.497   10.311
  312.532  110.017    0.279    0.517   10.331
  312.782  111.726    0.278    0.537   10.114
  313.032  113.660    0.288    0.550    9.938
  313.282  115.180    0.291    0.538    9.648
  313.532  111.036    0.284    0.513    9.395
  313.782  111.131    0.273    0.493    9.401
  314.032  113.143    0.278    0.476    9.684
  314.282  108.570    0.256    0.466    9.977
  314.532  104.215    0.263    0.471   10.280
  314.782  101.929    0.266    0.473   10.523
  315.032  100.448    0.268    0.474   10.523
  315.282  101.555    0.261    0.475   10.679
  315.532  100.475    0.277    0.485   10.775
  315.782   99.829    0.277    0.500   10.302
  316.032  103.123    0.271    0.505    9.543
  316.282  105.311    0.256    0.508    9.158
  316.532  101.621    0.258    0.515    8.437
  316.782  103.870    0.254    0.513    7.870
  317.032  105.452    0.225    0.508    7.200
  317.282  108.954    0.220    0.500    6.773
  317.532  115.507    0.213    0.508    6.697
  317.782  116.464    0.235    0.510    6.638
  318.032  112.531    0.242    0.505    6.632
  318.282  108.349    0.260    0.493    6.590
  318.532  103.788    0.264    0.482    6.384
  318.782  103.834    0.262    0.498    6.255
  319.032   98.243    0.254    0.519    6.621
  319.282   87.057    0.265    0.537    7.552
  319.532   79.777    0.289    0.548    8.390
  319.782   65.951    0.337    0.536   10.490
  320.032   60.309    0.356    0.521   13.685
  320.282   58.171    0.381    0.593   16.809
  320.532   59.043    0.414    0.718   19.111
  320.782   60.510    0.462    0.645   19.903
  321.032   63.574    0.345    0.540   20.956
  321.282   64.327    0.305    0.494   21.565
  321.532   65.827    0.299    0.472   21.924
  321.782   67.715    0.303    0.461   22.066
  322.032   66.587    0.305    0.464   22.303
  322.282   64.525    0.307    0.466   22.265
  322.532   61.962    0.307    0.458   22.772
  322.782   60.702    0.323    0.465   22.713
  323.032   60.028    0.330    0.470   23.186
  323.282   59.940    0.325    0.465   23.238
  323.532   59.482    0.323    0.430   23.578
  323.782   60.093    0.314    0.403   23.584
  324.032   61.447    0.303    0.416   23.632
  324.282   62.972    0.309    0.426   24.020
  324.532   63.697    0.320    0.419   23.967
  324.782   64.401    0.327    0.415   24.474
  325.032   67.016    0.332    0.433   24.445
  325.282   67.887    0.325    0.441   24.450
  325.532   67.843    0.326    0.446   24.451
  325.782   68.207    0.317    0.453   24.438
  326.032   69.237    0.309    0.449   24.330
  326.282   69.649    0.305    0.438   24.001
  326.532   68.367    0.325    0.447   24.003
  326.782   66.418    0.337    0.458   24.004
  327.032   66.051    0.332    0.463   24.014
  327.282   65.360    0.326    0.472   24.232
  327.532   65.438    0.321    0.477   24.443
  327.782   64.477    0.321    0.466   24.452
  328.032   63.573    0.322    0.449   24.441
  328.282   63.599    0.325    0.440   24.430
  328.532   63.548    0.321    0.441   23.977
  328.782   64.437    0.327    0.443   24.002
  329.032   64.790    0.331    0.446   24.006
  329.282   63.791    0.334    0.447   24.065
  329.532   62.765    0.338    0.442   23.621
  329.782   62.888    0.343    0.443   24.037
  330.032   65.215    0.334    0.453   23.531
  330.282   66.630    0.329    0.466   23.567
  330.532   65.521    0.328    0.464   23.570
  330.782   65.348    0.318    0.463   23.572
  331.032   65.218    0.321    0.465   23.579
  331.282   62.740    0.320    0.461   23.221
  331.532   59.651    0.324    0.450   22.994
  331.782   60.545    0.335    0.455   22.720
  332.032   60.901    0.341    0.473   22.761
  332.282   61.954    0.333    0.483   22.263
  332.532   62.324    0.324    0.476   22.303
  332.782   63.664    0.332    0.477   22.047
  333.032   64.898    0.335    0.471   21.831
  333.282   67.982    0.325    0.470   21.483
  333.532   71.355    0.322    0.488   21.285
  333.782   69.238    0.341    0.480   21.067
  334.032   68.112    0.347    0.472   20.732
  334.282   70.155    0.353    0.475   20.151
  334.532   67.541    0.338    0.496   19.986
  334.782   65.247    0.341    0.494   19.703
  335.032   66.770    0.348    0.481   19.617
  335.282   67.680    0.345    0.474   19.615
  335.532   68.066    0.341    0.487   19.209
  335.782   68.285    0.342    0.495   19.808
  336.032   70.603    0.346    0.498   20.700
  336.282   72.083    0.340    0.493   21.373
  336.532   71.490    0.328    0.489   21.554
  336.782   68.393    0.327    0.485   21.944
  337.032   68.760    0.335    0.481   21.461
  337.282   66.904    0.331    0.476   21.494
  337.532   64.955    0.328    0.472   21.568
  337.782   63.280    0.326    0.486   20.521
  338.032   64.714    0.322    0.483   19.962
  338.282   66.206    0.330    0.472   19.378
  338.532   65.513    0.332    0.478   18.872
  338.782   67.006    0.342    0.502   18.912
  339.032   67.972    0.347    0.518   18.317
  339.282   68.863    0.354    0.522   18.179
  339.532   68.803    0.339    0.506   17.581
  339.782   68.597    0.342    0.495   17.394
  340.032   66.840    0.350    0.488   17.209
  340.282   66.431    0.343    0.491   16.945
  340.532   67.297    0.350    0.497   16.588
  340.782   70.719    0.358    0.486   16.622
  341.032   71.599    0.363    0.488   16.655
  341.282   68.167    0.356    0.488   16.283
  341.532   66.974    0.359    0.494   16.320
  341.782   66.463    0.363    0.503   15.970
  342.032   64.999    0.352    0.505   16.350
  342.282   62.860    0.349    0.500   16.321
  342.532   63.121    0.353    0.504   16.345
  342.782   64.216    0.353    0.506   15.947
