~VERSION INFORMATION
 VERS.                 2.0:   CWLS LOG ASCII STANDARD -VERSION 2.0
 WRAP.                  NO:   ONE LINE PER DEPTH STEP
~WELL INFORMATION BLOCK
#MNEM.UNIT           DATA                    DESCRIPTION OF MNEMONIC
#---------    -------------------            -------------------------------
# Generated from Intellog Unique Number	CC_80_83/WELL/1164
NULL.         -999.25                        : NULL_VALUE
LOC .         06-34-080-17W4            : Location     - LOCATION          
UWI .         00/06-34-080-17W4/0            : Uwi          - UNIQUE WELL ID    
ENTR.         DW                             : Entered      - ENTERED BY        
SRVC.         SCHLUMBERGER                   : Scn          - SERVICE COMPANY   
STRT.M        150                            : top_depth    - START DEPTH       
STOP.M        320.098                        : bot_depth    - STOP DEPTH        
STEP.M        0.3                            : increment    - STEP LENGTH       
~CURVE INFORMATION BLOCK
#MNEM UNIT       ERCB CURVE CODE    CURVE DESCRIPTION
#-----------   ------------------   ----------------------------------
DEPT.M        00 001 00 00         : DEPTH        - DEPTH                       
DPHI.V/V      00 890 00 00         : PHID         - DENSITY POROSITY (LIMESTONE)
NPHI.V/V      00 330 00 00         : PHIN         - NEUTRON POROSITY (LIMESTONE)
GR  .API      00 310 00 00         : GR           - GAMMA RAY                   
ILD .OHMM     00 120 00 00         : RESD         - DEEP RESISTIVITY (DIL)      
~PARAMETER INFORMATION       
#MNEM.UNIT           DATA             DESCRIPTION OF MNEMONIC
#---------         -----------     ------------------------------
GL  .M        547                  : gl           - GROUND LEVEL ELEVATION      
EREF.M        550                  : kb           - ELEVATION OF DEPTH REFERENCE
DATM.M        550                  : datum        - DATUM ELEVATION             
TDD .M        321                  : tdd          - TOTAL DEPTH DRILLER         
RUN .         ONE                  : Run          - RUN NUMBER                  
ENG .         BILL                 : Engineer     - RECORDING ENGINEER          
WIT .         JIM                  : Witness      - WITNESSED BY                
MUD .         GEL                  : Mud_type     - MUD TYPE                    
MATR.         LIMESTONE            : Logunit      - NEUTRON MATRIX              
TMAX.C        15.5                 : BHT          - MAXIMUM RECORDED TEMPERATURE
BHTD.M        321                  : BHTDEP       - MAXIMUM RECORDED TEMPERATURE
MATR.         0                    : LOGUNIT      - NEUTRON MATRIX              
RMT .C        25                   : MDTP         - TEMPERATURE OF MUD          
NEUT.         1                    : NEUTRON      - NEUTRON TYPE                
RESI.         0                    : RESIST       - RESISTIVITY TYPE            
RMC .OHMM     0.25                 : RMC          - RESISTIVITY OF MUD CAKE     
RMF .OHMM     0.25                 : RMF          - RESISTIVITY OF MUD FILTRATE 
SUFT.C        15                   : SUFT         - SURFACE TEMPERATURE         
~A  DEPTH     PHID     PHIN       GR     RESD
  150.000    0.290    0.300   31.823   20.299
  150.300    0.291    0.347   30.050   19.943
  150.600    0.278    0.358   28.879   19.235
  150.900    0.278    0.356   27.116   19.609
  151.200    0.314    0.351   27.148   21.540
  151.500    0.274    0.352   27.773   23.657
  151.800    0.288    0.385   31.409   24.576
  152.100    0.334    0.373   33.849   24.603
  152.400    0.340    0.371   34.478   24.161
  152.700    0.307    0.382   35.100   22.040
  153.000    0.302    0.379   33.934   20.105
  153.300    0.333    0.368   32.168   18.682
  153.600    0.331    0.355   31.581   18.695
  153.900    0.340    0.354   31.616   21.713
  154.200    0.342    0.373   33.451   21.729
  154.500    0.312    0.377   34.678   20.190
  154.800    0.245    0.358   33.512   18.757
  155.100    0.249    0.336   35.348   19.487
  155.400    0.314    0.348   40.181   19.869
  155.700    0.321    0.339   45.007   18.122
  156.000    0.268    0.350   51.635   15.632
  156.300    0.240    0.377   58.272   12.991
  156.600    0.224    0.386   57.699    8.171
  156.900    0.246    0.396   52.933    7.735
  157.200    0.264    0.424   48.759    8.495
  157.500    0.287    0.410   42.189   12.332
  157.800    0.309    0.382   36.823   15.424
  158.100    0.327    0.353   35.048   18.249
  158.400    0.319    0.353   33.881   20.422
  158.700    0.305    0.364   33.315   20.436
  159.000    0.302    0.362   33.333   18.644
  159.300    0.307    0.369   30.369   18.317
  159.600    0.327    0.357   27.999   19.386
  159.900    0.343    0.356   27.422   20.511
  160.200    0.347    0.363   29.856   19.781
  160.500    0.314    0.364   31.683   19.434
  160.800    0.269    0.368   26.916   20.949
  161.100    0.313    0.359   20.945   26.209
  161.400    0.340    0.315   21.571   29.323
  161.700    0.345    0.303   24.003   30.461
  162.000    0.332    0.317   43.846   28.301
  162.300    0.284    0.329   45.079   15.921
  162.600    0.254    0.348   49.906   14.796
  162.900    0.247    0.357   55.949   16.252
  163.200    0.245    0.347   55.371   16.263
  163.500    0.232    0.327   49.398   14.560
  163.800    0.241    0.313   50.642   14.845
  164.100    0.268    0.330   54.868   18.235
  164.400    0.263    0.333   60.904   18.936
  164.700    0.203    0.323   62.725   16.333
  165.000    0.189    0.347   63.956    8.219
  165.300    0.209    0.388   62.189    7.359
  165.600    0.229    0.405   61.619    7.504
  165.900    0.211    0.416   60.460    6.718
  166.200    0.227    0.438   61.081    7.380
  166.500    0.241    0.482   62.310    8.259
  166.800    0.241    0.451   61.748    7.963
  167.100    0.222    0.448   61.167    6.618
  167.400    0.233    0.467   61.800    5.501
  167.700    0.261    0.476   58.232    5.110
  168.000    0.290    0.452   52.267    6.046
  168.300    0.261    0.400   51.693    7.848
  168.600    0.259    0.377   54.729   12.502
  168.900    0.237    0.340   56.550   15.068
  169.200    0.256    0.342   58.997   14.264
  169.500    0.233    0.361   59.618   12.078
  169.800    0.215    0.402   60.255   11.223
  170.100    0.268    0.416   60.276   10.825
  170.400    0.266    0.418   53.102   10.832
  170.700    0.271    0.410   45.331   12.581
  171.000    0.288    0.364   40.560   14.339
  171.300    0.299    0.341   36.986   16.650
  171.600    0.308    0.344   33.427   18.637
  171.900    0.325    0.358   31.646   19.353
  172.200    0.339    0.374   31.079   19.017
  172.500    0.335    0.381   31.711   17.669
  172.800    0.319    0.388   33.544   15.527
  173.100    0.316    0.393   37.175   17.372
  173.400    0.335    0.354   42.600   18.731
  173.700    0.348    0.346   51.642   19.459
  174.000    0.345    0.336   53.466   17.417
  174.300    0.287    0.346   46.293   12.476
  174.600    0.310    0.369   39.728   13.451
  174.900    0.315    0.375   39.165   14.774
  175.200    0.314    0.367   40.990   13.727
  175.500    0.309    0.374   38.016   13.739
  175.800    0.282    0.374   29.642   14.539
  176.100    0.326    0.368   20.669   18.528
  176.400    0.346    0.346   16.500   19.977
  176.700    0.346    0.375   12.931   17.555
  177.000    0.352    0.380   11.154   20.387
  177.300    0.363    0.359   29.190   21.575
  177.600    0.361    0.362   22.019   13.319
  177.900    0.357    0.385   14.248   17.294
  178.200    0.358    0.378   10.684   22.875
  178.500    0.371    0.362   11.306   23.758
  178.800    0.368    0.364   13.737   17.338
  179.100    0.365    0.374   10.768   17.679
  179.400    0.366    0.389   10.198   20.537
  179.700    0.373    0.377   13.230   21.326
  180.000    0.372    0.360   24.664   20.956
  180.300    0.352    0.362   21.097   13.177
  180.600    0.345    0.407   15.126   13.436
  180.900    0.365    0.401   10.958   18.796
  181.200    0.383    0.398   10.380   21.034
  181.500    0.377    0.409   21.223   21.843
  181.800    0.376    0.408   21.858   21.458
  182.100    0.362    0.399   18.286   18.860
  182.400    0.351    0.389   15.912   14.549
  182.700    0.364    0.372   14.147   19.611
  183.000    0.354    0.366   13.568   21.533
  183.300    0.347    0.354   14.203   22.369
  183.600    0.347    0.359   15.430   21.981
  183.900    0.362    0.399   16.665   20.422
  184.200    0.374    0.409   17.297   18.629
  184.500    0.376    0.394   17.319   18.295
  184.800    0.382    0.365   18.559   17.977
  185.100    0.385    0.366   16.187   17.659
  185.400    0.392    0.376   12.621   18.346
  185.700    0.396    0.374   11.437   19.060
  186.000    0.385    0.372    8.471   19.798
  186.300    0.381    0.372    7.303   20.185
  186.600    0.380    0.377    6.746   19.828
  186.900    0.379    0.380    6.775   19.480
  187.200    0.376    0.379    7.395   19.145
  187.500    0.371    0.342    8.026   19.161
  187.800    0.368    0.341    8.649   19.536
  188.100    0.369    0.371    9.886   19.919
  188.400    0.373    0.363   13.517   19.939
  188.700    0.374    0.352   20.747   19.955
  189.000    0.376    0.360   39.385   19.604
  189.300    0.373    0.374   55.624   17.875
  189.600    0.350    0.375   57.460    8.667
  189.900    0.235    0.376   41.882    7.906
  190.200    0.257    0.389   26.307   10.852
  190.500    0.298    0.375   22.140   19.326
  190.800    0.342    0.363   20.962   18.638
  191.100    0.355    0.361   25.193   17.975
  191.400    0.362    0.362   29.429   18.327
  191.700    0.394    0.408   23.460   20.504
  192.000    0.429    0.435   19.881   21.299
  192.300    0.341    0.347   16.918   19.069
  192.600    0.329    0.338   14.546   18.391
  192.900    0.357    0.351   11.574   19.831
  193.200    0.362    0.389    9.816   20.599
  193.500    0.357    0.374    9.235   20.617
  193.800    0.360    0.350   11.066   21.409
  194.100    0.363    0.380   14.097   21.435
  194.400    0.360    0.392   15.929   20.288
  194.700    0.355    0.406   15.954   18.852
  195.000    0.355    0.361   15.388   18.528
  195.300    0.362    0.341   14.818   19.243
  195.600    0.361    0.337   11.248   19.985
  195.900    0.354    0.356    9.478   20.765
  196.200    0.353    0.356    9.508   20.773
  196.500    0.354    0.338   10.144   20.798
  196.800    0.359    0.356   11.379   21.201
  197.100    0.365    0.371   13.199   20.834
  197.400    0.364    0.372   15.040   20.468
  197.700    0.365    0.356   15.675   20.870
  198.000    0.366    0.348   15.692   20.887
  198.300    0.365    0.352   15.132   20.154
  198.600    0.354    0.353   15.153   20.165
  198.900    0.337    0.352   13.999   19.803
  199.201    0.361    0.332   14.623   20.193
  199.501    0.375    0.328   15.258   20.215
  199.801    0.368    0.357   17.082   20.230
  200.101    0.355    0.364   18.917   19.513
  200.401    0.349    0.371   17.747   19.163
  200.701    0.347    0.354   16.578   18.482
  201.001    0.359    0.360   15.401   18.161
  201.301    0.363    0.362   15.436   18.514
  201.601    0.357    0.362   15.455   19.962
  201.901    0.349    0.387   17.297   21.523
