~VERSION INFORMATION
 VERS.                 2.0:   CWLS LOG ASCII STANDARD -VERSION 2.0
 WRAP.                  NO:   ONE LINE PER DEPTH STEP
~WELL INFORMATION BLOCK
#MNEM.UNIT           DATA                    DESCRIPTION OF MNEMONIC
#---------    -------------------            -------------------------------
# Generated from Intellog Unique Number	CS_73_76/WELL/2392
WELL.         07-26-076-12W4                 : Well_name    - WELL
LOC .         00/07-26-076-12W4/0            : Location     - LOCATION
UWI .         00/07-26-076-12W4/0            : Uwi          - UNIQUE WELL ID
ENTR.         SP                             : Entered      - ENTERED BY
SRVC.         SCHLUMBERGER                   : Scn          - SERVICE COMPANY
STRT.M        283.464                        : top_depth    - START DEPTH
STOP.M        523.964                        : bot_depth    - STOP DEPTH
STEP.M        0.25                           : increment    - STEP LENGTH
 NULL. -999.2500:NULL Value
~CURVE INFORMATION BLOCK
#MNEM UNIT       ERCB CURVE CODE    CURVE DESCRIPTION
#-----------   ------------------   ----------------------------------
DEPT.M        00 001 00 00         : DEPTH        - DEPTH
GR  .API      00 310 00 00         : GR           - GAMMA RAY
DPHI.V/V      00 890 00 00         : PHID         - DENSITY POROSITY (SANDSTONE)
NPHI.V/V      00 330 00 00         : PHIN         - NEUTRON POROSITY (SANDSTONE)
ILD .OHMM     00 120 00 00         : RESD         - DEEP RESISTIVITY (DIL)
~PARAMETER INFORMATION
#MNEM.UNIT           DATA             DESCRIPTION OF MNEMONIC
#---------         -----------     ------------------------------
GL  .M        669.95               : gl           - GROUND LEVEL ELEVATION
EREF.M        672.998              : kb           - ELEVATION OF DEPTH REFERENCE
DATM.M        669.95               : datum        - DATUM ELEVATION
TDD .M        528.523              : tdd          - TOTAL DEPTH DRILLER
RUN .         ONE                  : Run          - RUN NUMBER
ENG .         BILL                 : Engineer     - RECORDING ENGINEER
WIT .         JIM                  : Witness      - WITNESSED BY
MUD .         GEL                  : Mud_type     - MUD TYPE
MATR.         SANDSTONE            : Logunit      - NEUTRON MATRIX
TMAX.C        35                   : BHT          - MAXIMUM RECORDED TEMPERATURE
BHTD.M        528.523              : BHTDEP       - MAXIMUM RECORDED TEMPERATURE
MATR.         1                    : LOGUNIT      - NEUTRON MATRIX
RMT .C        25                   : MDTP         - TEMPERATURE OF MUD
NEUT.         1                    : NEUTRON      - NEUTRON TYPE
RESI.         0                    : RESIST       - RESISTIVITY TYPE
RMC .OHMM     0.25                 : RMC          - RESISTIVITY OF MUD CAKE
RMF .OHMM     0.25                 : RMF          - RESISTIVITY OF MUD FILTRATE
SUFT.C        15                   : SUFT         - SURFACE TEMPERATURE
~A  DEPTH       GR     PHID     PHIN     RESD
# ...
  500.964  115.255    0.133    0.443    9.263
  501.214  103.609    0.201    0.402    9.585
  501.464  109.732    0.164    0.416    9.640
  501.714  117.678    0.143    0.427    9.544
  501.964  124.053    0.154    0.432    9.283
  502.214  126.210    0.136    0.444    8.854
  502.464  124.204    0.123    0.452    8.563
  502.714  123.540    0.127    0.441    8.264
  502.964  118.133    0.162    0.440    7.740
  503.214  115.338    0.154    0.443    7.783
  503.464  115.880    0.145    0.432    7.701
  503.714  115.583    0.152    0.423    7.617
  503.964  115.125    0.167    0.428    7.620
  504.214  113.931    0.172    0.421    7.479
  504.464  112.595    0.174    0.419    7.501
  504.714  110.650    0.151    0.423    7.725
  504.964  108.186    0.160    0.424    8.183
  505.214  109.618    0.154    0.421    8.515
  505.464  113.191    0.143    0.430    8.774
  505.714  113.105    0.142    0.441    9.037
  505.964  109.166    0.154    0.451    9.320
  506.214  103.548    0.181    0.446    9.411
  506.464  107.247    0.200    0.405    9.737
  506.714  111.592    0.165    0.374   10.190
  506.964  110.755    0.145    0.368   11.029
  507.214  106.544    0.131    0.375   11.713
  507.464  101.018    0.119    0.405   13.075
  507.714   84.737    0.206    0.424   14.548
  507.964   57.196    0.229    0.451   15.874
  508.214   56.288    0.251    0.437   16.906
  508.464   62.193    0.217    0.404   15.744
  508.714  100.178    0.176    0.380   12.524
  508.964  130.428    0.178    0.377    9.773
  509.214  140.641    0.164    0.404    8.128
  509.464  141.768    0.135    0.428    7.241
  509.714  139.235    0.149    0.449    6.799
  509.964  134.917    0.155    0.450    6.554
  510.214  128.413    0.137    0.448    6.654
  510.464  122.253    0.146    0.448    7.167
  510.714  109.110    0.170    0.460    7.756
  510.964   88.263    0.179    0.477    8.788
  511.214   59.490    0.174    0.462    9.255
  511.464   47.806    0.171    0.420   10.373
  511.714   40.229    0.171    0.358   10.343
  511.964   38.064    0.236    0.341    9.473
  512.214   35.340    0.257    0.333    8.217
  512.464   34.579    0.251    0.335    7.137
  512.714   35.841    0.248    0.338    6.458
  512.964   34.756    0.245    0.342    5.809
  513.214   32.733    0.245    0.345    5.402
  513.464   30.736    0.256    0.348    5.027
  513.714   29.162    0.257    0.355    4.715
  513.964   29.176    0.256    0.363    4.603
  514.214   32.234    0.278    0.347    4.707
  514.464   36.570    0.281    0.362    4.837
  514.714   42.855    0.292    0.388    5.291
  514.964   50.464    0.267    0.344    5.743
  515.214   58.543    0.205    0.316    6.223
  515.464   63.846    0.199    0.318    6.619
  515.714   62.173    0.191    0.333    7.149
  515.964   59.180    0.195    0.340    6.943
  516.214   55.309    0.205    0.347    6.721
  516.464   51.493    0.220    0.355    6.099
  516.714   46.447    0.205    0.359    5.722
  516.964   42.127    0.215    0.374    5.210
  517.214   36.287    0.241    0.392    4.593
  517.464   34.578    0.267    0.406    4.341
  517.714   36.631    0.288    0.392    3.969
  517.964   43.008    0.277    0.368    3.858
  518.214   49.486    0.268    0.347    3.735
  518.464   58.285    0.261    0.336    3.693
  518.714   78.040    0.240    0.331    3.583
  518.964  107.318    0.172    0.340    3.475
  519.214  129.439    0.102    0.388    3.426
  519.464  139.179    0.070    0.448    3.415
  519.714  135.508    0.061    0.497    3.568
  519.964  133.060    0.066    0.493    3.724
  520.214  132.333    0.093    0.474    3.982
  520.464  131.680    0.088    0.455    4.367
  520.714  130.681    0.085    0.448    4.860
  520.964  128.295    0.082    0.442    5.461
  521.214  125.068    0.084    0.432    6.037
  521.464  124.784    0.063    0.426    6.538
  521.714  123.053    0.047    0.430    6.947
  521.964  120.999    0.046    0.430    7.761
  522.214  121.286    0.048    0.411    8.685
  522.464  126.663    0.036    0.388    9.704
  522.714  129.551    0.025    0.370   11.647
  522.964  130.954    0.036    0.315   14.235
  523.214  127.713    0.036    0.248   16.977
  523.464  127.708    0.031    0.225   20.763
  523.714  127.318    0.035    0.202   23.989
  523.964  124.214    0.048    0.182   28.658
