~VERSION INFORMATION
 VERS.                 2.0:   CWLS LOG ASCII STANDARD -VERSION 2.0
 WRAP.                  NO:   ONE LINE PER DEPTH STEP
~WELL INFORMATION BLOCK
#MNEM.UNIT           DATA                    DESCRIPTION OF MNEMONIC
#---------    -------------------            -------------------------------
# Generated from Intellog Unique Number	CW_73_75/WELL/3518
WELL.         PINNACLE RT AL NARTINHILL      : Well_name    - WELL
LOC .         00/03-05-075-02W5/0            : Location     - LOCATION
UWI .         00/03-05-075-02W5/0            : Uwi          - UNIQUE WELL ID
ENTR.         TIM                            : Entered      - ENTERED BY
SRVC.         SCHLUMBERGER                   : Scn          - SERVICE COMPANY
DATE.         05/25/92                       : Date         - LOG DATE
STRT.M        405                            : top_depth    - START DEPTH
STOP.M        650                            : bot_depth    - STOP DEPTH
STEP.M        0.25                           : increment    - STEP LENGTH
 NULL. -999.2500:NULL Value
~CURVE INFORMATION BLOCK
#MNEM UNIT       ERCB CURVE CODE    CURVE DESCRIPTION
#-----------   ------------------   ----------------------------------
DEPT.M        00 001 00 00         : DEPTH        - DEPTH
ILD .OHMM     00 120 00 00         : RESD         - DEEP RESISTIVITY (DIL)
DPHI.V/V      00 890 00 00         : PHID         - DENSITY POROSITY (SANDSTONE)
NPHI.V/V      00 330 00 00         : PHIN         - NEUTRON POROSITY (SANDSTONE)
GR  .API      00 310 00 00         : GR           - GAMMA RAY
~PARAMETER INFORMATION
#MNEM.UNIT           DATA             DESCRIPTION OF MNEMONIC
#---------         -----------     ------------------------------
GL  .M        702                  : gl           - GROUND LEVEL ELEVATION
EREF.M        706                  : kb           - ELEVATION OF DEPTH REFERENCE
DATM.M        706                  : datum        - DATUM ELEVATION
TDD .M        659                  : tdd          - TOTAL DEPTH DRILLER
RUN .         ONE                  : Run          - RUN NUMBER
ENG .         BILL                 : Engineer     - RECORDING ENGINEER
WIT .         JIM                  : Witness      - WITNESSED BY
MUD .         GEL                  : Mud_type     - MUD TYPE
MATR.         SANDSTONE            : Logunit      - NEUTRON MATRIX
TMAX.C        36                   : BHT          - MAXIMUM RECORDED TEMPERATURE
BHTD.M        658                  : BHTDEP       - MAXIMUM RECORDED TEMPERATURE
RMT .C        16                   : MDTP         - TEMPERATURE OF MUD
MUDD.KG/M     1045                 : MWT          - MUD DENSITY
NEUT.         1                    : NEUTRON      - NEUTRON TYPE
RESI.         0                    : RESIST       - RESISTIVITY TYPE
RM  .OHMM     9.2                  : RM           - RESISTIVITY OF MUD
RMC .OHMM     6.78                 : RMC          - RESISTIVITY OF MUD CAKE
RMF .OHMM     7.28                 : RMF          - RESISTIVITY OF MUD FILTRATE
SUFT.C        4                    : SUFT         - SURFACE TEMPERATURE
~A  DEPTH     RESD     PHID     PHIN       GR
# ...
  448.500    4.942    0.345    0.406   44.602
  448.750    4.837    0.332    0.442   46.283
  449.000    4.824    0.319    0.432   48.554
  449.250    4.810    0.325    0.437   49.056
  449.500    4.797    0.318    0.416   50.147
  449.750    4.870    0.283    0.372   53.008
  450.000    4.859    0.240    0.331   45.843
  450.250    4.753    0.204    0.293   42.784
  450.500    4.570    0.173    0.437   45.645
  450.750    4.231    0.265    0.475   48.527
  451.000    3.633    0.294    0.487   54.926
  451.250    3.236    0.287    0.518   62.504
  451.500    3.052    0.286    0.482   72.464
  451.750    2.992    0.266    0.466   72.965
  452.000    2.928    0.257    0.453   65.189
  452.250    3.031    0.295    0.440   59.793
  452.500    3.253    0.320    0.439   43.171
  452.750    3.432    0.324    0.437   34.804
  453.000    3.552    0.319    0.422   35.896
  453.250    3.540    0.317    0.410   38.167
  453.500    3.465    0.330    0.400   40.415
  453.750    3.327    0.344    0.404   42.686
  454.000    3.259    0.355    0.423   42.008
  454.250    3.190    0.358    0.429   41.352
  454.500    3.179    0.357    0.414   39.473
  454.750    3.170    0.346    0.401   41.766
  455.000    3.280    0.329    0.426   52.315
  455.250    3.395    0.339    0.452   65.790
  455.500    3.452    0.330    0.456   69.831
  455.750    3.637    0.295    0.424   66.204
  456.000    3.697    0.276    0.399   50.171
  456.250    3.684    0.288    0.410   40.036
  456.500    3.745    0.332    0.403   37.567
  456.750    3.735    0.348    0.396   39.838
  457.000    3.651    0.358    0.434   39.750
  457.250    3.578    0.349    0.452   40.251
  457.500    3.438    0.328    0.448   45.493
  457.750    3.365    0.323    0.453   49.555
  458.000    3.294    0.327    0.455   53.595
  458.250    3.283    0.323    0.448   52.327
  458.500    3.335    0.315    0.419   52.239
  458.750    3.446    0.299    0.410   56.847
  459.000    3.506    0.272    0.395   60.909
  459.250    3.496    0.256    0.388   66.128
  459.500    3.550    0.241    0.376   70.780
  459.750    3.408    0.242    0.483   77.768
  460.000    3.341    0.269    0.495   87.706
  460.250    3.092    0.268    0.519   75.823
  460.500    3.027    0.263    0.476   63.918
  460.750    2.961    0.259    0.411   52.559
  461.000    3.120    0.260    0.382   51.336
  461.250    3.229    0.271    0.393   42.970
  461.500    3.285    0.294    0.373   35.805
  461.750    3.337    0.317    0.353   30.977
  462.000    3.264    0.327    0.338   27.351
  462.250    3.138    0.324    0.338   24.314
  462.500    3.070    0.322    0.346   25.405
  462.750    2.949    0.334    0.353   27.676
  463.000    2.883    0.339    0.363   22.258
  463.250    2.879    0.340    0.356   25.141
  463.500    2.818    0.338    0.353   29.771
  463.750    2.758    0.325    0.361   36.759
  464.000    2.748    0.322    0.375   44.316
  464.250    2.690    0.319    0.376   48.400
  464.500    2.733    0.304    0.362   56.545
  464.750    2.776    0.309    0.373   61.787
  465.000    2.925    0.302    0.395   64.669
  465.250    3.032    0.273    0.408   66.306
  465.500    3.318    0.262    0.413   64.471
  465.750    3.564    0.267    0.398   67.332
  466.000    3.552    0.264    0.391   71.984
  466.250    3.479    0.251    0.410   76.613
  466.500    3.469    0.236    0.432   67.657
  466.750    3.524    0.265    0.402   60.492
  467.000    3.578    0.298    0.396   48.566
  467.250    3.568    0.322    0.387   53.807
  467.500    3.560    0.314    0.380   61.408
  467.750    3.418    0.302    0.434   70.165
  468.000    3.280    0.288    0.473   78.355
  468.250    3.215    0.262    0.522   94.212
  468.500    2.976    0.244    0.511   99.431
  468.750    2.654    0.231    0.507   99.343
  469.000    2.412    0.237    0.497  103.973
  469.250    2.150    0.241    0.454   98.577
  469.500    2.183    0.263    0.422   77.215
  469.750    2.390    0.318    0.406   68.259
  470.000    2.713    0.285    0.414   72.911
  470.250    2.864    0.263    0.416   76.951
  470.500    3.251    0.263    0.426   73.892
  470.750    3.557    0.285    0.423   69.676
  471.000    3.824    0.313    0.413   64.280
  471.250    3.882    0.317    0.402   59.452
  471.500    3.947    0.314    0.413   55.826
  471.750    4.004    0.280    0.430   56.306
  472.000    3.995    0.266    0.410   59.166
  472.250    3.911    0.248    0.420   63.818
  472.500    3.831    0.243    0.459   67.290
  472.750    3.613    0.234    0.472   68.971
  473.000    3.280    0.218    0.457   68.293
  473.250    3.037    0.231    0.422   67.593
  473.500    2.918    0.258    0.445   67.505
  473.750    2.908    0.280    0.473   69.186
  474.000    3.066    0.301    0.486   73.226
  474.250    3.117    0.294    0.471   69.010
  474.500    3.284    0.272    0.446   63.025
  474.750    3.462    0.250    0.431   61.735
  475.000    3.586    0.250    0.454   66.977
  475.250    3.778    0.264    0.433   66.889
  475.500    3.908    0.323    0.429   59.112
  475.750    3.975    0.354    0.450   53.672
  476.000    4.039    0.375    0.425   52.449
  476.250    4.174    0.371    0.410   51.749
  476.500    4.240    0.368    0.418   52.273
  476.750    4.314    0.371    0.454   54.522
  477.000    4.302    0.365    0.463   57.972
  477.250    4.370    0.358    0.473   57.316
  477.500    4.278    0.353    0.468   57.796
  477.750    4.266    0.352    0.454   58.909
  478.000    4.169    0.365    0.443   61.747
  478.250    4.084    0.465    0.469   64.040
  478.500    3.921    0.591    0.502   56.853
  478.750    3.838    0.659    0.575   46.740
  479.000    3.902    0.593    0.663   37.784
  479.250    4.432    0.530    0.629   39.465
  479.500    4.764    0.374    0.496   46.454
  479.750    5.410    0.344    0.424   51.673
  480.000    5.388    0.382    0.451   55.123
  480.250    5.184    0.386    0.458   53.856
  480.500    4.449    0.380    0.474   49.640
  480.750    4.121    0.370    0.456   51.888
  481.000    3.884    0.363    0.459   55.339
  481.250    3.799    0.371    0.469   53.503
  481.500    3.724    0.376    0.470   54.595
  481.750    3.711    0.377    0.484   53.895
  482.000    3.703    0.374    0.478   49.111
  482.250    3.690    0.375    0.468   48.389
  482.500    3.612    0.381    0.456   51.272
  482.750    3.530    0.368    0.437   54.154
  483.000    3.523    0.357    0.434   56.403
  483.250    3.516    0.360    0.448   50.418
  483.500    3.501    0.361    0.450   47.971
  483.750    3.496    0.369    0.443   46.091
  484.000    3.551    0.375    0.453   46.593
  484.250    3.605    0.378    0.468   47.684
  484.500    3.729    0.378    0.480   49.365
  484.750    3.724    0.377    0.482   50.457
  485.000    3.783    0.372    0.463   48.600
  485.250    3.983    0.359    0.410   44.995
  485.500    4.052    0.327    0.331   40.167
  485.750    4.688    0.296    0.327   35.929
  486.000    5.425    0.268    0.446   38.790
  486.250    5.212    0.202    0.436   41.672
  486.500    4.646    0.377    0.428   45.122
  486.750    4.385    0.380    0.417   47.961
  487.000    4.053    0.375    0.421   48.462
  487.250    4.053    0.368    0.420   48.374
  487.500    3.469    0.363    0.413   47.697
  487.750    3.731    0.363    0.406   47.608
  488.000    3.721    0.368    0.436   49.312
  488.250    3.710    0.370    0.434   49.791
  488.500    3.702    0.364    0.428   47.934
  488.750    3.759    0.358    0.432   47.256
  489.000    3.819    0.355    0.424   49.527
  489.250    3.882    0.346    0.441   51.820
  489.500    3.944    0.351    0.455   50.552
  489.750    4.001    0.361    0.445   42.754
  490.000    4.070    0.373    0.434   39.127
  490.250    4.056    0.378    0.426   37.270
  490.500    3.970    0.375    0.427   37.182
  490.750    3.889    0.369    0.427   38.273
  491.000    3.875    0.366    0.419   40.566
  491.250    3.867    0.367    0.413   40.478
  491.500    3.851    0.372    0.423   39.166
  491.750    3.840    0.378    0.444   39.668
