~VERSION INFORMATION
 VERS.                 2.0:   CWLS LOG ASCII STANDARD -VERSION 2.0
 WRAP.                  NO:   ONE LINE PER DEPTH STEP
~WELL INFORMATION BLOCK
#MNEM.UNIT           DATA                    DESCRIPTION OF MNEMONIC
#---------    -------------------            -------------------------------
# Generated from Intellog Unique Number	CS_73_76/WELL/2389
WELL.         CAVALIER ENERGY INC.           : Well_name    - WELL
LOC .         00/07-24-075-16W4/0            : Location     - LOCATION
UWI .         00/07-24-075-16W4/0            : Uwi          - UNIQUE WELL ID
ENTR.         SP                             : Entered      - ENTERED BY
SRVC.         SCHLUMBERGER                   : Scn          - SERVICE COMPANY
STRT.M        362.712                        : top_depth    - START DEPTH
STOP.M        566.712                        : bot_depth    - STOP DEPTH
STEP.M        0.25                           : increment    - STEP LENGTH
 NULL. -999.2500:NULL Value
~CURVE INFORMATION BLOCK
#MNEM UNIT       ERCB CURVE CODE    CURVE DESCRIPTION
#-----------   ------------------   ----------------------------------
DEPT.M        00 001 00 00         : DEPTH        - DEPTH
GR  .API      00 310 00 00         : GR           - GAMMA RAY
DPHI.V/V      00 890 00 00         : PHID         - DENSITY POROSITY (SANDSTONE)
NPHI.V/V      00 330 00 00         : PHIN         - NEUTRON POROSITY (SANDSTONE)
ILD .OHMM     00 120 00 00         : RESD         - DEEP RESISTIVITY (DIL)
~PARAMETER INFORMATION
#MNEM.UNIT           DATA             DESCRIPTION OF MNEMONIC
#---------         -----------     ------------------------------
GL  .M        726.948              : gl           - GROUND LEVEL ELEVATION
EREF.M        729.691              : kb           - ELEVATION OF DEPTH REFERENCE
DATM.M        726.948              : datum        - DATUM ELEVATION
TDD .M        566.014              : tdd          - TOTAL DEPTH DRILLER
RUN .         ONE                  : Run          - RUN NUMBER
ENG .         BILL                 : Engineer     - RECORDING ENGINEER
WIT .         JIM                  : Witness      - WITNESSED BY
MUD .         GEL                  : Mud_type     - MUD TYPE
MATR.         SANDSTONE            : Logunit      - NEUTRON MATRIX
TMAX.C        23.3333              : BHT          - MAXIMUM RECORDED TEMPERATURE
BHTD.M        566.014              : BHTDEP       - MAXIMUM RECORDED TEMPERATURE
MATR.         1                    : LOGUNIT      - NEUTRON MATRIX
RMT .C        25                   : MDTP         - TEMPERATURE OF MUD
NEUT.         1                    : NEUTRON      - NEUTRON TYPE
RESI.         0                    : RESIST       - RESISTIVITY TYPE
RMC .OHMM     0.25                 : RMC          - RESISTIVITY OF MUD CAKE
RMF .OHMM     0.25                 : RMF          - RESISTIVITY OF MUD FILTRATE
SUFT.C        15                   : SUFT         - SURFACE TEMPERATURE
~A  DEPTH       GR     PHID     PHIN     RESD
# ...
  406.212   48.496    0.305    0.453    9.184
  406.462   47.340    0.323    0.442    9.408
  406.712   46.344    0.329    0.434    9.409
  406.962   46.292    0.333    0.441    9.434
  407.212   45.672    0.325    0.446    9.486
  407.462   45.708    0.321    0.444    9.563
  407.712   45.779    0.318    0.437    9.648
  407.962   47.468    0.330    0.438    9.717
  408.212   47.864    0.325    0.441    9.713
  408.462   48.201    0.336    0.454    9.809
  408.712   47.220    0.340    0.457    9.802
  408.962   46.479    0.336    0.448    9.802
  409.212   45.872    0.336    0.436    9.803
  409.462   46.547    0.336    0.434    9.795
  409.712   46.751    0.335    0.442    9.890
  409.962   47.142    0.333    0.445    9.882
  410.212   49.308    0.331    0.449    9.884
  410.462   49.842    0.333    0.457    9.904
  410.712   51.376    0.342    0.449    9.961
  410.962   51.050    0.344    0.440    9.960
  411.212   50.856    0.328    0.431    9.957
  411.462   50.841    0.319    0.422   10.032
  411.712   51.802    0.315    0.413   10.038
  411.962   52.792    0.327    0.410   10.042
  412.212   53.864    0.339    0.410    9.972
  412.462   54.237    0.346    0.417    9.927
  412.712   53.926    0.337    0.424    9.878
  412.962   52.551    0.334    0.430    9.803
  413.212   51.568    0.338    0.440    9.686
  413.462   52.253    0.340    0.436    9.645
  413.712   53.175    0.354    0.443    9.559
  413.962   54.784    0.347    0.445    9.568
  414.212   55.254    0.332    0.452    9.495
  414.462   56.093    0.341    0.447    9.408
  414.712   54.573    0.357    0.451    9.307
  414.962   54.200    0.361    0.452    9.251
  415.212   54.441    0.371    0.451    9.122
  415.462   55.438    0.358    0.453    9.084
  415.712   53.977    0.350    0.454    9.013
  415.962   52.027    0.340    0.451    8.892
  416.212   50.089    0.331    0.446    8.852
  416.462   48.446    0.351    0.453    8.721
  416.712   49.353    0.345    0.476    8.610
  416.962   51.360    0.357    0.493    8.617
  417.212   53.256    0.366    0.505    8.619
  417.462   55.808    0.377    0.514    8.633
  417.712   55.187    0.369    0.496    8.697
  417.962   53.862    0.362    0.458    8.694
  418.212   53.297    0.355    0.448    8.685
  418.462   52.891    0.347    0.447    8.619
  418.712   51.832    0.359    0.460    8.500
  418.962   52.254    0.370    0.465    8.372
  419.212   53.796    0.376    0.475    8.298
  419.462   54.424    0.380    0.461    8.322
  419.712   55.272    0.366    0.454    8.459
  419.962   55.301    0.360    0.465    8.633
  420.212   55.309    0.366    0.471    8.883
  420.462   55.378    0.364    0.475    9.004
  420.712   54.773    0.351    0.479    9.306
  420.962   54.076    0.333    0.483    9.596
  421.212   52.672    0.333    0.483    9.858
  421.462   50.045    0.340    0.474   10.123
  421.712   48.199    0.363    0.467   10.285
  421.962   47.272    0.348    0.472   10.423
  422.212   46.282    0.359    0.478   10.432
  422.462   46.002    0.356    0.469   10.434
  422.712   47.008    0.345    0.467   10.492
  422.962   47.847    0.327    0.468   10.513
  423.212   48.431    0.342    0.456   10.512
  423.462   49.127    0.356    0.450   10.600
  423.712   49.237    0.344    0.452   10.593
  423.962   49.689    0.335    0.446   10.594
  424.212   50.129    0.326    0.442   10.635
  424.462   49.070    0.338    0.450   10.670
  424.712   48.171    0.343    0.461   10.672
  424.962   46.718    0.340    0.466   10.672
  425.212   46.860    0.336    0.474   10.672
  425.462   46.518    0.331    0.477   10.672
  425.712   44.673    0.325    0.476   10.672
  425.962   42.735    0.326    0.483   10.672
  426.212   43.147    0.345    0.488   10.671
  426.462   44.187    0.355    0.493   10.668
  426.712   44.635    0.357    0.481   10.744
  426.962   43.740    0.360    0.470   10.829
  427.212   42.014    0.354    0.463   10.929
  427.462   40.057    0.348    0.472   11.050
  427.712   39.078    0.336    0.478   11.273
  427.962   38.169    0.343    0.479   11.398
  428.212   37.234    0.357    0.478   11.745
  428.462   35.573    0.359    0.478   11.837
  428.712   32.203    0.340    0.470   11.936
  428.962   31.641    0.339    0.469   11.891
  429.212   32.730    0.340    0.477   11.623
  429.462   34.117    0.353    0.492   11.231
  429.712   36.157    0.362    0.483   10.705
  429.962   37.307    0.376    0.468   10.293
  430.212   38.353    0.367    0.472    9.973
  430.462   38.378    0.360    0.472    9.664
  430.712   38.300    0.353    0.463    9.460
  430.962   36.280    0.363    0.468    9.333
  431.212   34.500    0.370    0.485    9.115
  431.462   35.030    0.362    0.496    9.086
  431.712   37.064    0.366    0.481    9.005
  431.962   39.325    0.379    0.474    8.983
  432.212   40.385    0.369    0.479    8.933
  432.462   41.535    0.365    0.471    8.878
  432.712   40.998    0.360    0.466    8.855
  432.962   40.481    0.356    0.468    8.856
  433.212   40.492    0.368    0.468    8.768
  433.462   40.484    0.348    0.453    8.778
  433.712   41.043    0.350    0.456    8.704
  433.962   42.296    0.360    0.469    8.706
  434.212   44.303    0.362    0.478    8.611
  434.462   44.404    0.373    0.493    8.616
  434.712   42.537    0.383    0.487    8.585
  434.962   40.648    0.376    0.480    8.539
  435.212   41.291    0.371    0.493    8.479
  435.462   42.206    0.373    0.499    8.461
  435.712   41.928    0.361    0.492    8.458
  435.962   41.952    0.349    0.484    8.459
  436.212   41.873    0.348    0.481    8.460
  436.462   43.662    0.362    0.482    8.455
  436.712   45.002    0.374    0.485    8.547
  436.962   47.102    0.368    0.486    8.551
  437.212   47.990    0.354    0.476    8.615
  437.462   49.520    0.353    0.470    8.743
  437.712   51.839    0.365    0.476    8.780
  437.962   52.247    0.371    0.485    8.906
  438.212   52.928    0.360    0.500    9.125
  438.462   54.206    0.360    0.505    9.333
  438.712   56.899    0.367    0.503    9.656
  438.962   58.326    0.369    0.498    9.843
  439.212   60.143    0.354    0.484   10.109
  439.462   62.286    0.342    0.479   10.416
  439.712   65.359    0.329    0.487   10.544
  439.962   66.154    0.323    0.487   10.821
  440.212   66.890    0.334    0.480   10.908
  440.462   66.815    0.322    0.485   10.985
  440.712   66.763    0.323    0.501   10.948
  440.962   68.042    0.311    0.504   10.512
  441.212   69.389    0.287    0.516   10.178
  441.462   71.082    0.259    0.523    9.780
  441.712   69.020    0.300    0.531    9.641
  441.962   68.236    0.309    0.522    9.644
  442.212   66.626    0.304    0.516    9.673
  442.462   66.764    0.308    0.521    9.997
  442.712   68.296    0.324    0.523   10.114
  442.962   68.163    0.314    0.518   10.117
  443.212   70.441    0.303    0.516   10.122
  443.462   72.877    0.297    0.533   10.048
  443.712   74.649    0.286    0.541   10.008
  443.962   76.318    0.302    0.535    9.865
  444.212   77.260    0.311    0.523    9.671
  444.462   78.099    0.320    0.513    9.303
  444.712   78.079    0.324    0.511    9.006
  444.962   78.049    0.322    0.532    8.732
  445.212   77.642    0.321    0.541    8.697
  445.462   75.222    0.319    0.520    8.698
  445.712   71.438    0.312    0.497    8.396
  445.962   65.999    0.299    0.462    7.999
  446.212   65.477    0.255    0.402    7.755
  446.462   67.485    0.221    0.398    7.435
  446.712   70.368    0.283    0.448    6.914
  446.962   74.391    0.325    0.516    6.518
  447.212   77.039    0.347    0.507    6.348
  447.462   79.616    0.334    0.496    5.986
  447.712   79.539    0.325    0.481    5.663
  447.962   79.546    0.295    0.499    5.337
  448.212   80.221    0.258    0.500    5.137
  448.462   81.965    0.239    0.500    5.012
  448.712   84.088    0.231    0.517    4.896
  448.962   87.342    0.218    0.527    4.898
  449.212   88.711    0.237    0.518    4.986
  449.462   89.948    0.255    0.521    4.969
