~VERSION INFORMATION
 VERS.                 2.0:   CWLS LOG ASCII STANDARD -VERSION 2.0
 WRAP.                  NO:   ONE LINE PER DEPTH STEP
~WELL INFORMATION BLOCK
#MNEM.UNIT           DATA                    DESCRIPTION OF MNEMONIC
#---------    -------------------            -------------------------------
# Generated from Intellog Unique Number	CS_73_76/WELL/4759
WELL.         AMOCO KIRBY                    : Well_name    - WELL
LOC .         00/07-35-073-05W4/0            : Location     - LOCATION
UWI .         00/07-35-073-05W4/0            : Uwi          - UNIQUE WELL ID
ENTR.         T                              : Entered      - ENTERED BY
SRVC.         SCHLUMBERGER                   : Scn          - SERVICE COMPANY
STRT.M        265                            : top_depth    - START DEPTH
STOP.M        495                            : bot_depth    - STOP DEPTH
STEP.M        0.25                           : increment    - STEP LENGTH
 NULL. -999.2500:NULL Value
~CURVE INFORMATION BLOCK
#MNEM UNIT       ERCB CURVE CODE    CURVE DESCRIPTION
#-----------   ------------------   ----------------------------------
DEPT.M        00 001 00 00         : DEPTH        - DEPTH
GR  .API      00 310 00 00         : GR           - GAMMA RAY
NPHI.V/V      00 330 00 00         : PHIN         - NEUTRON POROSITY (SANDSTONE)
DPHI.V/V      00 890 00 00         : PHID         - DENSITY POROSITY (SANDSTONE)
ILD .OHMM     00 120 00 00         : RESD         - DEEP RESISTIVITY (DIL)
~PARAMETER INFORMATION
#MNEM.UNIT           DATA             DESCRIPTION OF MNEMONIC
#---------         -----------     ------------------------------
GL  .M        660.7                : gl           - GROUND LEVEL ELEVATION
EREF.M        664.4                : kb           - ELEVATION OF DEPTH REFERENCE
DATM.M        664.4                : datum        - DATUM ELEVATION
TDD .M        500                  : tdd          - TOTAL DEPTH DRILLER
RUN .         ONE                  : Run          - RUN NUMBER
ENG .         BILL                 : Engineer     - RECORDING ENGINEER
WIT .         JIM                  : Witness      - WITNESSED BY
MUD .         GEL                  : Mud_type     - MUD TYPE
MATR.         SANDSTONE            : Logunit      - NEUTRON MATRIX
TMAX.C        24                   : BHT          - MAXIMUM RECORDED TEMPERATURE
BHTD.M        500                  : BHTDEP       - MAXIMUM RECORDED TEMPERATURE
MATR.         1                    : LOGUNIT      - NEUTRON MATRIX
RMT .C        23                   : MDTP         - TEMPERATURE OF MUD
NEUT.         1                    : NEUTRON      - NEUTRON TYPE
RESI.         0                    : RESIST       - RESISTIVITY TYPE
RMC .OHMM     0.38                 : RMC          - RESISTIVITY OF MUD CAKE
RMF .OHMM     0.45                 : RMF          - RESISTIVITY OF MUD FILTRATE
SUFT.C        15                   : SUFT         - SURFACE TEMPERATURE
~A  DEPTH       GR     PHIN     PHID     RESD
  265.000  119.013    0.510    0.234    3.033
  265.250  117.137    0.516    0.234    3.032
  265.500  118.922    0.521    0.234    3.032
  265.750  121.317    0.521    0.228    3.031
  266.000  121.283    0.519    0.227    3.087
  266.250  120.627    0.521    0.224    3.087
  266.500  122.412    0.526    0.221    3.145
  266.750  122.366    0.529    0.221    3.144
  267.000  119.880    0.528    0.222    3.143
  267.250  118.004    0.523    0.219    3.202
  267.500  118.568    0.518    0.216    3.201
  267.750  118.523    0.507    0.216    3.261
  268.000  118.477    0.480    0.221    3.260
  268.250  118.420    0.468    0.233    3.260
  268.500  117.764    0.454    0.244    3.260
  268.750  114.057    0.434    0.271    3.140
  269.000  108.508    0.427    0.300    3.139
  269.250  105.411    0.435    0.316    3.139
  269.500  102.936    0.440    0.315    3.444
  269.750   99.828    0.373    0.302    3.780
  270.000   97.353    0.324    0.286    4.386
  270.250   92.415    0.303    0.291    4.996
  270.500   89.939    0.285    0.300    5.907
  270.750   85.622    0.278    0.311    6.728
  271.000   79.452    0.278    0.321    7.664
  271.250   76.367    0.278    0.318    8.255
  271.500   73.258    0.283    0.313    8.891
  271.750   76.275    0.293    0.310    9.057
  272.000   81.710    0.325    0.323    8.724
  272.250   85.936    0.375    0.333    8.562
  272.500   88.342    0.388    0.337    7.945
  272.750   89.506    0.405    0.333    7.798
  273.000   92.522    0.418    0.325    7.512
  273.250   94.929    0.431    0.314    7.236
  273.500   99.155    0.431    0.293    6.841
  273.750  103.980    0.429    0.283    6.590
  274.000  105.776    0.428    0.280    6.589
  274.250  108.171    0.430    0.277    6.347
  274.500  109.956    0.434    0.277    6.346
  274.750  111.131    0.438    0.282    6.345
  275.000  111.684    0.438    0.288    6.344
  275.250  111.638    0.438    0.298    6.343
  275.500  111.604    0.439    0.298    6.342
  275.750  111.547    0.443    0.274    6.340
  276.000  112.123    0.446    0.253    6.340
  276.250  114.518    0.452    0.247    6.222
  276.500  118.733    0.454    0.274    6.106
  276.750  117.466    0.458    0.281    5.882
  277.000  111.940    0.458    0.295    5.772
  277.250  107.612    0.452    0.299    5.560
  277.500  107.566    0.446    0.302    5.559
  277.750  112.414    0.433    0.305    5.456
  278.000  115.419    0.422    0.310    5.455
  278.250  110.492    0.420    0.312    5.556
  278.500  104.333    0.425    0.314    5.660
  278.750  101.835    0.426    0.314    5.766
  279.000  101.179    0.420    0.311    5.764
  279.250   98.094    0.408    0.299    5.872
  279.500   91.336    0.403    0.276    5.871
  279.750   85.798    0.407    0.247    5.870
  280.000   80.249    0.408    0.253    5.869
  280.250   74.712    0.413    0.269    5.868
  280.500   76.497    0.414    0.280    5.977
  280.750   82.553    0.411    0.268    6.088
  281.000   88.621    0.411    0.251    6.087
  281.250  106.881    0.415    0.226    6.086
  281.500  119.650    0.422    0.216    6.085
  281.750  133.651    0.428    0.216    5.972
  282.000  141.538    0.434    0.202    5.753
  282.250  142.712    0.441    0.152    5.541
  282.500  143.876    0.453    0.151    5.438
  282.750  144.440    0.465    0.163    5.238
  283.000  144.406    0.487    0.189    4.953
  283.250  144.948    0.497    0.204    4.771
  283.500  144.914    0.495    0.216    4.682
  283.750  145.490    0.486    0.221    4.427
  284.000  146.043    0.473    0.217    4.264
  284.250  146.009    0.463    0.210    3.958
  284.500  146.573    0.468    0.203    3.673
  284.750  145.906    0.479    0.195    3.409
  285.000  145.250    0.486    0.200    3.284
  285.250  145.826    0.494    0.200    3.047
  285.500  147.001    0.499    0.209    3.047
  285.750  144.503    0.505    0.218    2.990
  286.000  142.028    0.510    0.224    2.934
  286.250  136.479    0.486    0.239    2.934
  286.500  130.941    0.437    0.248    2.988
  286.750  121.743    0.369    0.261    3.468
  287.000  109.493    0.349    0.264    4.256
  287.250  100.283    0.317    0.263    5.321
  287.500   92.914    0.333    0.263    6.777
  287.750   87.987    0.366    0.263    8.632
  288.000   87.919    0.382    0.259   10.205
  288.250   87.884    0.393    0.323   11.409
  288.500   88.460    0.398    0.369   11.621
  288.750   89.624    0.397    0.376   12.061
  289.000   92.641    0.391    0.373   12.285
  289.250   96.855    0.386    0.369   12.282
  289.500  100.470    0.376    0.363   12.281
  289.750  102.877    0.365    0.356   12.052
  290.000  105.272    0.358    0.345   11.395
  290.250  104.006    0.355    0.338   11.184
  290.500  101.520    0.345    0.332   10.574
  290.750   99.643    0.356    0.312   10.185
  291.000   98.988    0.371    0.232   10.183
  291.250  100.761    0.383    0.232   10.373
  291.500  101.947    0.391    0.261   10.567
  291.750  104.342    0.382    0.297   11.382
  292.000  103.687    0.357    0.305   12.491
  292.250   98.138    0.336    0.302   11.810
  292.500   93.832    0.342    0.252   10.559
  292.750   83.401    0.367    0.185   10.958
  293.000   76.033    0.417    0.142   12.252
  293.250   69.275    0.434    0.128   14.218
  293.500   67.399    0.456    0.152   16.194
  293.750   68.574    0.450    0.157   17.444
  294.000   69.138    0.441    0.168   18.443
  294.250   69.081    0.431    0.177   18.441
  294.500   69.036    0.423    0.183   17.434
  294.750   68.979    0.419    0.194   17.111
  295.000   68.334    0.410    0.185   15.586
  295.250   67.667    0.403    0.176   15.297
  295.500   67.610    0.398    0.164   14.196
  295.750   67.576    0.403    0.152   14.194
  296.000   68.129    0.409    0.142   13.930
  296.250   69.315    0.417    0.130   13.927
  296.500   70.501    0.420    0.128   14.186
  296.750   72.275    0.427    0.162   14.451
  297.000   74.060    0.428    0.193   14.997
  297.250   75.234    0.418    0.206   14.444
  297.500   76.432    0.405    0.200   13.914
  297.750   76.985    0.359    0.177   13.655
  298.000   75.109    0.343    0.174   13.652
  298.250   73.233    0.389    0.176   13.651
  298.500   73.187    0.407    0.177   13.648
  298.750   71.921    0.401    0.166   13.903
  299.000   69.423    0.382    0.167   14.162
  299.250   68.157    0.413    0.175   14.160
  299.500   69.942    0.419    0.184   14.157
  299.750   72.337    0.424    0.192   14.155
  300.000   74.732    0.417    0.211   13.634
  300.250   76.517    0.393    0.230   13.381
  300.500   77.692    0.388    0.228   12.651
  300.750   78.268    0.377    0.214   12.187
  301.000   77.601    0.372    0.206   11.739
  301.250   76.335    0.395    0.203   11.521
  301.500   74.458    0.406    0.222   10.893
  301.750   73.192    0.415    0.242   10.493
  302.000   73.158    0.416    0.254   10.108
  302.250   73.711    0.410    0.268    9.920
  302.500   74.276    0.406    0.276    9.555
  302.750   75.451    0.396    0.286    9.378
  303.000   76.637    0.374    0.290    8.866
  303.250   77.201    0.356    0.289    8.541
  303.500   77.754    0.346    0.283    7.926
  303.750   77.697    0.351    0.288    7.635
  304.000   77.674    0.349    0.292    6.827
  304.250   78.239    0.342    0.299    6.336
  304.500   78.193    0.349    0.310    5.772
  304.750   77.515    0.374    0.320    4.972
  305.000   76.882    0.382    0.318    4.614
  305.250   75.604    0.396    0.312    4.049
  305.500   74.948    0.399    0.303    3.554
  305.750   74.293    0.392    0.296    3.298
  306.000   75.467    0.387    0.289    2.949
  306.250   76.653    0.392    0.288    2.841
  306.500   79.049    0.399    0.288    2.636
  306.750   82.054    0.402    0.282    2.493
  307.000   86.268    0.407    0.277    2.401
  307.250   89.285    0.418    0.278    2.401
  307.500   92.291    0.427    0.275    2.400
  307.750   98.957    0.445    0.250    2.445
  308.000  108.065    0.459    0.243    2.537
  308.250  114.133    0.459    0.232    2.585
