~VERSION INFORMATION
 VERS.                 2.0:   CWLS LOG ASCII STANDARD -VERSION 2.0
 WRAP.                  NO:   ONE LINE PER DEPTH STEP
~WELL INFORMATION BLOCK
#MNEM.UNIT           DATA                    DESCRIPTION OF MNEMONIC
#---------    -------------------            -------------------------------
# Generated from Intellog Unique Number	CW_73_75/WELL/2726
WELL.         UNIGAS ET AL TOMATO 05-02      : Well_name    - WELL
LOC .         00/05-02-073-23W4/0            : Location     - LOCATION
UWI .         00/05-02-073-23W4/0            : Uwi          - UNIQUE WELL ID
ENTR.         JAYE                           : Entered      - ENTERED BY
SRVC.         SCHLUMBERGER                   : Scn          - SERVICE COMPANY
DATE.         14 DEC 80                      : Date         - LOG DATE
STRT.M        325                            : top_depth    - START DEPTH
STOP.M        622                            : bot_depth    - STOP DEPTH
STEP.M        0.25                           : increment    - STEP LENGTH
 NULL. -999.2500:NULL Value
~CURVE INFORMATION BLOCK
#MNEM UNIT       ERCB CURVE CODE    CURVE DESCRIPTION
#-----------   ------------------   ----------------------------------
DEPT.M        00 001 00 00         : DEPTH        - DEPTH
ILD .OHMM     00 120 00 00         : RESD         - DEEP RESISTIVITY (DIL)
NPHI.V/V      00 330 00 00         : PHIN         - NEUTRON POROSITY (SANDSTONE)
DPHI.V/V      00 890 00 00         : PHID         - DENSITY POROSITY (SANDSTONE)
GR  .API      00 310 00 00         : GR           - GAMMA RAY
CALI.MM       00 280 01 00         : CAL          - CALIPER
~PARAMETER INFORMATION
#MNEM.UNIT           DATA             DESCRIPTION OF MNEMONIC
#---------         -----------     ------------------------------
GL  .M        625                  : gl           - GROUND LEVEL ELEVATION
EREF.M        627.5                : kb           - ELEVATION OF DEPTH REFERENCE
DATM.M        625                  : datum        - DATUM ELEVATION
TDD .M        624                  : tdd          - TOTAL DEPTH DRILLER
RUN .         ONE                  : Run          - RUN NUMBER
ENG .         KUZIO                : Engineer     - RECORDING ENGINEER
BASE.         EDM                  : Branch       - HOME BASE OF LOGGING UNIT
MUD .         GEL CHEM             : Mud_type     - MUD TYPE
MATR.         SANDSTONE            : Logunit      - NEUTRON MATRIX
TMAX.C        23.3                 : BHT          - MAXIMUM RECORDED TEMPERATURE
BHTD.M        625                  : BHTDEP       - MAXIMUM RECORDED TEMPERATURE
RMT .C        16.6                 : MDTP         - TEMPERATURE OF MUD
MUDD.KG/M     1110                 : MWT          - MUD DENSITY
NEUT.         1                    : NEUTRON      - NEUTRON TYPE
RESI.         0                    : RESIST       - RESISTIVITY TYPE
RM  .OHMM     3.19                 : RM           - RESISTIVITY OF MUD
RMC .OHMM     0                    : RMC          - RESISTIVITY OF MUD CAKE
RMF .OHMM     3.11                 : RMF          - RESISTIVITY OF MUD FILTRATE
SUFT.C        0                    : SUFT         - SURFACE TEMPERATURE
~A  DEPTH     RESD     PHIN     PHID       GR      CAL
# ...
  361.500    2.233    0.498    0.233   97.094  188.854
  361.750    2.195    0.528    0.245  102.050  187.026
  362.000    2.133    0.526    0.247  104.762  181.454
  362.250    2.104    0.531    0.221  104.663  175.678
  362.500    2.057    0.549    0.225  105.567  174.162
  362.750    2.006    0.558    0.248  106.403  174.828
  363.000    1.949    0.564    0.254  104.869  176.644
  363.250    1.923    0.572    0.258  102.274  179.080
  363.500    1.934    0.559    0.266   99.681  181.724
  363.750    1.979    0.547    0.269   97.336  185.412
  364.000    2.025    0.532    0.245   94.181  187.740
  364.250    2.112    0.558    0.228   93.895  187.581
  364.500    2.177    0.559    0.240   97.541  183.774
  364.750    2.245    0.537    0.239  101.687  178.622
  365.000    2.284    0.504    0.226   98.718  178.561
  365.250    2.346    0.486    0.198   95.376  181.310
  365.500    2.386    0.492    0.176   92.723  184.474
  365.750    2.414    0.512    0.199   89.315  188.784
  366.000    2.441    0.530    0.189   91.275  186.643
  366.250    2.460    0.520    0.169   97.419  178.267
  366.500    2.488    0.510    0.183  104.872  177.582
  366.750    2.512    0.522    0.201  102.838  179.707
  367.000    2.541    0.544    0.216   97.124  184.018
  367.250    2.556    0.559    0.210   99.525  186.867
  367.500    2.565    0.562    0.213  104.297  188.787
  367.750    2.590    0.539    0.230  104.510  189.557
  368.000    2.600    0.522    0.241  101.976  188.877
  368.250    2.600    0.549    0.235   99.319  184.031
  368.500    2.590    0.559    0.230   97.722  179.707
  368.750    2.580    0.536    0.209   98.000  181.732
  369.000    2.565    0.520    0.183   96.528  184.583
  369.250    2.526    0.562    0.203   93.873  189.102
  369.500    2.478    0.611    0.211   90.966  191.016
  369.750    2.445    0.560    0.215   96.238  189.189
  370.000    2.454    0.549    0.218  100.756  190.587
  370.250    2.478    0.554    0.219  105.212  199.263
  370.500    2.545    0.544    0.217  102.308  202.742
  370.750    2.594    0.520    0.252  101.209  201.536
  371.000    2.644    0.535    0.312  101.738  192.118
  371.250    2.664    0.545    0.339  102.699  179.163
  371.500    2.664    0.533    0.305  103.538  167.973
  371.750    2.639    0.499    0.298  104.686  167.087
  372.000    2.609    0.497    0.287  104.527  169.208
  372.250    2.634    0.510    0.269  101.998  169.463
  372.500    2.800    0.514    0.255  100.087  173.354
  372.750    3.098    0.524    0.234   91.752  178.285
  373.000    3.494    0.510    0.267   78.425  181.659
  373.250    3.866    0.466    0.222   71.215  174.738
  373.500    4.336    0.436    0.173   75.610  166.982
  373.750    4.816    0.438    0.208   70.644  165.887
  374.000    5.298    0.401    0.256   65.930  163.742
  374.250    5.874    0.380    0.277   63.522  162.123
  374.500    6.352    0.365    0.280   61.426  162.273
  374.750    6.766    0.352    0.294   56.150  160.967
  375.000    7.029    0.350    0.332   55.989  160.178
  375.250    7.275    0.361    0.353   58.389  160.121
  375.500    7.415    0.378    0.327   55.171  159.747
  375.750    7.386    0.394    0.314   52.328  159.689
  376.000    7.177    0.409    0.308   51.417  159.421
  376.250    6.777    0.415    0.304   53.630  159.680
  376.500    6.339    0.411    0.296   55.277  160.134
  376.750    5.929    0.405    0.292   55.117  161.015
  377.000    5.545    0.397    0.292   54.458  162.002
  377.250    5.176    0.407    0.291   56.044  162.662
  377.500    4.897    0.417    0.290   56.134  163.225
  377.750    4.768    0.420    0.283   55.412  164.207
  378.000    4.651    0.429    0.263   56.998  164.875
  378.250    4.554    0.441    0.264   59.209  165.236
  378.500    4.485    0.450    0.271   62.917  165.071
  378.750    4.325    0.441    0.267   68.813  164.177
  379.000    4.084    0.429    0.233   74.016  166.616
  379.250    3.834    0.422    0.241   76.915  173.423
  379.500    3.485    0.423    0.399   78.751  180.537
  379.750    3.119    0.511    0.429   82.273  199.509
  380.000    3.002    0.585    0.442   86.791  195.603
  380.250    3.125    0.601    0.464   92.060  204.487
  380.500    3.341    0.491    0.485   92.838  218.262
  380.750    3.768    0.443    0.300   81.880  200.422
  381.000    4.349    0.423    0.287   74.357  179.973
  381.250    4.905    0.406    0.286   68.705  158.283
  381.500    5.254    0.396    0.279   80.401  158.644
  381.750    5.314    0.394    0.269   85.233  160.140
  382.000    5.284    0.401    0.247   92.436  163.098
  382.250    5.203    0.420    0.241   97.829  165.640
  382.500    5.124    0.446    0.238  101.727  167.141
  382.750    4.998    0.441    0.225  102.313  168.016
  383.000    4.894    0.421    0.221  101.591  168.268
  383.250    4.783    0.430    0.305   99.311  172.167
  383.500    4.792    0.460    0.403   96.404  190.511
  383.750    4.922    0.489    0.480   93.062  205.016
  384.000    5.055    0.526    0.460   85.726  192.993
  384.250    5.222    0.484    0.354   75.580  179.621
  384.500    5.498    0.404    0.273   67.495  169.058
  384.750    5.745    0.333    0.228   64.526  164.945
  385.000    5.935    0.360    0.224   70.169  164.783
  385.250    6.095    0.388    0.221   67.825  164.824
  385.500    6.201    0.423    0.201   65.356  165.493
  385.750    6.177    0.443    0.186   73.682  166.484
  386.000    5.934    0.423    0.209   84.755  167.142
  386.250    5.455    0.411    0.354   85.718  167.920
  386.500    4.987    0.421    0.402   84.934  169.212
  386.750    4.791    0.482    0.429   86.460  174.458
  387.000    4.864    0.503    0.349   90.477  180.636
  387.250    4.977    0.488    0.299   91.629  187.648
  387.500    5.171    0.474    0.250   81.609  177.916
  387.750    5.351    0.463    0.259   75.956  174.532
  388.000    5.592    0.451    0.284   77.733  182.997
  388.250    5.765    0.443    0.334   81.813  190.009
  388.500    5.887    0.449    0.287   88.829  174.353
  388.750    6.012    0.451    0.264   95.533  172.945
  389.000    6.116    0.437    0.246   96.374  172.156
  389.250    6.318    0.425    0.219   93.469  167.207
  389.500    6.576    0.410    0.205   89.874  162.263
  389.750    6.754    0.386    0.195   86.469  160.436
  390.000    6.937    0.363    0.181   83.000  159.545
  390.250    7.058    0.358    0.183   77.537  159.378
  390.500    6.990    0.348    0.202   65.957  159.742
  390.750    6.538    0.323    0.231   53.752  160.099
  391.000    5.942    0.298    0.257   35.059  160.351
  391.250    5.421    0.292    0.330   33.216  160.812
  391.500    4.909    0.299    0.355   33.303  161.064
  391.750    4.377    0.312    0.354   32.895  161.214
  392.000    4.031    0.333    0.337   31.423  161.252
  392.250    3.800    0.358    0.337   30.141  161.506
  392.500    3.657    0.382    0.333   29.794  161.766
  392.750    3.533    0.377    0.329   31.008  162.013
  393.000    3.440    0.366    0.323   31.660  162.164
  393.250    3.401    0.366    0.316   31.870  162.527
  393.500    3.394    0.356    0.313   31.212  162.879
  393.750    3.413    0.347    0.314   29.489  163.023
  394.000    3.479    0.345    0.313   28.331  163.481
  394.250    3.539    0.346    0.308   32.352  163.531
  394.500    3.698    0.346    0.294   40.303  163.577
  394.750    3.879    0.360    0.277   57.678  163.719
  395.000    4.077    0.385    0.259   65.505  163.666
  395.250    4.383    0.399    0.258   62.475  163.396
  395.500    4.686    0.402    0.267   64.935  163.337
  395.750    5.020    0.390    0.266   71.076  162.656
  396.000    5.306    0.365    0.221   77.408  162.696
  396.250    5.565    0.352    0.182   81.551  162.645
  396.500    5.771    0.370    0.171   83.451  162.686
  396.750    5.683    0.381    0.189   84.350  163.257
  397.000    5.265    0.386    0.206   85.257  163.917
  397.250    4.545    0.396    0.230   86.026  164.897
  397.500    3.747    0.408    0.240   88.987  166.084
  397.750    3.125    0.438    0.210   93.694  170.082
