~VERSION INFORMATION
 VERS.                 2.0:   CWLS LOG ASCII STANDARD -VERSION 2.0
 WRAP.                  NO:   ONE LINE PER DEPTH STEP
~WELL INFORMATION BLOCK
#MNEM.UNIT           DATA                    DESCRIPTION OF MNEMONIC
#---------    -------------------            -------------------------------
# Generated from Intellog Unique Number	CW_70_72/WELL/2899
NULL.         -999.25                        : NULL_VALUE
WELL.         MESA SULPETRO CALLS            : Well_name    - WELL              
LOC .         06-13-070-22W4                 : Location     - LOCATION          
UWI .         00/06-13-070-22W4/0            : Uwi          - UNIQUE WELL ID    
ENTR.         MAX                            : Entered      - ENTERED BY        
SRVC.         DRESSER ATLAS                  : Scn          - SERVICE COMPANY   
DATE.         24 FEB 79                      : Date         - LOG DATE
STRT.M        430                            : top_depth    - START DEPTH       
STOP.M        605                            : bot_depth    - STOP DEPTH        
STEP.M        0.25                           : increment    - STEP LENGTH       
~CURVE INFORMATION BLOCK
#MNEM UNIT       ERCB CURVE CODE    CURVE DESCRIPTION
#-----------   ------------------   ----------------------------------
DEPT.M        00 001 00 00         : DEPTH        - DEPTH                       
ILD .OHMM     00 120 00 00         : RESD         - DEEP RESISTIVITY (DIL)      
NPHI.V/V      00 330 00 00         : PHIN         - NEUTRON POROSITY (SANDSTONE)
DPHI.V/V      00 890 00 00         : PHID         - DENSITY POROSITY (SANDSTONE)
CALI.MM       00 280 01 00         : CAL          - CALIPER                     
GR  .API      00 310 00 00         : GR           - GAMMA RAY                   
~PARAMETER INFORMATION       
#MNEM.UNIT           DATA             DESCRIPTION OF MNEMONIC
#---------         -----------     ------------------------------
GL  .M        672.3                : gl           - GROUND LEVEL ELEVATION      
EREF.M        676.4                : kb           - ELEVATION OF DEPTH REFERENCE
DATM.M        672.3                : datum        - DATUM ELEVATION             
TDD .M        641                  : tdd          - TOTAL DEPTH DRILLER         
RUN .         ONE                  : Run          - RUN NUMBER                  
ENG .         BILL                 : Engineer     - RECORDING ENGINEER          
WIT .         JIM                  : Witness      - WITNESSED BY                
MUD .         GEL                  : Mud_type     - MUD TYPE                    
MATR.         SANDSTONE            : Logunit      - NEUTRON MATRIX              
TMAX.C        19                   : BHT          - MAXIMUM RECORDED TEMPERATURE
BHTD.M        641                  : BHTDEP       - MAXIMUM RECORDED TEMPERATURE
RMT .C        20                   : MDTP         - TEMPERATURE OF MUD          
MUDD.KG/M     1080                 : MWT          - MUD DENSITY                 
NEUT.         1                    : NEUTRON      - NEUTRON TYPE                
RESI.         0                    : RESIST       - RESISTIVITY TYPE            
RM  .OHMM     3                    : RM           - RESISTIVITY OF MUD          
RMC .OHMM     3.5                  : RMC          - RESISTIVITY OF MUD CAKE     
RMF .OHMM     1.8                  : RMF          - RESISTIVITY OF MUD FILTRATE 
SUFT.C        -20                  : SUFT         - SURFACE TEMPERATURE         
~A  DEPTH     RESD     PHIN     PHID      CAL       GR
# ...
  466.500    4.942    0.357    0.240  164.204   74.299
  466.750    5.271    0.351    0.186  164.178   73.391
  467.000    5.675    0.342    0.132  164.633   72.480
  467.250    6.338    0.340    0.160  165.102   71.277
  467.500    6.885    0.352    0.234  165.076   71.557
  467.750    7.210    0.382    0.258  164.552   76.290
  468.000    6.890    0.393    0.261  163.530   82.805
  468.250    6.345    0.393    0.243  164.486   89.320
  468.500    5.686    0.392    0.172  166.939   91.082
  468.750    5.189    0.387    0.172  168.885   89.879
  469.000    4.913    0.379    0.168  167.368   90.752
  469.250    4.651    0.381    0.167  166.844   93.107
  469.500    4.363    0.387    0.166  167.313   92.199
  469.750    4.207    0.391    0.172  167.284   90.699
  470.000    4.208    0.391    0.181  167.254   88.898
  470.250    4.248    0.392    0.187  166.727   88.581
  470.500    4.135    0.392    0.190  166.206   90.048
  470.750    4.098    0.403    0.188  165.675   90.622
  471.000    4.214    0.402    0.176  165.151   90.609
  471.250    4.293    0.397    0.155  164.626   89.701
  471.500    4.414    0.400    0.144  164.601   88.495
  471.750    4.623    0.396    0.125  165.558   87.884
  472.000    4.625    0.399    0.109  168.003   88.159
  472.250    4.669    0.401    0.113  168.967   89.034
  472.500    4.670    0.395    0.125  167.944   89.906
  472.750    4.672    0.396    0.121  166.925   89.890
  473.000    4.631    0.386    0.123  165.408   89.868
  473.250    4.632    0.384    0.151  165.873   88.370
  473.500    4.634    0.391    0.169  167.325   83.303
  473.750    4.510    0.390    0.217  167.303   77.644
  474.000    4.348    0.377    0.217  167.274   71.687
  474.250    4.042    0.359    0.212  167.245   64.247
  474.500    3.826    0.354    0.209  167.204   60.068
  474.750    3.525    0.360    0.225  167.670   57.380
  475.000    3.367    0.362    0.242  167.641   54.096
  475.250    3.217    0.369    0.247  166.629   56.454
  475.500    3.131    0.372    0.221  165.111   60.593
  475.750    3.132    0.370    0.164  164.092   66.215
  476.000    3.280    0.371    0.174  164.063   70.654
  476.250    3.697    0.377    0.209  165.027   75.387
  476.500    4.091    0.379    0.222  166.974   79.824
  476.750    4.284    0.381    0.199  168.426   83.070
  477.000    4.405    0.390    0.190  169.885   83.352
  477.250    4.447    0.385    0.180  171.824   80.954
  477.500    4.408    0.386    0.196  171.307   79.155
  477.750    4.369    0.377    0.200  169.793   77.952
  478.000    4.331    0.372    0.188  167.788   77.638
  478.250    4.293    0.371    0.191  166.758   77.917
  478.500    4.294    0.366    0.216  167.231   79.384
  478.750    4.217    0.360    0.192  167.697   82.927
  479.000    4.180    0.364    0.154  169.152   84.394
  479.250    4.259    0.370    0.117  173.569   81.702
  479.500    4.670    0.379    0.092  175.028   77.530
  479.750    5.027    0.379    0.211  174.999   69.792
  480.000    5.362    0.372    0.223  172.994   57.895
  480.250    5.772    0.367    0.238  163.555   52.830
  480.500    6.271    0.358    0.254  160.556   48.354
  480.750    7.332    0.360    0.275  160.032   47.747
  481.000    7.471    0.355    0.279  160.989   49.511
  481.250    6.944    0.358    0.285  162.946   50.085
  481.500    5.943    0.362    0.286  165.391   50.362
  481.750    4.903    0.358    0.281  166.839   50.939
  482.000    3.971    0.355    0.269  166.814   52.408
  482.250    3.399    0.357    0.273  166.785   54.766
  482.500    3.102    0.355    0.272  166.752   58.312
  482.750    3.046    0.360    0.270  165.241   61.855
  483.000    3.048    0.363    0.271  164.710   62.136
  483.250    3.077    0.369    0.265  163.203   61.228
  483.500    3.282    0.372    0.251  161.686   61.211
  483.750    3.533    0.373    0.241  160.659   63.562
  484.000    3.838    0.378    0.219  160.139   66.516
  484.250    4.020    0.380    0.207  160.113   67.985
  484.500    4.171    0.380    0.214  160.080   67.075
  484.750    4.289    0.368    0.231  159.556   59.933
  485.000    4.291    0.360    0.228  159.036   57.538
  485.250    4.062    0.358    0.209  158.508   55.444
  485.500    3.776    0.358    0.208  158.482   53.937
  485.750    3.478    0.357    0.219  157.951   53.623
  486.000    3.233    0.361    0.228  157.430   53.603
  486.250    3.146    0.368    0.234  156.903   53.585
  486.500    3.006    0.368    0.230  156.877   53.869
  486.750    2.925    0.364    0.224  156.848   54.443
  487.000    2.820    0.359    0.223  157.310   55.022
  487.250    2.720    0.367    0.225  158.765   53.808
  487.500    2.696    0.376    0.252  159.726   52.904
  487.750    2.672    0.376    0.273  160.191   51.993
  488.000    2.649    0.370    0.278  161.148   51.384
  488.250    2.625    0.364    0.278  161.614   51.072
  488.500    2.602    0.362    0.286  161.584   50.755
  488.750    2.555    0.363    0.296  161.551   51.036
  489.000    2.510    0.368    0.311  159.546   52.202
  489.250    2.465    0.367    0.330  156.046   53.375
  489.500    2.443    0.363    0.335  155.521   53.949
  489.750    2.422    0.361    0.319  155.005   53.636
  490.000    2.401    0.363    0.305  153.491   53.025
  490.250    2.401    0.364    0.295  152.472   52.711
  490.500    2.380    0.365    0.289  152.937   52.097
  490.750    2.359    0.361    0.287  154.888   51.780
  491.000    2.338    0.362    0.283  155.844   52.062
  491.250    2.318    0.361    0.275  155.815   52.935
  491.500    2.318    0.355    0.278  156.772   53.509
  491.750    2.341    0.355    0.288  158.231   53.494
  492.000    2.341    0.351    0.293  160.178   53.177
  492.250    2.342    0.352    0.295  159.155   54.345
  492.500    2.343    0.358    0.296  159.129   55.520
  492.750    2.343    0.359    0.297  160.588   56.094
  493.000    2.366    0.360    0.296  160.555   56.670
  493.250    2.389    0.367    0.290  158.048   55.757
  493.500    2.411    0.376    0.300  157.520   55.447
  493.750    2.434    0.377    0.303  157.498   56.615
  494.000    2.435    0.372    0.298  157.465   57.486
  494.250    2.458    0.376    0.301  156.941   57.770
  494.500    2.482    0.376    0.298  156.417   58.342
  494.750    2.505    0.384    0.304  156.384   58.920
  495.000    2.506    0.387    0.312  156.351   59.791
  495.250    2.507    0.381    0.313  156.329   60.073
  495.500    2.508    0.379    0.313  157.286   60.647
  495.750    2.509    0.375    0.310  158.247   60.926
  496.000    2.487    0.371    0.307  160.692   61.800
  496.250    2.487    0.369    0.306  164.123   63.863
  496.500    2.488    0.373    0.300  166.572   67.109
  496.750    2.512    0.379    0.284  167.037   70.063
  497.000    2.536    0.377    0.288  163.537   69.452
  497.250    2.607    0.378    0.296  162.525   69.432
  497.500    2.706    0.382    0.296  162.991   71.194
  497.750    2.757    0.383    0.280  162.961   70.882
  498.000    2.783    0.386    0.258  161.444   69.971
  498.250    2.810    0.388    0.248  159.439   67.279
  498.500    2.811    0.381    0.256  158.914   64.591
  498.750    2.812    0.373    0.274  161.855   61.604
  499.000    2.812    0.375    0.281  164.292   59.209
  499.250    2.813    0.385    0.287  162.782   58.303
  499.500    2.814    0.387    0.291  160.278   58.283
  499.750    2.790    0.394    0.282  158.266   58.268
  500.000    2.790    0.386    0.280  157.745   58.250
  500.250    2.766    0.396    0.289  157.716   58.233
  500.500    2.691    0.397    0.281  158.182   58.209
  500.750    2.668    0.396    0.271  158.640   58.195
  501.000    2.718    0.397    0.282  158.611   58.470
  501.250    2.744    0.386    0.274  159.080   58.457
  501.500    2.720    0.378    0.269  158.556   58.438
  501.750    2.696    0.379    0.273  158.523   58.420
  502.000    2.672    0.383    0.274  158.497   58.400
  502.250    2.649    0.383    0.272  159.451   58.682
  502.500    2.601    0.386    0.282  159.924   58.957
  502.750    2.578    0.383    0.275  159.891   59.238
