~VERSION INFORMATION
 VERS.                 2.0:   CWLS LOG ASCII STANDARD -VERSION 2.0
 WRAP.                  NO:   ONE LINE PER DEPTH STEP
~WELL INFORMATION BLOCK
#MNEM.UNIT           DATA                    DESCRIPTION OF MNEMONIC
#---------    -------------------            -------------------------------
# Generated from Intellog Unique Number	CW_70_72/WELL/995
NULL.         -999.25                        : NULL_VALUE
WELL.         CHEVRON MCSU 1 MITSUE 09-27    : Well_name    - WELL              
LOC .         09-27-072-05W5                 : Location     - LOCATION          
UWI .         00/09-27-072-05W5/0            : Uwi          - UNIQUE WELL ID    
ENTR.         JAYE                           : Entered      - ENTERED BY        
SRVC.         WESTERN ATLAS                  : Scn          - SERVICE COMPANY   
DATE.         3 MAR 86                       : Date         - LOG DATE          
STRT.M        390                            : top_depth    - START DEPTH       
STOP.M        625                            : bot_depth    - STOP DEPTH        
STEP.M        0.25                           : increment    - STEP LENGTH       
~CURVE INFORMATION BLOCK
#MNEM UNIT       ERCB CURVE CODE    CURVE DESCRIPTION
#-----------   ------------------   ----------------------------------
DEPT.M        00 001 00 00         : DEPTH        - DEPTH                       
DPHI.V/V      00 890 00 00         : PHID         - DENSITY POROSITY (SANDSTONE)
NPHI.V/V      00 330 00 00         : PHIN         - NEUTRON POROSITY (SANDSTONE)
GR  .API      00 310 00 00         : GR           - GAMMA RAY                   
CALI.MM       00 280 01 00         : CAL          - CALIPER                     
ILD .OHMM     00 120 00 00         : RESD         - DEEP RESISTIVITY (DIL)      
~PARAMETER INFORMATION       
#MNEM.UNIT           DATA             DESCRIPTION OF MNEMONIC
#---------         -----------     ------------------------------
GL  .M        585.42               : gl           - GROUND LEVEL ELEVATION      
EREF.M        591                  : kb           - ELEVATION OF DEPTH REFERENCE
DATM.M        585.42               : datum        - DATUM ELEVATION             
TDD .M        1700                 : tdd          - TOTAL DEPTH DRILLER         
RUN .         ONE                  : Run          - RUN NUMBER                  
ENG .         SENTSEN              : Engineer     - RECORDING ENGINEER          
WIT .         SUO                  : Witness      - WITNESSED BY                
BASE.         LEDUC                : Branch       - HOME BASE OF LOGGING UNIT   
MUD .         GEL-CHEM             : Mud_type     - MUD TYPE                    
MATR.         SANDSTONE            : Logunit      - NEUTRON MATRIX              
TMAX.C        51                   : BHT          - MAXIMUM RECORDED TEMPERATURE
BHTD.M        1701.25              : BHTDEP       - MAXIMUM RECORDED TEMPERATURE
RMT .C        25                   : MDTP         - TEMPERATURE OF MUD          
MUDD.KG/M     1370                 : MWT          - MUD DENSITY                 
NEUT.         1                    : NEUTRON      - NEUTRON TYPE                
RESI.         0                    : RESIST       - RESISTIVITY TYPE            
RM  .OHMM     0.76                 : RM           - RESISTIVITY OF MUD          
RMC .OHMM     1.19                 : RMC          - RESISTIVITY OF MUD CAKE     
RMF .OHMM     0.7                  : RMF          - RESISTIVITY OF MUD FILTRATE 
SUFT.C        32                   : SUFT         - SURFACE TEMPERATURE         
~A  DEPTH     PHID     PHIN       GR      CAL     RESD
# ...
  463.000    0.281    0.423   51.403  236.345    3.680
  463.250    0.291    0.433   55.492  236.270    3.691
  463.500    0.305    0.446   50.819  236.929    3.688
  463.750    0.304    0.446   45.265  237.588    3.685
  464.000    0.292    0.467   50.920  238.149    3.676
  464.250    0.299    0.445   52.631  238.492    3.645
  464.500    0.289    0.422   48.141  238.842    3.636
  464.750    0.277    0.417   49.163  239.184    3.660
  465.000    0.283    0.424   49.496  239.532    3.671
  465.250    0.294    0.439   50.643  239.882    3.696
  465.500    0.303    0.443   52.294  240.124    3.714
  465.750    0.318    0.453   55.567  240.469    3.746
  466.000    0.332    0.442   50.265  240.709    3.815
  466.250    0.324    0.406   48.035  240.846    3.988
  466.500    0.261    0.357   52.373  240.880    4.295
  466.750    0.194    0.278   56.336  241.119    4.627
  467.000    0.089    0.222   45.900  240.949    5.215
  467.250    0.100    0.190   38.721  240.462    6.240
  467.500    0.218    0.221   36.111  240.487    6.993
  467.750    0.287    0.427   42.578  240.206    7.201
  468.000    0.312    0.432   45.982  240.245    6.477
  468.250    0.316    0.420   49.380  240.380    5.685
  468.500    0.307    0.416   39.634  239.788    5.094
  468.750    0.298    0.409   41.972  239.197    4.695
  469.000    0.294    0.403   47.937  238.288    4.352
  469.250    0.290    0.399   42.761  237.800    4.064
  469.500    0.286    0.416   46.537  237.312    3.831
  469.750    0.287    0.443   43.427  237.134    3.571
  470.000    0.294    0.422   57.472  235.914    3.379
  470.250    0.297    0.411   54.299  234.702    3.402
  470.500    0.294    0.436   52.379  233.902    3.685
  470.750    0.221    0.423   46.950  233.515    4.000
  471.000    0.172    0.287   41.086  233.763    4.593
  471.250    0.112    0.225   41.293  234.103    5.265
  471.500    0.052    0.221   39.998  234.240    5.967
  471.750    0.027    0.239   43.150  234.583    6.877
  472.000    0.058    0.254   36.784  234.937    7.326
  472.250    0.213    0.268   43.440  235.080    5.908
  472.500    0.276    0.398   50.972  235.313    5.032
  472.750    0.305    0.461   53.121  235.344    4.476
  473.000    0.322    0.484   50.510  235.908    4.018
  473.250    0.307    0.504   44.083  236.248    3.573
  473.500    0.286    0.482   38.030  236.699    3.368
  473.750    0.279    0.461   46.188  236.937    3.322
  474.000    0.293    0.476   47.021  237.074    3.307
  474.250    0.307    0.453   46.480  237.001    3.304
  474.500    0.295    0.453   47.563  237.558    3.295
  474.750    0.290    0.459   45.203  237.904    3.299
  475.000    0.287    0.487   48.542  238.772    3.284
  475.250    0.280    0.481   52.505  239.640    3.294
  475.500    0.273    0.447   49.835  240.727    3.317
  475.750    0.266    0.429   47.912  241.377    3.301
  476.000    0.259    0.435   50.187  242.563    3.317
  476.250    0.249    0.440   45.762  244.265    3.340
  476.500    0.235    0.450   44.904  246.385    3.337
  476.750    0.214    0.435   52.376  248.923    3.341
  477.000    0.197    0.451   49.829  250.411    3.377
  477.250    0.189    0.418   49.722  251.697    3.432
  477.500    0.182    0.409   53.436  252.566    3.481
  477.750    0.178    0.417   56.462  253.434    3.531
  478.000    0.182    0.428   53.539  253.573    3.561
  478.250    0.188    0.429   48.363  253.602    3.579
  478.500    0.197    0.440   58.152  254.157    3.617
  478.750    0.200    0.442   60.427  256.178    3.641
  479.000    0.195    0.409   65.890  258.293    3.639
  479.250    0.196    0.398   62.406  261.145    3.602
  479.500    0.209    0.398   57.603  264.933    3.499
  479.750    0.212    0.404   61.006  267.158    3.399
  480.000    0.203    0.407   56.766  263.333    3.277
  480.250    0.209    0.397   52.341  257.833    3.196
  480.500    0.225    0.401   55.054  253.591    3.128
  480.750    0.243    0.413   55.888  249.138    3.079
  481.000    0.258    0.436   48.394  239.048    3.153
  481.250    0.269    0.412   48.476  234.176    3.271
  481.500    0.273    0.430   54.695  233.694    3.330
  481.750    0.277    0.438   51.273  233.622    3.378
  482.000    0.283    0.413   43.717  234.069    3.382
  482.250    0.286    0.402   38.289  235.039    3.335
  482.500    0.288    0.403   40.438  236.848    3.252
  482.750    0.283    0.403   47.470  238.341    3.190
  483.000    0.269    0.413   50.747  237.961    3.145
  483.250    0.258    0.429   55.711  236.529    3.114
  483.500    0.279    0.437   40.079  234.579    3.135
  483.750    0.306    0.406   44.231  233.995    3.156
  484.000    0.294    0.451   50.699  234.336    3.207
  484.250    0.304    0.474   50.783  235.411    3.303
  484.500    0.318    0.473   43.978  236.280    3.382
  484.750    0.319    0.529   53.639  237.362    3.424
  485.000    0.316    0.485   60.107  238.225    3.351
  485.250    0.313    0.473   50.612  239.101    3.232
  485.500    0.308    0.481   46.687  239.231    3.087
  485.750    0.297    0.470   46.957  239.268    2.931
  486.000    0.294    0.450   56.933  239.297    2.816
  486.250    0.304    0.433   55.136  239.226    2.725
  486.500    0.325    0.424   47.956  238.739    2.663
  486.750    0.335    0.461   50.544  238.464    2.661
  487.000    0.331    0.435   43.490  238.071    2.649
  487.250    0.335    0.440   34.432  237.690    2.597
  487.500    0.344    0.455   40.148  237.933    2.485
  487.750    0.346    0.548   42.673  238.379    2.433
  488.000    0.339    0.629   37.246  239.561    2.413
  488.250    0.330    0.644   42.901  239.492    2.429
  488.500    0.328    0.460   45.424  234.516    2.455
  488.750    0.334    0.440   43.941  229.852    2.509
  489.000    0.331    0.443   45.653  229.469    2.540
  489.250    0.308    0.452   47.615  229.503    2.586
  489.500    0.290    0.456   48.697  229.022    2.623
  489.750    0.277    0.439   51.346  228.954    2.671
  490.000    0.307    0.424   53.558  228.981    2.750
  490.250    0.306    0.433   48.068  229.013    2.875
  490.500    0.296    0.440   44.396  229.154    3.000
  490.750    0.308    0.424   46.043  229.496    3.089
  491.000    0.315    0.431   46.689  229.839    3.069
  491.250    0.309    0.439   47.273  230.396    3.085
  491.500    0.267    0.441   49.234  231.370    3.146
  491.750    0.222    0.323   47.563  232.972    3.258
  492.000    0.136    0.299   45.140  234.669    3.406
  492.250    0.114    0.279   39.588  235.850    3.725
  492.500    0.130    0.320   42.988  235.466    4.261
  492.750    0.110    0.354   47.331  234.767    4.857
  493.000    0.133    0.380   41.528  235.432    5.222
  493.250    0.276    0.415   51.626  237.134    4.464
  493.500    0.292    0.421   55.340  240.294    3.918
  493.750    0.282    0.430   52.291  243.980    3.505
  494.000    0.272    0.456   51.435  246.723    3.200
  494.250    0.284    0.453   48.075  248.740    3.039
  494.500    0.293    0.444   47.656  250.031    3.025
  494.750    0.288    0.433   50.933  250.687    3.018
  495.000    0.274    0.424   58.339  251.453    3.049
  495.250    0.262    0.416   53.790  251.487    3.093
  495.500    0.250    0.416   49.176  251.834    3.114
  495.750    0.264    0.457   44.752  252.073    3.129
  496.000    0.260    0.455   45.709  252.628    3.150
  496.250    0.239    0.405   60.818  253.909    3.166
  496.500    0.219    0.427   57.582  255.825    3.176
  496.750    0.210    0.440   53.658  256.588    3.179
  497.000    0.203    0.450   54.679  255.261    3.200
  497.250    0.196    0.449   54.262  251.331    3.216
  497.500    0.188    0.438   52.215  248.024    3.226
  497.750    0.175    0.425   57.306  245.556    3.235
  498.000    0.185    0.503   53.007  243.918    3.245
  498.250    0.193    0.474   58.535  243.328    3.273
  498.500    0.203    0.421   53.798  244.403    3.314
  498.750    0.215    0.436   54.820  246.001    3.343
  499.000    0.222    0.440   62.666  248.225    3.372
  499.250    0.208    0.432   63.186  250.867    3.376
