~VERSION INFORMATION
 VERS.                 2.0:   CWLS LOG ASCII STANDARD -VERSION 2.0
 WRAP.                  NO:   ONE LINE PER DEPTH STEP
~WELL INFORMATION BLOCK
#MNEM.UNIT           DATA                    DESCRIPTION OF MNEMONIC
#---------    -------------------            -------------------------------
# Generated from Intellog Unique Number	CS_73_76/WELL/2913
WELL.         BOW VALLEY EXPLORATION         : Well_name    - WELL
LOC .         00/07-33-076-17W4/0            : Location     - LOCATION
UWI .         00/07-33-076-17W4/0            : Uwi          - UNIQUE WELL ID
ENTR.         SP                             : Entered      - ENTERED BY
SRVC.         SCHLUMBERGER                   : Scn          - SERVICE COMPANY
STRT.M        340                            : top_depth    - START DEPTH
STOP.M        563                            : bot_depth    - STOP DEPTH
STEP.M        0.25                           : increment    - STEP LENGTH
 NULL. -999.2500:NULL Value
~CURVE INFORMATION BLOCK
#MNEM UNIT       ERCB CURVE CODE    CURVE DESCRIPTION
#-----------   ------------------   ----------------------------------
DEPT.M        00 001 00 00         : DEPTH        - DEPTH
GR  .API      00 310 00 00         : GR           - GAMMA RAY
NPHI.V/V      00 330 00 00         : PHIN         - NEUTRON POROSITY (LIMESTONE)
DPHI.V/V      00 890 00 00         : PHID         - DENSITY POROSITY (LIMESTONE)
ILD .OHMM     00 120 00 00         : RESD         - DEEP RESISTIVITY (DIL)
~PARAMETER INFORMATION
#MNEM.UNIT           DATA             DESCRIPTION OF MNEMONIC
#---------         -----------     ------------------------------
GL  .M        704.76               : gl           - GROUND LEVEL ELEVATION
EREF.M        709.26               : kb           - ELEVATION OF DEPTH REFERENCE
DATM.M        704.76               : datum        - DATUM ELEVATION
TDD .M        564                  : tdd          - TOTAL DEPTH DRILLER
RUN .         ONE                  : Run          - RUN NUMBER
ENG .         BILL                 : Engineer     - RECORDING ENGINEER
WIT .         JIM                  : Witness      - WITNESSED BY
MUD .         GEL                  : Mud_type     - MUD TYPE
MATR.         LIMESTONE            : Logunit      - NEUTRON MATRIX
TMAX.C        20                   : BHT          - MAXIMUM RECORDED TEMPERATURE
BHTD.M        564                  : BHTDEP       - MAXIMUM RECORDED TEMPERATURE
MATR.         1                    : LOGUNIT      - NEUTRON MATRIX
RMT .C        25                   : MDTP         - TEMPERATURE OF MUD
NEUT.         1                    : NEUTRON      - NEUTRON TYPE
RESI.         0                    : RESIST       - RESISTIVITY TYPE
RMC .OHMM     0.25                 : RMC          - RESISTIVITY OF MUD CAKE
RMF .OHMM     0.25                 : RMF          - RESISTIVITY OF MUD FILTRATE
SUFT.C        15                   : SUFT         - SURFACE TEMPERATURE
~A  DEPTH       GR     PHIN     PHID     RESD
# ...
  470.500   85.385    0.410    0.172    5.947
  470.750   88.486    0.415    0.195    5.837
  471.000   92.827    0.436    0.207    5.838
  471.250   92.829    0.426    0.185    5.729
  471.500   89.112    0.419    0.195    5.730
  471.750   86.015    0.426    0.209    5.732
  472.000   86.017    0.438    0.201    5.843
  472.250   86.639    0.440    0.187    5.958
  472.500   88.501    0.421    0.191    5.959
  472.750   90.362    0.397    0.204    6.075
  473.000   84.785    0.391    0.211    6.076
  473.250   80.449    0.396    0.214    6.078
  473.500   79.211    0.396    0.228    6.079
  473.750   80.453    0.406    0.233    5.966
  474.000   81.695    0.402    0.216    5.967
  474.250   78.597    0.417    0.196    5.968
  474.500   75.501    0.433    0.211    5.970
  474.750   76.123    0.428    0.208    6.087
  475.000   80.463    0.422    0.203    6.205
  475.250   82.945    0.412    0.220    6.448
  475.500   84.187    0.397    0.248    6.450
  475.750   82.949    0.396    0.203    6.209
  476.000   77.993    0.421    0.197    5.866
  476.250   77.995    0.423    0.206    5.647
  476.500   84.815    0.433    0.223    5.437
  476.750   87.916    0.440    0.222    5.136
  477.000   84.199    0.444    0.229    4.944
  477.250   81.722    0.458    0.241    4.946
  477.500   81.104    0.472    0.249    5.042
  477.750   81.106    0.431    0.245    5.340
  478.000   76.150    0.390    0.232    5.990
  478.250   72.433    0.390    0.252    6.466
  478.500   70.575    0.392    0.313    6.980
  478.750   69.957    0.375    0.272    7.393
  479.000   68.720    0.368    0.271    7.395
  479.250   66.243    0.373    0.306    7.258
  479.500   61.906    0.353    0.314    6.855
  479.750   57.569    0.346    0.317    6.115
  480.000   53.852    0.365    0.333    5.887
  480.250   51.375    0.401    0.336    5.668
  480.500   52.617    0.397    0.336    5.458
  480.750   53.239    0.402    0.355    5.459
  481.000   56.340    0.399    0.377    5.356
  481.250   58.821    0.372    0.351    5.358
  481.500   61.922    0.401    0.318    5.463
  481.750   58.825    0.410    0.323    5.464
  482.000   55.728    0.408    0.320    5.570
  482.250   53.871    0.417    0.323    5.571
  482.500   56.352    0.411    0.319    5.574
  482.750   62.553    0.421    0.317    5.575
  483.000   66.894    0.439    0.308    5.576
  483.250   69.995    0.448    0.294    5.685
  483.500   69.997    0.452    0.282    5.686
  483.750   69.379    0.458    0.283    5.688
  484.000   68.762    0.473    0.294    5.689
  484.250   68.763    0.463    0.305    5.582
  484.500   70.626    0.459    0.302    5.478
  484.750   71.247    0.469    0.293    5.274
  485.000   68.150    0.478    0.265    5.176
  485.250   66.913    0.468    0.262    5.079
  485.500   68.154    0.433    0.275    5.178
  485.750   70.636    0.403    0.267    5.179
  486.000   72.497    0.417    0.262    5.280
  486.250   70.020    0.428    0.287    5.281
  486.500   70.022    0.439    0.275    5.283
  486.750   68.165    0.441    0.292    5.184
  487.000   66.927    0.427    0.276    5.185
  487.250   65.690    0.407    0.286    5.186
  487.500   65.692    0.407    0.298    4.899
  487.750   66.314    0.412    0.303    4.807
  488.000   67.555    0.453    0.298    4.718
  488.250   68.177    0.458    0.298    4.719
  488.500   66.320    0.438    0.305    4.631
  488.750   61.983    0.431    0.307    4.632
  489.000   60.125    0.432    0.319    4.633
  489.250   58.268    0.419    0.299    4.724
  489.500   56.411    0.458    0.319    4.815
  489.750   54.553    0.491    0.329    5.505
  490.000   55.175    0.485    0.330    6.058
  490.250   53.318    0.392    0.330    6.294
  490.500   50.840    0.355    0.303    6.541
  490.750   49.603    0.338    0.135    6.668
  491.000   49.605    0.366    0.135    6.544
  491.250   52.706    0.414    0.300    6.065
  491.500   56.427    0.417    0.332    5.728
  491.750   60.148    0.414    0.344    5.515
  492.000   60.771    0.403    0.335    5.310
  492.250   60.152    0.411    0.320    5.311
  492.500   58.295    0.423    0.298    5.415
  492.750   57.677    0.437    0.283    5.521
  493.000   56.440    0.442    0.283    5.848
  493.250   55.822    0.435    0.320    6.076
  493.500   53.345    0.422    0.362    6.946
  493.750   55.206    0.399    0.324    8.249
  494.000   55.828    0.383    0.283    9.430
  494.250   55.211    0.351    0.168   10.576
  494.500   56.452    0.269    0.104   11.203
  494.750   55.834    0.272    0.072   10.786
  495.000   53.977    0.328    0.299    8.914
  495.250   55.219    0.347    0.321    6.957
  495.500   60.179    0.363    0.314    6.206
  495.750   61.422    0.391    0.298    5.643
  496.000   59.564    0.409    0.294    5.229
  496.250   56.467    0.419    0.301    4.846
  496.500   54.609    0.412    0.301    4.666
  496.750   55.231    0.392    0.318    4.492
  497.000   57.712    0.398    0.332    4.493
  497.250   61.434    0.401    0.343    4.581
  497.500   61.436    0.398    0.316    4.670
  497.750   61.438    0.403    0.282    4.762
  498.000   62.060    0.401    0.314    4.854
  498.250   62.062    0.392    0.324    4.855
  498.500   62.064    0.393    0.313    4.950
  498.750   61.446    0.406    0.310    5.047
  499.000   60.209    0.408    0.314    5.048
  499.250   61.451    0.413    0.338    5.146
  499.500   61.453    0.423    0.351    5.147
  499.750   60.835    0.420    0.346    5.149
  500.000   59.597    0.414    0.325    5.150
  500.250   59.600    0.408    0.298    5.151
  500.500   62.081    0.401    0.306    5.153
  500.750   63.943    0.407    0.301    5.056
  501.000   65.804    0.412    0.311    5.057
  501.250   68.285    0.407    0.316    5.059
  501.500   68.907    0.398    0.306    5.060
  501.750   68.290    0.391    0.288    5.061
  502.000   69.532    0.388    0.289    5.062
  502.250   70.153    0.391    0.309    5.161
  502.500   70.775    0.399    0.295    5.262
  502.750   72.638    0.413    0.279    5.262
  503.000   73.259    0.410    0.259    5.164
  503.250   74.501    0.391    0.219    5.068
  503.500   75.742    0.397    0.220    4.879
  503.750   76.364    0.420    0.274    4.698
  504.000   75.746    0.439    0.262    4.610
  504.250   76.988    0.423    0.247    4.524
  504.500   78.850    0.409    0.238    4.525
  504.750   80.711    0.420    0.219    4.526
  505.000   84.432    0.422    0.206    4.614
  505.250   86.914    0.409    0.201    4.982
  505.500   91.255    0.399    0.214    5.482
  505.750   94.356    0.397    0.204    5.918
  506.000   94.978    0.405    0.219    6.512
  506.250   90.021    0.404    0.251    7.165
  506.500   87.544    0.403    0.259    7.735
  506.750   83.827    0.417    0.251    8.351
  507.000   79.491    0.419    0.256    9.015
  507.250   76.393    0.412    0.257    9.368
  507.500   71.437    0.346    0.126    9.193
  507.750   66.480    0.298    0.051    8.851
  508.000   59.044    0.350    0.230    7.896
  508.250   62.145    0.350    0.247    7.317
  508.500   70.825    0.390    0.251    6.781
  508.750   78.265    0.403    0.212    6.528
  509.000   80.127    0.407    0.223    6.286
  509.250   76.410    0.443    0.235    6.532
  509.500   73.313    0.440    0.190    6.533
  509.750   76.414    0.439    0.190    6.661
  510.000   83.234    0.443    0.189    6.791
  510.250   91.294    0.435    0.199    6.792
  510.500   89.437    0.371    0.202    6.925
  510.750   83.860    0.369    0.209    7.059
  511.000   80.763    0.384    0.228    7.198
  511.250   80.766    0.390    0.222    7.199
  511.500   81.388    0.384    0.196    7.339
  511.750   80.769    0.382    0.155    7.483
  512.000   81.391    0.372    0.179    7.484
  512.250   77.055    0.371    0.192    7.486
  512.500   75.817    0.377    0.204    7.346
  512.750   78.919    0.384    0.225    7.209
  513.000   82.640    0.362    0.231    7.075
  513.250   87.600    0.363    0.199    6.811
  513.500   88.222    0.399    0.195    6.558
  513.750   82.645    0.409    0.185    6.194
