~VERSION INFORMATION
 VERS.                 2.0:   CWLS LOG ASCII STANDARD -VERSION 2.0
 WRAP.                  NO:   ONE LINE PER DEPTH STEP
~WELL INFORMATION BLOCK
#MNEM.UNIT           DATA                    DESCRIPTION OF MNEMONIC
#---------    -------------------            -------------------------------
# Generated from Intellog Unique Number	CS_73_76/WELL/886
WELL.         WAINOCO ET AL GROUSE           : Well_name    - WELL
LOC .         00/05-31-074-11W4/0            : Location     - LOCATION
UWI .         00/05-31-074-11W4/0            : Uwi          - UNIQUE WELL ID
ENTR.         TIM                            : Entered      - ENTERED BY
SRVC.         SCHLUMBERGER                   : Scn          - SERVICE COMPANY
STRT.M        400                            : top_depth    - START DEPTH
STOP.M        520                            : bot_depth    - STOP DEPTH
STEP.M        0.25                           : increment    - STEP LENGTH
 NULL. -999.2500:NULL Value
~CURVE INFORMATION BLOCK
#MNEM UNIT       ERCB CURVE CODE    CURVE DESCRIPTION
#-----------   ------------------   ----------------------------------
DEPT.M        00 001 00 00         : DEPTH        - DEPTH
GR  .API      00 310 00 00         : GR           - GAMMA RAY
NPHI.V/V      00 330 00 00         : PHIN         - NEUTRON POROSITY (LIMESTONE)
DPHI.V/V      00 890 00 00         : PHID         - DENSITY POROSITY (LIMESTONE)
ILD .OHMM     00 120 00 00         : RESD         - DEEP RESISTIVITY (DIL)
~PARAMETER INFORMATION
#MNEM.UNIT           DATA             DESCRIPTION OF MNEMONIC
#---------         -----------     ------------------------------
GL  .M        656.1                : gl           - GROUND LEVEL ELEVATION
EREF.M        660.1                : kb           - ELEVATION OF DEPTH REFERENCE
DATM.M        660.1                : datum        - DATUM ELEVATION
TDD .M        529                  : tdd          - TOTAL DEPTH DRILLER
RUN .         ONE                  : Run          - RUN NUMBER
ENG .         BILL                 : Engineer     - RECORDING ENGINEER
WIT .         JIM                  : Witness      - WITNESSED BY
MUD .         GEL                  : Mud_type     - MUD TYPE
MATR.         LIMESTONE            : Logunit      - NEUTRON MATRIX
TMAX.C        22                   : BHT          - MAXIMUM RECORDED TEMPERATURE
BHTD.M        43529                : BHTDEP       - MAXIMUM RECORDED TEMPERATURE
MATR.         1                    : LOGUNIT      - NEUTRON MATRIX
RMT .C        23                   : MDTP         - TEMPERATURE OF MUD
NEUT.         1                    : NEUTRON      - NEUTRON TYPE
RESI.         0                    : RESIST       - RESISTIVITY TYPE
RMC .OHMM     3.52                 : RMC          - RESISTIVITY OF MUD CAKE
RMF .OHMM     1                    : RMF          - RESISTIVITY OF MUD FILTRATE
SUFT.C        15                   : SUFT         - SURFACE TEMPERATURE
~A  DEPTH       GR     PHIN     PHID     RESD
  400.000   94.509    0.491    0.289    5.332
  400.250   98.369    0.480    0.288    5.575
  400.500   99.805    0.467    0.281    5.666
  400.750   97.915    0.478    0.281    5.546
  401.000   95.450    0.456    0.286    5.180
  401.250   92.073    0.457    0.292    4.882
  401.500   86.290    0.464    0.305    4.782
  401.750   76.580    0.462    0.334    4.681
  402.000   75.601    0.458    0.355    4.845
  402.250   75.541    0.455    0.362    5.208
  402.500   75.482    0.438    0.363    5.441
  402.750   75.397    0.436    0.365    5.529
  403.000   75.037    0.437    0.366    5.563
  403.250   74.075    0.439    0.368    5.704
  403.500   73.406    0.438    0.369    5.745
  403.750   73.029    0.427    0.363    5.892
  404.000   73.872    0.426    0.355    6.042
  404.250   75.600    0.429    0.364    6.026
  404.500   76.443    0.424    0.364    6.012
  404.750   76.684    0.428    0.350    5.995
  405.000   76.917    0.433    0.349    5.975
  405.250   76.850    0.436    0.355    5.961
  405.500   76.765    0.440    0.362    6.002
  405.750   77.006    0.443    0.370    6.040
  406.000   76.947    0.445    0.377    6.078
  406.250   77.171    0.441    0.374    6.005
  406.500   77.112    0.438    0.368    5.990
  406.750   77.027    0.441    0.359    5.921
  407.000   77.277    0.444    0.360    5.903
  407.250   78.704    0.446    0.359    5.889
  407.500   80.149    0.450    0.357    5.764
  407.750   81.577    0.453    0.356    5.638
  408.000   83.021    0.452    0.353    5.623
  408.250   84.165    0.442    0.355    5.664
  408.500   84.690    0.440    0.357    5.698
  408.750   84.915    0.448    0.357    5.737
  409.000   84.855    0.450    0.353    5.775
  409.250   84.495    0.453    0.350    5.759
  409.500   84.427    0.451    0.348    5.689
  409.750   84.359    0.457    0.345    5.624
  410.000   83.982    0.468    0.333    5.454
  410.250   83.605    0.481    0.331    5.288
  410.500   85.350    0.468    0.326    5.275
  410.750   88.299    0.457    0.308    5.358
  411.000   89.133    0.460    0.285    5.652
  411.250   87.871    0.458    0.295    6.248
  411.500   85.087    0.460    0.299    6.713
  411.750   83.507    0.469    0.294    7.212
  412.000   82.537    0.474    0.285    7.397
  412.250   82.151    0.466    0.289    7.308
  412.500   82.109    0.452    0.298    7.154
  412.750   82.634    0.454    0.307    6.935
  413.000   82.583    0.467    0.306    6.726
  413.250   82.808    0.475    0.310    6.581
  413.500   82.147    0.482    0.329    6.568
  413.750   81.477    0.484    0.336    6.485
  414.000   83.206    0.478    0.336    6.469
  414.250   84.332    0.477    0.324    6.454
  414.500   84.273    0.480    0.322    6.434
  414.750   83.612    0.470    0.322    6.359
  415.000   82.942    0.467    0.323    6.281
  415.250   81.671    0.462    0.323    6.268
  415.500   80.400    0.463    0.325    6.309
  415.750   79.129    0.462    0.327    6.351
  416.000   78.159    0.470    0.324    6.391
  416.250   77.481    0.475    0.321    6.376
  416.500   77.714    0.475    0.317    6.358
  416.750   77.955    0.468    0.310    6.339
  417.000   77.879    0.469    0.299    6.324
  417.250   77.820    0.480    0.299    6.302
  417.500   77.752    0.475    0.301    6.285
  417.750   78.269    0.464    0.297    6.329
  418.000   78.811    0.459    0.295    6.371
  418.250   79.353    0.455    0.300    6.353
  418.500   80.188    0.457    0.297    6.334
  418.750   81.323    0.463    0.285    6.314
  419.000   82.767    0.474    0.286    6.469
  419.250   84.204    0.478    0.289    6.586
  419.500   82.932    0.469    0.295    6.505
  419.750   81.352    0.445    0.299    6.427
  420.000   80.683    0.458    0.310    6.412
  420.250   81.216    0.467    0.320    6.394
  420.500   82.962    0.464    0.334    6.375
  420.750   84.389    0.469    0.342    6.362
  421.000   85.224    0.461    0.327    6.402
  421.250   85.766    0.453    0.321    6.446
  421.500   86.291    0.460    0.307    6.367
  421.750   85.923    0.467    0.301    6.232
  422.000   84.660    0.465    0.303    6.217
  422.250   82.487    0.457    0.307    6.198
  422.500   81.516    0.464    0.311    6.182
  422.750   82.342    0.465    0.315    6.163
  423.000   83.177    0.460    0.319    6.150
  423.250   83.418    0.465    0.318    6.133
  423.500   84.846    0.470    0.317    6.172
  423.750   86.591    0.484    0.315    6.098
  424.000   88.638    0.486    0.311    6.083
  424.250   91.569    0.493    0.300    6.067
  424.500   93.624    0.493    0.299    5.881
  424.750   96.848    0.479    0.289    5.922
  425.000   97.398    0.472    0.288    6.126
  425.250   93.119    0.454    0.292    5.888
  425.500   87.328    0.459    0.300    5.712
  425.750   83.040    0.470    0.311    5.092
  426.000   82.672    0.493    0.318    4.847
  426.250   83.506    0.485    0.303    4.743
  426.500   81.032    0.473    0.294    4.911
  426.750   78.859    0.461    0.285    5.582
  427.000   78.498    0.455    0.270    6.284
  427.250   79.934    0.451    0.258    6.881
  427.500   81.362    0.447    0.250    7.394
  427.750   81.603    0.437    0.259    7.512
  428.000   82.730    0.427    0.272    7.420
  428.250   84.175    0.437    0.283    7.196
  428.500   88.026    0.448    0.278    7.046
  428.750   91.868    0.452    0.273    6.897
  429.000   93.304    0.450    0.278    6.751
  429.250   91.733    0.453    0.287    6.668
  429.500   90.453    0.463    0.290    6.586
  429.750   91.296    0.477    0.276    6.570
  430.000   92.732    0.480    0.271    6.431
  430.250   91.152    0.475    0.259    6.298
  430.500   91.092    0.480    0.246    6.164
  430.750   92.211    0.483    0.254    5.919
  431.000   93.062    0.482    0.268    5.798
  431.250   94.507    0.475    0.275    5.728
  431.500   97.438    0.470    0.284    5.658
  431.750   99.777    0.474    0.294    5.642
  432.000  100.010    0.476    0.306    5.678
  432.250   99.040    0.478    0.316    5.827
  432.500   97.175    0.484    0.304    6.088
  432.750   94.993    0.491    0.301    6.239
  433.000   93.121    0.490    0.269    6.346
  433.250   91.257    0.476    0.250    6.505
  433.500   89.969    0.468    0.228    6.612
  433.750   89.608    0.462    0.212    6.651
  434.000   90.142    0.454    0.218    6.762
  434.250   91.888    0.448    0.243    6.807
  434.500   91.510    0.464    0.242    6.916
  434.750   90.231    0.469    0.240    6.957
  435.000   89.879    0.466    0.241    6.941
  435.250   92.218    0.473    0.244    6.922
  435.500   94.556    0.467    0.247    6.965
  435.750   96.903    0.460    0.247    6.949
  436.000   99.542    0.461    0.251    6.995
  436.250   99.475    0.459    0.259    7.107
  436.500   98.496    0.461    0.263    7.159
  436.750   98.110    0.464    0.268    7.137
  437.000   98.368    0.466    0.246    7.120
  437.250   98.894    0.464    0.239    7.100
  437.500   98.517    0.451    0.236    7.081
  437.750   97.563    0.450    0.237    7.057
  438.000   95.381    0.452    0.244    7.042
  438.250   93.517    0.455    0.248    6.825
  438.500   90.734    0.465    0.254    6.685
  438.750   90.356    0.470    0.271    6.544
  439.000   92.394    0.477    0.275    6.406
  439.250   93.839    0.477    0.235    6.093
  439.500   95.576    0.483    0.235    5.486
  439.750   95.499    0.492    0.262    4.846
  440.000   93.627    0.496    0.270    4.163
  440.250   91.763    0.506    0.292    3.643
  440.500   91.402    0.601    0.308    3.158
  440.750   92.538    0.602    0.304    2.791
  441.000   93.063    0.604    0.287    2.582
  441.250   92.995    0.604    0.275    2.552
  441.500   93.847    0.602    0.278    2.545
  441.750   90.762    0.601    0.279    2.514
  442.000   90.987    0.591    0.278    2.531
  442.250   94.245    0.582    0.277    2.570
  442.500   97.477    0.596    0.277    2.637
  442.750   97.108    0.587    0.280    2.705
  443.000   96.740    0.574    0.283    2.723
  443.250   97.866    0.579    0.286    2.767
