~VERSION INFORMATION
 VERS.                 2.0:   CWLS LOG ASCII STANDARD -VERSION 2.0
 WRAP.                  NO:   ONE LINE PER DEPTH STEP
~WELL INFORMATION BLOCK
#MNEM.UNIT           DATA                    DESCRIPTION OF MNEMONIC
#---------    -------------------            -------------------------------
# Generated from Intellog Unique Number	CW_79_81/WELL/554
WELL.         07-21-079-22W4                 : Well_name    - WELL
LOC .         00/07-21-079-22W4/0            : Location     - LOCATION
UWI .         00/07-21-079-22W4/0            : Uwi          - UNIQUE WELL ID
ENTR.         MAX                            : Entered      - ENTERED BY
SRVC.         SCHLUMBERGER                   : Scn          - SERVICE COMPANY
STRT.M        210.312                        : top_depth    - START DEPTH
STOP.M        435.812                        : bot_depth    - STOP DEPTH
STEP.M        0.25                           : increment    - STEP LENGTH
 NULL. -999.2500:NULL Value
~CURVE INFORMATION BLOCK
#MNEM UNIT       ERCB CURVE CODE    CURVE DESCRIPTION
#-----------   ------------------   ----------------------------------
DEPT.M        00 001 00 00         : DEPTH        - DEPTH
ILD .OHMM     00 120 00 00         : RESD         - DEEP RESISTIVITY (DIL)
NPHI.V/V      00 330 00 00         : PHIN         - NEUTRON POROSITY (SANDSTONE)
DPHI.V/V      00 890 00 00         : PHID         - DENSITY POROSITY (SANDSTONE)
CALI.MM       00 280 01 00         : CAL          - CALIPER
GR  .API      00 310 00 00         : GR           - GAMMA RAY
~PARAMETER INFORMATION
#MNEM.UNIT           DATA             DESCRIPTION OF MNEMONIC
#---------         -----------     ------------------------------
GL  .M        560.222              : gl           - GROUND LEVEL ELEVATION
EREF.M        562.966              : kb           - ELEVATION OF DEPTH REFERENCE
DATM.M        560.222              : datum        - DATUM ELEVATION
TDD .M        439.826              : tdd          - TOTAL DEPTH DRILLER
RUN .         ONE                  : Run          - RUN NUMBER
ENG .         BILL                 : Engineer     - RECORDING ENGINEER
WIT .         JIM                  : Witness      - WITNESSED BY
MUD .         GEL                  : Mud_type     - MUD TYPE
MATR.         SANDSTONE            : Logunit      - NEUTRON MATRIX
TMAX.C        22.2222              : BHT          - MAXIMUM RECORDED TEMPERATURE
BHTD.M        492081               : BHTDEP       - MAXIMUM RECORDED TEMPERATURE
RMT .C        18.3333              : MDTP         - TEMPERATURE OF MUD
MUDD.KG/M     9300                 : MWT          - MUD DENSITY
NEUT.         1                    : NEUTRON      - NEUTRON TYPE
RESI.         0                    : RESIST       - RESISTIVITY TYPE
RM  .OHMM     6.1                  : RM           - RESISTIVITY OF MUD
RMC .OHMM     0.25                 : RMC          - RESISTIVITY OF MUD CAKE
RMF .OHMM     6.02                 : RMF          - RESISTIVITY OF MUD FILTRATE
SUFT.C        -12.2222             : SUFT         - SURFACE TEMPERATURE
~A  DEPTH     RESD     PHIN     PHID      CAL       GR
# ...
  246.812   36.892    0.496    0.382  252.519   69.947
  247.062   37.949    0.506    0.372  249.475   71.728
  247.312   39.759    0.512    0.356  246.935   71.723
  247.562   43.622    0.483    0.351  244.394   71.119
  247.812   48.751    0.482    0.354  240.843   68.425
  248.062   53.497    0.484    0.357  237.293   67.821
  248.312   53.497    0.485    0.361  234.252   68.709
  248.562   55.579    0.488    0.362  229.185   68.702
  248.812   55.608    0.485    0.362  227.648   67.800
  249.062   55.123    0.476    0.362  226.130   66.896
  249.312   52.672    0.475    0.365  218.533   68.979
  249.562   48.071    0.468    0.370  215.997   69.268
  249.812   42.667    0.463    0.371  215.997   67.471
  250.062   33.595    0.467    0.372  213.445   68.060
  250.312   26.215    0.481    0.374  208.883   68.650
  250.562   24.588    0.488    0.376  208.883   68.046
  250.812   22.647    0.487    0.377  207.849   68.337
  251.062   21.638    0.483    0.384  207.849   67.732
  251.312   20.867    0.482    0.393  204.786   65.635
  251.562   19.941    0.498    0.399  203.261   63.540
  251.812   19.233    0.505    0.405  203.261   63.830
  252.062   18.719    0.488    0.407  202.733   65.017
  252.312   18.560    0.481    0.391  201.710   66.801
  252.562   18.568    0.490    0.379  201.710   69.179
  252.812   18.926    0.512    0.367  201.178   68.277
  253.062   19.830    0.517    0.356  201.167   65.884
  253.312   20.776    0.502    0.357  201.146   62.593
  253.562   21.572    0.476    0.356  201.140   62.885
  253.812   21.785    0.473    0.350  201.140   63.176
  254.062   21.794    0.488    0.342  201.107   61.973
  254.312   22.630    0.500    0.334  201.605   61.370
  254.562   24.150    0.488    0.340  201.605   60.466
  254.812   28.790    0.474    0.345  201.582   59.267
  255.062   30.444    0.461    0.340  202.078   56.872
  255.312   36.291    0.454    0.330  202.056   54.476
  255.562   38.021    0.437    0.322  202.053   54.469
  255.812   46.597    0.410    0.287  202.546   53.567
  256.062   57.630    0.284    0.229  202.532   49.381
  256.312   73.275    0.199    0.081  202.511   46.090
  256.562   84.977    0.127   -0.028  202.506   44.592
  256.812   89.861    0.109   -0.035  203.506   42.794
  257.062   90.740    0.113   -0.038  203.506   44.278
  257.312   89.974    0.125   -0.036  203.984   44.271
  257.562   86.757    0.140   -0.023  204.481   44.264
  257.812   82.146    0.146   -0.012  204.973   44.555
  258.062   56.852    0.158    0.010  204.962   44.847
  258.312   45.181    0.173    0.033  204.940   46.627
  258.562   39.011    0.198    0.067  205.439   49.306
  258.812   31.005    0.244    0.152  205.439   52.583
  259.062   28.293    0.309    0.196  205.409   62.125
  259.312   25.581    0.406    0.307  205.909   64.207
  259.562   23.557    0.435    0.315  205.897   61.811
  259.812   22.305    0.463    0.322  206.381   63.297
  260.062   21.509    0.468    0.330  206.376   64.781
  260.312   20.745    0.466    0.344  206.376   64.774
  260.562   20.745    0.462    0.345  206.857   64.468
  260.812   20.580    0.462    0.342  207.854   64.162
  261.062   20.590    0.464    0.337  207.843   63.558
  261.312   20.796    0.466    0.332  208.336   61.759
  261.562   20.614    0.467    0.329  208.336   60.558
  261.812   20.251    0.467    0.340  207.801   59.955
  262.062   19.893    0.466    0.344  207.792   60.245
  262.312   19.541    0.459    0.342  207.778   59.940
  262.562   19.023    0.460    0.341  207.769   59.933
  262.812   18.177    0.465    0.342  208.260   59.627
  263.062   17.527    0.470    0.342  209.764   60.216
  263.312   16.144    0.472    0.339  211.773   62.297
  263.562   14.596    0.473    0.339  211.773   62.589
  263.812   12.035    0.480    0.337  213.762   63.177
  264.062    9.389    0.487    0.337  214.261   64.365
  264.312    7.393    0.486    0.343  212.733   63.759
  264.562    6.384    0.485    0.343  210.192   62.858
  264.812    5.120    0.499    0.347  207.148   66.431
  265.062    4.069    0.514    0.370  206.128   70.603
  265.312    3.817    0.539    0.386  205.609   74.473
  265.562    3.855    0.563    0.370  206.100   73.573
  265.812    4.681    0.554    0.332  206.100   71.475
  266.062    5.528    0.538    0.346  206.580   68.186
  266.312    6.966    0.512    0.352  206.063   63.105
  266.562    8.151    0.490    0.361  206.063   59.815
  266.812    9.989    0.492    0.369  205.535   58.912
  267.062   12.129    0.484    0.366  205.016   57.711
  267.312   13.307    0.481    0.358  205.016   56.212
  267.562   13.817    0.480    0.359  204.990   54.114
  267.812   13.448    0.464    0.361  204.472   54.108
  268.062   12.499    0.457    0.360  204.450   56.487
  268.312    9.752    0.472    0.352  203.940   60.658
  268.562    7.539    0.475    0.342  203.928   67.813
  268.812    6.390    0.486    0.329  203.928   73.775
  269.062    6.335    0.503    0.320  203.907   78.243
  269.312    7.692    0.520    0.320  204.398   76.146
  269.562    8.135    0.506    0.344  204.375   66.591
  269.812   11.660    0.472    0.364  204.370   62.405
  270.062   15.241    0.457    0.378  204.370   58.220
  270.312   17.190    0.456    0.381  204.344   54.928
  270.562   18.179    0.452    0.378  204.335   53.728
  270.812   18.179    0.468    0.374  204.335   54.020
  271.062   18.375    0.487    0.371  204.309   53.416
  271.312   18.212    0.473    0.367  204.295   51.915
  271.562   18.057    0.461    0.366  204.295   51.312
  271.812   17.910    0.454    0.372  204.273   51.004
  272.062   17.912    0.455    0.380  204.262   50.698
  272.312   18.256    0.451    0.379  204.239   50.096
  272.562   18.435    0.449    0.376  204.235   50.684
  272.812   18.617    0.453    0.365  204.235   54.556
  273.062   18.802    0.450    0.365  204.212   54.251
  273.312   18.802    0.449    0.361  204.196   53.349
  273.562   18.829    0.457    0.355  204.187   52.745
  273.812   18.834    0.463    0.353  204.173   52.737
  274.062   18.834    0.469    0.382  204.161   53.029
  274.312   18.864    0.479    0.385  204.148   53.320
  274.562   18.696    0.466    0.384  203.628   53.610
  274.812   18.696    0.465    0.384  203.615   52.707
  275.062   18.549    0.466    0.386  203.603   52.103
  275.312   18.387    0.466    0.390  203.603   52.394
  275.562   18.406    0.462    0.385  203.072   51.791
  275.812   18.410    0.478    0.359  202.558   51.185
  276.062   18.590    0.488    0.348  202.558   52.073
  276.312   18.775    0.494    0.344  202.027   52.962
  276.562   19.314    0.491    0.344  201.002   52.357
  276.812   19.685    0.477    0.344  200.981   50.262
  277.062   20.625    0.465    0.344  200.472   48.760
  277.312   22.216    0.458    0.342  200.462   50.843
  277.562   24.599    0.444    0.338  200.449   55.611
  277.812   33.983    0.434    0.324  201.448   62.168
  278.062   47.382    0.422    0.316  201.939   62.758
  278.312   53.934    0.408    0.299  202.434   58.572
  278.562   64.892    0.282    0.046  202.927   57.073
  278.812   72.522    0.195    0.035  203.417   55.872
  279.062   77.399    0.182    0.029  203.417   55.269
  279.312   82.611    0.172    0.020  203.896   53.769
  279.562   86.551    0.160    0.009  204.392   50.479
  279.812   91.525    0.143   -0.004  204.380   47.189
  280.062   97.689    0.130   -0.011  204.872   45.389
  280.312  104.267    0.121   -0.014  205.362   45.384
  280.562  112.301    0.113   -0.016  205.362   45.374
  280.812  125.515    0.112   -0.018  205.837   45.071
  281.062  137.711    0.113   -0.019  205.834   45.361
  281.312  151.082    0.115   -0.020  205.818   45.653
  281.562  175.198    0.120   -0.020  205.805   46.538
  281.812  194.002    0.127   -0.020  205.287   48.321
  282.062  190.573    0.136   -0.019  205.278   49.509
  282.312  151.475    0.145   -0.015  204.760   50.993
  282.562  120.363    0.151   -0.010  203.736   52.181
  282.812   70.570    0.157    0.009  202.711   53.069
  283.062   46.648    0.162    0.029  201.691   53.359
