~VERSION INFORMATION
 VERS.                 2.0:   CWLS LOG ASCII STANDARD -VERSION 2.0
 WRAP.                  NO:   ONE LINE PER DEPTH STEP
~WELL INFORMATION BLOCK
#MNEM.UNIT           DATA                    DESCRIPTION OF MNEMONIC
#---------    -------------------            -------------------------------
# Generated from Intellog Unique Number	CN_91_93/WELL/3138
WELL.         07-12-092-18W4                 : Well_name    - WELL
LOC .         00/07-12-092-18W4/0            : Location     - LOCATION
UWI .         00/07-12-092-18W400            : Uwi          - UNIQUE WELL ID
ENTR.         JOETTE                         : Entered      - ENTERED BY
SRVC.         SCHLUMBERGER                   : Scn          - SERVICE COMPANY
DATE.         04\12\92                       : Date         - LOG DATE
STRT.M        115                            : top_depth    - START DEPTH
STOP.M        265                            : bot_depth    - STOP DEPTH
STEP.M        0.25                           : increment    - STEP LENGTH
 NULL. -999.2500:NULL Value
~CURVE INFORMATION BLOCK
#MNEM UNIT       ERCB CURVE CODE    CURVE DESCRIPTION
#-----------   ------------------   ----------------------------------
DEPT.M        00 001 00 00         : DEPTH        - DEPTH
CALI.MM       00 280 01 00         : CAL          - CALIPER
GR  .API      00 310 00 00         : GR           - GAMMA RAY
NPHI.V/V      00 330 00 00         : PHIN         - NEUTRON POROSITY (SANDSTONE)
DPHI.V/V      00 890 00 00         : PHID         - DENSITY POROSITY (SANDSTONE)
ILD .OHMM     00 120 00 00         : RESD         - DEEP RESISTIVITY (DIL)
~PARAMETER INFORMATION
#MNEM.UNIT           DATA             DESCRIPTION OF MNEMONIC
#---------         -----------     ------------------------------
GL  .M        517.74               : gl           - GROUND LEVEL ELEVATION
EREF.M        520.74               : kb           - ELEVATION OF DEPTH REFERENCE
DATM.M        520.74               : datum        - DATUM ELEVATION
TDD .M        267.5                : tdd          - TOTAL DEPTH DRILLER
RUN .         ONE                  : Run          - RUN NUMBER
ENG .         JO                   : Engineer     - RECORDING ENGINEER
WIT .         TIM                  : Witness      - WITNESSED BY
MUD .         GEL                  : Mud_type     - MUD TYPE
MATR.         SANDSTONE            : Logunit      - NEUTRON MATRIX
TMAX.C        20                   : BHT          - MAXIMUM RECORDED TEMPERATURE
BHTD.M        267.5                : BHTDEP       - MAXIMUM RECORDED TEMPERATURE
RMT .C        16                   : MDTP         - TEMPERATURE OF MUD
MUDD.KG/M     1120                 : MWT          - MUD DENSITY
NEUT.         1                    : NEUTRON      - NEUTRON TYPE
RESI.         0                    : RESIST       - RESISTIVITY TYPE
RM  .OHMM     6.99                 : RM           - RESISTIVITY OF MUD
RMC .OHMM     6.99                 : RMC          - RESISTIVITY OF MUD CAKE
RMF .OHMM     6.55                 : RMF          - RESISTIVITY OF MUD FILTRATE
SUFT.C        4                    : SUFT         - SURFACE TEMPERATURE
~A  DEPTH      CAL       GR     PHIN     PHID     RESD
# ...
  224.500  160.915   67.517    0.436    0.270   16.023
  224.750  166.011   73.027    0.435    0.247   13.221
  225.000  168.050   81.602    0.425    0.174   11.765
  225.250  174.167   90.177    0.413    0.179   11.534
  225.500  178.245   95.074    0.419    0.197   10.469
  225.750  181.300   96.296    0.416    0.203    9.683
  226.000  179.248   85.871    0.420    0.206   12.161
  226.250  174.132   86.476    0.426    0.213   14.140
  226.500  170.037   87.697    0.415    0.220   15.240
  226.750  162.876   88.303    0.397    0.221   16.114
  227.000  160.822   88.301    0.424    0.226   16.717
  227.250  159.796   88.294    0.430    0.233   17.676
  227.500  159.783   89.513    0.414    0.226   18.337
  227.750  159.779   90.123    0.413    0.196   19.382
  228.000  159.768   93.795    0.423    0.171   19.734
  228.250  159.761   89.500    0.418    0.150   20.465
  228.500  159.748   90.108    0.405    0.157   20.844
  228.750  159.748   93.165    0.377    0.176   22.465
  229.000  158.704   88.871    0.362    0.187   25.637
  229.250  159.724   75.382    0.377    0.197   30.982
  229.500  158.691   69.248    0.393    0.218   40.411
  229.750  158.685   63.724    0.383    0.230   50.735
  230.000  158.674   61.880    0.356    0.223   59.016
  230.250  158.665   59.424    0.347    0.230   62.403
  230.500  158.656   56.355    0.338    0.242   53.491
  230.750  158.647   49.607    0.352    0.260   45.852
  231.000  158.641   44.700    0.379    0.277   38.547
  231.250  158.630   40.404    0.430    0.289   37.063
  231.500  158.623   45.915    0.442    0.298   36.297
  231.750  158.612   52.037    0.413    0.303   38.394
  232.000  157.584   53.871    0.405    0.308   48.203
  232.250  157.571   53.252    0.413    0.300   58.252
  232.500  156.545   48.345    0.428    0.288   70.396
  232.750  156.536   34.244    0.433    0.285   83.464
  233.000  155.501   29.333    0.399    0.290  106.806
  233.250  155.492   29.327    0.384    0.295  102.658
  233.500  155.484   28.711    0.400    0.299   60.081
  233.750  155.477   29.931    0.398    0.282   15.463
  234.000  156.487   63.022    0.384    0.223   11.601
  234.250  158.524   72.823    0.345    0.220   12.503
  234.500  162.601   55.044    0.457    0.248   11.791
  234.750  162.592   45.845    0.492    0.270    8.512
  235.000  159.519   64.839    0.512    0.279    4.614
  235.250  160.532   93.027    0.492    0.228    4.520
  235.500  164.609  107.118    0.379    0.196    5.568
  235.750  169.705  112.627    0.439    0.183    6.856
  236.000  169.696  107.107    0.487    0.186   10.030
  236.250  167.644   86.877    0.527    0.197   10.814
  236.500  165.595   76.452    0.541    0.212   16.741
  236.750  160.477   64.189    0.529    0.268   18.752
  237.000  158.425   51.926    0.494    0.290   29.600
  237.250  157.392   49.468    0.387    0.301   39.366
  237.500  157.383   40.882    0.387    0.303   44.077
  237.750  158.394   43.329    0.373    0.308   43.166
  238.000  158.387   51.904    0.350    0.301   41.504
  238.250  158.381   57.414    0.379    0.285   36.934
  238.500  159.391   54.958    0.392    0.287   35.500
  238.750  159.380   57.403    0.402    0.278   35.461
  239.000  159.376   55.560    0.405    0.280   36.788
  239.250  159.367   54.328    0.399    0.283   37.428
  239.500  159.358   58.613    0.389    0.272   38.108
  239.750  160.371   59.220    0.371    0.264   41.071
  240.000  161.381   53.700    0.371    0.268   45.117
  240.250  161.375   48.792    0.372    0.274   51.452
  240.500  161.364   49.399    0.361    0.284   52.405
  240.750  161.355   54.295    0.382    0.283   52.329
  241.000  161.344   53.062    0.389    0.271   51.266
  241.250  161.337   51.221    0.386    0.266   55.252
  241.500  160.303   45.698    0.381    0.264   60.694
  241.750  160.298   43.242    0.391    0.266   69.267
  242.000  160.287   41.398    0.404    0.271   83.707
  242.250  160.281   41.392    0.408    0.276   93.725
  242.500  160.272   43.839    0.387    0.240   95.392
  242.750  160.261   48.738    0.276    0.201   83.314
  243.000  160.254   53.636    0.267    0.160   72.818
  243.250  160.243   52.403    0.283    0.189   49.609
  243.500  160.237   51.785    0.315    0.225   45.046
  243.750  160.226   52.394    0.393    0.281   30.711
  244.000  160.217   53.614    0.396    0.298   26.832
  244.250  160.208   54.222    0.409    0.293   23.000
  244.500  160.197   51.765    0.424    0.290   19.343
  244.750  160.188   59.113    0.417    0.283   17.213
  245.000  160.179   72.591    0.409    0.256   16.232
  245.250  160.173   87.295    0.393    0.209   15.307
  245.500  160.164  105.064    0.375    0.128   16.503
  245.750  160.155   97.091    0.387    0.170   20.328
  246.000  160.144   84.215    0.393    0.219   25.521
  246.250  160.133   86.661    0.409    0.257   28.035
  246.500  160.129   92.785    0.417    0.269   27.465
  246.750  161.141  100.747    0.404    0.211   26.389
  247.000  161.130   99.516    0.387    0.188   26.351
  247.250  162.145   91.543    0.373    0.195   26.303
  247.500  162.134   82.345    0.362    0.220   26.790
  247.750  162.123   86.017    0.356    0.230   27.247
  248.000  162.119   92.140    0.352    0.226   27.742
  248.250  162.108   96.425    0.351    0.215   27.712
  248.500  162.099   99.484    0.347    0.195   27.662
  248.750  162.090   92.124    0.344    0.187   27.109
  249.000  162.079   81.699    0.342    0.183   26.057
  249.250  162.073   68.210    0.345    0.218   29.175
  249.500  162.064   65.140    0.356    0.250   35.936
  249.750  161.031   71.264    0.376    0.277   49.634
  250.000  161.022   74.322    0.385    0.295   54.543
  250.250  161.014   76.769    0.386    0.276   51.397
  250.500  162.029   82.280    0.373    0.244   46.669
  250.750  162.015   90.855    0.347    0.225   39.248
  251.000  163.030  100.656    0.334    0.205   27.264
  251.250  163.019   99.425    0.335    0.178   22.929
  251.500  163.015  103.097    0.326    0.167   19.654
  251.750  163.004  107.995    0.318    0.156   20.004
  252.000  162.991  113.506    0.329    0.152   19.227
  252.250  164.008  104.920    0.385    0.178   18.836
  252.500  163.994   92.044    0.398    0.206   20.692
  252.750  163.990   91.426    0.416    0.234   24.524
  253.000  163.979   95.708    0.414    0.267   25.441
  253.250  163.972   95.703    0.404    0.252   24.444
  253.500  163.961   95.085    0.391    0.219   23.503
  253.750  163.955   98.145    0.347    0.205   21.326
  254.000  163.944  101.817    0.351    0.210   20.513
  254.250  163.937  108.554    0.338    0.193   18.971
  254.500  163.924  117.129    0.328    0.156   17.207
  254.750  163.920  115.285    0.340    0.131   16.545
  255.000  163.911  112.215    0.369    0.143   15.908
  255.250  162.876  116.500    0.382    0.169   15.585
  255.500  162.870  125.075    0.365    0.169   16.479
  255.750  161.837  110.359    0.349    0.151   18.800
  256.000  160.805  112.807    0.381    0.161   20.659
  256.250  160.798  118.930    0.387    0.193   22.686
  256.500  160.791  113.409    0.377    0.194   23.543
  256.750  160.783   99.919    0.361    0.195   23.509
  257.000  160.774   95.624    0.381    0.218   22.580
  257.250  160.761   99.908    0.385    0.241   21.308
  257.500  160.756  107.871    0.367    0.211   18.976
  257.750  160.741  112.156    0.349    0.183   16.579
  258.000  160.739  113.988    0.334    0.167   16.874
  258.250  160.730  113.984    0.324    0.147   19.992
  258.500  161.742  112.753    0.314    0.142   21.554
  258.750  161.734  104.780    0.314    0.151   22.368
  259.000  161.723   99.871    0.329    0.166   24.099
  259.250  161.714   94.963    0.335    0.213   24.064
  259.500  161.705   90.055    0.341    0.254   22.255
  259.750  162.715   85.146    0.371    0.261   21.398
  260.000  162.709   82.689    0.356    0.207   20.179
  260.250  162.698   85.136    0.339    0.181   20.926
  260.500  162.689   86.968    0.319    0.160   21.708
  260.750  162.682   86.960    0.333    0.186   21.708
