~VERSION INFORMATION
 VERS.                 2.0:   CWLS LOG ASCII STANDARD -VERSION 2.0
 WRAP.                  NO:   ONE LINE PER DEPTH STEP
~WELL INFORMATION BLOCK
#MNEM.UNIT           DATA                    DESCRIPTION OF MNEMONIC
#---------    -------------------            -------------------------------
# Generated from Intellog Unique Number	CS_69_70/WELL/842
WELL.         PENNANT-PUMA                   : Well_name    - WELL
LOC .         00/07-24-069-16W4/0            : Location     - LOCATION
UWI .         00/07-24-069-16W4/0            : Uwi          - UNIQUE WELL ID
ENTR.         SP                             : Entered      - ENTERED BY
SRVC.         SCHLUMBERGER                   : Scn          - SERVICE COMPANY
STRT.M        259.080                        : top_depth    - START DEPTH
STOP.M        466.080                        : bot_depth    - STOP DEPTH
STEP.M        0.25                           : increment    - STEP LENGTH
 NULL. -999.2500:NULL Value
~CURVE INFORMATION BLOCK
#MNEM UNIT       ERCB CURVE CODE    CURVE DESCRIPTION
#-----------   ------------------   ----------------------------------
DEPT.M        00 001 00 00         : DEPTH        - DEPTH
GR  .API      00 310 00 00         : GR           - GAMMA RAY
DPHI.V/V      00 890 00 00         : PHID         - DENSITY POROSITY (SANDSTONE)
NPHI.V/V      00 330 00 00         : PHIN         - NEUTRON POROSITY (SANDSTONE)
ILD .OHMM     00 120 00 00         : RESD         - DEEP RESISTIVITY (DIL)
~PARAMETER INFORMATION
#MNEM.UNIT           DATA             DESCRIPTION OF MNEMONIC
#---------         -----------     ------------------------------
GL  .M        552.572              : gl           - GROUND LEVEL ELEVATION
EREF.M        555.65               : kb           - ELEVATION OF DEPTH REFERENCE
DATM.M        552.572              : datum        - DATUM ELEVATION
TDD .M        467.563              : tdd          - TOTAL DEPTH DRILLER
RUN .         ONE                  : Run          - RUN NUMBER
ENG .         BILL                 : Engineer     - RECORDING ENGINEER
WIT .         JIM                  : Witness      - WITNESSED BY
MUD .         GEL                  : Mud_type     - MUD TYPE
MATR.         SANDSTONE            : Logunit      - NEUTRON MATRIX
TMAX.C        22.2222              : BHT          - MAXIMUM RECORDED TEMPERATURE
BHTD.M        467.563              : BHTDEP       - MAXIMUM RECORDED TEMPERATURE
MATR.         1                    : LOGUNIT      - NEUTRON MATRIX
RMT .C        25                   : MDTP         - TEMPERATURE OF MUD
NEUT.         1                    : NEUTRON      - NEUTRON TYPE
RESI.         0                    : RESIST       - RESISTIVITY TYPE
RMC .OHMM     0.25                 : RMC          - RESISTIVITY OF MUD CAKE
RMF .OHMM     0.25                 : RMF          - RESISTIVITY OF MUD FILTRATE
SUFT.C        15                   : SUFT         - SURFACE TEMPERATURE
~A  DEPTH       GR     PHID     PHIN     RESD
# ...
  302.580   91.121    0.233    0.481    4.483
  302.830   93.403    0.242    0.464    4.430
  303.080   96.666    0.248    0.462    4.417
  303.330   99.513    0.238    0.486    4.431
  303.580  101.062    0.234    0.480    4.481
  303.830  102.722    0.240    0.484    4.557
  304.080  103.581    0.246    0.504    4.651
  304.330  104.562    0.255    0.515    4.757
  304.580   99.342    0.266    0.508    4.865
  304.830   93.455    0.262    0.472    4.954
  305.080   95.383    0.253    0.430    5.039
  305.330   99.190    0.226    0.415    4.993
  305.580  101.763    0.210    0.438    4.634
  305.830  104.287    0.210    0.447    4.297
  306.080  106.530    0.213    0.444    4.032
  306.330  108.724    0.219    0.452    3.819
  306.580  109.547    0.204    0.463    3.650
  306.830  110.241    0.184    0.487    3.607
  307.080  110.633    0.166    0.520    3.593
  307.330  109.173    0.145    0.556    3.561
  307.580  105.012    0.212    0.563    3.529
  307.830  100.479    0.236    0.549    3.492
  308.080   98.100    0.240    0.524    3.476
  308.330   95.052    0.238    0.508    3.478
  308.580   87.804    0.236    0.502    3.506
  308.830   82.897    0.253    0.522    3.539
  309.080   78.931    0.248    0.539    3.597
  309.330   75.754    0.248    0.529    3.645
  309.580   74.406    0.248    0.513    3.692
  309.830   77.388    0.254    0.501    3.689
  310.080   80.406    0.257    0.491    3.647
  310.330   80.141    0.273    0.486    3.475
  310.580   81.254    0.280    0.486    3.285
  310.830   81.784    0.267    0.486    3.075
  311.080   78.418    0.255    0.494    2.906
  311.330   74.495    0.260    0.509    2.797
  311.580   71.932    0.301    0.502    2.738
  311.830   73.823    0.322    0.511    2.722
  312.080   72.354    0.324    0.497    2.740
  312.330   70.970    0.320    0.473    2.758
  312.580   70.740    0.316    0.469    2.784
  312.830   73.447    0.320    0.476    2.804
  313.080   74.193    0.319    0.484    2.829
  313.330   70.203    0.314    0.504    2.845
  313.580   67.609    0.324    0.504    2.863
  313.830   66.215    0.320    0.522    2.879
  314.080   65.407    0.317    0.541    2.897
  314.330   64.662    0.322    0.538    2.970
  314.580   64.385    0.316    0.491    3.160
  314.830   64.467    0.312    0.436    3.330
  315.080   65.341    0.321    0.398    3.466
  315.330   66.420    0.325    0.381    3.566
  315.580   68.567    0.318    0.492    3.566
  315.830   70.340    0.309    0.505    3.508
  316.080   72.606    0.296    0.511    3.485
  316.330   75.999    0.287    0.541    3.497
  316.580   78.025    0.284    0.525    3.595
  316.830   79.838    0.288    0.508    3.692
  317.080   80.278    0.286    0.487    3.798
  317.330   80.176    0.274    0.483    3.889
  317.580   80.677    0.263    0.501    3.972
  317.830   82.008    0.268    0.531    4.041
  318.080   83.121    0.274    0.537    4.111
  318.330   83.238    0.267    0.519    4.167
  318.580   86.312    0.255    0.549    4.215
  318.830   89.542    0.246    0.553    4.246
  319.080   91.590    0.244    0.546    4.283
  319.330   91.874    0.231    0.555    4.316
  319.580   91.752    0.222    0.513    4.364
  319.830   91.322    0.235    0.478    4.396
  320.080   90.325    0.262    0.486    4.396
  320.330   88.729    0.262    0.501    4.375
  320.580   83.059    0.276    0.512    4.339
  320.830   80.902    0.280    0.520    4.251
  321.080   81.105    0.271    0.534    4.102
  321.330   83.158    0.258    0.539    3.897
  321.580   85.766    0.246    0.536    3.744
  321.830   90.629    0.232    0.547    3.524
  322.080   94.541    0.219    0.557    3.495
  322.330   95.604    0.218    0.544    3.691
  322.580   94.591    0.231    0.550    3.798
  322.830   94.554    0.239    0.582    4.078
  323.080   96.267    0.237    0.622    4.326
  323.330   97.660    0.230    0.572    4.581
  323.580   97.365    0.227    0.550    4.858
  323.830   96.301    0.231    0.533    5.148
  324.080   93.436    0.237    0.514    5.473
  324.330   89.383    0.242    0.483    5.722
  324.580   87.035    0.253    0.453    5.920
  324.830   86.976    0.257    0.419    5.996
  325.080   88.658    0.234    0.404    5.969
  325.330   90.175    0.218    0.424    5.816
  325.580   90.686    0.206    0.449    5.677
  325.830   89.634    0.208    0.455    5.483
  326.080   88.824    0.222    0.445    5.306
  326.330   89.370    0.223    0.440    5.187
  326.580   90.816    0.224    0.456    5.097
  326.830   87.334    0.226    0.462    5.090
  327.080   82.120    0.231    0.447    5.195
  327.330   78.808    0.233    0.455    5.360
  327.580   77.174    0.232    0.420    5.617
  327.830   77.832    0.227    0.397    5.889
  328.080   74.859    0.237    0.379    5.780
  328.330   68.434    0.284    0.335    5.090
  328.580   61.836    0.360    0.306    4.509
  328.830   58.769    0.397    0.336    3.865
  329.080   58.961    0.369    0.441    3.440
  329.330   58.526    0.343    0.489    3.049
  329.580   58.227    0.320    0.521    2.835
  329.830   58.145    0.313    0.510    2.752
  330.080   58.733    0.321    0.511    2.766
  330.330   57.999    0.320    0.522    2.790
  330.580   59.247    0.318    0.531    2.794
  330.830   60.062    0.317    0.520    2.797
  331.080   60.951    0.315    0.501    2.838
  331.330   62.230    0.326    0.494    2.890
  331.580   64.004    0.318    0.509    2.965
  331.830   66.226    0.321    0.513    3.025
  332.080   68.147    0.314    0.493    3.091
  332.330   71.056    0.306    0.479    3.156
  332.580   73.022    0.301    0.493    3.220
  332.830   70.961    0.308    0.511    3.258
  333.080   69.106    0.309    0.509    3.319
  333.330   66.727    0.297    0.517    3.334
  333.580   65.501    0.293    0.499    3.344
  333.830   66.496    0.290    0.471    3.332
  334.080   65.404    0.284    0.453    3.238
  334.330   64.406    0.275    0.474    3.074
  334.580   61.688    0.285    0.492    2.967
  334.830   59.189    0.307    0.475    2.898
  335.080   56.712    0.323    0.467    2.773
  335.330   55.496    0.325    0.462    2.683
  335.580   55.256    0.327    0.466    2.615
  335.830   55.076    0.336    0.490    2.583
  336.080   52.764    0.342    0.509    2.546
  336.330   51.297    0.338    0.530    2.544
  336.580   51.972    0.336    0.500    2.534
  336.830   55.292    0.340    0.486    2.530
  337.080   57.405    0.341    0.501    2.517
  337.330   57.405    0.340    0.514    2.531
  337.580   54.219    0.344    0.509    2.595
  337.830   58.079    0.350    0.489    2.736
  338.080   65.451    0.337    0.471    2.939
  338.330   71.708    0.313    0.448    3.201
  338.580   79.038    0.291    0.436    3.651
  338.830   83.870    0.265    0.463    4.048
  339.080   88.328    0.235    0.492    4.423
  339.330   88.469    0.237    0.510    4.627
  339.580   87.965    0.245    0.502    4.667
  339.830   87.110    0.233    0.499    4.719
  340.080   86.930    0.240    0.472    4.715
  340.330   89.329    0.236    0.457    4.690
  340.580   93.212    0.224    0.462    4.661
  340.830   95.348    0.213    0.463    4.646
  341.080   96.597    0.207    0.448    4.623
  341.330   96.722    0.205    0.452    4.496
  341.580   95.277    0.211    0.458    4.308
  341.830   93.048    0.214    0.501    4.103
  342.080   91.855    0.224    0.561    3.891
  342.330   90.534    0.236    0.586    3.655
  342.580   87.112    0.246    0.574    3.461
  342.830   83.624    0.255    0.541    3.300
  343.080   77.495    0.266    0.512    3.186
  343.330   70.128    0.277    0.514    3.100
  343.580   65.331    0.290    0.507    3.062
  343.830   63.437    0.305    0.484    3.094
  344.080   62.973    0.316    0.490    3.174
  344.330   63.367    0.313    0.510    3.269
  344.580   63.500    0.315    0.534    3.396
  344.830   65.076    0.311    0.518    3.524
  345.080   67.017    0.303    0.491    3.617
  345.330   69.102    0.296    0.482    3.616
  345.580   70.501    0.290    0.492    3.559
  345.830   71.036    0.292    0.495    3.488
