~VERSION INFORMATION
 VERS.                 2.0:   CWLS LOG ASCII STANDARD -VERSION 2.0
 WRAP.                  NO:   ONE LINE PER DEPTH STEP
~WELL INFORMATION BLOCK
#MNEM.UNIT           DATA                    DESCRIPTION OF MNEMONIC
#---------    -------------------            -------------------------------
# Generated from Intellog Unique Number	CS_71_72/WELL/772
WELL.         KIRBY                          : Well_name    - WELL
LOC .         00/06-20-071-05W4/0            : Location     - LOCATION
UWI .         00/06-20-071-05W4/0            : Uwi          - UNIQUE WELL ID
ENTR.         SP                             : Entered      - ENTERED BY
SRVC.         SCHLUMBERGER                   : Scn          - SERVICE COMPANY
STRT.M        310                            : top_depth    - START DEPTH
STOP.M        555                            : bot_depth    - STOP DEPTH
STEP.M        0.25                           : increment    - STEP LENGTH
 NULL. -999.2500:NULL Value
~CURVE INFORMATION BLOCK
#MNEM UNIT       ERCB CURVE CODE    CURVE DESCRIPTION
#-----------   ------------------   ----------------------------------
DEPT.M        00 001 00 00         : DEPTH        - DEPTH
ILD .OHMM     00 120 00 00         : RESD         - DEEP RESISTIVITY (DIL)
DPHI.V/V      00 890 00 00         : PHID         - DENSITY POROSITY (LIMESTONE)
NPHI.V/V      00 330 00 00         : PHIN         - NEUTRON POROSITY (LIMESTONE)
GR  .API      00 310 00 00         : GR           - GAMMA RAY
~PARAMETER INFORMATION
#MNEM.UNIT           DATA             DESCRIPTION OF MNEMONIC
#---------         -----------     ------------------------------
GL  .M        678.2                : gl           - GROUND LEVEL ELEVATION
EREF.M        681.5                : kb           - ELEVATION OF DEPTH REFERENCE
DATM.M        678.2                : datum        - DATUM ELEVATION
TDD .M        555                  : tdd          - TOTAL DEPTH DRILLER
RUN .         ONE                  : Run          - RUN NUMBER
ENG .         BILL                 : Engineer     - RECORDING ENGINEER
WIT .         JIM                  : Witness      - WITNESSED BY
MUD .         GEL                  : Mud_type     - MUD TYPE
MATR.         LIMESTONE            : Logunit      - NEUTRON MATRIX
TMAX.C        20.5                 : BHT          - MAXIMUM RECORDED TEMPERATURE
BHTD.M        555                  : BHTDEP       - MAXIMUM RECORDED TEMPERATURE
MATR.         1                    : LOGUNIT      - NEUTRON MATRIX
RMT .C        25                   : MDTP         - TEMPERATURE OF MUD
NEUT.         1                    : NEUTRON      - NEUTRON TYPE
RESI.         0                    : RESIST       - RESISTIVITY TYPE
RMC .OHMM     0.25                 : RMC          - RESISTIVITY OF MUD CAKE
RMF .OHMM     0.25                 : RMF          - RESISTIVITY OF MUD FILTRATE
SUFT.C        15                   : SUFT         - SURFACE TEMPERATURE
~A  DEPTH     RESD     PHID     PHIN       GR
# ...
  484.000   11.809    0.205    0.379   68.034
  484.250   14.010    0.205    0.393   70.422
  484.500   15.598    0.221    0.353   55.352
  484.750   16.145    0.229    0.306   48.069
  485.000   16.220    0.236    0.291   51.249
  485.250   16.053    0.240    0.317   56.683
  485.500   15.652    0.249    0.341   61.690
  485.750   14.923    0.263    0.366   65.170
  486.000   13.381    0.277    0.382   69.996
  486.250   12.197    0.287    0.389   72.564
  486.500   11.540    0.276    0.380   69.846
  486.750   10.757    0.270    0.384   69.070
  487.000    9.899    0.267    0.387   68.904
  487.250    9.350    0.260    0.378   68.741
  487.500    9.116    0.248    0.367   69.484
  487.750    9.056    0.227    0.363   77.471
  488.000    8.964    0.212    0.375   82.962
  488.250    8.771    0.201    0.378   82.615
  488.500    8.379    0.195    0.367   83.058
  488.750    8.246    0.194    0.359   74.556
  489.000    9.874    0.197    0.365   58.817
  489.250   12.647    0.208    0.391   51.108
  489.500   16.137    0.289    0.413   43.094
  489.750   19.985    0.337    0.469   39.096
  490.000   23.184    0.331    0.417   41.364
  490.250   24.132    0.312    0.354   44.482
  490.500   23.266    0.301    0.365   49.795
  490.750   22.018    0.294    0.370   53.276
  491.000   21.348    0.288    0.372   55.787
  491.250   20.933    0.291    0.367   55.925
  491.500   19.626    0.291    0.351   59.471
  491.750   17.789    0.265    0.326   69.283
  492.000   14.687    0.180    0.308   77.207
  492.250   12.264    0.179    0.327   78.198
  492.500   14.015    0.216    0.361   64.770
  492.750   18.985    0.270    0.403   55.174
  493.000   24.134    0.313    0.424   48.745
  493.250   27.531    0.330    0.404   46.509
  493.500   29.581    0.325    0.394   49.628
  493.750   29.442    0.325    0.398   52.018
  494.000   26.146    0.327    0.415   52.703
  494.250   20.757    0.330    0.423   51.201
  494.500   16.236    0.329    0.438   49.816
  494.750   14.177    0.324    0.435   48.678
  495.000   12.900    0.317    0.414   52.344
  495.250   11.783    0.313    0.407   56.438
  495.500   10.821    0.300    0.394   58.826
  495.750   10.106    0.281    0.379   63.040
  496.000    9.493    0.261    0.358   66.524
  496.250    9.135    0.240    0.340   69.950
  496.500    8.874    0.222    0.339   72.216
  496.750    9.899    0.206    0.355   74.120
  497.000   12.820    0.217    0.385   74.135
  497.250   16.637    0.254    0.410   63.992
  497.500   18.765    0.292    0.418   61.637
  497.750   20.389    0.308    0.412   63.600
  498.000   20.910    0.292    0.401   64.590
  498.250   19.350    0.274    0.391   63.330
  498.500   16.959    0.261    0.383   66.270
  498.750   14.346    0.257    0.382   69.389
  499.000   12.575    0.270    0.401   72.749
  499.250   11.293    0.256    0.419   76.901
  499.500   10.276    0.243    0.401   82.335
  499.750    9.281    0.237    0.381   86.122
  500.000    8.572    0.223    0.371   89.606
  500.250    7.976    0.203    0.383   92.481
  500.500    7.998    0.178    0.390   99.129
  500.750    8.374    0.152    0.391   89.351
  501.000    8.747    0.115    0.362   76.836
  501.250    9.454    0.167    0.334   72.535
  501.500    9.877    0.195    0.338   74.801
  501.750   10.071    0.229    0.354   72.933
  502.000   10.099    0.246    0.362   71.062
  502.250    9.938    0.220    0.346   77.164
  502.500    9.564    0.199    0.334   83.385
  502.750    8.851    0.179    0.347   91.979
  503.000    8.565    0.158    0.357   99.844
  503.250    8.366    0.171    0.354   89.337
  503.500    8.264    0.192    0.351   80.714
  503.750    8.165    0.206    0.349   74.649
  504.000    8.080    0.219    0.350   70.345
  504.250    8.088    0.235    0.345   70.422
  504.500    8.262    0.213    0.329   75.853
  504.750    8.600    0.188    0.316   82.077
  505.000    9.002    0.168    0.329   84.100
  505.250    9.475    0.188    0.352   70.977
  505.500   10.182    0.234    0.378   65.275
  505.750   10.919    0.258    0.381   62.189
  506.000   11.625    0.265    0.380   60.076
  506.250   11.943    0.270    0.380   57.782
  506.500   11.820    0.274    0.380   57.189
  506.750   11.205    0.265    0.378   58.970
  507.000   10.253    0.251    0.373   62.029
  507.250    9.452    0.241    0.369   66.854
  507.500    8.714    0.229    0.357   67.538
  507.750    8.034    0.203    0.342   70.961
  508.000    7.659    0.139    0.329   80.406
  508.250    7.412    0.105    0.329   95.998
  508.500    7.404    0.107    0.362  107.694
  508.750    7.551    0.125    0.406  112.639
  509.000    7.963    0.156    0.426  113.142
  509.250    8.494    0.187    0.396   96.673
  509.500    8.889    0.203    0.366   77.284
  509.750    9.428    0.225    0.342   62.821
  510.000    9.850    0.246    0.337   62.655
  510.250   10.044    0.227    0.343   68.453
  510.500    9.685    0.189    0.347   77.473
  510.750    9.166    0.166    0.355   87.284
  511.000    8.803    0.161    0.356   91.072
  511.250    8.253    0.161    0.361   91.271
  511.500    8.092    0.167    0.353   88.186
  511.750    7.846    0.163    0.328   84.064
  512.000    7.113    0.166    0.310   84.994
  512.250    6.509    0.189    0.320  102.896
  512.500    5.910    0.204    0.350  121.528
  512.750    5.562    0.217    0.388  108.526
  513.000    6.192    0.230    0.468   77.457
  513.250    7.625    0.247    0.435   67.923
  513.500    9.658    0.142    0.403   62.892
  513.750   12.119    0.005    0.323   60.047
  514.000   13.926   -0.002    0.309   59.212
  514.250   14.177    0.066    0.342   65.496
  514.500   13.439    0.159    0.374   71.716
  514.750   10.355    0.192    0.382   78.426
  515.000    9.128    0.190    0.366   83.004
  515.250    8.509    0.204    0.350   88.496
  515.500    8.023    0.200    0.386   96.300
  515.750    7.749    0.176    0.423   93.031
  516.000    7.458    0.183    0.412   80.335
  516.250    7.272    0.208    0.373   71.227
  516.500    7.238    0.228    0.350   77.630
  516.750    7.270    0.238    0.354  107.090
  517.000    7.360    0.229    0.429  118.361
  517.250    7.633    0.230    0.482  116.372
  517.500    7.901    0.239    0.486  107.933
  517.750    8.055    0.250    0.445  102.534
  518.000    8.292    0.250    0.432  108.209
  518.250    8.472    0.238    0.430  113.582
  518.500    8.720    0.238    0.433  116.030
  518.750    9.078    0.224    0.440  118.600
  519.000    9.362    0.210    0.464  120.382
  519.250    9.472    0.208    0.487  119.913
  519.500    9.696    0.217    0.490  120.050
  519.750    9.797    0.225    0.485  114.956
  520.000    9.808    0.224    0.480  106.821
  520.250    9.811    0.213    0.485  107.446
  520.500    9.748    0.205    0.507  110.019
  520.750    9.628    0.216    0.511  114.233
  521.000    9.513    0.224    0.520  117.172
  521.250    9.467    0.229    0.534  116.578
  521.500    9.458    0.218    0.535  113.128
  521.750    9.412    0.203    0.520  111.379
  522.000    9.299    0.200    0.488  114.742
  522.250    9.119    0.204    0.470  113.724
  522.500    8.907    0.212    0.459  107.050
  522.750    8.602    0.219    0.453   96.663
  523.000    7.784    0.227    0.459   99.783
  523.250    7.095    0.237    0.451   93.838
  523.500    6.348    0.260    0.443   87.954
  523.750    5.638    0.277    0.441   78.844
  524.000    5.178    0.283    0.439   71.257
  524.250    4.855    0.288    0.453   72.733
  524.500    4.620    0.296    0.444   78.712
  524.750    4.454    0.301    0.422   83.413
  525.000    4.237    0.304    0.431   59.374
  525.250    3.823    0.308    0.430   54.155
  525.500    3.766    0.311    0.407   50.943
  525.750    3.760    0.313    0.392   54.582
  526.000    3.803    0.308    0.400   58.580
  526.250    3.826    0.308    0.407   61.485
  526.500    3.791    0.314    0.412   61.144
  526.750    3.742    0.324    0.427   55.369
  527.000    3.653    0.332    0.432   47.040
  527.250    3.565    0.341    0.425   43.278
