~VERSION INFORMATION
 VERS.                 2.0:   CWLS LOG ASCII STANDARD -VERSION 2.0
 WRAP.                  NO:   ONE LINE PER DEPTH STEP
~WELL INFORMATION BLOCK
#MNEM.UNIT           DATA                    DESCRIPTION OF MNEMONIC
#---------    -------------------            -------------------------------
# Generated from Intellog Unique Number	CS_77_79/WELL/923
WELL.         ANDERSON EXPLORATION LTD.      : Well_name    - WELL
LOC .         00/09-11-077-11W4/0            : Location     - LOCATION
UWI .         00/09-11-077-11W4/0            : Uwi          - UNIQUE WELL ID
ENTR.         SP                             : Entered      - ENTERED BY
SRVC.         SCHLUMBERGER                   : Scn          - SERVICE COMPANY
STRT.M        270                            : top_depth    - START DEPTH
STOP.M        515                            : bot_depth    - STOP DEPTH
STEP.M        0.25                           : increment    - STEP LENGTH
 NULL. -999.2500:NULL Value
~CURVE INFORMATION BLOCK
#MNEM UNIT       ERCB CURVE CODE    CURVE DESCRIPTION
#-----------   ------------------   ----------------------------------
DEPT.M        00 001 00 00         : DEPTH        - DEPTH
ILD .OHMM     00 120 00 00         : RESD         - DEEP RESISTIVITY (DIL)
DPHI.V/V      00 890 00 00         : PHID         - DENSITY POROSITY (LIMESTONE)
NPHI.V/V      00 330 00 00         : PHIN         - NEUTRON POROSITY (LIMESTONE)
GR  .API      00 310 00 00         : GR           - GAMMA RAY
~PARAMETER INFORMATION
#MNEM.UNIT           DATA             DESCRIPTION OF MNEMONIC
#---------         -----------     ------------------------------
GL  .M        678.1                : gl           - GROUND LEVEL ELEVATION
EREF.M        681.6                : kb           - ELEVATION OF DEPTH REFERENCE
DATM.M        678.1                : datum        - DATUM ELEVATION
TDD .M        515                  : tdd          - TOTAL DEPTH DRILLER
RUN .         ONE                  : Run          - RUN NUMBER
ENG .         BILL                 : Engineer     - RECORDING ENGINEER
WIT .         JIM                  : Witness      - WITNESSED BY
MUD .         GEL                  : Mud_type     - MUD TYPE
MATR.         LIMESTONE            : Logunit      - NEUTRON MATRIX
TMAX.C        25                   : BHT          - MAXIMUM RECORDED TEMPERATURE
BHTD.M        515                  : BHTDEP       - MAXIMUM RECORDED TEMPERATURE
MATR.         1                    : LOGUNIT      - NEUTRON MATRIX
RMT .C        25                   : MDTP         - TEMPERATURE OF MUD
NEUT.         1                    : NEUTRON      - NEUTRON TYPE
RESI.         0                    : RESIST       - RESISTIVITY TYPE
RMC .OHMM     0.25                 : RMC          - RESISTIVITY OF MUD CAKE
RMF .OHMM     0.25                 : RMF          - RESISTIVITY OF MUD FILTRATE
SUFT.C        15                   : SUFT         - SURFACE TEMPERATURE
~A  DEPTH     RESD     PHID     PHIN       GR
  270.000    2.670    0.292    0.555   87.355
  270.250    2.773    0.274    0.582   87.366
  270.500    2.775    0.266    0.566   86.775
  270.750    2.883    0.268    0.560   92.207
  271.000    3.167    0.268    0.572   96.434
  271.250    3.228    0.263    0.587   97.654
  271.500    3.293    0.285    0.596   97.058
  271.750    3.294    0.298    0.605   92.850
  272.000    3.298    0.321    0.577   90.452
  272.250    3.492    0.333    0.541   91.666
  272.500    3.559    0.322    0.530   92.882
  272.750    3.629    0.282    0.549   94.698
  273.000    3.632    0.305    0.573   97.722
  273.250    3.636    0.341    0.555   98.935
  273.500    3.707    0.330    0.560   98.948
  273.750    3.853    0.288    0.539   97.151
  274.000    3.855    0.264    0.526   97.766
  274.250    3.932    0.256    0.533   98.374
  274.500    4.009    0.272    0.542  101.999
  274.750    4.013    0.252    0.522  106.227
  275.000    4.091    0.236    0.499  105.031
  275.250    4.172    0.264    0.499  103.840
  275.500    4.255    0.317    0.504  103.847
  275.750    4.257    0.338    0.499  107.473
  276.000    4.261    0.323    0.487  106.880
  276.250    4.346    0.274    0.480  105.086
  276.500    4.431    0.272    0.485  103.285
  276.750    4.354    0.244    0.499  103.898
  277.000    4.200    0.229    0.516  111.138
  277.250    4.128    0.237    0.541  111.750
  277.500    4.056    0.224    0.557  105.135
  277.750    4.135    0.219    0.522  102.736
  278.000    4.295    0.230    0.528  102.143
  278.250    4.379    0.232    0.541  100.345
  278.500    4.549    0.211    0.547   99.152
  278.750    4.638    0.208    0.518  102.174
  279.000    4.558    0.236    0.470  103.992
  279.250    4.398    0.238    0.470  102.799
  279.500    4.484    0.236    0.492   98.589
  279.750    4.571    0.254    0.500   88.963
  280.000    4.927    0.286    0.509   75.718
  280.250    5.410    0.393    0.523   64.883
  280.500    5.832    0.480    0.614   55.857
  280.750    5.838    0.563    0.667   48.638
  281.000    5.955    0.617    0.727   51.662
  281.250    6.184    0.656    0.651   60.105
  281.500    7.046    0.629    0.612   58.912
  281.750    8.647    0.537    0.589   51.090
  282.000   10.224    0.501    0.543   44.474
  282.250   12.549    0.460    0.481   39.666
  282.500   14.037    0.471    0.501   37.267
  282.750   16.296    0.418    0.522   37.877
  283.000   17.891    0.372    0.450   48.128
  283.250   17.584    0.325    0.380   53.559
  283.500   15.457    0.374    0.396   57.186
  283.750   13.345    0.409    0.415   54.787
  284.000   11.730    0.438    0.446   55.399
  284.250   10.314    0.481    0.506   66.856
  284.500    9.768    0.507    0.483   78.916
  284.750   10.335    0.526    0.449   85.552
  285.000   11.562    0.260    0.436   86.766
  285.250   12.466    0.255    0.418   89.791
  285.500   12.708    0.259    0.389   92.812
  285.750   12.719    0.360    0.375   95.232
  286.000   12.268    0.387    0.426   89.820
  286.250   12.058    0.418    0.550   63.925
  286.500   12.523    0.460    0.552   60.321
  286.750   13.498    0.364    0.473   59.129
  287.000   14.556    0.328    0.430   60.945
  287.250   15.117    0.332    0.437   66.375
  287.500   15.702    0.335    0.452   76.028
  287.750   15.715    0.337    0.460   80.856
  288.000   15.738    0.329    0.475   84.481
  288.250   15.462    0.316    0.480   87.502
  288.500   15.188    0.309    0.486   90.526
  288.750   14.658    0.303    0.462   90.538
  289.000   14.399    0.309    0.461   94.162
  289.250   14.144    0.313    0.464   98.993
  289.500   13.901    0.316    0.454  102.014
  289.750   13.662    0.300    0.445  104.432
  290.000   13.671    0.293    0.437  104.446
  290.250   13.942    0.283    0.437  103.852
  290.500   14.212    0.288    0.452  102.655
  290.750   14.766    0.292    0.430  100.859
  291.000   15.336    0.281    0.405  103.279
  291.250   15.072    0.269    0.401  102.688
  291.500   14.272    0.252    0.399  104.506
  291.750   13.019    0.238    0.427  108.733
  292.000   11.238    0.276    0.450  109.947
  292.250    9.880    0.306    0.482  115.981
  292.500    8.370    0.290    0.491  122.015
  292.750    7.094    0.287    0.499  120.219
  293.000    6.717    0.293    0.509  111.796
  293.250    6.244    0.250    0.515  107.589
  293.500    5.912    0.189    0.521  119.045
  293.750    5.598    0.180    0.514  126.285
  294.000    5.398    0.181    0.510  121.476
  294.250    4.927    0.183    0.533  116.668
  294.500    4.664    0.216    0.568  115.473
  294.750    4.336    0.282    0.598   94.398
  295.000    4.339    0.466    0.510   89.587
  295.250    4.944    0.464    0.442   76.945
  295.500    6.181    0.414    0.305   54.665
  295.750    8.636    0.391    0.317   46.843
  296.000   10.795    0.387    0.332   47.460
  296.250   13.247    0.384    0.350   54.096
  296.500   15.959    0.379    0.371   59.528
  296.750   17.854    0.376    0.395   60.744
  297.000   17.546    0.370    0.405   61.355
  297.250   16.617    0.365    0.407   67.993
  297.500   16.325    0.355    0.399   75.232
  297.750   16.647    0.338    0.424   76.445
  298.000   16.666    0.306    0.442   80.071
  298.250   16.685    0.304    0.448   80.084
  298.500   16.703    0.299    0.452   78.286
  298.750   16.714    0.299    0.454   75.281
  299.000   16.417    0.313    0.453   69.872
  299.250   16.443    0.325    0.450   67.472
  299.500   16.456    0.334    0.442   66.880
  299.750   16.169    0.339    0.430   68.096
  300.000   16.182    0.339    0.437   72.321
  300.250   15.896    0.328    0.450   77.754
  300.500   15.618    0.326    0.455   78.968
  300.750   15.634    0.329    0.457   79.581
  301.000   15.081    0.332    0.453   83.206
  301.250   14.282    0.319    0.466   95.868
  301.500   13.031    0.297    0.439  109.736
  301.750   11.455    0.275    0.449  115.769
  302.000    9.706    0.253    0.462  113.976
  302.250    8.224    0.134    0.501  112.175
  302.500    7.098    0.233    0.509  115.198
  302.750    6.359    0.283    0.481  123.040
  303.000    6.365    0.334    0.490  121.845
  303.250    6.860    0.349    0.434  116.433
  303.500    7.533    0.352    0.449   98.369
  303.750    8.587    0.400    0.466   94.768
  304.000    9.085    0.438    0.542   94.179
  304.250    9.610    0.455    0.571   94.786
  304.500   10.359    0.327    0.538   88.773
  304.750   11.380    0.382    0.469   87.581
  305.000   11.600    0.406    0.459   88.191
  305.250   11.612    0.276    0.446   94.224
  305.500   11.201    0.276    0.456  109.300
  305.750   10.606    0.272    0.482  112.922
  306.000   10.045    0.266    0.471  112.934
  306.250    9.867    0.284    0.441  108.123
  306.500    9.697    0.399    0.424   87.650
  306.750    9.707    0.468    0.476   77.419
  307.000    9.716    0.575    0.515   68.392
  307.250    9.199    0.652    0.638   59.967
  307.500    8.238    0.610    0.601   61.787
  307.750    7.657    0.608    0.607   66.616
  308.000    7.808    0.620    0.598   69.034
  308.250    8.417    0.599    0.579   72.063
  308.500    9.073    0.364    0.384   73.273
  308.750   10.152    0.254    0.418   79.309
  309.000   10.941    0.303    0.428   82.329
  309.250   11.797    0.315    0.424   84.148
  309.500   12.027    0.300    0.425   84.157
  309.750   12.261    0.284    0.443   78.145
  310.000   12.507    0.289    0.449   75.744
  310.250   12.516    0.288    0.447   74.550
  310.500   13.248    0.284    0.441   75.163
  310.750   13.502    0.278    0.438   77.583
  311.000   14.029    0.277    0.458   75.182
  311.250   14.309    0.303    0.467   70.976
  311.500   14.587    0.321    0.436   69.181
  311.750   14.870    0.329    0.423   70.397
  312.000   15.457    0.329    0.437   72.815
  312.250   15.758    0.324    0.459   75.233
  312.500   16.062    0.330    0.458   75.243
  312.750   16.378    0.328    0.443   80.680
  313.000   16.396    0.319    0.468   83.699
  313.250   15.815    0.318    0.476   87.326
