~VERSION INFORMATION
 VERS.                 2.0:   CWLS LOG ASCII STANDARD -VERSION 2.0
 WRAP.                  NO:   ONE LINE PER DEPTH STEP
~WELL INFORMATION BLOCK
#MNEM.UNIT           DATA                    DESCRIPTION OF MNEMONIC
#---------    -------------------            -------------------------------
# Generated from Intellog Unique Number	CS_71_72/WELL/813
WELL.         BOW VALLEY EXPLORATION         : Well_name    - WELL
LOC .         00/07-24-071-17W4/0            : Location     - LOCATION
UWI .         00/07-24-071-17W4/0            : Uwi          - UNIQUE WELL ID
ENTR.         SP                             : Entered      - ENTERED BY
SRVC.         SCHLUMBERGER                   : Scn          - SERVICE COMPANY
STRT.M        274.320                        : top_depth    - START DEPTH
STOP.M        475.320                        : bot_depth    - STOP DEPTH
STEP.M        0.25                           : increment    - STEP LENGTH
 NULL. -999.2500:NULL Value
~CURVE INFORMATION BLOCK
#MNEM UNIT       ERCB CURVE CODE    CURVE DESCRIPTION
#-----------   ------------------   ----------------------------------
DEPT.M        00 001 00 00         : DEPTH        - DEPTH
GR  .API      00 310 00 00         : GR           - GAMMA RAY
DPHI.V/V      00 890 00 00         : PHID         - DENSITY POROSITY (SANDSTONE)
NPHI.V/V      00 330 00 00         : PHIN         - NEUTRON POROSITY (SANDSTONE)
ILD .OHMM     00 120 00 00         : RESD         - DEEP RESISTIVITY (DIL)
~PARAMETER INFORMATION
#MNEM.UNIT           DATA             DESCRIPTION OF MNEMONIC
#---------         -----------     ------------------------------
GL  .M        565.404              : gl           - GROUND LEVEL ELEVATION
EREF.M        568.452              : kb           - ELEVATION OF DEPTH REFERENCE
DATM.M        565.404              : datum        - DATUM ELEVATION
TDD .M        482.803              : tdd          - TOTAL DEPTH DRILLER
RUN .         ONE                  : Run          - RUN NUMBER
ENG .         BILL                 : Engineer     - RECORDING ENGINEER
WIT .         JIM                  : Witness      - WITNESSED BY
MUD .         GEL                  : Mud_type     - MUD TYPE
MATR.         SANDSTONE            : Logunit      - NEUTRON MATRIX
TMAX.C        18.3333              : BHT          - MAXIMUM RECORDED TEMPERATURE
BHTD.M        476.707              : BHTDEP       - MAXIMUM RECORDED TEMPERATURE
MATR.         1                    : LOGUNIT      - NEUTRON MATRIX
RMT .C        25                   : MDTP         - TEMPERATURE OF MUD
NEUT.         1                    : NEUTRON      - NEUTRON TYPE
RESI.         0                    : RESIST       - RESISTIVITY TYPE
RMC .OHMM     0.25                 : RMC          - RESISTIVITY OF MUD CAKE
RMF .OHMM     0.25                 : RMF          - RESISTIVITY OF MUD FILTRATE
SUFT.C        15                   : SUFT         - SURFACE TEMPERATURE
~A  DEPTH       GR     PHID     PHIN     RESD
  274.320  105.988    0.236    0.551    3.404
  274.570  108.374    0.230    0.539    3.325
  274.820  106.958    0.239    0.525    3.230
  275.070  103.800    0.260    0.533    3.233
  275.320   99.728    0.252    0.535    3.291
  275.570   97.684    0.234    0.523    3.385
  275.820   98.026    0.246    0.522    3.520
  276.070   96.679    0.259    0.527    3.528
  276.320   93.675    0.242    0.528    3.511
  276.570   91.184    0.257    0.508    3.424
  276.820   92.800    0.229    0.495    3.306
  277.070   96.442    0.205    0.486    3.242
  277.320   96.897    0.195    0.496    3.239
  277.570   93.418    0.194    0.524    3.353
  277.820   89.467    0.181    0.548    3.504
  278.070   85.398    0.134    0.447    4.027
  278.320   84.669    0.081    0.419    4.739
  278.570   90.368    0.205    0.398    5.340
  278.820   88.096    0.227    0.426    5.971
  279.070   79.255    0.250    0.457    6.400
  279.320   70.571    0.291    0.498    6.737
  279.570   62.286    0.341    0.573    6.907
  279.820   60.578    0.389    0.603    6.889
  280.070   69.319    0.465    0.621    6.478
  280.320   74.850    0.336    0.600    5.812
  280.570   78.057    0.319    0.425    5.220
  280.820   79.950    0.336    0.404    4.754
  281.070   82.150    0.327    0.417    4.391
  281.320   83.326    0.309    0.412    4.204
  281.570   82.358    0.311    0.411    4.276
  281.820   81.605    0.307    0.414    4.409
  282.070   82.215    0.309    0.422    4.575
  282.320   79.656    0.310    0.429    4.661
  282.570   78.852    0.306    0.425    4.755
  282.820   81.494    0.301    0.421    4.906
  283.070   83.993    0.301    0.428    5.042
  283.320   86.166    0.294    0.424    5.227
  283.570   88.430    0.288    0.425    5.378
  283.820   90.948    0.294    0.439    5.536
  284.070   93.020    0.293    0.432    5.646
  284.320   94.782    0.286    0.420    5.688
  284.570   95.204    0.276    0.413    5.645
  284.820   93.918    0.251    0.409    5.550
  285.070   91.543    0.263    0.419    5.450
  285.320   91.268    0.283    0.426    5.493
  285.570   92.105    0.287    0.401    5.757
  285.820   90.488    0.272    0.380    6.158
  286.070   87.719    0.210    0.338    6.405
  286.320   82.718    0.160    0.343    6.846
  286.570   77.172    0.154    0.337    7.172
  286.820   72.012    0.160    0.323    7.326
  287.070   66.083    0.152    0.335    6.695
  287.320   58.174    0.150    0.354    5.802
  287.570   62.215    0.185    0.372    5.179
  287.820   69.127    0.270    0.376    4.796
  288.070   71.281    0.286    0.396    4.427
  288.320   71.463    0.269    0.427    4.116
  288.570   74.237    0.258    0.434    4.062
  288.820   80.481    0.259    0.428    4.218
  289.070   91.975    0.259    0.418    4.413
  289.320  101.054    0.252    0.418    4.592
  289.570  108.431    0.237    0.458    4.756
  289.820  112.526    0.211    0.457    4.769
  290.070  115.336    0.209    0.471    4.691
  290.320  112.551    0.198    0.494    4.504
  290.570  110.808    0.195    0.513    4.335
  290.820  109.742    0.183    0.505    4.172
  291.070  114.606    0.173    0.514    4.069
  291.320  117.733    0.167    0.526    4.120
  291.570  117.520    0.196    0.508    4.210
  291.820  114.629    0.194    0.494    4.216
  292.070  111.247    0.175    0.485    4.037
  292.320  116.467    0.142    0.520    3.809
  292.570  121.305    0.178    0.545    3.608
  292.820  123.913    0.246    0.563    3.397
  293.070  123.881    0.283    0.576    3.319
  293.320  123.473    0.256    0.569    3.309
  293.570  121.871    0.244    0.500    3.508
  293.820  115.363    0.273    0.477    3.841
  294.070  106.118    0.262    0.457    4.187
  294.320  101.489    0.264    0.448    4.688
  294.570   99.369    0.256    0.451    5.247
  294.820   93.733    0.247    0.458    5.755
  295.070   86.660    0.249    0.459    6.014
  295.320   78.338    0.271    0.445    6.094
  295.570   70.692    0.288    0.421    6.002
  295.820   71.411    0.300    0.418    5.898
  296.070   78.988    0.288    0.431    5.955
  296.320   85.822    0.266    0.451    6.047
  296.570   94.077    0.248    0.468    5.970
  296.820   99.393    0.222    0.472    5.712
  297.070  102.274    0.225    0.478    5.345
  297.320  105.487    0.198    0.490    4.999
  297.570  106.251    0.220    0.503    4.841
  297.820   97.792    0.249    0.514    4.804
  298.070   76.581    0.287    0.496    4.913
  298.320   78.734    0.282    0.452    5.229
  298.570   82.120    0.292    0.421    5.485
  298.820   83.893    0.270    0.421    5.670
  299.070   85.128    0.284    0.439    5.807
  299.320   84.072    0.279    0.451    5.847
  299.570   80.643    0.277    0.444    5.767
  299.820   77.583    0.293    0.446    5.655
  300.070   73.566    0.277    0.457    5.567
  300.320   74.162    0.255    0.465    5.538
  300.570   77.274    0.251    0.447    5.574
  300.820   82.130    0.274    0.429    5.726
  301.070   86.232    0.290    0.419    5.878
  301.320   92.405    0.299    0.423    6.100
  301.570   96.471    0.281    0.428    6.315
  301.820   99.104    0.269    0.427    6.543
  302.070   99.630    0.239    0.427    6.693
  302.320  101.634    0.253    0.435    6.730
  302.570  101.415    0.246    0.443    6.692
  302.820  101.550    0.233    0.454    6.576
  303.070  103.232    0.239    0.458    6.385
  303.320  108.791    0.252    0.442    6.375
  303.570  114.338    0.258    0.454    6.381
  303.820  118.756    0.257    0.457    6.375
  304.070  120.966    0.251    0.442    6.316
  304.320  120.883    0.255    0.447    6.273
  304.570  116.779    0.261    0.457    6.274
  304.820  110.686    0.264    0.450    6.414
  305.070  106.135    0.271    0.428    6.619
  305.320  105.717    0.260    0.412    6.822
  305.570  105.976    0.241    0.407    6.921
  305.820  107.573    0.218    0.402    7.040
  306.070  110.469    0.209    0.397    6.714
  306.320  112.752    0.213    0.402    6.154
  306.570  113.935    0.214    0.413    5.636
  306.820  114.382    0.192    0.432    5.136
  307.070  114.484    0.183    0.453    4.707
  307.320  112.861    0.188    0.463    4.451
  307.570  107.942    0.211    0.455    4.380
  307.820   99.298    0.230    0.449    4.475
  308.070   93.785    0.240    0.445    4.630
  308.320   90.352    0.275    0.451    4.907
  308.570   88.406    0.278    0.458    5.166
  308.820   86.269    0.283    0.463    5.263
  309.070   91.417    0.277    0.460    5.254
  309.320   93.074    0.264    0.458    5.309
  309.570   93.371    0.261    0.463    5.534
  309.820   92.210    0.275    0.460    5.723
  310.070   89.063    0.285    0.443    5.777
  310.320   85.538    0.296    0.440    5.817
  310.570   86.298    0.309    0.441    5.814
  310.820   89.714    0.292    0.437    5.820
  311.070   91.235    0.274    0.448    5.846
  311.320   88.425    0.266    0.461    5.875
  311.570   83.507    0.272    0.469    5.939
  311.820   78.521    0.284    0.463    5.982
  312.070   74.368    0.298    0.454    6.152
  312.320   72.596    0.289    0.461    6.321
  312.570   73.443    0.284    0.472    6.434
  312.820   74.718    0.279    0.475    6.942
  313.070   73.616    0.260    0.433    7.818
  313.320   66.740    0.246    0.289    8.716
  313.570   61.772    0.156    0.261    9.397
  313.820   65.164    0.126    0.310    9.777
  314.070   72.798    0.224    0.397    9.403
  314.320   80.893    0.287    0.430    8.501
  314.570   86.330    0.280    0.450    7.452
  314.820   90.118    0.273    0.470    6.795
  315.070   91.419    0.268    0.484    6.433
  315.320   91.582    0.265    0.490    6.306
  315.570   91.017    0.260    0.481    6.213
  315.820   91.424    0.243    0.469    6.045
  316.070   96.960    0.230    0.451    5.779
  316.320  104.940    0.220    0.456    5.567
  316.570  103.035    0.234    0.470    5.453
  316.820   98.067    0.247    0.472    5.504
  317.070   94.674    0.254    0.483    5.662
  317.320   93.724    0.244    0.495    5.891
  317.570   94.305    0.234    0.470    6.049
