~VERSION INFORMATION
 VERS.                 2.0:   CWLS LOG ASCII STANDARD -VERSION 2.0
 WRAP.                  NO:   ONE LINE PER DEPTH STEP
~WELL INFORMATION BLOCK
#MNEM.UNIT           DATA                    DESCRIPTION OF MNEMONIC
#---------    -------------------            -------------------------------
# Generated from Intellog Unique Number	CW_79_81/WELL/198
WELL.         SCURRY ATKINSON MISTAHAE 07-14 : Well_name    - WELL
LOC .         00/07-14-079-02W5/0            : Location     - LOCATION
UWI .         00/07-14-079-02W5/0            : Uwi          - UNIQUE WELL ID
ENTR.         JJ                             : Entered      - ENTERED BY
SRVC.         WESTERN ATLAS                  : Scn          - SERVICE COMPANY
DATE.         30 JAN 73                      : Date         - LOG DATE
STRT.M        390.144                        : top_depth    - START DEPTH
STOP.M        518.144                        : bot_depth    - STOP DEPTH
STEP.M        0.25                           : increment    - STEP LENGTH
 NULL. -999.2500:NULL Value
~CURVE INFORMATION BLOCK
#MNEM UNIT       ERCB CURVE CODE    CURVE DESCRIPTION
#-----------   ------------------   ----------------------------------
DEPT.M        00 001 00 00         : DEPTH        - DEPTH
DELT.US/F     00 520 00 00         : DELT         - SONIC TRAVEL TIME
GR  .API      00 310 00 00         : GR           - GAMMA RAY
ILD .OHMM     00 120 00 00         : RESD         - DEEP RESISTIVITY (DIL)
~PARAMETER INFORMATION
#MNEM.UNIT           DATA             DESCRIPTION OF MNEMONIC
#---------         -----------     ------------------------------
GL  .M        607.771              : gl           - GROUND LEVEL ELEVATION
EREF.M        611.124              : kb           - ELEVATION OF DEPTH REFERENCE
DATM.M        611.124              : datum        - DATUM ELEVATION
TDD .M        519.684              : tdd          - TOTAL DEPTH DRILLER
RUN .         ONE                  : Run          - RUN NUMBER
ENG .         SENKIW               : Engineer     - RECORDING ENGINEER
WIT .         KIRKPATRICK          : Witness      - WITNESSED BY
BASE.         RED DEER             : Branch       - HOME BASE OF LOGGING UNIT
MUD .         GEL                  : Mud_type     - MUD TYPE
MATR.         SANDSTONE            : Logunit      - NEUTRON MATRIX
TMAX.C        24.4444              : BHT          - MAXIMUM RECORDED TEMPERATURE
BHTD.M        520.294              : BHTDEP       - MAXIMUM RECORDED TEMPERATURE
RMT .C        18.3333              : MDTP         - TEMPERATURE OF MUD
MUDD.KG/M     1116                 : MWT          - MUD DENSITY
NEUT.         1                    : NEUTRON      - NEUTRON TYPE
RESI.         0                    : RESIST       - RESISTIVITY TYPE
RM  .OHMM     4.8                  : RM           - RESISTIVITY OF MUD
RMC .OHMM     4.8                  : RMC          - RESISTIVITY OF MUD CAKE
RMF .OHMM     4.8                  : RMF          - RESISTIVITY OF MUD FILTRATE
SUFT.C        5                    : SUFT         - SURFACE TEMPERATURE
~A  DEPTH     DELT       GR     RESD
# ...
  444.394  326.949   58.809   28.975
  444.644  288.875   56.588   19.430
  444.894  247.345   54.062   26.987
  445.144  218.990   50.070   28.508
  445.394  207.530   47.237   24.575
  445.644  214.266   46.363   20.423
  445.894  256.292   42.859   18.093
  446.144  298.447   44.736   20.184
  446.394  361.802   48.325   22.183
  446.644  364.888   50.081   22.156
  446.894  353.819   51.282   21.742
  447.144  333.486   52.185   20.572
  447.394  319.742   53.569   16.236
  447.644  387.272   55.022   14.422
  447.894  371.832   58.245   12.903
  448.144  362.784   67.459   13.024
  448.394  376.894   67.014   13.623
  448.644  380.369   66.690   12.876
  448.894  372.495   69.911   11.745
  449.144  375.514   75.703   11.128
  449.394  383.168   75.073   10.678
  449.644  388.076   72.426   10.632
  449.894  384.247   67.454   11.066
  450.144  378.202   65.173   11.480
  450.394  372.609   69.374   11.931
  450.644  366.302   69.967   12.770
  450.894  360.580   70.255   13.092
  451.144  368.297   70.113   12.495
  451.394  359.054   67.465   11.842
  451.644  366.639   67.448   11.501
  451.894  368.745   66.082   11.216
  452.144  366.155   73.769   11.023
  452.394  365.459   74.485   10.831
  452.644  368.868   72.083   10.748
  452.894  377.237   76.895   10.591
  453.144  370.864   75.899   10.269
  453.394  376.102   74.596   10.113
  453.644  375.861   75.981   10.197
  453.894  375.097   76.392   10.317
  454.144  381.768   75.459   10.768
  454.394  380.157   75.071   11.497
  454.644  376.589   77.134   12.225
  454.894  368.454   77.724   12.455
  455.144  361.823   72.326   12.005
  455.394  361.382   69.739   11.590
  455.644  373.274   64.952   11.287
  455.894  375.579   67.440   11.132
  456.144  375.922   72.005   11.086
  456.394  375.808   73.763   11.114
  456.644  371.588   72.398   11.307
  456.894  365.542   70.847   11.502
  457.144  368.040   69.792   11.494
  457.394  367.014   68.980   11.484
  457.644  366.903   68.473   11.531
  457.894  364.573   68.454   11.816
  458.144  356.635   68.864   12.360
  458.394  360.568   70.008   13.254
  458.644  367.500   71.763   13.926
  458.894  360.475   72.172   14.506
  459.144  338.514   70.259   13.982
  459.394  337.032   67.305   12.684
  459.644  359.880   65.696   11.387
  459.894  370.531   69.773   10.383
  460.144  380.140   75.871    9.858
  460.394  376.897   82.213    9.630
  460.644  378.286   86.779    9.768
  460.894  370.937   87.008    9.998
  461.144  362.735   80.629   10.210
  461.394  355.318   76.331   10.514
  461.644  349.924   77.350   10.470
  461.894  348.116   77.944   10.221
  462.144  354.399   82.145    9.624
  462.394  363.874   78.518    9.246
  462.644  376.351   79.600    8.777
  462.894  391.243   84.474    8.712
  463.144  354.082   87.453    8.979
  463.394  348.101   86.883    9.670
  463.644  362.861   83.931   10.344
  463.894  356.357   77.981   10.740
  464.144  353.835   73.681   11.339
  464.394  358.093   70.544   13.209
  464.644  338.543   70.341   15.594
  464.894  307.317   72.587   19.821
  465.144  221.172   63.515   34.288
  465.394  208.145   56.712   42.088
  465.644  199.491   44.706   48.047
  465.894  199.120   41.445   50.046
  466.144  203.833   39.837   51.031
  466.394  214.224   38.962   51.170
  466.644  219.722   39.862   51.088
  466.894  297.751   45.163   50.858
  467.144  330.776   50.527   40.259
  467.394  325.773   58.152   28.187
  467.644  295.657   64.983   24.495
  467.894  314.004   61.419   24.414
  468.144  339.788   57.303   24.790
  468.394  332.045   56.001   25.150
  468.644  327.890   56.163   23.355
  468.894  331.307   57.001   20.418
  469.144  329.951   58.696   18.383
  469.394  325.665   62.470   16.293
  469.644  340.034   66.059   14.259
  469.894  351.273   67.690   12.961
  470.144  355.466   70.855   11.682
  470.394  364.160   67.288   11.028
  470.644  358.961   67.332   10.541
  470.894  338.042   70.616   10.347
  471.144  333.431   73.166   10.228
  471.394  363.519   69.172   10.275
  471.644  361.189   68.909   10.265
  471.894  357.557   70.053   10.000
  472.144  365.468   70.643    9.622
  472.394  364.901   71.665    9.393
  472.644  367.071   73.911    9.275
  472.894  375.831   73.344    9.247
  473.144  365.677   74.727    9.329
  473.394  354.997   74.958    9.744
  473.644  359.843   74.327   10.527
  473.894  363.319   73.514   11.330
  474.144  354.142   70.621   11.431
  474.394  344.898   72.925   11.053
  474.644  362.529   71.378   10.897
  474.894  367.377   69.037   10.778
  475.144  364.264   71.158   10.734
  475.394  366.827   71.015   10.834
  475.644  377.476   72.468   11.027
  475.894  361.123   71.165   11.168
  476.144  366.426   70.960   11.323
  476.394  371.012   70.761   11.353
  476.644  372.792   67.256   11.178
  476.894  364.070   68.702   11.077
  477.144  363.046   72.294   11.454
  477.394  353.019   69.831   12.661
  477.644  349.843   71.525   14.384
  477.894  348.624   69.363   15.958
  478.144  342.837   64.210   17.626
  478.394  336.202   64.865   19.201
  478.644  332.178   65.948   20.776
  478.894  290.973   63.788   23.751
  479.144  272.925   65.300   27.535
  479.394  243.007   61.856   36.128
  479.644  243.482   53.949   39.305
  479.894  239.911   48.425   48.468
  480.144  223.624   45.165   51.315
  480.394  211.055   43.007   52.172
  480.644  209.639   43.294   51.868
  480.894  225.769   43.706   51.343
  481.144  234.205   44.543   50.360
  481.394  236.831   52.230   48.949
  481.644  246.046   54.596   32.200
  481.894  267.851   53.905   27.090
  482.144  327.357   58.351   22.477
  482.394  339.250   65.059   17.532
  482.644  344.553   64.858   14.834
  482.894  346.202   65.266   13.113
  483.144  348.111   69.225   12.276
  483.394  352.240   71.896   11.900
  483.644  350.303   73.588   11.760
  483.894  344.583   73.692   11.661
  484.144  341.077   68.781   11.671
  484.394  349.968   62.956   11.680
  484.644  345.618   69.601   11.617
  484.894  340.483   72.031   11.516
  485.144  339.720   68.710   11.452
  485.394  349.654   68.019   11.387
  485.644  348.956   71.487   11.360
  485.894  346.954   71.101   11.222
  486.144  349.384   67.169   10.993
  486.394  350.970   70.453   10.855
  486.644  351.901   70.006   10.624
  486.894  360.204   70.168   10.341
  487.144  349.460   73.209   10.073
  487.394  341.459   71.659    9.696
  487.644  358.501   73.419    9.392
  487.894  375.872   74.987    9.089
  488.144  378.237   73.746    8.896
  488.394  385.040   78.067    9.199
  488.644  363.013   85.635    9.707
  488.894  330.940   91.245   10.102
  489.144  323.067   87.005   10.610
  489.394  321.262   86.803   11.228
  489.644  316.973   81.772   11.679
  489.894  302.968   75.819   12.112
  490.144  285.572   75.863   12.361
  490.394  293.483   71.504   12.336
  490.644  309.419   63.352   12.196
  490.894  318.897   63.822   11.985
  491.144  323.937   67.657   11.775
  491.394  325.197   72.592   11.912
  491.644  321.759   76.425   12.310
  491.894  317.863   75.734   12.484
  492.144  325.711   78.347   12.107
  492.394  331.077   81.263   10.791
  492.644  339.185   84.545    9.898
  492.894  367.251   88.137    9.447
  493.144  381.817   94.722    9.439
  493.394  373.159   91.277    9.650
  493.644  339.456   92.607    9.975
  493.894  325.973   86.962   10.278
  494.144  334.864   75.569   10.637
  494.394  344.668   76.528   10.960
  494.644  345.078   78.710   10.749
  494.894  352.860   77.838   10.427
  495.144  351.116   79.469   10.344
  495.394  350.811   82.080   10.117
  495.644  340.654   77.598    9.995
  495.894  343.021   70.793   10.116
  496.144  375.718   71.874   10.456
  496.394  347.754   77.055   11.111
  496.644  333.163   79.787   13.238
  496.894  338.271   69.251   24.427
  497.144  345.010   41.285   30.330
  497.394  344.572   32.889   42.109
  497.644  344.330   26.878   45.801
  497.894  345.065   26.369   46.788
  498.144  349.129   28.125   47.073
  498.394  348.236   29.756   47.599
