~VERSION INFORMATION
 VERS.                 2.0:   CWLS LOG ASCII STANDARD -VERSION 2.0
 WRAP.                  NO:   ONE LINE PER DEPTH STEP
~WELL INFORMATION BLOCK
#MNEM.UNIT           DATA                    DESCRIPTION OF MNEMONIC
#---------    -------------------            -------------------------------
# Generated from Intellog Unique Number	CN_91_93/WELL/4547
WELL.         PARA ET AL LIEGE               : Well_name    - WELL
LOC .         00/08-27-093-19W4/0            : Location     - LOCATION
UWI .         00/08-27-093-19W4/0            : Uwi          - UNIQUE WELL ID
ENTR.         TIM                            : Entered      - ENTERED BY
SRVC.         SCHLUMBERGER                   : Scn          - SERVICE COMPANY
DATE.         01/30/92                       : Date         - LOG DATE
STRT.M        110                            : top_depth    - START DEPTH
STOP.M        247                            : bot_depth    - STOP DEPTH
STEP.M        0.25                           : increment    - STEP LENGTH
 NULL. -999.2500:NULL Value
~CURVE INFORMATION BLOCK
#MNEM UNIT       ERCB CURVE CODE    CURVE DESCRIPTION
#-----------   ------------------   ----------------------------------
DEPT.M        00 001 00 00         : DEPTH        - DEPTH
GR  .API      00 310 00 00         : GR           - GAMMA RAY
NPHI.V/V      00 330 00 00         : PHIN         - NEUTRON POROSITY (SANDSTONE)
DPHI.V/V      00 890 00 00         : PHID         - DENSITY POROSITY (SANDSTONE)
ILD .OHMM     00 120 00 00         : RESD         - DEEP RESISTIVITY (DIL)
~PARAMETER INFORMATION
#MNEM.UNIT           DATA             DESCRIPTION OF MNEMONIC
#---------         -----------     ------------------------------
GL  .M        523.8                : gl           - GROUND LEVEL ELEVATION
EREF.M        527.8                : kb           - ELEVATION OF DEPTH REFERENCE
DATM.M        527.8                : datum        - DATUM ELEVATION
TDD .M        244                  : tdd          - TOTAL DEPTH DRILLER
RUN .         ONE                  : Run          - RUN NUMBER
ENG .         JO                   : Engineer     - RECORDING ENGINEER
WIT .         TIM                  : Witness      - WITNESSED BY
MUD .         GEL                  : Mud_type     - MUD TYPE
MATR.         SANDSTONE            : Logunit      - NEUTRON MATRIX
TMAX.C        25                   : BHT          - MAXIMUM RECORDED TEMPERATURE
BHTD.M        247                  : BHTDEP       - MAXIMUM RECORDED TEMPERATURE
RMT .C        10                   : MDTP         - TEMPERATURE OF MUD
MUDD.KG/M     1090                 : MWT          - MUD DENSITY
NEUT.         1                    : NEUTRON      - NEUTRON TYPE
RESI.         0                    : RESIST       - RESISTIVITY TYPE
RM  .OHMM     4.22                 : RM           - RESISTIVITY OF MUD
RMC .OHMM     6                    : RMC          - RESISTIVITY OF MUD CAKE
RMF .OHMM     6                    : RMF          - RESISTIVITY OF MUD FILTRATE
SUFT.C        4                    : SUFT         - SURFACE TEMPERATURE
~A  DEPTH       GR     PHIN     PHID     RESD
# ...
  197.000  112.248    0.380    0.188   11.573
  197.250  112.900    0.379    0.187   11.379
  197.500  113.537    0.378    0.186   11.185
  197.750  113.558    0.375    0.184   11.198
  198.000  114.202    0.371    0.182   10.994
  198.250  114.846    0.370    0.177   11.010
  198.500  115.490    0.369    0.172   11.240
  198.750  114.902    0.369    0.170   11.479
  199.000  112.467    0.370    0.165   11.944
  199.250  111.879    0.370    0.160   13.163
  199.500  111.914    0.368    0.154   15.071
  199.750  110.718    0.361    0.149   17.256
  200.000  107.659    0.296    0.115   18.657
  200.250  104.600    0.261    0.032   20.170
  200.500   98.469    0.239    0.011   21.815
  200.750   92.953    0.245    0.037   20.622
  201.000   90.518    0.267    0.103   18.421
  201.250   96.706    0.304    0.165   16.761
  201.500  105.364    0.347    0.184   15.255
  201.750  107.240    0.362    0.202   13.369
  202.000  107.884    0.363    0.195   13.906
  202.250  108.529    0.342    0.184   16.236
  202.500  106.709    0.293    0.152   18.590
  202.750   94.418    0.261    0.042   21.696
  203.000   82.743    0.233   -0.022   24.841
  203.250   80.930    0.216   -0.029   27.915
  203.500   82.190    0.213   -0.028   29.036
  203.750   80.986    0.213   -0.027   27.459
  204.000   78.551    0.213   -0.021   24.992
  204.250   76.108    0.219    0.024   21.894
  204.500   75.527    0.285    0.073   18.460
  204.750   80.476    0.310    0.144   15.865
  205.000   91.592    0.332    0.175   14.719
  205.250   97.163    0.349    0.201   14.741
  205.500  101.510    0.360    0.216   15.339
  205.750  100.930    0.360    0.219   15.071
  206.000   98.494    0.338    0.211   14.252
  206.250   96.674    0.304    0.196   13.223
  206.500   98.543    0.303    0.157   11.807
  206.750  106.579    0.310    0.088   10.747
  207.000  108.455    0.334    0.103    9.781
  207.250  109.099    0.387    0.134    9.429
  207.500  109.127    0.407    0.163    9.446
  207.750  111.011    0.422    0.179    9.464
  208.000  112.887    0.429    0.181    9.472
  208.250  112.922    0.429    0.178    9.486
  208.500  112.950    0.426    0.174    9.687
  208.750  111.746    0.424    0.143    9.889
  209.000  109.311    0.432    0.127   10.290
  209.250  106.875    0.436    0.126   10.712
  209.500  105.664    0.428    0.118   10.935
  209.750  105.083    0.418    0.105   10.952
  210.000  106.953    0.418    0.104   10.357
  210.250  113.756    0.419    0.125    9.609
  210.500  117.480    0.426    0.161    8.915
  210.750  119.356    0.434    0.164    8.759
  211.000  120.000    0.440    0.162    8.776
  211.250  119.413    0.440    0.165    8.952
  211.500  116.991    0.433    0.173    8.965
  211.750  114.548    0.418    0.163    9.152
  212.000  109.040    0.401    0.160    9.343
  212.250  110.916    0.401    0.163    9.730
  212.500  114.633    0.404    0.177    9.737
  212.750  120.821    0.408    0.185   10.136
  213.000  125.777    0.413    0.185   10.551
  213.250  125.189    0.418    0.185   10.983
  213.500  121.521    0.420    0.173   10.996
  213.750  116.006    0.426    0.158   11.012
  214.000  105.563    0.431    0.161   10.615
  214.250   95.120    0.431    0.166    9.848
  214.500  108.083    0.411    0.161    9.137
  214.750  117.350    0.404    0.167    8.804
  215.000  130.937    0.412    0.172    8.326
  215.250  134.668    0.426    0.180    7.873
  215.500  135.312    0.433    0.186    7.307
  215.750  134.717    0.442    0.191    6.782
  216.000  132.897    0.442    0.198    6.658
  216.250  132.310    0.442    0.188    6.421
  216.500  131.106    0.441    0.143    6.306
  216.750  128.670    0.438    0.081    6.198
  217.000  123.162    0.432    0.090    6.206
  217.250  121.342    0.427    0.113    6.337
  217.500  120.146    0.424    0.119    6.854
  217.750  120.776    0.424    0.135    7.129
  218.000  122.652    0.429    0.152    8.012
  218.250  119.607    0.439    0.170    8.829
  218.500  112.853    0.430    0.178    9.917
  218.750   95.634    0.411    0.220   10.933
  219.000   79.647    0.384    0.258   11.372
  219.250   61.196    0.379    0.287   12.775
  219.500   47.050    0.381    0.308   13.811
  219.750   44.615    0.390    0.309   14.649
  220.000   44.027    0.396    0.309   15.243
  220.250   44.055    0.400    0.306   15.861
  220.500   45.322    0.397    0.296   17.148
  220.750   46.589    0.395    0.294   18.189
  221.000   47.227    0.389    0.292   19.299
  221.250   47.871    0.383    0.296   20.082
  221.500   47.899    0.374    0.300   20.897
  221.750   47.927    0.352    0.291   22.592
  222.000   47.339    0.348    0.288   25.378
  222.250   44.904    0.351    0.292   31.367
  222.500   40.627    0.357    0.298   38.036
  222.750   36.952    0.368    0.302   44.391
  223.000   35.140    0.375    0.299   62.752
  223.250   36.393    0.383    0.297   77.562
  223.500   40.733    0.389    0.295   95.904
  223.750   43.225    0.395    0.294  107.729
  224.000   44.485    0.401    0.297  123.348
  224.250   45.143    0.406    0.300  133.356
  224.500   45.164    0.408    0.301  138.818
  224.750   45.193    0.413    0.304  139.029
  225.000   45.235    0.417    0.305  139.292
  225.250   45.249    0.418    0.306  139.398
  225.500   45.893    0.418    0.306  139.662
  225.750   46.537    0.415    0.302  139.874
  226.000   46.565    0.410    0.295  140.139
  226.250   45.978    0.395    0.287  140.245
  226.500   42.926    0.379    0.280  146.045
  226.750   38.026    0.367    0.283  157.835
  227.000   31.895    0.362    0.287  173.936
  227.250   31.314    0.352    0.289  174.200
  227.500   31.349    0.325    0.291  161.615
  227.750   31.980    0.329    0.292  131.201
  228.000   33.240    0.336    0.290  110.580
  228.250   33.884    0.346    0.284   93.236
  228.500   33.912    0.349    0.280   78.582
  228.750   36.411    0.349    0.275   59.073
  229.000   39.526    0.342    0.263   44.408
  229.250   43.243    0.336    0.253   34.041
  229.500   50.047    0.341    0.228   30.385
  229.750   65.474    0.350    0.210   26.628
  230.000   79.676    0.362    0.208   24.695
  230.250   80.320    0.364    0.201   20.821
  230.500   78.501    0.367    0.189   18.233
  230.750   80.377    0.370    0.174   15.373
  231.000   84.101    0.380    0.164   13.212
  231.250   94.600    0.395    0.168   10.929
  231.500  100.172    0.410    0.171    9.393
  231.750  103.903    0.430    0.171   10.351
  232.000  108.859    0.438    0.169   12.085
  232.250  108.271    0.436    0.172   12.813
  232.500  102.756    0.415    0.203   15.254
  232.750   96.624    0.390    0.255   17.135
  233.000   91.725    0.382    0.280   19.248
  233.250   89.289    0.387    0.299   21.211
  233.500   86.854    0.393    0.279   23.366
  233.750   85.034    0.401    0.269   27.818
  234.000   81.989    0.413    0.267   29.495
  234.250   80.170    0.409    0.267   33.784
  234.500   77.118    0.398    0.270   36.525
  234.750   74.059    0.387    0.272   38.740
  235.000   69.160    0.384    0.277   38.784
  235.250   64.267    0.384    0.282   38.843
  235.500   61.832    0.384    0.283   37.456
  235.750   60.012    0.384    0.286   36.092
  236.000   60.040    0.384    0.288   33.497
  236.250   61.300    0.383    0.290   31.689
  236.500   62.560    0.384    0.292   30.534
  236.750   63.813    0.394    0.294   29.990
  237.000   66.305    0.397    0.293   27.317
  237.250   70.029    0.391    0.286   25.823
  237.500   73.767    0.383    0.280   24.892
  237.750   75.644    0.391    0.280   23.539
  238.000   78.136    0.398    0.280   21.839
  238.250   80.628    0.411    0.279   21.051
  238.500   83.113    0.430    0.272   19.900
  238.750   85.605    0.441    0.262   18.462
  239.000   87.481    0.441    0.251   17.135
  239.250   88.741    0.436    0.254   16.198
  239.500   83.225    0.424    0.260   15.318
  239.750   75.862    0.409    0.258   14.491
  240.000   70.347    0.399    0.253   13.699
  240.250   68.534    0.391    0.246   12.468
