~VERSION INFORMATION
 VERS.                 2.0:   CWLS LOG ASCII STANDARD -VERSION 2.0
 WRAP.                  NO:   ONE LINE PER DEPTH STEP
~WELL INFORMATION BLOCK
#MNEM.UNIT           DATA                    DESCRIPTION OF MNEMONIC
#---------    -------------------            -------------------------------
# Generated from Intellog Unique Number	CW_76_78/WELL/2796
WELL.         TENN AMOCO A-2 MCMULLEN 07-11  : Well_name    - WELL
LOC .         00/07-11-077-01W5/0            : Location     - LOCATION
UWI .         00/07-11-077-01W5/0            : Uwi          - UNIQUE WELL ID
ENTR.         JJ                             : Entered      - ENTERED BY
SRVC.         WESTERN ATLAS                  : Scn          - SERVICE COMPANY
DATE.         1FEB 71                        : Date         - LOG DATE
STRT.M        557.784                        : top_depth    - START DEPTH
STOP.M        685.784                        : bot_depth    - STOP DEPTH
STEP.M        0.25                           : increment    - STEP LENGTH
 NULL. -999.2500:NULL Value
~CURVE INFORMATION BLOCK
#MNEM UNIT       ERCB CURVE CODE    CURVE DESCRIPTION
#-----------   ------------------   ----------------------------------
DEPT.M        00 001 00 00         : DEPTH        - DEPTH
DELT.US/F     00 520 00 00         : DELT         - SONIC TRAVEL TIME
CALI.MM       00 280 01 00         : CAL          - CALIPER
GR  .API      00 310 00 00         : GR           - GAMMA RAY
ILD .OHMM     00 120 00 00         : RESD         - DEEP RESISTIVITY (DIL)
~PARAMETER INFORMATION
#MNEM.UNIT           DATA             DESCRIPTION OF MNEMONIC
#---------         -----------     ------------------------------
GL  .M        746.455              : gl           - GROUND LEVEL ELEVATION
EREF.M        750.113              : kb           - ELEVATION OF DEPTH REFERENCE
DATM.M        746.455              : datum        - DATUM ELEVATION
TDD .M        690.982              : tdd          - TOTAL DEPTH DRILLER
RUN .         ONE                  : Run          - RUN NUMBER
ENG .         GAU                  : Engineer     - RECORDING ENGINEER
WIT .         FOREMAN-SORENSEN     : Witness      - WITNESSED BY
BASE.         R.D.                 : Branch       - HOME BASE OF LOGGING UNIT
MUD .         MUD                  : Mud_type     - MUD TYPE
MATR.         SANDSTONE            : Logunit      - NEUTRON MATRIX
TMAX.C        23.3333              : BHT          - MAXIMUM RECORDED TEMPERATURE
BHTD.M        688.238              : BHTDEP       - MAXIMUM RECORDED TEMPERATURE
RMT .C        8.33333              : MDTP         - TEMPERATURE OF MUD
MUDD.KG/M     1152                 : MWT          - MUD DENSITY
NEUT.         1                    : NEUTRON      - NEUTRON TYPE
RESI.         0                    : RESIST       - RESISTIVITY TYPE
RM  .OHMM     6                    : RM           - RESISTIVITY OF MUD
RMC .OHMM     6.2                  : RMC          - RESISTIVITY OF MUD CAKE
RMF .OHMM     5                    : RMF          - RESISTIVITY OF MUD FILTRATE
SUFT.C        5                    : SUFT         - SURFACE TEMPERATURE
~A  DEPTH     DELT      CAL       GR     RESD
# ...
  601.284  362.728  223.731   81.612   10.445
  601.534  364.732  224.167   80.907   10.552
  601.784  365.428  224.200   77.827   10.617
  602.034  353.583  224.436   78.188   10.863
  602.284  348.598  224.278   78.931   11.108
  602.534  353.280  223.904   79.770   11.452
  602.784  356.257  224.041   80.857   12.253
  603.034  351.862  225.085   79.667   13.968
  603.284  344.397  228.363   76.922   15.762
  603.534  324.128  229.807   73.506   14.539
  603.784  269.372  230.969   77.061   12.480
  604.034  338.585  231.708   80.853   10.402
  604.284  371.482  232.437   85.277    9.058
  604.534  367.931  232.477   86.119    7.677
  604.784  360.596  231.812   87.590    7.523
  605.034  378.667  230.828   89.643    7.908
  605.284  367.866  229.251   89.611    8.868
  605.534  352.758  228.694   83.727   10.364
  605.784  332.291  229.023   79.193   11.959
  606.034  310.587  229.762   75.486   13.338
  606.284  286.595  230.205   72.018   13.942
  606.534  322.693  230.243   72.957   14.325
  606.784  326.325  230.275   72.690   15.244
  607.034  336.103  230.022   69.996   17.792
  607.284  265.738  229.947   64.930   21.910
  607.534  262.123  230.081   59.528   28.608
  607.784  244.336  230.115   59.788   34.632
  608.034  252.216  227.528   65.666   37.975
  608.284  285.571  225.742   66.410   34.586
  608.534  346.618  225.273   67.057   29.729
  608.784  389.902  225.920   73.661   25.843
  609.034  338.543  227.773   82.877   22.435
  609.284  333.948  228.010   85.412   19.940
  609.534  314.529  226.430   80.880   17.941
  609.784  316.334  225.960   76.881   15.328
  610.034  326.569  227.312   75.113   13.369
  610.284  339.606  225.325   75.371   12.303
  610.534  347.947  222.540   74.812   11.100
  610.784  347.006  222.174   74.636   10.472
  611.034  343.398  222.503   76.833   10.140
  611.284  339.717  222.656   79.951    9.851
  611.534  360.336  222.695   81.516    9.756
  611.784  358.221  222.612   83.089    9.190
  612.034  350.104  222.752   83.830    8.720
  612.284  362.293  222.988   83.460    8.468
  612.534  363.643  222.731   81.785    8.454
  612.784  333.708  222.864   77.836    8.741
  613.034  321.800  223.399   75.434    9.025
  613.284  321.126  224.657   77.588    9.368
  613.534  340.436  225.399   82.202    9.693
  613.784  353.283  225.026   83.091   10.057
  614.034  322.301  223.848   78.561   10.364
  614.284  331.163  223.483   76.112   10.468
  614.534  317.816  224.125   75.305   10.634
  614.784  339.412  224.863   73.776   10.819
  615.034  343.573  225.710   72.826   11.364
  615.284  343.809  225.845   69.699   11.728
  615.534  328.638  226.186   70.735   11.814
  615.784  310.458  226.624   73.854   11.404
  616.034  321.998  226.867   76.629   10.716
  616.284  346.794  226.908   79.555    9.950
  616.534  353.174  226.536   77.490    9.737
  616.784  344.335  225.355   71.215    9.963
  617.034  320.082  224.178   65.136   11.002
  617.284  287.926  225.434   64.627   13.114
  617.534  249.826  227.987   67.064   14.034
  617.784  320.081  228.334   70.904   12.295
  618.034  355.003  226.140   76.008   11.268
  618.284  360.600  223.057   78.541   10.203
  618.534  348.299  222.987   76.481    9.754
  618.784  337.171  223.422   74.997    9.978
  619.034  349.757  224.477   73.517   10.342
  619.284  340.917  225.523   71.550   10.867
  619.534  348.276  226.871   70.747   11.289
  619.784  349.693  227.811   72.266   11.913
  620.034  298.661  228.254   70.397   12.634
  620.284  338.414  227.581   71.335   13.356
  620.534  335.650  226.507   70.580   14.236
  620.784  334.909  223.109   72.003   15.813
  621.034  349.516  221.328   70.863   18.420
  621.284  347.470  224.095   70.103   24.166
  621.534  333.931  227.155   66.881   28.780
  621.784  234.762  228.607   63.850   35.418
  622.034  215.013  223.895   60.192   69.218
  622.284  221.979  220.593   54.835   77.550
  622.534  244.818  222.857   50.013   83.249
  622.784  269.226  226.933   50.612   88.982
  623.034  296.505  228.784   52.087   89.709
  623.284  258.732  228.516   52.252   79.067
  623.534  173.736  227.650   54.495   71.433
  623.784  226.880  226.476   56.259   47.126
  624.034  264.804  225.595   57.446   43.187
  624.284  265.633  224.721   58.527   30.272
  624.534  320.738  224.562   60.235   21.795
  624.784  348.474  225.701   64.029   17.698
  625.034  350.935  226.658   69.228   15.246
  625.284  343.007  226.279   73.119   13.388
  625.534  330.446  225.813   71.446   12.165
  625.784  300.054  224.937   68.992   11.595
  626.034  323.676  223.562   71.918   11.066
  626.284  337.894  222.488   75.517   10.655
  626.534  320.105  222.219   73.841   10.402
  626.784  314.142  222.658   72.407   10.209
  627.034  341.351  224.927   75.962    9.977
  627.284  345.577  227.379   80.725    9.705
  627.534  346.663  229.130   78.711    9.530
  627.784  338.679  228.567   77.713    9.159
  628.034  327.292  227.687   77.924    8.707
  628.284  348.819  225.905   79.156    7.980
  628.534  355.856  222.516   81.062    7.846
  628.784  360.864  222.142   84.034    8.683
  629.034  346.275  224.398   84.050   10.076
  629.284  318.954  227.263   81.939   12.043
  629.534  259.103  226.793   76.249   15.020
  629.784  243.276  225.514   69.634   19.622
  630.034  331.102  224.950   64.766   24.880
  630.284  319.192  226.095   66.720   27.937
  630.534  293.435  225.026   63.206   29.349
  630.784  357.815  225.963   58.818   30.424
  631.034  376.474  228.118   63.774   32.312
  631.284  377.169  228.463   70.282   34.833
  631.534  345.993  224.661   72.963   30.994
  631.784  303.845  220.150   74.044   28.660
  632.034  273.582  219.477   75.618   24.682
  632.284  335.086  226.180   76.406   22.508
  632.534  336.691  227.647   78.267   20.669
  632.784  330.601  227.765   79.252   19.565
  633.034  330.513  227.811   79.370   20.265
  633.284  327.685  227.841   79.484   20.724
  633.534  315.839  227.880   79.649   20.215
  633.784  308.370  228.012   77.588   19.426
  634.034  320.695  228.163   78.620   18.342
  634.284  331.711  228.091   84.449   17.000
  634.534  329.275  228.432   83.598   14.964
  634.784  324.876  228.571   83.085   13.105
  635.034  325.442  228.605   83.730   10.970
  635.284  331.365  228.230   85.540   10.182
  635.534  347.669  225.739   86.624   11.278
  635.784  289.063  222.442   78.658   12.511
  636.034  247.107  220.361   73.738   14.498
  636.284  291.110  220.103   69.644   16.485
  636.534  316.036  220.740   74.987   16.590
  636.784  331.493  221.988   77.522   13.959
  637.034  349.108  224.041   77.009   13.905
  637.284  346.997  225.998   71.850   14.821
  637.534  358.535  227.250   67.172   18.671
  637.784  310.569  227.882   63.608   20.281
  638.034  270.187  228.423   68.902   17.551
  638.284  332.343  228.869   75.891   13.553
  638.534  352.373  229.008   81.816   10.467
  638.784  356.338  228.742   83.142    9.025
  639.034  376.955  228.470   80.645    8.912
  639.284  339.247  228.099   77.475    9.077
  639.534  350.130  228.137   75.312    9.062
  639.784  345.275  226.961   70.876    9.046
  640.034  348.782  221.845   66.731    9.012
  640.284  340.921  218.656   60.991    8.957
  640.534  335.412  218.892   55.345    8.763
  640.784  341.533  220.240   43.554    8.393
  641.034  339.682  221.889   38.150    8.041
  641.284  347.173  222.636   32.456    7.531
  641.534  341.988  222.780   30.006    6.823
  641.784  338.702  222.913   29.591    6.511
  642.034  343.969  222.940   30.770    6.298
  642.284  351.788  222.985   31.908    6.026
  642.534  350.720  222.921   31.342    5.893
  642.784  346.322  222.954   30.441    5.817
  643.034  343.363  222.784   31.093    5.784
  643.284  347.781  222.622   32.129    5.906
  643.534  350.432  222.262   32.968    6.109
  643.784  357.210  222.088   32.938    6.392
  644.034  359.993  221.818   32.570    6.615
  644.284  353.571  221.561   32.155    6.680
  644.534  345.258  221.686   32.076    6.665
