~VERSION INFORMATION
 VERS.                 2.0:   CWLS LOG ASCII STANDARD -VERSION 2.0
 WRAP.                  NO:   ONE LINE PER DEPTH STEP
~WELL INFORMATION BLOCK
#MNEM.UNIT           DATA                    DESCRIPTION OF MNEMONIC
#---------    -------------------            -------------------------------
# Generated from Intellog Unique Number	CS_67_68/WELL/2168
WELL.         06-13-067-08W4                 : Well_name    - WELL
LOC .         00/06-13-067-08W4/0            : Location     - LOCATION
UWI .         00/06-13-067-08W4/0            : Uwi          - UNIQUE WELL ID
ENTR.         SP                             : Entered      - ENTERED BY
SRVC.         SCHLUMBERGER                   : Scn          - SERVICE COMPANY
STRT.M        335                            : top_depth    - START DEPTH
STOP.M        566                            : bot_depth    - STOP DEPTH
STEP.M        0.25                           : increment    - STEP LENGTH
 NULL. -999.2500:NULL Value
~CURVE INFORMATION BLOCK
#MNEM UNIT       ERCB CURVE CODE    CURVE DESCRIPTION
#-----------   ------------------   ----------------------------------
DEPT.M        00 001 00 00         : DEPTH        - DEPTH
ILD .OHMM     00 120 00 00         : RESD         - DEEP RESISTIVITY (DIL)
DPHI.V/V      00 890 00 00         : PHID         - DENSITY POROSITY (LIMESTONE)
NPHI.V/V      00 330 00 00         : PHIN         - NEUTRON POROSITY (LIMESTONE)
GR  .API      00 310 00 00         : GR           - GAMMA RAY
CALI.MM       00 280 01 00         : CAL          - CALIPER
~PARAMETER INFORMATION
#MNEM.UNIT           DATA             DESCRIPTION OF MNEMONIC
#---------         -----------     ------------------------------
GL  .M        646.93               : gl           - GROUND LEVEL ELEVATION
EREF.M        650.73               : kb           - ELEVATION OF DEPTH REFERENCE
DATM.M        650.73               : datum        - DATUM ELEVATION
TDD .M        570                  : tdd          - TOTAL DEPTH DRILLER
RUN .         ONE                  : Run          - RUN NUMBER
ENG .         BILL                 : Engineer     - RECORDING ENGINEER
WIT .         JIM                  : Witness      - WITNESSED BY
MUD .         GEL                  : Mud_type     - MUD TYPE
MATR.         LIMESTONE            : Logunit      - NEUTRON MATRIX
TMAX.C        21                   : BHT          - MAXIMUM RECORDED TEMPERATURE
BHTD.M        570.5                : BHTDEP       - MAXIMUM RECORDED TEMPERATURE
MATR.         1                    : LOGUNIT      - NEUTRON MATRIX
RMT .C        25                   : MDTP         - TEMPERATURE OF MUD
NEUT.         1                    : NEUTRON      - NEUTRON TYPE
RESI.         0                    : RESIST       - RESISTIVITY TYPE
RMC .OHMM     0.25                 : RMC          - RESISTIVITY OF MUD CAKE
RMF .OHMM     0.25                 : RMF          - RESISTIVITY OF MUD FILTRATE
SUFT.C        15                   : SUFT         - SURFACE TEMPERATURE
~A  DEPTH     RESD     PHID     PHIN       GR      CAL
# ...
  444.500    3.357    0.349    0.462   65.778  155.401
  444.750    3.334    0.355    0.448   65.164  155.609
  445.000    3.317    0.360    0.442   64.796  155.715
  445.250    3.295    0.366    0.460   65.229  155.718
  445.500    3.297    0.365    0.471   66.770  155.926
  445.750    3.293    0.358    0.460   66.341  155.827
  446.000    3.289    0.353    0.451   65.173  155.830
  446.250    3.267    0.349    0.452   65.975  155.525
  446.500    3.263    0.347    0.452   67.640  155.425
  446.750    3.253    0.352    0.454   67.888  155.326
  447.000    3.249    0.356    0.451   66.165  155.124
  447.250    3.275    0.361    0.446   63.520  155.127
  447.500    3.385    0.365    0.448   64.507  155.335
  447.750    3.537    0.366    0.454   67.218  155.544
  448.000    3.782    0.360    0.454   70.792  155.752
  448.250    3.982    0.353    0.447   73.133  155.858
  448.500    4.257    0.347    0.457   74.736  156.066
  448.750    4.789    0.342    0.464   72.459  156.377
  449.000    5.800    0.332    0.448   68.520  156.996
  449.250    7.335    0.319    0.445   64.397  158.025
  449.500    8.899    0.305    0.447   61.073  159.671
  449.750   10.574    0.221    0.254   57.565  161.418
  450.000   11.762    0.144    0.233   55.042  162.858
  450.250   12.386    0.103    0.220   55.044  163.990
  450.500   12.799    0.086    0.206   57.756  164.096
  450.750   12.904    0.072    0.195   59.790  163.791
  451.000   12.459    0.050    0.179   60.469  163.076
  451.250   11.047    0.029    0.159   59.178  162.361
  451.500    6.357    0.015    0.139   57.825  162.056
  451.750    4.802    0.049    0.132   56.903  161.956
  452.000    4.069    0.078    0.146   56.535  161.959
  452.250    3.575    0.081    0.161   57.399  161.346
  452.500    3.231    0.112    0.185   64.605  160.221
  452.750    2.980    0.166    0.302   73.844  159.403
  453.000    2.808    0.300    0.382   78.033  159.098
  453.250    2.799    0.320    0.418   81.668  159.409
  453.500    2.822    0.308    0.420   83.948  163.826
  453.750    2.889    0.302    0.443   85.551  166.394
  454.000    2.902    0.307    0.476   87.524  169.476
  454.250    2.525    0.304    0.510   88.633  171.326
  454.500    2.136    0.248    0.476   90.113  166.813
  454.750    1.869    0.230    0.461   91.039  162.506
  455.000    2.056    0.241    0.483   91.040  164.254
  455.250    2.659    0.261    0.479   91.104  167.541
  455.500    3.190    0.277    0.469   91.167  169.289
  455.750    3.562    0.264    0.477   91.662  167.753
  456.000    3.844    0.260    0.483   93.018  167.243
  456.250    4.125    0.257    0.474   94.067  166.938
  456.500    4.335    0.253    0.467   94.746  166.736
  456.750    4.454    0.246    0.460   95.056  166.534
  457.000    4.526    0.242    0.453   94.627  166.024
  457.250    4.571    0.243    0.448   94.814  166.027
  457.500    4.636    0.239    0.459   95.246  166.749
  457.750    4.692    0.236    0.470   93.832  167.470
  458.000    4.721    0.244    0.478   92.233  168.294
  458.250    4.663    0.245    0.472   94.759  169.119
  458.500    4.544    0.238    0.468   96.424  169.429
  458.750    3.969    0.235    0.466   95.748  169.740
  459.000    3.282    0.230    0.461   96.797  169.743
  459.250    2.709    0.225    0.455   96.983  170.362
  459.500    2.457    0.220    0.457   96.308  171.699
  459.750    2.306    0.223    0.483   97.172  173.652
  460.000    2.218    0.244    0.502   99.021  177.350
  460.250    2.178    0.277    0.535  100.932  181.663
  460.500    2.151    0.286    0.536  102.473  182.795
  460.750    2.132    0.280    0.545  104.445  184.441
  461.000    2.134    0.279    0.557  103.831  186.599
  461.250    2.172    0.278    0.572  102.047  186.397
  461.500    2.227    0.291    0.580   99.155  184.655
  461.750    2.293    0.294    0.578   98.541  182.606
  462.000    2.401    0.282    0.572   99.590  181.582
  462.250    2.471    0.281    0.563  101.254  181.893
  462.500    2.478    0.301    0.568  103.288  181.075
  462.750    2.339    0.312    0.565  103.413  175.126
  463.000    2.318    0.313    0.558  102.184  173.693
  463.250    2.400    0.309    0.569  101.447  173.696
  463.500    2.570    0.306    0.582  101.264  175.238
  463.750    2.865    0.308    0.570   98.495  178.115
  464.000    3.138    0.312    0.546   95.479  180.683
  464.250    3.419    0.302    0.532   92.279  182.944
  464.500    3.642    0.290    0.521   89.326  176.482
  464.750    3.871    0.280    0.511   86.803  163.862
  465.000    4.092    0.273    0.487   85.142  159.144
  465.250    4.252    0.288    0.466   85.698  158.737
  465.500    4.369    0.301    0.453   86.439  158.740
  465.750    4.447    0.285    0.442   87.549  158.127
  466.000    4.492    0.276    0.451   88.721  157.822
  466.250    4.538    0.268    0.460   89.031  158.133
  466.500    4.770    0.269    0.457   87.370  158.444
  466.750    4.919    0.255    0.446   88.480  159.577
  467.000    5.054    0.199    0.447   91.314  160.708
  467.250    5.145    0.168    0.447   94.703  162.148
  467.500    5.149    0.151    0.441   97.291  163.999
  467.750    5.094    0.207    0.428   99.695  166.362
  468.000    4.956    0.201    0.415  100.989  168.725
  468.250    4.940    0.196    0.422  100.006  172.115
  468.500    4.943    0.226    0.435   95.882  176.942
  468.750    4.965    0.253    0.441   93.359  181.666
  469.000    4.968    0.276    0.438   92.314  181.566
  469.250    4.897    0.247    0.440   93.610  173.565
  469.500    4.836    0.222    0.445   95.089  166.589
  469.750    4.776    0.220    0.450   96.385  162.487
  470.000    4.743    0.249    0.451   96.140  161.156
  470.250    4.747    0.262    0.462   93.555  160.543
  470.500    4.705    0.247    0.471   95.281  160.238
  470.750    4.781    0.236    0.459   96.884  159.112
  471.000    4.921    0.229    0.446   98.425  157.371
  471.250    5.642    0.233    0.431   97.873  156.553
  471.500    6.845    0.252    0.445   88.392  155.838
  471.750    8.689    0.276    0.463   80.882  155.739
  472.000   11.717    0.290    0.465   73.925  155.639
  472.250   16.194    0.297    0.454   70.787  155.539
  472.500   20.366    0.156    0.444   68.695  155.748
  472.750   22.867    0.062    0.453   66.049  156.264
  473.000   24.632    0.035    0.168   62.418  156.780
  473.250   25.501    0.000    0.151   59.033  156.784
  473.500   22.915    0.087    0.317   60.574  156.479
  473.750   19.130    0.144    0.380   63.717  155.968
  474.000   15.348    0.252    0.406   67.044  155.561
  474.250   13.130    0.273    0.427   70.679  155.359
  474.500   12.486    0.285    0.440   73.267  155.465
  474.750   11.965    0.278    0.444   75.547  155.878
  475.000   11.725    0.266    0.434   77.581  156.087
  475.250   11.494    0.266    0.425   79.122  156.090
  475.500   11.159    0.245    0.420   79.924  155.990
  475.750   10.631    0.222    0.425   86.022  155.788
  476.000    9.374    0.236    0.434   90.335  155.586
  476.250    7.959    0.259    0.444   93.600  156.307
  476.500    6.314    0.255    0.422   91.077  156.721
  476.750    5.221    0.182    0.401   90.340  157.545
  477.000    4.383    0.204    0.394   91.019  158.472
  477.250    3.880    0.237    0.427   90.652  159.090
  477.500    3.648    0.265    0.449   90.161  158.991
  477.750    3.555    0.274    0.472   90.347  158.892
  478.000    3.458    0.270    0.492   90.534  158.998
  478.250    3.447    0.269    0.482   88.320  159.513
  478.500    3.291    0.283    0.469   86.166  159.722
  478.750    3.244    0.295    0.490   82.165  159.109
  479.000    3.339    0.299    0.504   82.968  158.394
  479.250    3.464    0.303    0.501   86.972  157.679
  479.500    3.662    0.293    0.487   86.420  156.964
  479.750    3.812    0.280    0.474   87.099  156.248
  480.000    3.954    0.265    0.462   89.256  155.635
  480.250    4.085    0.271    0.458   89.812  155.536
  480.500    4.214    0.275    0.475   86.550  155.642
  480.750    4.289    0.244    0.484   84.397  155.850
