~VERSION INFORMATION
 VERS.                 2.0:   CWLS LOG ASCII STANDARD -VERSION 2.0
 WRAP.                  NO:   ONE LINE PER DEPTH STEP
~WELL INFORMATION BLOCK
#MNEM.UNIT           DATA                    DESCRIPTION OF MNEMONIC
#---------    -------------------            -------------------------------
# Generated from Intellog Unique Number	CS_67_68/WELL/2399
WELL.         CHIEFC0 DOME TWEEDIE           : Well_name    - WELL
LOC .         00/06-23-068-12W4/0            : Location     - LOCATION
UWI .         00/06-23-068-12W4/0            : Uwi          - UNIQUE WELL ID
ENTR.         TIM                            : Entered      - ENTERED BY
SRVC.         COMPUTALOG                     : Scn          - SERVICE COMPANY
STRT.M        275                            : top_depth    - START DEPTH
STOP.M        470                            : bot_depth    - STOP DEPTH
STEP.M        0.25                           : increment    - STEP LENGTH
 NULL. -999.2500:NULL Value
~CURVE INFORMATION BLOCK
#MNEM UNIT       ERCB CURVE CODE    CURVE DESCRIPTION
#-----------   ------------------   ----------------------------------
DEPT.M        00 001 00 00         : DEPTH        - DEPTH
GR  .API      00 310 00 00         : GR           - GAMMA RAY
CALI.MM       00 280 01 00         : CAL          - CALIPER
NPHI.V/V      00 330 00 00         : PHIN         - NEUTRON POROSITY (SANDSTONE)
DPHI.V/V      00 890 00 00         : PHID         - DENSITY POROSITY (SANDSTONE)
ILD .OHMM     00 120 00 00         : RESD         - DEEP RESISTIVITY (DIL)
~PARAMETER INFORMATION
#MNEM.UNIT           DATA             DESCRIPTION OF MNEMONIC
#---------         -----------     ------------------------------
GL  .M        591.38               : gl           - GROUND LEVEL ELEVATION
EREF.M        595.2                : kb           - ELEVATION OF DEPTH REFERENCE
DATM.M        595.2                : datum        - DATUM ELEVATION
TDD .M        471                  : tdd          - TOTAL DEPTH DRILLER
RUN .         ONE                  : Run          - RUN NUMBER
ENG .         BILL                 : Engineer     - RECORDING ENGINEER
WIT .         JIM                  : Witness      - WITNESSED BY
MUD .         GEL                  : Mud_type     - MUD TYPE
MATR.         SANDSTONE            : Logunit      - NEUTRON MATRIX
TMAX.C        26                   : BHT          - MAXIMUM RECORDED TEMPERATURE
BHTD.M        471                  : BHTDEP       - MAXIMUM RECORDED TEMPERATURE
MATR.         1                    : LOGUNIT      - NEUTRON MATRIX
RMT .C        20                   : MDTP         - TEMPERATURE OF MUD
NEUT.         1                    : NEUTRON      - NEUTRON TYPE
RESI.         0                    : RESIST       - RESISTIVITY TYPE
RMC .OHMM     1.6                  : RMC          - RESISTIVITY OF MUD CAKE
RMF .OHMM     1.1                  : RMF          - RESISTIVITY OF MUD FILTRATE
SUFT.C        5                    : SUFT         - SURFACE TEMPERATURE
~A  DEPTH       GR      CAL     PHIN     PHID     RESD
# ...
  421.000   96.136  165.468    0.410    0.173    4.282
  421.250   96.221  165.645    0.415    0.174    4.548
  421.500   95.745  165.822    0.417    0.168    4.560
  421.750   95.809  165.964    0.416    0.158    4.848
  422.000   95.291  166.105    0.413    0.152    4.953
  422.250   94.752  166.247    0.417    0.150    5.159
  422.500   91.864  166.388    0.415    0.141    5.683
  422.750   90.098  165.489    0.404    0.119    6.261
  423.000   85.984  165.631    0.378    0.061    6.644
  423.250   82.430  165.772    0.341    0.071    7.191
  423.500   80.706  165.914    0.306    0.079    7.352
  423.750   83.826  166.055    0.309    0.096    7.248
  424.000   86.323  166.267    0.329    0.117    6.620
  424.250   88.799  166.409    0.361    0.125    5.728
  424.500   92.522  165.546    0.388    0.139    5.528
  424.750   94.416  165.722    0.407    0.149    5.153
  425.000   95.707  165.793    0.412    0.154    5.071
  425.250   95.792  165.001    0.403    0.153    4.911
  425.500   93.486  165.107    0.401    0.144    4.829
  425.750   89.953  165.248    0.393    0.129    5.039
  426.000   87.002  165.354    0.384    0.121    5.148
  426.250   84.675  165.531    0.374    0.130    5.263
  426.500   87.193  165.673    0.373    0.138    5.386
  426.750   89.087  165.779    0.375    0.138    5.405
  427.000   91.002  165.956    0.379    0.140    5.225
  427.250   93.499  166.132    0.378    0.145    5.142
  427.500   95.392  166.274    0.380    0.152    4.880
  427.750   97.868  166.380    0.389    0.159    4.901
  428.000   99.158  166.522    0.398    0.165    4.823
  428.250   98.037  166.663    0.411    0.171    4.849
  428.500   96.916  166.805    0.422    0.161    4.866
  428.750   99.456  166.981    0.419    0.138    4.879
  429.000   97.732  167.123    0.410    0.098    4.988
  429.250   94.781  167.300    0.394    0.060    5.298
  429.500   90.021  167.441    0.378    0.060    5.514
  429.750   82.871  167.583    0.325    0.106    5.749
  430.000   71.500  167.724    0.320    0.164    5.780
  430.250   75.805  167.866    0.338    0.159    5.688
  430.500   84.331  167.972    0.355    0.134    5.597
  430.750   96.496  168.113    0.377    0.124    5.321
  431.000  100.241  168.290    0.367    0.152    5.140
  431.250   99.702  169.472    0.372    0.164    4.965
  431.500   98.581  169.613    0.385    0.164    4.719
  431.750   96.857  169.720    0.397    0.160    4.558
  432.000   95.133  169.861    0.410    0.151    4.571
  432.250   93.409  170.038    0.410    0.141    4.510
  432.500   93.494  170.144    0.403    0.132    4.518
  432.750   93.579  170.321    0.391    0.125    4.534
  433.000   93.664  170.427    0.385    0.111    4.554
  433.250   93.146  170.604    0.387    0.126    4.485
  433.500   92.627  171.786    0.387    0.140    4.336
  433.750   91.528  171.856    0.386    0.145    4.189
  434.000   89.201  172.033    0.383    0.131    3.833
  434.250   86.853  172.246    0.393    0.115    3.634
  434.500   86.335  172.387    0.416    0.192    3.260
  434.750   91.264  172.493    0.440    0.215    2.928
  435.000   95.570  172.599    0.467    0.232    2.677
  435.250   95.052  172.741    0.480    0.226    2.538
  435.500   94.534  171.913    0.495    0.220    2.406
  435.750   97.073  172.054    0.495    0.208    2.283
  436.000   98.945  172.196    0.470    0.206    2.251
  436.250  100.839  171.332    0.456    0.207    2.259
  436.500  103.336  171.509    0.459    0.209    2.311
  436.750  105.832  170.610    0.484    0.209    2.410
  437.000  106.520  169.782    0.493    0.182    2.506
  437.250  103.590  169.889    0.498    0.157    2.659
  437.500   96.440  169.096    0.476    0.081    3.279
  437.750   88.687  169.167    0.442    0.050    4.124
  438.000   83.345  168.374    0.391    0.035    4.804
  438.250   79.189  167.475    0.360    0.020    5.810
  438.500   71.435  167.581    0.339    0.010    6.520
  438.750   75.741  166.753    0.333    0.069    7.050
  439.000   86.700  166.895    0.341    0.114    6.332
  439.250   92.211  166.067    0.362    0.126    5.676
  439.500   99.552  166.138    0.385    0.149    4.911
  439.750  101.467  166.350    0.393    0.159    4.414
  440.000  100.949  165.522    0.420    0.158    4.340
  440.250  101.055  165.628    0.424    0.155    4.193
  440.500  101.701  164.729    0.437    0.153    4.141
  440.750  103.012  163.901    0.443    0.150    4.148
  441.000  103.743  164.078    0.451    0.144    4.159
  441.250  103.182  163.144    0.433    0.133    4.260
  441.500  101.458  163.321    0.417    0.117    4.347
  441.750   99.734  162.493    0.409    0.104    4.705
  442.000   98.032  162.563    0.404    0.114    4.997
  442.250   96.308  162.740    0.399    0.132    5.105
  442.500   95.769  162.917    0.396    0.145    5.028
  442.750  100.074  163.094    0.405    0.158    4.597
  443.000  112.239  163.165    0.430    0.170    3.977
  443.250  117.147  163.306    0.438    0.168    3.639
  443.500  116.026  163.448    0.443    0.163    3.578
  443.750  110.685  163.589    0.444    0.153    3.401
  444.000  108.961  163.731    0.447    0.143    3.347
  444.250  113.287  162.867    0.449    0.129    3.362
  444.500  113.996  163.009    0.452    0.101    3.368
  444.750  111.046  163.186    0.458    0.098    3.443
  445.000  108.095  162.358    0.464    0.121    3.524
  445.250  106.371  162.464    0.473    0.149    3.600
  445.500  108.931  162.676    0.487    0.155    3.827
  445.750  110.200  162.782    0.502    0.167    3.909
  446.000  111.470  162.888    0.506    0.176    4.234
  446.250  112.761  162.096    0.498    0.169    4.407
  446.500  107.419  162.166    0.481    0.166    4.769
  446.750   98.460  162.379    0.432    0.156    4.963
  447.000   84.053  162.449    0.409    0.148    5.376
  447.250   80.521  162.626    0.395    0.142    5.492
  447.500   78.194  162.768    0.377    0.134    5.716
  447.750   74.037  162.909    0.369    0.161    6.426
  448.000   66.887  163.051    0.359    0.196    6.688
  448.250   63.354  162.223    0.356    0.209    6.838
  448.500   59.822  162.364    0.353    0.224    6.862
  448.750   59.325  162.470    0.348    0.213    6.391
  449.000   59.410  161.642    0.342    0.201    6.065
  449.250   60.097  161.748    0.338    0.195    5.760
  449.500   61.991  161.890    0.337    0.200    5.569
  449.750   63.282  162.031    0.336    0.200    5.289
  450.000   62.764  163.248    0.339    0.197    5.109
  450.250   62.288  163.355    0.346    0.192    5.032
  450.500   62.331  163.496    0.353    0.186    4.861
  450.750   63.019  163.673    0.359    0.189    4.788
  451.000   65.515  163.779    0.365    0.193    4.716
  451.250   76.474  163.991    0.372    0.193    4.563
  451.500   85.021  164.097    0.380    0.191    4.575
  451.750   91.135  164.239    0.384    0.218    4.507
  452.000   94.838  164.345    0.390    0.231    4.527
  452.250   95.547  164.522    0.395    0.247    4.543
  452.500   88.978  164.628    0.386    0.275    4.736
  452.750   75.196  164.805    0.376    0.282    5.026
  453.000   68.627  165.017    0.362    0.285    5.542
  453.250   66.903  165.123    0.366    0.283    5.987
  453.500   67.009  165.229    0.373    0.282    6.846
  453.750   70.109  166.411    0.378    0.274    8.927
  454.000   78.635  166.553    0.386    0.277   10.999
  454.250   84.770  166.659    0.385    0.280   13.067
  454.500   81.238  166.800    0.378    0.282   14.941
  454.750   80.117  165.937    0.372    0.281   14.730
  455.000   89.246  165.073    0.367    0.276   13.965
  455.250  102.013  165.215    0.360    0.267   12.299
  455.500  111.163  163.382    0.355    0.261    9.331
  455.750  102.786  162.519    0.348    0.265    8.059
  456.000   92.018  161.655    0.346    0.268    6.711
  456.250   83.641  159.787    0.340    0.277    5.694
  456.500   51.146  158.959    0.334    0.283    5.299
  456.750   40.357  158.096    0.330    0.293    4.580
  457.000   28.965  157.232    0.328    0.301    3.886
  457.250   27.241  157.374    0.326    0.301    3.426
