~VERSION INFORMATION
 VERS.                 2.0:   CWLS LOG ASCII STANDARD -VERSION 2.0
 WRAP.                  NO:   ONE LINE PER DEPTH STEP
~WELL INFORMATION BLOCK
#MNEM.UNIT           DATA                    DESCRIPTION OF MNEMONIC
#---------    -------------------            -------------------------------
# Generated from Intellog Unique Number	CS_73_76/WELL/2103
WELL.         07-08-076-12W4                 : Well_name    - WELL
LOC .         00/07-08-076-12W4/0            : Location     - LOCATION
UWI .         00/07-08-076-12W4/0            : Uwi          - UNIQUE WELL ID
ENTR.         SP                             : Entered      - ENTERED BY
SRVC.         SCHLUMBERGER                   : Scn          - SERVICE COMPANY
STRT.M        329.184                        : top_depth    - START DEPTH
STOP.M        566.684                        : bot_depth    - STOP DEPTH
STEP.M        0.25                           : increment    - STEP LENGTH
 NULL. -999.2500:NULL Value
~CURVE INFORMATION BLOCK
#MNEM UNIT       ERCB CURVE CODE    CURVE DESCRIPTION
#-----------   ------------------   ----------------------------------
DEPT.M        00 001 00 00         : DEPTH        - DEPTH
GR  .API      00 310 00 00         : GR           - GAMMA RAY
DPHI.V/V      00 890 00 00         : PHID         - DENSITY POROSITY (SANDSTONE)
NPHI.V/V      00 330 00 00         : PHIN         - NEUTRON POROSITY (SANDSTONE)
ILD .OHMM     00 120 00 00         : RESD         - DEEP RESISTIVITY (DIL)
~PARAMETER INFORMATION
#MNEM.UNIT           DATA             DESCRIPTION OF MNEMONIC
#---------         -----------     ------------------------------
GL  .M        709.879              : gl           - GROUND LEVEL ELEVATION
EREF.M        713.842              : kb           - ELEVATION OF DEPTH REFERENCE
DATM.M        709.879              : datum        - DATUM ELEVATION
TDD .M        585.216              : tdd          - TOTAL DEPTH DRILLER
RUN .         ONE                  : Run          - RUN NUMBER
ENG .         BILL                 : Engineer     - RECORDING ENGINEER
WIT .         JIM                  : Witness      - WITNESSED BY
MUD .         GEL                  : Mud_type     - MUD TYPE
MATR.         SANDSTONE            : Logunit      - NEUTRON MATRIX
TMAX.C        32.2222              : BHT          - MAXIMUM RECORDED TEMPERATURE
BHTD.M        585.216              : BHTDEP       - MAXIMUM RECORDED TEMPERATURE
MATR.         1                    : LOGUNIT      - NEUTRON MATRIX
RMT .C        25                   : MDTP         - TEMPERATURE OF MUD
NEUT.         1                    : NEUTRON      - NEUTRON TYPE
RESI.         0                    : RESIST       - RESISTIVITY TYPE
RMC .OHMM     0.25                 : RMC          - RESISTIVITY OF MUD CAKE
RMF .OHMM     0.25                 : RMF          - RESISTIVITY OF MUD FILTRATE
SUFT.C        15                   : SUFT         - SURFACE TEMPERATURE
~A  DEPTH       GR     PHID     PHIN     RESD
# ...
  459.684   57.909    0.328    0.465    9.940
  459.934   57.879    0.330    0.481   10.845
  460.184   59.160    0.321    0.447   11.289
  460.434   60.374    0.313    0.411   11.700
  460.684   60.910    0.324    0.427   11.693
  460.934   60.182    0.333    0.445   11.116
  461.184   60.228    0.326    0.462   10.022
  461.434   60.150    0.323    0.469    9.148
  461.684   60.764    0.329    0.461    7.975
  461.934   62.008    0.327    0.471    7.389
  462.184   64.213    0.321    0.467    6.948
  462.434   66.836    0.320    0.478    6.749
  462.684   69.663    0.311    0.486    6.635
  462.934   70.364    0.317    0.492    6.500
  463.184   69.393    0.320    0.496    6.505
  463.434   71.961    0.310    0.503    6.516
  463.684   72.440    0.298    0.508    6.390
  463.934   71.371    0.299    0.503    6.264
  464.184   69.977    0.303    0.493    6.287
  464.434   67.470    0.307    0.485    6.159
  464.684   66.590    0.311    0.491    6.044
  464.934   65.537    0.304    0.486    6.049
  465.184   65.243    0.296    0.495    6.016
  465.434   64.812    0.301    0.507    5.940
  465.684   65.490    0.312    0.510    5.983
  465.934   64.595    0.314    0.500    5.924
  466.184   64.133    0.316    0.501    5.731
  466.434   66.171    0.292    0.491    5.726
  466.684   66.618    0.282    0.487    5.711
  466.934   67.564    0.281    0.496    5.619
  467.184   70.209    0.282    0.501    5.574
  467.434   71.346    0.285    0.497    5.524
  467.684   70.335    0.293    0.505    5.522
  467.934   70.301    0.297    0.502    5.516
  468.184   71.289    0.306    0.509    5.514
  468.434   71.923    0.314    0.504    5.891
  468.684   70.998    0.315    0.497    5.585
  468.934   70.621    0.305    0.491    5.422
  469.184   70.230    0.306    0.498    5.419
  469.434   69.943    0.314    0.512    5.397
  469.684   68.341    0.324    0.528    5.414
  469.934   66.365    0.321    0.545    5.424
  470.184   64.370    0.339    0.557    5.438
  470.434   62.903    0.351    0.553    5.529
  470.684   62.331    0.344    0.533    5.526
  470.934   63.380    0.332    0.521    5.526
  471.184   63.345    0.323    0.511    5.526
  471.434   63.352    0.327    0.510    5.528
  471.684   63.334    0.333    0.493    5.527
  471.934   63.889    0.326    0.482    5.622
  472.184   64.520    0.321    0.474    5.717
  472.434   65.067    0.312    0.471    5.629
  472.684   63.818    0.310    0.474    5.692
  472.934   61.893    0.312    0.481    5.746
  473.184   61.412    0.318    0.481    6.442
  473.434   62.138    0.316    0.458    7.192
  473.684   61.291    0.295    0.424    8.198
  473.934   57.307    0.187    0.338    9.967
  474.184   53.008   -0.015    0.257   12.356
  474.434   49.389    0.015    0.194   15.252
  474.684   47.298   -0.002    0.193   18.298
  474.934   48.156    0.018    0.197   17.188
  475.184   51.739    0.029    0.238   12.675
  475.434   56.688    0.056    0.298    9.766
  475.684   60.809    0.105    0.457    7.927
  475.934   63.195    0.135    0.475    6.696
  476.184   62.048    0.228    0.463    6.419
  476.434   63.041    0.286    0.453    6.029
  476.684   62.884    0.299    0.447    6.043
  476.934   64.406    0.300    0.471    6.058
  477.184   64.334    0.306    0.485    6.062
  477.434   66.445    0.308    0.485    6.062
  477.684   66.640    0.305    0.476    6.063
  477.934   66.008    0.321    0.479    6.063
  478.184   66.097    0.335    0.486    6.063
  478.434   68.076    0.339    0.492    6.063
  478.684   67.834    0.328    0.488    6.064
  478.934   65.127    0.319    0.482    6.076
  479.184   63.584    0.318    0.477    5.944
  479.434   63.521    0.312    0.481    5.953
  479.684   64.018    0.308    0.490    5.901
  479.934   63.104    0.304    0.491    5.849
  480.184   65.248    0.323    0.481    5.844
  480.434   65.972    0.325    0.470    5.804
  480.684   65.903    0.314    0.471    5.742
  480.934   65.808    0.310    0.485    5.738
  481.184   66.348    0.314    0.487    5.709
  481.434   65.862    0.313    0.491    5.637
  481.684   65.844    0.313    0.493    5.638
  481.934   65.812    0.311    0.485    5.644
  482.184   66.365    0.315    0.475    5.543
  482.434   67.372    0.318    0.463    5.539
  482.684   67.516    0.325    0.461    5.537
  482.934   66.501    0.322    0.461    5.536
  483.184   65.738    0.310    0.472    5.527
  483.434   65.780    0.299    0.485    5.645
  483.684   65.346    0.299    0.494    5.641
  483.934   64.457    0.309    0.497    5.678
  484.184   65.148    0.322    0.487    5.744
  484.434   65.129    0.319    0.474    5.746
  484.684   65.259    0.310    0.476    5.752
  484.934   66.257    0.315    0.488    5.645
  485.184   68.234    0.307    0.493    5.644
  485.434   70.344    0.302    0.494    5.646
  485.684   73.846    0.294    0.490    5.551
  485.934   75.674    0.275    0.486    5.594
  486.184   75.164    0.260    0.494    5.640
  486.434   75.120    0.254    0.488    5.643
  486.684   76.956    0.263    0.482    5.643
  486.934   78.178    0.277    0.490    5.643
  487.184   77.803    0.292    0.482    5.640
  487.434   76.022    0.291    0.472    5.610
  487.684   76.322    0.284    0.463    5.541
  487.934   80.748    0.274    0.483    5.541
  488.184   83.193    0.270    0.493    5.541
  488.434   84.643    0.268    0.494    5.543
  488.684   84.614    0.264    0.499    5.600
  488.934   84.470    0.263    0.486    5.640
  489.184   82.900    0.278    0.478    5.719
  489.434   83.532    0.255    0.473    5.975
  489.684   86.573    0.233    0.483    6.090
  489.934   88.060    0.212    0.487    6.273
  490.184   89.101    0.219    0.485    6.466
  490.434   88.741    0.223    0.474    6.663
  490.684   88.400    0.218    0.472    6.863
  490.934   87.512    0.204    0.493    7.043
  491.184   86.965    0.190    0.482    7.038
  491.434   87.265    0.212    0.470    6.907
  491.684   90.537    0.230    0.463    6.742
  491.934   94.995    0.225    0.447    6.667
  492.184   96.953    0.214    0.465    6.594
  492.434   95.049    0.205    0.481    6.674
  492.684   93.371    0.201    0.478    6.778
  492.934   96.116    0.201    0.474    6.913
  493.184  101.320    0.217    0.456    7.045
  493.434  102.958    0.212    0.442    6.951
  493.684  105.843    0.207    0.451    6.755
  493.934  103.531    0.210    0.482    6.306
  494.184  101.639    0.219    0.499    5.826
  494.434   98.812    0.219    0.497    5.511
  494.684   92.988    0.214    0.490    5.352
  494.934   89.161    0.218    0.472    5.303
  495.184   87.135    0.202    0.464    5.144
  495.434   86.558    0.189    0.484    4.834
  495.684   88.772    0.190    0.510    4.322
  495.934   90.976    0.215    0.556    3.594
  496.184   92.024    0.250    0.591    2.949
  496.434   91.238    0.270    0.603    2.608
  496.684   89.608    0.276    0.602    2.384
  496.934   87.140    0.267    0.592    2.270
  497.184   85.704    0.265    0.587    2.266
  497.434   84.262    0.275    0.583    2.220
  497.684   85.575    0.259    0.593    2.267
  497.934   88.736    0.248    0.577    2.269
  498.184   90.614    0.243    0.572    2.344
  498.434   93.054    0.243    0.577    2.360
  498.684   93.237    0.240    0.586    2.490
  498.934   93.717    0.251    0.593    2.559
  499.184   94.441    0.236    0.595    2.713
  499.434   93.663    0.240    0.566    2.881
  499.684   92.331    0.223    0.540    3.258
  499.934   89.709    0.206    0.508    3.548
  500.184   90.109    0.195    0.505    4.147
  500.434   91.705    0.195    0.499    4.773
  500.684   92.596    0.184    0.490    5.236
  500.934   90.820    0.152    0.462    5.843
  501.184   87.579    0.120    0.444    6.098
  501.434   89.831    0.091    0.434    6.090
  501.684   93.313    0.166    0.440    5.517
  501.934   95.366    0.185    0.457    5.101
  502.184   97.376    0.205    0.473    4.519
  502.434   97.969    0.217    0.476    4.334
  502.684   97.054    0.228    0.470    4.214
  502.934   97.036    0.220    0.480    4.217
