~VERSION INFORMATION
 VERS.                 2.0:   CWLS LOG ASCII STANDARD -VERSION 2.0
 WRAP.                  NO:   ONE LINE PER DEPTH STEP
~WELL INFORMATION BLOCK
#MNEM.UNIT           DATA                    DESCRIPTION OF MNEMONIC
#---------    -------------------            -------------------------------
# Generated from Intellog Unique Number	CS_77_79/WELL/914
WELL.         PCI PCEJ CHARD                 : Well_name    - WELL
LOC .         00/07-32-079-06W4/0            : Location     - LOCATION
UWI .         00/07-32-079-06W4/0            : Uwi          - UNIQUE WELL ID
ENTR.         JHS                            : Entered      - ENTERED BY
SRVC.         SCHLUMBERGER                   : Scn          - SERVICE COMPANY
STRT.M        120                            : top_depth    - START DEPTH
STOP.M        360                            : bot_depth    - STOP DEPTH
STEP.M        0.25                           : increment    - STEP LENGTH
 NULL. -999.2500:NULL Value
~CURVE INFORMATION BLOCK
#MNEM UNIT       ERCB CURVE CODE    CURVE DESCRIPTION
#-----------   ------------------   ----------------------------------
DEPT.M        00 001 00 00         : DEPTH        - DEPTH
DPHI.V/V      00 890 00 00         : PHID         - DENSITY POROSITY (LIMESTONE)
NPHI.V/V      00 330 00 00         : PHIN         - NEUTRON POROSITY (LIMESTONE)
GR  .API      00 310 00 00         : GR           - GAMMA RAY
ILD .OHMM     00 120 00 00         : RESD         - DEEP RESISTIVITY (DIL)
RHOB.KG/M3    00 350 00 00         : DENS         - BULK DENSITY
~PARAMETER INFORMATION
#MNEM.UNIT           DATA             DESCRIPTION OF MNEMONIC
#---------         -----------     ------------------------------
GL  .M        547.4                : gl           - GROUND LEVEL ELEVATION
EREF.M        550.5                : kb           - ELEVATION OF DEPTH REFERENCE
DATM.M        550.5                : datum        - DATUM ELEVATION
TDD .M        365                  : tdd          - TOTAL DEPTH DRILLER
RUN .         ONE                  : Run          - RUN NUMBER
ENG .         BILL                 : Engineer     - RECORDING ENGINEER
WIT .         JIM                  : Witness      - WITNESSED BY
MUD .         GEL                  : Mud_type     - MUD TYPE
MATR.         LIMESTONE            : Logunit      - NEUTRON MATRIX
TMAX.C        20                   : BHT          - MAXIMUM RECORDED TEMPERATURE
BHTD.M        365                  : BHTDEP       - MAXIMUM RECORDED TEMPERATURE
MATR.         1                    : LOGUNIT      - NEUTRON MATRIX
RMT .C        25                   : MDTP         - TEMPERATURE OF MUD
NEUT.         1                    : NEUTRON      - NEUTRON TYPE
RESI.         0                    : RESIST       - RESISTIVITY TYPE
RMC .OHMM     0.25                 : RMC          - RESISTIVITY OF MUD CAKE
RMF .OHMM     0.25                 : RMF          - RESISTIVITY OF MUD FILTRATE
SUFT.C        15                   : SUFT         - SURFACE TEMPERATURE
~A  DEPTH     PHID     PHIN       GR     RESD     DENS
  120.000    0.285    0.522   85.033    3.864    0.000
  120.250    0.298    0.540   86.275    3.867    0.000
  120.500    0.298    0.540   89.349    4.094    0.000
  120.750    0.282    0.533   89.978    4.501    0.000
  121.000    0.282    0.511   83.331    5.042    0.000
  121.250    0.267    0.435   57.853    5.439    0.000
  121.500    0.284    0.411   55.456    5.980    0.000
  121.750    0.327    0.487   64.595    6.826    0.000
  122.000    0.316    0.472   54.301    7.364    0.000
  122.250    0.339    0.408   48.268    7.511    0.000
  122.500    0.393    0.399   56.794    7.105    0.000
  122.750    0.329    0.423   75.049    6.474    0.000
  123.000    0.285    0.489   86.619    5.271    0.000
  123.250    0.275    0.515   89.077    4.211    0.000
  123.500    0.274    0.514   89.720    4.295    0.000
  123.750    0.274    0.562   84.886    5.091    0.000
  124.000    0.258    0.471   67.914    6.146    0.000
  124.250    0.131    0.421   58.836    7.562    0.000
  124.500    0.081    0.391   64.331    9.481    0.000
  124.750    0.133    0.364   78.938   11.235    0.000
  125.000    0.198    0.392   85.045   12.122    0.000
  125.250    0.298    0.426   76.575   12.600    0.000
  125.500    0.340    0.454   68.707   12.373    0.000
  125.750    0.350    0.462   66.923   11.275    0.000
  126.000    0.331    0.453   71.201   10.272    0.000
  126.250    0.308    0.457   76.088    8.848    0.000
  126.500    0.283    0.466   80.984    7.622    0.000
  126.750    0.262    0.481   85.262    7.076    0.000
  127.000    0.249    0.497   90.150    7.082    0.000
  127.250    0.258    0.485   90.797    7.642    0.000
  127.500    0.252    0.478   85.965    8.400    0.000
  127.750    0.263    0.472   81.136    9.770    0.000
  128.000    0.301    0.453   78.130   11.151    0.000
  128.250    0.321    0.445   81.201   12.492    0.000
  128.500    0.327    0.477   80.621   13.224    0.000
  128.750    0.327    0.501   75.792   14.004    0.000
  129.000    0.303    0.504   69.752   15.108    0.000
  129.250    0.319    0.484   58.853   16.300    0.000
  129.500    0.314    0.458   59.487   17.262    0.000
  129.750    0.303    0.418   63.169   18.275    0.000
  130.000    0.299    0.385   63.807   18.636    0.000
  130.250    0.293    0.379   61.405   19.007    0.000
  130.500    0.304    0.446   55.362   19.386    0.000
  130.750    0.316    0.436   51.142   19.405    0.000
  131.000    0.271    0.385   56.641   19.416    0.000
  131.250    0.246    0.385   63.957   20.953    0.000
  131.500    0.277    0.436   67.025   23.029    0.000
  131.750    0.310    0.441   46.407   25.797    0.000
  132.000    0.351    0.419   30.648   28.361    0.000
  132.250    0.375    0.404   25.215   30.035    0.000
  132.500    0.348    0.390   30.109   30.632    0.000
  132.750    0.346    0.389   33.181   30.089    0.000
  133.000    0.371    0.405   35.026   29.000    0.000
  133.250    0.378    0.437   40.527   26.929    0.000
  133.500    0.382    0.432   47.236   25.476    0.000
  133.750    0.368    0.421   55.766   23.651    0.000
  134.000    0.356    0.454   64.909   22.373    0.000
  134.250    0.357    0.455   71.624   21.168    0.000
  134.500    0.358    0.441   71.656   20.024    0.000
  134.750    0.343    0.435   70.474   18.943    0.000
  135.000    0.310    0.453   72.928   18.610    0.000
  135.250    0.289    0.434   71.747   18.625    0.000
  135.500    0.278    0.432   67.526   18.641    0.000
  135.750    0.292    0.436   63.308   19.370    0.000
  136.000    0.311    0.409   59.698   20.131    0.000
  136.250    0.315    0.399   58.507   20.919    0.000
  136.500    0.325    0.432   59.759   21.330    0.000
  136.750    0.329    0.449   62.830   21.754    0.000
  137.000    0.315    0.441   62.246   20.972    0.000
  137.250    0.243    0.418   59.850   19.844    0.000
  137.500    0.214    0.405   64.135   18.769    0.000
  137.750    0.223    0.411   73.270   17.102    0.000
  138.000    0.289    0.421   81.199   15.010    0.000
  138.250    0.269    0.428   84.878   12.929    0.000
  138.500    0.268    0.417   86.127   12.464    0.000
  138.750    0.263    0.413   89.185   12.241    0.000
  139.000    0.249    0.444   94.683   12.022    0.000
  139.250    0.254    0.461   91.074   12.036    0.000
  139.500    0.258    0.435   83.812   12.505    0.000
  139.750    0.252    0.420   82.025   13.746    0.000
  140.000    0.252    0.415   81.452   15.398    0.000
  140.250    0.269    0.445   71.761   17.578    0.000
  140.500    0.342    0.467   62.080   20.064    0.000
  140.750    0.366    0.473   52.996   21.646    0.000
  141.000    0.363    0.449   50.599   22.921    0.000
  141.250    0.358    0.431   53.667   23.371    0.000
  141.500    0.355    0.426   53.705   23.835    0.000
  141.750    0.362    0.436   56.157   23.422    0.000
  142.000    0.362    0.437   64.087   23.003    0.000
  142.250    0.357    0.433   70.796   22.172    0.000
  142.500    0.371    0.438   73.873   21.776    0.000
  142.750    0.374    0.448   72.077   21.387    0.000
  143.000    0.366    0.462   65.426   21.811    0.000
  143.250    0.373    0.451   62.416   21.838    0.000
  143.500    0.388    0.430   63.057   21.856    0.000
  143.750    0.380    0.472   63.695   21.066    0.000
  144.000    0.351    0.493   63.119   20.689    0.000
  144.250    0.336    0.468   64.973   20.710    0.000
  144.500    0.325    0.451   64.396   20.725    0.000
  144.750    0.330    0.442   62.602   21.142    0.000
  145.000    0.353    0.432   68.100   21.154    0.000
  145.250    0.342    0.452   72.384   21.577    0.000
  145.500    0.335    0.464   69.986   21.590    0.000
  145.750    0.353    0.452   61.517   21.608    0.000
  146.000    0.365    0.426   57.901   20.836    0.000
  146.250    0.366    0.413   60.361   20.462    0.000
  146.500    0.350    0.420   66.466   17.963    0.000
  146.750    0.342    0.447   72.577   17.314    0.000
  147.000    0.361    0.477   73.211   16.377    0.000
  147.250    0.376    0.487   74.455   15.206    0.000
  147.500    0.400    0.514   75.705   14.118    0.000
  147.750    0.394    0.501   72.097   12.160    0.000
  148.000    0.327    0.448   69.087   10.087    0.000
  148.250    0.322    0.441   78.224    7.337    0.000
  148.500    0.330    0.479   92.830    6.087    0.000
  148.750    0.295    0.506   99.543    5.344    0.000
  149.000    0.232    0.511  100.186    5.054    0.000
  149.250    0.155    0.506   99.000    4.872    0.000
  149.500    0.149    0.498   94.784    4.609    0.000
  149.750    0.219    0.494   99.670    4.361    0.000
  150.000    0.225    0.503  105.776    4.126    0.000
  150.250    0.227    0.523  105.807    4.053    0.000
  150.500    0.237    0.550  107.049    4.291    0.000
  150.750    0.259    0.595  107.694    4.806    0.000
  151.000    0.273    0.557  106.505    6.496    0.000
  151.250    0.260    0.493  102.283    8.615    0.000
  151.500    0.256    0.441   94.419   11.427    0.000
  151.750    0.260    0.439   70.155   14.600    0.000
  152.000    0.300    0.426   43.465   16.355    0.000
  152.250    0.324    0.404   42.892   17.644    0.000
  152.500    0.319    0.412   52.029   18.680    0.000
  152.750    0.325    0.433   57.527   19.786    0.000
  153.000    0.333    0.434   53.917   20.171    0.000
  153.250    0.324    0.407   49.096   20.574    0.000
  153.500    0.309    0.392   51.557   20.588    0.000
  153.750    0.290    0.408   51.585   20.994    0.000
  154.000    0.310    0.422   51.002   20.623    0.000
  154.250    0.337    0.425   55.284   20.261    0.000
  154.500    0.347    0.420   60.175   19.905    0.000
  154.750    0.346    0.434   62.641   19.918    0.000
  155.000    0.339    0.445   64.494   19.201    0.000
  155.250    0.346    0.476   63.918   18.861    0.000
  155.500    0.348    0.471   65.164   18.880    0.000
  155.750    0.326    0.452   64.587   18.889    0.000
  156.000    0.316    0.442   62.187   18.557    0.000
  156.250    0.331    0.427   64.651   17.886    0.000
