~VERSION INFORMATION
 VERS.                 2.0:   CWLS LOG ASCII STANDARD -VERSION 2.0
 WRAP.                  NO:   ONE LINE PER DEPTH STEP
~WELL INFORMATION BLOCK
#MNEM.UNIT           DATA                    DESCRIPTION OF MNEMONIC
#---------    -------------------            -------------------------------
# Generated from Intellog Unique Number	CW_70_72/WELL/694
NULL.         -999.25                        : NULL_VALUE
WELL.         MAXUS CALLING LAKE 06-23       : Well_name    - WELL              
LOC .         06-23-072-19W4                 : Location     - LOCATION          
UWI .         00/06-23-072-19W4/0            : Uwi          - UNIQUE WELL ID    
ENTR.         JAYE                           : Entered      - ENTERED BY        
SRVC.         WESTERN ATLAS                  : Scn          - SERVICE COMPANY   
DATE.         7 MAR 88                       : Date         - LOG DATE          
STRT.M        335                            : top_depth    - START DEPTH       
STOP.M        565                            : bot_depth    - STOP DEPTH        
STEP.M        0.25                           : increment    - STEP LENGTH       
~CURVE INFORMATION BLOCK
#MNEM UNIT       ERCB CURVE CODE    CURVE DESCRIPTION
#-----------   ------------------   ----------------------------------
DEPT.M        00 001 00 00         : DEPTH        - DEPTH                       
DPHI.V/V      00 890 00 00         : PHID         - DENSITY POROSITY (SANDSTONE)
NPHI.V/V      00 330 00 00         : PHIN         - NEUTRON POROSITY (SANDSTONE)
GR  .API      00 310 00 00         : GR           - GAMMA RAY                   
CALI.MM       00 280 01 00         : CAL          - CALIPER                     
ILD .OHMM     00 120 00 00         : RESD         - DEEP RESISTIVITY (DIL)      
~PARAMETER INFORMATION       
#MNEM.UNIT           DATA             DESCRIPTION OF MNEMONIC
#---------         -----------     ------------------------------
GL  .M        628.2                : gl           - GROUND LEVEL ELEVATION      
EREF.M        631.8                : kb           - ELEVATION OF DEPTH REFERENCE
DATM.M        628.2                : datum        - DATUM ELEVATION             
TDD .M        620                  : tdd          - TOTAL DEPTH DRILLER         
RUN .         ONE                  : Run          - RUN NUMBER                  
ENG .         RORMOWSKI            : Engineer     - RECORDING ENGINEER          
WIT .         HERRON               : Witness      - WITNESSED BY                
BASE.         SLAVE LAKE           : Branch       - HOME BASE OF LOGGING UNIT   
MUD .         GEL CHEM MUDD        : Mud_type     - MUD TYPE                    
MATR.         SANDSTONE            : Logunit      - NEUTRON MATRIX              
TMAX.C        25                   : BHT          - MAXIMUM RECORDED TEMPERATURE
BHTD.M        618.8                : BHTDEP       - MAXIMUM RECORDED TEMPERATURE
RMT .C        16                   : MDTP         - TEMPERATURE OF MUD          
MUDD.KG/M     1140                 : MWT          - MUD DENSITY                 
NEUT.         1                    : NEUTRON      - NEUTRON TYPE                
RESI.         0                    : RESIST       - RESISTIVITY TYPE            
RM  .OHMM     4.1                  : RM           - RESISTIVITY OF MUD          
RMC .OHMM     4.8                  : RMC          - RESISTIVITY OF MUD CAKE     
RMF .OHMM     3.5                  : RMF          - RESISTIVITY OF MUD FILTRATE 
SUFT.C        32                   : SUFT         - SURFACE TEMPERATURE         
~A  DEPTH     PHID     PHIN       GR      CAL     RESD
  335.000    0.175    0.430   86.517  186.813    3.210
  335.250    0.185    0.440   93.488  194.458    3.146
  335.500    0.216    0.454   97.525  203.123    3.112
  335.750    0.213    0.463  100.830  200.993    3.084
  336.000    0.221    0.449   98.941  197.743    3.045
  336.250    0.229    0.461   99.802  196.632    2.996
  336.500    0.228    0.475  103.350  195.723    2.931
  336.750    0.225    0.464   99.567  194.511    2.899
  337.000    0.217    0.448  103.544  193.603    2.831
  337.250    0.222    0.438  103.549  193.102    2.785
  337.500    0.228    0.428  102.149  192.500    2.734
  337.750    0.233    0.429  104.781  192.202    2.680
  338.000    0.225    0.428  106.742  192.211    2.626
  338.250    0.230    0.433  101.981  192.423    2.550
  338.500    0.235    0.441   97.587  192.941    2.500
  338.750    0.239    0.455   95.087  192.746    2.514
  339.000    0.246    0.466   95.703  192.042    2.629
  339.250    0.248    0.450   96.014  191.541    2.911
  339.500    0.242    0.432   97.302  190.022    3.277
  339.750    0.240    0.419   93.824  187.892    3.595
  340.000    0.237    0.403   87.903  182.910    3.936
  340.250    0.221    0.393   80.515  179.152    4.523
  340.500    0.228    0.393   74.410  171.116    5.129
  340.750    0.239    0.393   71.910  168.985    6.003
  341.000    0.253    0.435   69.655  167.771    6.429
  341.250    0.292    0.554   64.650  165.337    6.174
  341.500    0.071    0.575   56.956  164.633    5.789
  341.750    0.455    0.482   51.646  164.846    5.309
  342.000    0.292    0.419   68.881  165.056    5.051
  342.250    0.268    0.400   75.240  164.660    5.194
  342.500    0.253    0.391   73.658  164.159    5.421
  342.750    0.276    0.380   67.491  163.758    5.372
  343.000    0.275    0.368   58.392  163.665    5.464
  343.250    0.191    0.345   52.043  163.878    5.465
  343.500    0.128    0.330   48.748  163.988    5.200
  343.750    0.199    0.366   58.163  164.403    4.885
  344.000    0.316    0.393   67.394  165.024    4.691
  344.250    0.304    0.407   74.915  166.559    4.598
  344.500    0.284    0.415   82.129  171.252    4.658
  344.750    0.274    0.422   85.923  174.213    4.608
  345.000    0.266    0.413   84.706  175.852    4.483
  345.250    0.253    0.391   82.817  177.082    4.330
  345.500    0.248    0.389   87.160  178.618    4.204
  345.750    0.246    0.385   87.105  180.969    4.098
  346.000    0.239    0.381   89.126  184.236    4.001
  346.250    0.232    0.398   91.391  186.282    3.958
  346.500    0.232    0.412   93.963  186.697    4.025
  346.750    0.220    0.421   95.984  186.094    4.248
  347.000    0.208    0.404   98.311  182.539    4.566
  347.250    0.226    0.393  100.149  175.012    4.873
  347.500    0.243    0.386   95.450  169.216    5.180
  347.750    0.237    0.368   92.766  166.170    5.337
  348.000    0.246    0.363   93.993  165.770    5.539
  348.250    0.241    0.366   96.809  165.474    5.644
  348.500    0.233    0.379   99.747  164.572    5.593
  348.750    0.222    0.366  101.463  165.491    5.512
  349.000    0.215    0.353   96.397  162.648    5.343
  349.250    0.229    0.378   94.386  159.194    5.198
  349.500    0.233    0.385   93.352  158.897    5.010
  349.750    0.246    0.382   86.025  159.110    4.856
  350.000    0.264    0.388   77.660  159.119    4.786
  350.250    0.267    0.386   81.270  159.126    4.814
  350.500    0.266    0.381   80.908  159.136    4.878
  350.750    0.258    0.390   81.708  158.940    4.897
  351.000    0.232    0.389   77.008  159.458    4.916
  351.250    0.208    0.371   72.309  162.623    4.917
  351.500    0.072    0.349   68.954  167.927    4.882
  351.750    0.007    0.340   64.804  169.056    4.732
  352.000    0.068    0.362   70.491  170.082    4.528
  352.250    0.270    0.374   74.773  170.600    4.340
  352.500    0.282    0.371   77.406  170.507    4.115
  352.750    0.294    0.374   79.245  170.414    3.944
  353.000    0.287    0.369   82.487  170.118    3.788
  353.250    0.273    0.368   92.085  170.940    3.651
  353.500    0.252    0.376   99.239  174.207    3.500
  353.750    0.216    0.404  104.804  177.983    3.276
  354.000    0.178    0.414  109.819  180.640    3.083
  354.250    0.177    0.429  107.075  181.870    2.944
  354.500    0.212    0.459  111.785  182.184    2.812
  354.750    0.208    0.470  119.061  181.990    2.705
  355.000    0.153    0.464  117.233  181.591    2.608
  355.250    0.087    0.470  116.444  181.396    2.551
  355.500    0.134    0.464  120.726  181.200    2.519
  355.750    0.178    0.456  120.976  181.514    2.566
  356.000    0.155    0.447  122.508  183.661    2.744
  356.250    0.209    0.475  124.652  187.437    3.083
  356.500    0.248    0.445  122.946  189.483    3.595
  356.750    0.248    0.423  120.874  187.862    4.092
  357.000    0.223    0.399  123.323  184.205    4.658
  357.250    0.207    0.381  118.196  182.788    5.244
  357.500    0.248    0.371  112.396  181.880    5.721
  357.750    0.306    0.388  113.440  181.888    5.723
  358.000    0.242    0.378  110.451  184.239    5.568
  358.250    0.232    0.387  111.862  191.579    5.538
  358.500    0.213    0.398  114.678  198.207    5.580
  358.750    0.213    0.404  117.799  189.458    5.633
  359.000    0.229    0.388  119.820  182.236    5.687
  359.250    0.235    0.408  112.982  174.302    5.784
  359.500    0.275    0.397  106.450  171.866    5.860
  359.750    0.258    0.391  103.950  173.097    5.960
  360.000    0.243    0.407  102.733  172.395    6.072
  360.250    0.229    0.387  105.610  174.743    6.279
  360.500    0.219    0.398  109.525  172.919    6.553
  360.750    0.231    0.391  105.558  164.782    6.865
  361.000    0.253    0.372  100.981  164.077    7.420
  361.250    0.279    0.381   92.249  163.882    7.947
  361.500    0.291    0.394   84.189  163.891    7.847
  361.750    0.294    0.401   76.374  164.408    7.466
  362.000    0.295    0.394   73.262  165.028    7.197
  362.250    0.284    0.400   73.513  165.341    7.041
  362.500    0.255    0.404   79.077  165.350    6.965
  362.750    0.237    0.413   88.919  165.460    6.902
  363.000    0.289    0.428   86.909  165.367    6.853
  363.250    0.325    0.425   78.787  164.969    6.829
  363.500    0.334    0.417   71.399  164.774    6.818
  363.750    0.321    0.409   69.877  164.680    6.782
  364.000    0.314    0.396   71.837  165.096    6.696
  364.250    0.313    0.388   74.653  166.022    6.636
  364.500    0.306    0.384   74.658  166.640    6.164
  364.750    0.266    0.377   69.653  167.973    5.663
  365.000    0.184    0.368   70.514  170.527    5.042
  365.250    0.244    0.379   80.294  175.118    4.754
  365.500    0.252    0.386   88.731  178.487    4.676
  365.750    0.242    0.392   95.213  178.598    4.712
  366.000    0.235    0.393  100.412  177.079    5.009
  366.250    0.230    0.400  105.488  171.995    5.316
  366.500    0.233    0.393  107.815  168.440    5.527
  366.750    0.233    0.393  105.621  167.227    5.570
  367.000    0.244    0.398   99.455  168.457    5.519
  367.250    0.265    0.401   93.533  170.299    5.470
  367.500    0.264    0.387  101.970  172.649    5.322
  367.750    0.245    0.358  114.989  178.971    5.111
  368.000    0.220    0.362  128.925  183.359    4.945
  368.250    0.232    0.373  124.470  185.913    4.354
  368.500    0.225    0.376  117.693  187.449    3.742
  368.750    0.224    0.438  111.710  172.081    3.043
  369.000    0.281    0.430  100.718  169.442    2.597
  369.250    0.289    0.424  105.000  174.644    2.399
  369.500    0.249    0.419  113.192  179.845    2.404
  369.750    0.239    0.417  122.118  191.769    2.527
  370.000    0.230    0.427  122.795  194.527    2.722
  370.250    0.211    0.408  116.202  192.804    2.862
  370.500    0.185    0.406  112.968  194.748    2.921
  370.750    0.209    0.421  118.289  198.218    3.004
  371.000    0.216    0.444  125.626  187.229    3.188
  371.250    0.302    0.460  119.277  186.423    3.595
