~VERSION INFORMATION
 VERS.                 2.0:   CWLS LOG ASCII STANDARD -VERSION 2.0
 WRAP.                  NO:   ONE LINE PER DEPTH STEP
~WELL INFORMATION BLOCK
#MNEM.UNIT           DATA                    DESCRIPTION OF MNEMONIC
#---------    -------------------            -------------------------------
# Generated from Intellog Unique Number	CS_77_79/WELL/3286
WELL.         ALLIED ROXANA MINERALS LTD.    : Well_name    - WELL
LOC .         00/06-12-079-18W4/0            : Location     - LOCATION
UWI .         00/06-12-079-18W4/0            : Uwi          - UNIQUE WELL ID
ENTR.         JOETTE                         : Entered      - ENTERED BY
SRVC.         SCHLUMBERGER                   : Scn          - SERVICE COMPANY
DATE.         08-24-92                       : Date         - LOG DATE
STRT.M        198.12                         : top_depth    - START DEPTH
STOP.M        411.37                         : bot_depth    - STOP DEPTH
STEP.M        0.25                           : increment    - STEP LENGTH
 NULL. -999.2500:NULL Value
~CURVE INFORMATION BLOCK
#MNEM UNIT       ERCB CURVE CODE    CURVE DESCRIPTION
#-----------   ------------------   ----------------------------------
DEPT.M        00 001 00 00         : DEPTH        - DEPTH
ILD .OHMM     00 120 00 00         : RESD         - DEEP RESISTIVITY (DIL)
DPHI.V/V      00 890 00 00         : PHID         - DENSITY POROSITY (SANDSTONE)
NPHI.V/V      00 330 00 00         : PHIN         - NEUTRON POROSITY (SANDSTONE)
GR  .API      00 310 00 00         : GR           - GAMMA RAY
~PARAMETER INFORMATION
#MNEM.UNIT           DATA             DESCRIPTION OF MNEMONIC
#---------         -----------     ------------------------------
GL  .M        541.477              : gl           - GROUND LEVEL ELEVATION
EREF.M        544.525              : kb           - ELEVATION OF DEPTH REFERENCE
DATM.M        544.525              : datum        - DATUM ELEVATION
TDD .M        411.48               : tdd          - TOTAL DEPTH DRILLER
RUN .         ONE                  : Run          - RUN NUMBER
ENG .         BILL                 : Engineer     - RECORDING ENGINEER
WIT .         JIM                  : Witness      - WITNESSED BY
MUD .         GEL                  : Mud_type     - MUD TYPE
MATR.         SANDSTONE            : Logunit      - NEUTRON MATRIX
TMAX.C        23.3333              : BHT          - MAXIMUM RECORDED TEMPERATURE
BHTD.M        411.48               : BHTDEP       - MAXIMUM RECORDED TEMPERATURE
MATR.         1                    : LOGUNIT      - NEUTRON MATRIX
RMT .C        18.3333              : MDTP         - TEMPERATURE OF MUD
NEUT.         1                    : NEUTRON      - NEUTRON TYPE
RESI.         0                    : RESIST       - RESISTIVITY TYPE
RMC .OHMM     1.73                 : RMC          - RESISTIVITY OF MUD CAKE
RMF .OHMM     1.24                 : RMF          - RESISTIVITY OF MUD FILTRATE
SUFT.C        5                    : SUFT         - SURFACE TEMPERATURE
~A  DEPTH     RESD     PHID     PHIN       GR
# ...
  372.120    6.595    0.043    0.333  104.752
  372.370    7.011    0.109    0.330  115.863
  372.620    7.640    0.160    0.334  119.606
  372.870    8.486    0.169    0.329  119.066
  373.120    8.501    0.149    0.324  118.511
  373.370    8.516    0.132    0.324  121.042
  373.620    8.145    0.142    0.331  118.630
  373.870    7.957    0.161    0.346  110.708
  374.120    7.764    0.170    0.344  105.242
  374.370    7.388    0.190    0.340  105.915
  374.620    7.403    0.181    0.330  109.044
  374.870    7.428    0.183    0.325  106.034
  375.120    8.062    0.181    0.315   96.270
  375.370    8.275    0.186    0.299   85.892
  375.620    8.908    0.189    0.299   79.797
  375.870   10.150    0.189    0.318   67.577
  376.120   10.566    0.200    0.292   54.129
  376.370   12.828    0.232    0.283   54.803
  376.620   14.060    0.235    0.329   59.160
  376.870   15.297    0.217    0.323   64.131
  377.120   14.505    0.186    0.311   68.503
  377.370   13.313    0.160    0.304   74.702
  377.620   12.111    0.148    0.319   82.159
  377.870   11.117    0.149    0.371   79.133
  378.120   10.122    0.193    0.371   75.509
  378.370    9.331    0.198    0.359   76.182
  378.620    8.742    0.219    0.428   83.609
  378.870    8.356    0.189    0.522   96.577
  379.120    8.173    0.184    0.529   88.655
  379.370    8.208    0.269    0.507   79.490
  379.620    8.421    0.329    0.375   77.093
  379.870    8.451    0.228    0.359   87.605
  380.120    8.466    0.173    0.340   96.874
  380.370    8.075    0.182    0.556  103.088
  380.620    7.487    0.193    0.577  109.901
  380.870    6.497    0.208    0.571  124.096
  381.120    5.918    0.252    0.557  145.045
  381.370    5.726    0.251    0.540  151.873
  381.620    5.750    0.273    0.514  148.848
  381.870    5.760    0.305    0.471  142.768
  382.120    5.993    0.334    0.431  139.757
  382.370    6.825    0.341    0.371  137.361
  382.620    8.062    0.263    0.336  129.439
  382.870    9.294    0.265    0.307  109.222
  383.120   14.796    0.268    0.257   75.499
  383.370   16.236    0.233    0.249   41.775
  383.620   18.290    0.216    0.274   36.309
  383.870   18.107    0.221    0.284   40.067
  384.120   16.301    0.238    0.264   39.498
  384.370   14.906    0.244    0.258   38.958
  384.620   14.120    0.215    0.258   42.102
  384.870   13.927    0.212    0.281   46.459
  385.120   13.754    0.237    0.305   48.346
  385.370   13.769    0.239    0.314   47.192
  385.620   13.586    0.231    0.325   47.251
  385.870   13.408    0.232    0.331   47.910
  386.120   13.220    0.237    0.327   50.470
  386.370   12.626    0.205    0.317   52.341
  386.620   12.038    0.191    0.342   57.926
  386.870   11.251    0.175    0.383   67.824
  387.120   10.460    0.154    0.428   69.126
  387.370    9.866    0.195    0.437   66.101
  387.620    9.084    0.206    0.417   53.881
  387.870    8.699    0.166    0.430   44.102
  388.120    8.313    0.148    0.442   34.952
  388.370    8.531    0.138    0.399   27.644
  388.620    8.956    0.145    0.392   27.119
  388.870   10.599    0.186    0.392   28.991
  389.120   12.252    0.235    0.439   32.120
  389.370   11.876    0.228    0.459   35.264
  389.620   11.881    0.210    0.467   34.739
  389.870   11.698    0.191    0.472   33.541
  390.120   11.728    0.176    0.466   30.530
  390.370   11.738    0.174    0.469   26.936
  390.620   12.164    0.173    0.490   26.352
  390.870   12.600    0.274    0.494   24.569
  391.120   12.817    0.270    0.483   24.029
  391.370   12.437    0.259    0.481   24.074
  391.620   12.051    0.240    0.486   24.747
  391.870   11.462    0.219    0.480   24.822
  392.120   10.873    0.213    0.455   24.297
  392.370   10.280    0.208    0.438   23.727
  392.620    9.286    0.196    0.443   22.544
  392.870    8.291    0.207    0.445   21.390
  393.120    7.302    0.226    0.435   19.608
  393.370    7.317    0.237    0.411   18.424
  393.620    7.134    0.249    0.415   17.271
  393.870    7.357    0.252    0.416   15.503
  394.120    7.579    0.229    0.392   15.533
  394.370    8.010    0.164    0.366   14.993
  394.620    8.233    0.173    0.365   15.067
  394.870    8.456    0.181    0.411   15.726
  395.120    8.481    0.182    0.379   16.414
  395.370    8.298    0.203    0.346   17.073
  395.620    8.110    0.202    0.336   17.147
  395.870    7.927    0.163    0.317   16.577
  396.120    7.744    0.127    0.317   15.424
  396.370    7.764    0.129    0.309   14.884
  396.620    8.200    0.118    0.296   14.973
  396.870    8.417    0.107    0.269   15.632
  397.120    8.843    0.113    0.268   16.275
  397.370    9.680    0.103    0.276   16.335
  397.620   10.308    0.098    0.269   16.394
  397.870   11.139    0.110    0.263   17.696
  398.120   11.773    0.109    0.256   20.226
  398.370   12.812    0.100    0.275   23.341
  398.620   13.233    0.106    0.300   27.114
  398.870   13.654    0.100    0.316   28.371
  399.120   13.886    0.095    0.339   29.688
  399.370   14.104    0.090    0.336   29.119
  399.620   14.936    0.085    0.311   27.366
  399.870   16.178    0.079    0.308   26.183
  400.120   17.618    0.073    0.303   23.786
  400.370   19.469    0.073    0.308   22.633
  400.620   21.107    0.068    0.317   22.662
  400.870   25.189    0.069    0.288   23.351
  401.120   25.817    0.079    0.277   23.395
  401.370   27.059    0.080    0.259   23.469
  401.620   28.089    0.057    0.255   23.544
  401.870   32.374    0.035    0.224   22.974
  402.120   35.437    0.030    0.219   23.034
  402.370   37.288    0.030    0.218   23.722
  402.620   38.332    0.030    0.216   24.380
  402.870   39.569    0.038    0.217   25.668
  403.120   39.990    0.033    0.223   26.970
  403.370   40.831    0.023    0.227   27.673
  403.620   41.252    0.018    0.225   27.718
  403.870   41.673    0.019    0.223   27.163
  404.120   42.509    0.017    0.224   25.980
  404.370   43.335    0.012    0.225   24.841
  404.620   44.578    0.007    0.227   24.271
  404.870   45.612    0.015    0.226   24.346
  405.120   45.632    0.010    0.225   24.989
  405.370   39.566    0.010    0.225   25.707
  405.620   35.321    0.035    0.227   25.752
  405.870   32.703    0.068    0.232   25.796
  406.120   30.897    0.064    0.235   25.271
  406.370   29.299    0.058    0.236   25.316
  406.620   30.334    0.051    0.236   25.375
  406.870   31.571    0.056    0.231   27.262
  407.120   32.600    0.057    0.236   50.053
  407.370   33.441    0.059    0.244   85.752
  407.620   31.220    0.071    0.242   91.981
  407.870   26.777    0.068    0.241   93.867
  408.120   24.362    0.056    0.242   94.555
  408.370   23.368    0.067    0.236   92.773
  408.620   23.591    0.082    0.234   90.376
  408.870   24.427    0.075    0.236   91.050
  409.120   24.848    0.070    0.268   93.565
  409.370   25.491    0.066    0.333   94.852
  409.620   25.298    0.067    0.455   93.070
  409.870   24.913    0.069    0.462   94.971
  410.120   23.928    0.057    0.467   96.258
  410.370   23.330    0.050    0.469   95.090
  410.620   22.741    0.057    0.476   93.307
  410.870   22.563    0.063    0.496   92.768
  411.120   22.786    0.062    0.520   92.827
  411.370   23.212    0.032    0.497   92.901
