~VERSION INFORMATION
 VERS.                 2.0:   CWLS LOG ASCII STANDARD -VERSION 2.0
 WRAP.                  NO:   ONE LINE PER DEPTH STEP
~WELL INFORMATION BLOCK
#MNEM.UNIT           DATA                    DESCRIPTION OF MNEMONIC
#---------    -------------------            -------------------------------
# Generated from Intellog Unique Number	CS_67_68/WELL/843
WELL.         MERLAND EXPLORATIONS           : Well_name    - WELL
LOC .         00/05-27-068-11W4/0            : Location     - LOCATION
UWI .         00/05-27-068-11W4/0            : Uwi          - UNIQUE WELL ID
ENTR.         SP                             : Entered      - ENTERED BY
SRVC.         SCHLUMBERGER                   : Scn          - SERVICE COMPANY
STRT.M        300                            : top_depth    - START DEPTH
STOP.M        505                            : bot_depth    - STOP DEPTH
STEP.M        0.25                           : increment    - STEP LENGTH
 NULL. -999.2500:NULL Value
~CURVE INFORMATION BLOCK
#MNEM UNIT       ERCB CURVE CODE    CURVE DESCRIPTION
#-----------   ------------------   ----------------------------------
DEPT.M        00 001 00 00         : DEPTH        - DEPTH
ILD .OHMM     00 120 00 00         : RESD         - DEEP RESISTIVITY (DIL)
DPHI.V/V      00 890 00 00         : PHID         - DENSITY POROSITY (LIMESTONE)
NPHI.V/V      00 330 00 00         : PHIN         - NEUTRON POROSITY (LIMESTONE)
GR  .API      00 310 00 00         : GR           - GAMMA RAY
~PARAMETER INFORMATION
#MNEM.UNIT           DATA             DESCRIPTION OF MNEMONIC
#---------         -----------     ------------------------------
GL  .M        615.2                : gl           - GROUND LEVEL ELEVATION
EREF.M        618                  : kb           - ELEVATION OF DEPTH REFERENCE
DATM.M        615.2                : datum        - DATUM ELEVATION
TDD .M        515                  : tdd          - TOTAL DEPTH DRILLER
RUN .         ONE                  : Run          - RUN NUMBER
ENG .         BILL                 : Engineer     - RECORDING ENGINEER
WIT .         JIM                  : Witness      - WITNESSED BY
MUD .         GEL                  : Mud_type     - MUD TYPE
MATR.         LIMESTONE            : Logunit      - NEUTRON MATRIX
TMAX.C        22                   : BHT          - MAXIMUM RECORDED TEMPERATURE
BHTD.M        515                  : BHTDEP       - MAXIMUM RECORDED TEMPERATURE
MATR.         1                    : LOGUNIT      - NEUTRON MATRIX
RMT .C        25                   : MDTP         - TEMPERATURE OF MUD
NEUT.         1                    : NEUTRON      - NEUTRON TYPE
RESI.         0                    : RESIST       - RESISTIVITY TYPE
RMC .OHMM     0.25                 : RMC          - RESISTIVITY OF MUD CAKE
RMF .OHMM     0.25                 : RMF          - RESISTIVITY OF MUD FILTRATE
SUFT.C        15                   : SUFT         - SURFACE TEMPERATURE
~A  DEPTH     RESD     PHID     PHIN       GR
  300.000    2.573    0.237    0.480  102.665
  300.250    2.476    0.255    0.497  102.304
  300.500    2.459    0.258    0.516  100.552
  300.750    2.443    0.237    0.531  100.554
  301.000    2.445    0.254    0.546  100.314
  301.250    2.465    0.260    0.528   98.017
  301.500    2.481    0.243    0.508   98.746
  301.750    2.516    0.230    0.500  102.259
  302.000    2.551    0.231    0.509  101.112
  302.250    2.562    0.244    0.531   98.814
  302.500    2.593    0.254    0.541   96.456
  302.750    2.624    0.240    0.523   95.370
  303.000    2.680    0.227    0.494   95.009
  303.250    2.728    0.227    0.482   95.375
  303.500    2.777    0.227    0.475   97.617
  303.750    2.837    0.234    0.471   97.801
  304.000    2.892    0.229    0.488   97.259
  304.250    2.965    0.211    0.495   97.565
  304.500    3.034    0.203    0.473   98.113
  304.750    3.032    0.230    0.456   98.478
  305.000    3.012    0.225    0.447   99.026
  305.250    2.964    0.219    0.450   99.089
  305.500    2.938    0.224    0.463   98.486
  305.750    2.844    0.230    0.476   98.609
  306.000    2.783    0.230    0.483  100.973
  306.250    2.673    0.226    0.479  102.913
  306.500    2.611    0.232    0.480  103.279
  306.750    2.638    0.240    0.475  103.584
  307.000    2.746    0.256    0.469  104.676
  307.250    2.783    0.270    0.461  106.677
  307.500    2.806    0.244    0.451  108.072
  307.750    2.814    0.244    0.466  108.437
  308.000    2.795    0.269    0.474  107.047
  308.250    2.710    0.284    0.481  103.903
  308.500    2.598    0.295    0.480  101.666
  308.750    2.539    0.286    0.467   99.852
  309.000    2.531    0.262    0.468   96.465
  309.250    2.585    0.257    0.478   93.743
  309.500    3.026    0.256    0.484   89.388
  309.750    3.411    0.226    0.478   85.940
  310.000    3.761    0.124    0.434   80.918
  310.250    4.155    0.164    0.369   78.923
  310.500    4.481    0.201    0.364   83.345
  310.750    4.585    0.228    0.385   95.212
  311.000    4.633    0.229    0.402   99.391
  311.250    4.627    0.220    0.404  102.663
  311.500    4.605    0.212    0.404  103.574
  311.750    4.540    0.204    0.408  102.668
  312.000    4.369    0.199    0.411  103.882
  312.250    4.316    0.224    0.414  104.913
  312.500    4.239    0.267    0.421  103.887
  312.750    4.134    0.232    0.429   99.652
  313.000    4.015    0.239    0.436   97.597
  313.250    3.886    0.220    0.445   96.873
  313.500    3.761    0.211    0.415   98.389
  313.750    3.639    0.217    0.405   91.551
  314.000    3.483    0.256    0.395   77.510
  314.250    3.396    0.285    0.379   66.738
  314.500    3.287    0.310    0.365   60.021
  314.750    3.181    0.290    0.361   51.126
  315.000    3.101    0.279    0.375   49.857
  315.250    3.024    0.272    0.387   55.187
  315.500    2.910    0.288    0.392   54.584
  315.750    2.811    0.298    0.387   50.047
  316.000    2.662    0.298    0.381   44.481
  316.250    2.642    0.300    0.372   41.033
  316.500    2.596    0.298    0.364   39.401
  316.750    2.574    0.293    0.357   38.011
  317.000    2.571    0.307    0.352   37.227
  317.250    2.597    0.316    0.349   37.411
  317.500    2.643    0.325    0.347   38.443
  317.750    2.655    0.307    0.352   38.869
  318.000    2.657    0.301    0.358   37.843
  318.250    2.649    0.294    0.361   35.061
  318.500    2.646    0.302    0.356   32.279
  318.750    2.629    0.315    0.345   30.284
  319.000    2.616    0.314    0.345   28.471
  319.250    2.584    0.323    0.341   27.445
  319.500    2.553    0.327    0.348   26.902
  319.750    2.526    0.323    0.359   26.785
  320.000    2.495    0.319    0.369   26.908
  320.250    2.479    0.330    0.370   27.153
  320.500    2.481    0.319    0.363   27.639
  320.750    2.521    0.328    0.358   28.489
  321.000    2.542    0.335    0.354   29.400
  321.250    2.568    0.325    0.366   31.219
  321.500    2.574    0.319    0.374   32.008
  321.750    2.600    0.313    0.381   32.919
  322.000    2.632    0.309    0.363   31.590
  322.250    2.643    0.317    0.353   29.232
  322.500    2.660    0.325    0.348   27.963
  322.750    2.677    0.321    0.350   27.724
  323.000    2.679    0.309    0.343   27.666
  323.250    2.677    0.306    0.352   27.608
  323.500    2.673    0.309    0.357   27.066
  323.750    2.680    0.301    0.355   26.524
  324.000    2.692    0.300    0.348   26.163
  324.250    2.669    0.315    0.339   25.984
  324.500    2.676    0.326    0.335   25.866
  324.750    2.684    0.333    0.343   25.748
  325.000    2.706    0.335    0.353   26.174
  325.250    2.739    0.338    0.360   27.326
  325.500    2.782    0.338    0.370   31.808
  325.750    2.890    0.332    0.377   37.743
  326.000    3.163    0.308    0.355   44.889
  326.250    3.455    0.280    0.367   52.095
  326.500    3.746    0.256    0.396   66.445
  326.750    4.047    0.258    0.415   81.217
  327.000    4.219    0.258    0.432   96.656
  327.250    4.342    0.249    0.441  104.407
  327.500    4.454    0.263    0.447  100.354
  327.750    4.480    0.243    0.435   97.814
  328.000    4.297    0.219    0.429   95.941
  328.250    4.204    0.201    0.424   95.579
  328.500    4.002    0.186    0.430   96.793
  328.750    3.865    0.236    0.441  101.699
  329.000    3.637    0.224    0.453  107.089
  329.250    3.379    0.210    0.464  111.934
  329.500    3.209    0.211    0.476  114.238
  329.750    3.100    0.232    0.487  115.572
  330.000    3.062    0.248    0.496  116.482
  330.250    3.042    0.256    0.495  116.969
  330.500    3.011    0.261    0.481  116.971
  330.750    3.007    0.274    0.446  108.984
  331.000    3.061    0.306    0.418   95.548
  331.250    3.150    0.326    0.396   89.558
  331.500    3.266    0.311    0.377   82.054
  331.750    3.330    0.326    0.377   75.519
  332.000    3.352    0.332    0.384   72.556
  332.250    3.386    0.316    0.390   74.435
  332.500    3.433    0.304    0.388   79.886
  332.750    3.480    0.290    0.388   86.063
  333.000    3.562    0.292    0.402   89.335
  333.250    3.666    0.290    0.418   91.698
  333.500    3.758    0.296    0.428   93.395
  333.750    3.818    0.287    0.436   94.548
  334.000    3.828    0.294    0.433   95.035
  334.250    3.788    0.283    0.440   96.309
  334.500    3.728    0.284    0.448   93.467
  334.750    3.643    0.292    0.450   90.564
  335.000    3.611    0.305    0.464   90.143
  335.250    3.587    0.323    0.479   93.535
  335.500    3.577    0.334    0.486   95.475
  335.750    3.586    0.334    0.460   96.204
  336.000    3.596    0.318    0.454   95.359
  336.250    3.632    0.310    0.454   94.877
  336.500    3.682    0.300    0.439   94.819
  336.750    3.748    0.308    0.431   95.367
  337.000    3.850    0.315    0.440   96.338
  337.250    4.029    0.286    0.448   98.278
  337.500    4.272    0.261    0.407   98.644
  337.750    4.421    0.235    0.359   97.315
  338.000    4.367    0.198    0.329   94.231
  338.250    4.314    0.227    0.361   91.085
  338.500    4.113    0.272    0.388   87.335
  338.750    3.907    0.297    0.415   90.727
  339.000    3.719    0.317    0.435   95.936
  339.250    3.612    0.320    0.453   99.873
  339.500    3.568    0.318    0.454   98.120
  339.750    3.544    0.315    0.451   95.581
  340.000    3.534    0.315    0.459   95.583
  340.250    3.544    0.315    0.467   97.038
  340.500    3.553    0.313    0.456   97.888
  340.750    3.569    0.320    0.442   96.681
  341.000    3.585    0.307    0.429   95.291
  341.250    3.622    0.303    0.418   93.659
  341.500    3.665    0.313    0.438   93.239
  341.750    3.688    0.316    0.451   93.604
  342.000    3.712    0.297    0.461   95.059
  342.250    3.736    0.283    0.468   97.726
  342.500    3.762    0.288    0.476   99.665
  342.750    3.763    0.293    0.474  101.847
  343.000    3.738    0.280    0.472  100.761
  343.250    3.713    0.285    0.456   98.220
