~VERSION INFORMATION
 VERS.                 2.0:   CWLS LOG ASCII STANDARD -VERSION 2.0
 WRAP.                  NO:   ONE LINE PER DEPTH STEP
~WELL INFORMATION BLOCK
#MNEM.UNIT           DATA                    DESCRIPTION OF MNEMONIC
#---------    -------------------            -------------------------------
# Generated from Intellog Unique Number	CW_76_78/WELL/2566
WELL.         NOVALTA PORTAGE                : Well_name    - WELL
LOC .         00/05-29-078-19W4/0            : Location     - LOCATION
UWI .         00/05-29-078-19W4/0            : Uwi          - UNIQUE WELL ID
ENTR.         MAX                            : Entered      - ENTERED BY
SRVC.         WESTERN ATLAS                  : Scn          - SERVICE COMPANY
STRT.M        190                            : top_depth    - START DEPTH
STOP.M        400                            : bot_depth    - STOP DEPTH
STEP.M        0.25                           : increment    - STEP LENGTH
 NULL. -999.2500:NULL Value
~CURVE INFORMATION BLOCK
#MNEM UNIT       ERCB CURVE CODE    CURVE DESCRIPTION
#-----------   ------------------   ----------------------------------
DEPT.M        00 001 00 00         : DEPTH        - DEPTH
ILD .OHMM     00 120 00 00         : RESD         - DEEP RESISTIVITY (DIL)
NPHI.V/V      00 330 00 00         : PHIN         - NEUTRON POROSITY (SANDSTONE)
DPHI.V/V      00 890 00 00         : PHID         - DENSITY POROSITY (SANDSTONE)
CALI.MM       00 280 01 00         : CAL          - CALIPER
GR  .API      00 310 00 00         : GR           - GAMMA RAY
~PARAMETER INFORMATION
#MNEM.UNIT           DATA             DESCRIPTION OF MNEMONIC
#---------         -----------     ------------------------------
GL  .M        559.38               : gl           - GROUND LEVEL ELEVATION
EREF.M        563.38               : kb           - ELEVATION OF DEPTH REFERENCE
DATM.M        559.38               : datum        - DATUM ELEVATION
TDD .M        433.8                : tdd          - TOTAL DEPTH DRILLER
RUN .         ONE                  : Run          - RUN NUMBER
ENG .         BILL                 : Engineer     - RECORDING ENGINEER
WIT .         JIM                  : Witness      - WITNESSED BY
MUD .         GEL                  : Mud_type     - MUD TYPE
MATR.         SANDSTONE            : Logunit      - NEUTRON MATRIX
TMAX.C        24                   : BHT          - MAXIMUM RECORDED TEMPERATURE
BHTD.M        433.8                : BHTDEP       - MAXIMUM RECORDED TEMPERATURE
RMT .C        17                   : MDTP         - TEMPERATURE OF MUD
MUDD.KG/M     1160                 : MWT          - MUD DENSITY
NEUT.         1                    : NEUTRON      - NEUTRON TYPE
RESI.         0                    : RESIST       - RESISTIVITY TYPE
RM  .OHMM     5                    : RM           - RESISTIVITY OF MUD
RMC .OHMM     0.25                 : RMC          - RESISTIVITY OF MUD CAKE
RMF .OHMM     0.25                 : RMF          - RESISTIVITY OF MUD FILTRATE
SUFT.C        -20                  : SUFT         - SURFACE TEMPERATURE
~A  DEPTH     RESD     PHIN     PHID      CAL       GR
# ...
  372.500   13.123    0.360    0.319  177.353   93.632
  372.750   12.406    0.373    0.324  179.333   95.124
  373.000   11.949    0.389    0.328  180.814   98.115
  373.250   11.506    0.393    0.338  183.792  111.326
  373.500   11.082    0.397    0.358  185.270  116.421
  373.750   11.387    0.403    0.363  185.243  122.113
  374.000   11.810    0.390    0.336  183.715  113.684
  374.250   12.593    0.374    0.312  180.688  101.949
  374.500   13.306    0.350    0.302  176.656   96.820
  374.750   14.453    0.349    0.298  173.124   98.008
  375.000   15.993    0.367    0.320  171.594   93.787
  375.250   17.698    0.382    0.318  171.071   91.065
  375.500   18.871    0.387    0.317  172.045   89.850
  375.750   20.120    0.384    0.322  173.023   88.330
  376.000   21.456    0.372    0.325  175.500   85.909
  376.250   23.742    0.348    0.327  176.978   78.081
  376.500   24.851    0.339    0.331  176.957   73.858
  376.750   25.540    0.336    0.329  177.433   67.531
  377.000   25.763    0.352    0.318  178.407   70.220
  377.250   25.276    0.362    0.312  178.884   81.026
  377.500   24.568    0.359    0.306  178.856   83.416
  377.750   23.444    0.364    0.300  178.330   80.995
  378.000   21.758    0.375    0.295  177.805   86.993
  378.250   17.575    0.387    0.288  177.783  103.510
  378.500   16.461    0.390    0.285  177.759  104.698
  378.750   16.452    0.388    0.300  177.734   92.660
  379.000   17.381    0.389    0.311  177.710   69.499
  379.250   18.196    0.389    0.314  177.679   65.274
  379.500   19.224    0.389    0.310  177.654   66.163
  379.750   20.310    0.387    0.302  178.628   72.759
  380.000   21.857    0.386    0.304  180.104   77.856
  380.250   23.094    0.382    0.308  181.087   84.151
  380.500   23.094    0.381    0.309  182.565   91.653
  380.750   23.712    0.383    0.316  182.544  116.885
  381.000   24.596    0.386    0.321  181.013  121.982
  381.250   24.131    0.388    0.316  179.486  120.464
  381.500   23.241    0.389    0.306  178.459  118.646
  381.750   21.767    0.393    0.301  178.435  133.059
  382.000   20.967    0.399    0.307  178.911  142.663
  382.250   19.458    0.407    0.336  179.885  146.855
  382.500   17.726    0.412    0.330  180.866  135.720
  382.750   16.606    0.418    0.321  180.838  114.663
  383.000   15.411    0.427    0.311  180.813  104.429
  383.250   15.411    0.440    0.313  183.291  101.106
  383.500   14.158    0.450    0.320  186.776  100.187
  383.750   13.388    0.480    0.330  191.257  104.082
  384.000   12.312    0.493    0.346  193.239  108.576
  384.250   11.533    0.482    0.349  192.207  104.952
  384.500   11.210    0.476    0.369  190.685  104.639
  384.750   11.099    0.469    0.384  187.655  107.027
  385.000   11.198    0.449    0.383  185.623  104.004
  385.250   11.400    0.438    0.380  184.090  101.286
  385.500   11.715    0.433    0.371  183.069   95.861
  385.750   11.926    0.435    0.361  182.043   91.939
  386.000   11.919    0.469    0.358  181.514   92.225
  386.250   11.912    0.486    0.375  181.486   94.915
  386.500   11.791    0.514    0.396  181.969   98.504
  386.750   11.680    0.514    0.446  182.442   98.493
  387.000   11.459    0.498    0.448  182.919   93.965
  387.250   11.453    0.465    0.427  183.890   88.843
  387.500   11.235    0.432    0.413  184.369   84.618
  387.750   11.229    0.415    0.398  184.348   82.801
  388.000   11.432    0.407    0.406  183.822   83.085
  388.250   11.533    0.410    0.401  182.793   84.876
  388.500   11.526    0.423    0.396  181.763   88.468
  388.750   11.308    0.427    0.398  180.736   90.251
  389.000   11.094    0.409    0.400  179.713   87.836
  389.250   11.295    0.398    0.464  178.683   82.711
  389.500   11.498    0.429    0.446  178.158   82.997
  389.750   11.707    0.471    0.408  177.128   86.890
  390.000   11.804    0.500    0.359  176.609   86.574
  390.250   12.135    0.491    0.348  175.576   73.030
  390.500   13.551    0.486    0.375  175.548   64.601
  390.750   15.137    0.495    0.384  175.530   60.979
  391.000   18.204    0.495    0.359  177.002   64.269
  391.250   19.593    0.387    0.297  176.977   70.267
  391.500   19.400    0.222    0.280  176.956   81.973
  391.750   19.567    0.178    0.256  175.432   80.157
  392.000   20.675    0.145    0.243  171.393   72.626
  392.250   25.098    0.104    0.225  167.859   55.478
  392.500   28.552    0.116    0.210  165.836   53.660
  392.750   30.168    0.131    0.217  165.311   53.337
  393.000   30.712    0.131    0.235  164.782   52.725
  393.250   30.982    0.096    0.234  164.761   51.808
  393.500   30.962    0.033    0.229  163.728   52.694
  393.750   30.377   -0.000    0.234  163.202   53.885
  394.000   29.526   -0.000    0.245  163.682   53.870
  394.250   29.507    0.020    0.258  163.654   50.849
  394.500   30.607    0.171    0.266  163.626   47.226
  394.750   32.938    0.176    0.271  163.107   42.702
  395.000   35.780    0.129    0.271  162.575   37.578
  395.250   37.802    0.112    0.268  162.053   31.552
  395.500   38.486    0.085    0.269  161.026   25.523
  395.750   38.464    0.110    0.283  159.997   24.000
  396.000   37.387    0.241    0.291  159.972   24.291
  396.250   35.675    0.306    0.288  160.452   25.776
  396.500   34.045    0.242    0.277  160.928   28.466
  396.750   31.595    0.220    0.266  160.900   30.257
  397.000   30.146    0.256    0.269  160.372   32.348
  397.250   29.032    0.340    0.275  160.372   35.339
  397.500   29.032    0.348    0.292  159.809   36.825
  397.750   28.469    0.324    0.298  159.800   37.410
  398.000   26.424    0.319    0.300  159.772   37.698
  398.250   24.978    0.318    0.300  159.741   36.479
  398.500   23.835    0.342    0.299  159.726   34.059
  398.750   22.742    0.368    0.301  160.196   31.939
  399.000   22.742    0.407    0.309  160.670   30.425
  399.250   22.091    0.423    0.320  161.149   26.799
  399.500   21.281    0.400    0.318  161.625   27.387
  399.750   20.685    0.318    0.302  161.601   29.176
  400.000   20.105    0.256    0.303  161.576   31.566
