~VERSION INFORMATION
 VERS.                 2.0:   CWLS LOG ASCII STANDARD -VERSION 2.0
 WRAP.                  NO:   ONE LINE PER DEPTH STEP
~WELL INFORMATION BLOCK
#MNEM.UNIT           DATA                    DESCRIPTION OF MNEMONIC
#---------    -------------------            -------------------------------
# Generated from Intellog Unique Number	CW_82_90/WELL/3063
WELL.         PARA ET AL LIVOCK 07-19        : Well_name    - WELL
LOC .         00/07-19-085-19W4/0            : Location     - LOCATION
UWI .         00/07-19-085-19W4/0            : Uwi          - UNIQUE WELL ID
ENTR.         JAYE                           : Entered      - ENTERED BY
SRVC.         COMPUTALOG                     : Scn          - SERVICE COMPANY
DATE.         21 FEB 78                      : Date         - LOG DATE
STRT.M        192.024                        : top_depth    - START DEPTH
STOP.M        347.524                        : bot_depth    - STOP DEPTH
STEP.M        0.25                           : increment    - STEP LENGTH
 NULL. -999.2500:NULL Value
~CURVE INFORMATION BLOCK
#MNEM UNIT       ERCB CURVE CODE    CURVE DESCRIPTION
#-----------   ------------------   ----------------------------------
DEPT.M        00 001 00 00         : DEPTH        - DEPTH
CALI.MM       00 280 01 00         : CAL          - CALIPER
GR  .API      00 310 00 00         : GR           - GAMMA RAY
DPHI.V/V      00 890 00 00         : PHID         - DENSITY POROSITY (SANDSTONE)
NPHI.V/V      00 330 00 00         : PHIN         - NEUTRON POROSITY (SANDSTONE)
ILD .OHMM     00 120 00 00         : RESD         - DEEP RESISTIVITY (DLL)
~PARAMETER INFORMATION
#MNEM.UNIT           DATA             DESCRIPTION OF MNEMONIC
#---------         -----------     ------------------------------
GL  .M        610.057              : gl           - GROUND LEVEL ELEVATION
EREF.M        613.105              : kb           - ELEVATION OF DEPTH REFERENCE
DATM.M        610.057              : datum        - DATUM ELEVATION
TDD .M        350.215              : tdd          - TOTAL DEPTH DRILLER
RUN .         ONE                  : Run          - RUN NUMBER
ENG .         DOPF                 : Engineer     - RECORDING ENGINEER
WIT .         GEORGE               : Witness      - WITNESSED BY
BASE.         EDMONTON             : Branch       - HOME BASE OF LOGGING UNIT
MUD .         GEL CHEM             : Mud_type     - MUD TYPE
MATR.         SANDSTONE            : Logunit      - NEUTRON MATRIX
TMAX.C        15.5556              : BHT          - MAXIMUM RECORDED TEMPERATURE
BHTD.M        350.215              : BHTDEP       - MAXIMUM RECORDED TEMPERATURE
RMT .C        18.3333              : MDTP         - TEMPERATURE OF MUD
MUDD.KG/M     9300                 : MWT          - MUD DENSITY
NEUT.         0                    : NEUTRON      - NEUTRON TYPE
RESI.         1                    : RESIST       - RESISTIVITY TYPE
RM  .OHMM     4.1                  : RM           - RESISTIVITY OF MUD
RMC .OHMM     4.2                  : RMC          - RESISTIVITY OF MUD CAKE
RMF .OHMM     4.5                  : RMF          - RESISTIVITY OF MUD FILTRATE
SUFT.C        -17.7778             : SUFT         - SURFACE TEMPERATURE
~A  DEPTH      CAL       GR     PHID     PHIN     RESD
# ...
  228.524  172.584   62.764    0.323    0.533   10.351
  228.774  171.418   69.937    0.307    0.544    9.735
  229.024  168.893   73.397    0.295    0.583    9.281
  229.274  163.324   68.314    0.285    0.578    9.105
  229.524  158.069   64.220    0.279    0.595    9.132
  229.774  153.969   64.585    0.319    0.594    9.199
  230.024  149.346   59.192    0.318    0.532    9.365
  230.274  145.874   54.293    0.313    0.539    9.514
  230.524  144.811   51.129    0.325    0.558    9.565
  230.774  146.895   50.936    0.292    0.592    9.519
  231.024  150.134   56.130    0.281    0.567    9.358
  231.274  153.897   61.632    0.330    0.545    9.108
  231.524  164.577   62.242    0.314    0.584    8.647
  231.774  168.336   56.665    0.306    0.588    8.185
  232.024  170.213   52.200    0.312    0.577    7.276
  232.274  171.459   56.712    0.302    0.576    6.497
  232.524  170.815   61.595    0.281    0.625    5.946
  232.774  170.279   62.888    0.271    0.595    5.371
  233.024  169.430   62.509    0.268    0.562    4.901
  233.274  166.377   63.740    0.282    0.567    4.545
  233.524  160.600   59.523    0.266    0.629    4.173
  233.774  153.039   67.440    0.293    0.712    3.948
  234.024  149.673   68.361    0.293    0.702    3.731
  234.274  149.659   65.258    0.315    0.677    3.562
  234.524  150.589   68.284    0.303    0.629    3.410
  234.774  150.577   75.273    0.308    0.644    3.421
  235.024  150.461   73.656    0.292    0.694    3.618
  235.274  149.820   72.410    0.278    0.692    4.077
  235.524  149.600   69.927    0.268    0.671    4.755
  235.774  149.588   64.348    0.267    0.641    5.872
  236.024  149.259   58.275    0.239    0.555    7.007
  236.274  149.038   49.167    0.283    0.545    8.629
  236.524  149.026   42.846    0.328    0.549   10.984
  236.774  149.434   42.591    0.330    0.544   11.353
  237.024  150.467   43.635    0.329    0.524   11.225
  237.274  150.562   50.746    0.331    0.545   11.180
  237.524  151.073   47.646    0.321    0.556   11.198
  237.774  150.325   44.790    0.289    0.553   10.915
  238.024  149.687   47.259    0.263    0.515   10.038
  238.274  149.780   52.204    0.268    0.456    9.227
  238.524  152.073   49.288    0.309    0.491    8.855
  238.774  154.575   51.076    0.301    0.546    8.646
  239.024  154.878   57.568    0.287    0.579    8.477
  239.274  154.866   59.728    0.280    0.571    8.292
  239.524  153.594   55.202    0.289    0.521    7.913
  239.774  152.640   45.660    0.306    0.512    7.582
  240.024  150.846   48.749    0.301    0.533    7.307
  240.274  149.576   63.165    0.267    0.523    7.106
  240.524  148.934   67.306    0.266    0.516    7.002
  240.774  148.189   57.084    0.299    0.549    7.258
  241.024  147.651   58.377    0.306    0.559    7.504
  241.274  147.640   63.136    0.314    0.575    7.515
  241.524  148.361   60.590    0.313    0.566    6.793
  241.774  149.290   62.812    0.285    0.501    6.315
  242.024  150.119   69.491    0.279    0.521    5.869
  242.274  151.992   73.940    0.286    0.559    5.717
  242.524  152.608   75.853    0.290    0.575    5.720
  242.774  152.179   77.084    0.297    0.585    5.836
  243.024  150.909   75.528    0.290    0.534    6.116
  243.274  149.115   72.426    0.299    0.542    6.558
  243.524  146.480   70.500    0.296    0.548    6.894
  243.774  145.421   68.388    0.279    0.537    7.466
  244.024  144.359   64.171    0.247    0.568    8.193
  244.274  144.033   42.621    0.231    0.397    8.887
  244.524  143.914   38.342    0.251    0.385    9.615
  244.774  143.589   41.430    0.301    0.434   10.488
  245.024  142.944   46.560    0.315    0.470   12.932
  245.274  142.936   46.430    0.319    0.525   13.350
  245.524  142.922   44.689    0.310    0.538   13.288
  245.774  142.912   43.692    0.325    0.551   13.331
  246.024  142.790   46.097    0.317    0.541   13.423
  246.274  142.782   47.824    0.300    0.521   13.523
  246.524  142.662   49.363    0.301    0.508   13.428
  246.774  142.542   49.976    0.310    0.528   13.414
  247.024  142.532   49.412    0.315    0.509   13.433
  247.274  142.834   49.467    0.317    0.501   13.509
  247.524  143.662   54.474    0.305    0.512   13.601
  247.774  143.755   51.743    0.285    0.486   13.701
  248.024  143.219   51.487    0.280    0.483   14.029
  248.274  142.475   53.584    0.287    0.525   14.650
  248.524  140.992   46.274    0.307    0.520   15.874
  248.774  140.353   52.272    0.282    0.509   16.340
  249.024  141.179   54.677    0.223    0.480   15.667
  249.274  142.740   50.894    0.256    0.456   15.303
  249.524  144.824   49.773    0.291    0.463   15.167
  249.774  147.221   53.974    0.284    0.463   15.748
  250.024  149.199   54.835    0.278    0.476   16.572
  250.274  150.342   48.389    0.206    0.249   17.796
  250.524  151.588   40.706    0.115    0.141   19.117
  250.774  152.832   39.151    0.065    0.141   19.559
  251.024  153.450   43.477    0.042    0.192   16.102
  251.274  153.858   41.303    0.058    0.256   13.410
  251.524  153.214   44.451    0.153    0.304   11.499
  251.774  153.622   49.955    0.268    0.375   10.696
  252.024  154.868   52.982    0.272    0.408   10.275
  252.274  156.636   52.170    0.272    0.463    9.692
  252.524  157.255   52.471    0.274    0.464    9.393
  252.774  157.348   55.436    0.272    0.474    9.143
  253.024  156.810   58.276    0.264    0.530    8.877
  253.274  156.168   61.735    0.260    0.528    8.676
  253.524  155.633   61.171    0.267    0.507    8.491
  253.774  154.780   58.069    0.276    0.468    8.315
  254.024  154.875   52.861    0.271    0.443    8.170
  254.274  154.339   50.564    0.252    0.458    7.994
  254.524  153.173   54.519    0.246    0.479    7.883
  254.774  152.951   61.752    0.252    0.515    7.804
  255.024  153.777   61.994    0.256    0.506    7.610
  255.274  155.653   57.592    0.252    0.494    7.271
  255.524  156.793   60.804    0.248    0.490    7.176
  255.774  157.829   64.387    0.245    0.492    7.105
  256.024  158.132   64.813    0.243    0.509    7.084
  256.274  158.746   58.306    0.239    0.493    7.054
  256.524  158.946   60.032    0.241    0.525    6.999
  256.774  158.723   64.791    0.246    0.510    6.936
  257.024  156.719   64.165    0.246    0.492    6.841
  257.274  154.611   61.248    0.248    0.468    6.721
  257.524  153.550   66.070    0.256    0.458    6.585
  257.774  154.376   73.305    0.253    0.495    6.482
  258.024  156.355   78.312    0.256    0.527    6.297
  258.274  157.917   75.829    0.241    0.544    6.112
  258.524  159.266   77.306    0.211    0.479    5.944
  258.774  159.881   75.814    0.203    0.505    5.857
  259.024  160.077   75.930    0.210    0.503    5.745
  259.274  159.959   83.723    0.207    0.488    5.635
  259.524  160.055   86.873    0.206    0.470    5.580
  259.774  160.564   80.119    0.205    0.487    5.558
  260.024  161.499   82.153    0.207    0.520    5.553
  260.274  164.003   82.023    0.229    0.546    5.555
  260.524  167.449   82.202    0.262    0.567    5.581
  260.774  167.647   77.304    0.261    0.581    5.608
  261.024  166.163   71.972    0.254    0.546    5.692
  261.274  166.364   75.308    0.237    0.523    5.849
  261.524  166.457   79.820    0.199    0.506    6.096
  261.774  164.033   79.937    0.210    0.512    6.096
  262.024  161.191   74.482    0.227    0.514    6.817
  262.274  157.824   72.679    0.212    0.500    7.569
  262.524  155.400   70.938    0.188    0.457    8.629
  262.774  153.607   68.517    0.113    0.379   10.349
  263.024  155.164   62.814    0.117    0.347   11.263
  263.274  155.155   62.620    0.149    0.361   10.981
  263.524  155.561   63.481    0.174    0.449   10.243
  263.774  155.655   66.631    0.207    0.494    9.130
  264.024  155.534   62.476    0.231    0.517    7.976
  264.274  155.732   63.335    0.213    0.524    7.133
  264.524  156.246   66.795    0.196    0.528    6.581
  264.774  156.758   75.331    0.190    0.529    6.234
