~VERSION INFORMATION
 VERS.                 2.0:   CWLS LOG ASCII STANDARD -VERSION 2.0
 WRAP.                  NO:   ONE LINE PER DEPTH STEP
~WELL INFORMATION BLOCK
#MNEM.UNIT           DATA                    DESCRIPTION OF MNEMONIC
#---------    -------------------            -------------------------------
# Generated from Intellog Unique Number	CW_73_75/WELL/2723
WELL.         TRICENT ET AL MITSUE 02-26     : Well_name    - WELL
LOC .         00/02-26-073-05W5/0            : Location     - LOCATION
UWI .         00/02-26-073-05W5/0            : Uwi          - UNIQUE WELL ID
ENTR.         JAYE                           : Entered      - ENTERED BY
SRVC.         SCHLUMBERGER                   : Scn          - SERVICE COMPANY
DATE.         23 MAR 82                      : Date         - LOG DATE
STRT.M        350                            : top_depth    - START DEPTH
STOP.M        590                            : bot_depth    - STOP DEPTH
STEP.M        0.25                           : increment    - STEP LENGTH
 NULL. -999.2500:NULL Value
~CURVE INFORMATION BLOCK
#MNEM UNIT       ERCB CURVE CODE    CURVE DESCRIPTION
#-----------   ------------------   ----------------------------------
DEPT.M        00 001 00 00         : DEPTH        - DEPTH
DPHI.V/V      00 890 00 00         : PHID         - DENSITY POROSITY (SANDSTONE)
NPHI.V/V      00 330 00 00         : PHIN         - NEUTRON POROSITY (SANDSTONE)
GR  .API      00 310 00 00         : GR           - GAMMA RAY
CALI.MM       00 280 01 00         : CAL          - CALIPER
ILD .OHMM     00 120 00 00         : RESD         - DEEP RESISTIVITY (DIL)
~PARAMETER INFORMATION
#MNEM.UNIT           DATA             DESCRIPTION OF MNEMONIC
#---------         -----------     ------------------------------
GL  .M        576                  : gl           - GROUND LEVEL ELEVATION
EREF.M        583                  : kb           - ELEVATION OF DEPTH REFERENCE
DATM.M        576                  : datum        - DATUM ELEVATION
TDD .M        1695                 : tdd          - TOTAL DEPTH DRILLER
RUN .         ONE                  : Run          - RUN NUMBER
ENG .         HEATH                : Engineer     - RECORDING ENGINEER
WIT .         MACKASEY             : Witness      - WITNESSED BY
BASE.         EDM                  : Branch       - HOME BASE OF LOGGING UNIT
MUD .         GEL CHEM             : Mud_type     - MUD TYPE
MATR.         SANDSTONE            : Logunit      - NEUTRON MATRIX
TMAX.C        46.1                 : BHT          - MAXIMUM RECORDED TEMPERATURE
BHTD.M        1695.8               : BHTDEP       - MAXIMUM RECORDED TEMPERATURE
RMT .C        17.7                 : MDTP         - TEMPERATURE OF MUD
MUDD.KG/M     1090                 : MWT          - MUD DENSITY
NEUT.         1                    : NEUTRON      - NEUTRON TYPE
RESI.         0                    : RESIST       - RESISTIVITY TYPE
RM  .OHMM     1.08                 : RM           - RESISTIVITY OF MUD
RMC .OHMM     0                    : RMC          - RESISTIVITY OF MUD CAKE
RMF .OHMM     0.79                 : RMF          - RESISTIVITY OF MUD FILTRATE
SUFT.C        0                    : SUFT         - SURFACE TEMPERATURE
~A  DEPTH     PHID     PHIN       GR      CAL     RESD
# ...
  532.500    0.291    0.534  104.447  259.851    3.574
  532.750    0.294    0.505  106.673  253.074    3.564
  533.000    0.316    0.478  108.961  246.927    3.533
  533.250    0.333    0.464  108.073  241.192    3.476
  533.500    0.285    0.466  106.001  241.166    3.287
  533.750    0.305    0.514  102.684  239.376    3.062
  534.000    0.282    0.521   98.436  232.188    2.945
  534.250    0.308    0.479  100.287  230.500    2.914
  534.500    0.232    0.460  104.629  229.021    3.040
  534.750    0.218    0.466  106.732  233.350    3.232
  535.000    0.210    0.469  106.836  238.515    3.468
  535.250    0.203    0.447  105.703  235.164    3.807
  535.500    0.195    0.429  100.892  231.195    4.093
  535.750    0.206    0.420   97.077  231.164    4.278
  536.000    0.221    0.388  102.727  231.350    4.281
  536.250    0.210    0.410  102.711  232.771    4.204
  536.500    0.200    0.430  101.886  233.683    4.052
  536.750    0.195    0.448  103.425  234.481    3.861
  537.000    0.195    0.440  107.894  234.980    3.651
  537.250    0.206    0.422  109.248  235.887    3.485
  537.500    0.215    0.443  106.553  236.587    3.365
  537.750    0.218    0.451  103.735  237.388    3.311
  538.000    0.214    0.437  102.037  237.774    3.395
  538.250    0.207    0.417  100.342  238.059    3.515
  538.500    0.198    0.433   97.023  238.241    3.640
  538.750    0.197    0.440   95.203  238.528    3.790
  539.000    0.203    0.424   91.885  238.388    3.894
  539.250    0.211    0.432   89.629  237.947    4.125
  539.500    0.219    0.425   89.799  237.614    4.294
  539.750    0.235    0.423   91.961  237.071    4.556
  540.000    0.242    0.456   94.436  235.692    4.798
  540.250    0.249    0.480   96.351  234.939    4.995
  540.500    0.261    0.458   98.204  235.324    5.094
  540.750    0.260    0.440   99.496  236.131    5.070
  541.000    0.242    0.425   98.109  237.245    4.969
  541.250    0.222    0.418  100.086  238.152    4.718
  541.500    0.223    0.444   99.634  238.954    4.563
  541.750    0.232    0.459   97.065  239.135    4.307
  542.000    0.225    0.423  100.410  239.113    4.012
  542.250    0.217    0.411  103.322  239.500    3.661
  542.500    0.219    0.430  104.612  239.990    3.259
  542.750    0.218    0.442  108.021  239.861    2.990
  543.000    0.209    0.458  109.126  239.006    3.032
  543.250    0.210    0.448  105.124  238.770    3.223
  543.500    0.204    0.430  103.988  238.950    3.492
  543.750    0.197    0.423  107.210  239.022    3.769
  544.000    0.199    0.445  113.981  238.898    3.909
  544.250    0.206    0.467  110.602  238.451    4.032
  544.500    0.202    0.453  106.040  238.013    4.089
  544.750    0.204    0.419  101.914  237.673    4.138
  545.000    0.215    0.424   97.915  236.714    4.276
  545.250    0.218    0.428   97.772  234.921    4.529
  545.500    0.209    0.404  101.930  235.413    4.860
  545.750    0.205    0.382  106.708  237.775    5.108
  546.000    0.197    0.409  105.196  240.655    5.112
  546.250    0.197    0.432  100.698  242.804    4.880
  546.500    0.205    0.433   97.194  244.123    4.495
  546.750    0.210    0.418   96.930  244.310    4.109
  547.000    0.211    0.441   98.532  244.595    3.937
  547.250    0.213    0.465  101.754  245.291    3.794
  547.500    0.215    0.445  104.103  246.199    3.726
  547.750    0.215    0.438  109.257  246.380    3.632
  548.000    0.214    0.457  112.105  246.355    3.573
  548.250    0.222    0.464  107.231  248.612    3.576
  548.500    0.245    0.463  103.542  253.254    3.689
  548.750    0.244    0.443  107.325  255.098    3.936
  549.000    0.231    0.419  105.689  243.031    4.240
  549.250    0.219    0.403  101.188  240.929    4.558
  549.500    0.225    0.403   98.496  237.477    4.919
  549.750    0.236    0.412  104.145  231.742    5.180
  550.000    0.242    0.417   99.148  226.423    5.538
  550.250    0.246    0.418   91.161  224.215    5.788
  550.500    0.241    0.412   83.486  228.133    6.026
  550.750    0.206    0.350   81.541  230.076    6.228
  551.000    0.182    0.321   82.582  229.533    6.327
  551.250    0.187    0.366   86.553  226.596    6.368
  551.500    0.183    0.408   91.953  224.810    6.242
  551.750    0.178    0.436   93.431  222.392    6.014
  552.000    0.211    0.461   88.745  220.085    5.614
  552.250    0.241    0.449   85.492  217.981    5.190
  552.500    0.271    0.442   87.965  215.152    4.789
  552.750    0.289    0.448   95.671  213.568    4.721
  553.000    0.301    0.440   95.531  214.478    4.760
  553.250    0.287    0.417   87.420  216.315    4.864
  553.500    0.267    0.381   79.745  218.575    5.171
  553.750    0.243    0.357   79.978  222.697    5.455
  554.000    0.201    0.340   83.261  226.405    5.954
  554.250    0.179    0.338   81.502  228.562    6.598
  554.500    0.197    0.341   78.745  228.224    7.324
  554.750    0.190    0.303   79.848  227.264    8.131
  555.000    0.148    0.280   82.824  226.404    9.044
  555.250    0.125    0.253   85.236  226.476   10.004
  555.500    0.100    0.276   83.913  227.696   10.694
  555.750    0.127    0.370   85.142  228.609    9.943
  556.000    0.170    0.399   89.111  229.098    8.444
  556.250    0.217    0.372   92.830  229.799    6.998
  556.500    0.212    0.390   96.426  230.808    6.044
  556.750    0.211    0.411   98.901  231.718    5.321
  557.000    0.214    0.394   96.457  233.766    4.710
  557.250    0.227    0.375   98.121  239.447    4.330
  557.500    0.248    0.405  101.466  249.177    4.072
  557.750    0.296    0.465  104.440  246.140    3.836
  558.000    0.258    0.446  105.980  241.130    3.655
  558.250    0.236    0.439  105.280  242.245    3.529
  558.500    0.272    0.473  103.023  249.589    3.440
  558.750    0.330    0.473  109.357  265.855    3.423
  559.000    0.284    0.430  110.151  259.392    3.497
  559.250    0.226    0.425  108.579  249.713    3.662
  559.500    0.195    0.418  104.203  244.393    3.827
  559.750    0.171    0.363  107.176  239.180    4.138
  560.000    0.161    0.357  110.396  233.549    4.560
  560.250    0.159    0.359  106.272  233.833    5.317
  560.500    0.156    0.355   95.421  235.252    6.153
  560.750    0.148    0.338   95.280  236.164    6.728
  561.000    0.137    0.323  101.117  236.658    7.139
  561.250    0.141    0.316  105.334  237.979    7.212
  561.500    0.149    0.337  108.246  238.885    7.070
  561.750    0.166    0.367  107.668  236.162    6.723
  562.000    0.181    0.404  104.790  228.975    6.335
  562.250    0.212    0.412  100.785  226.147    6.127
  562.500    0.211    0.405  100.087  226.740    5.995
  562.750    0.202    0.408  102.624  226.611    5.865
  563.000    0.194    0.426  105.160  226.168    5.836
  563.250    0.188    0.435  104.272  225.934    5.808
  563.500    0.187    0.444  101.330  226.010    5.856
  563.750    0.206    0.451   98.014  224.222    5.893
  564.000    0.210    0.437   95.880  218.901    5.932
  564.250    0.215    0.410   94.994  210.781    5.937
  564.500    0.221    0.384   95.973  214.384    5.953
  564.750    0.220    0.395   98.199  218.507    5.945
  565.000    0.215    0.398  102.231  221.909    5.927
  565.250    0.209    0.407  102.400  224.891    5.888
  565.500    0.200    0.419  102.322  228.080    5.847
  565.750    0.194    0.421  106.790  230.130    5.775
  566.000    0.184    0.418  111.569  231.243    5.693
  566.250    0.187    0.424  111.490  231.425    5.633
  566.500    0.197    0.423  107.674  231.501    5.638
  566.750    0.207    0.412  103.362  231.059    5.620
  567.000    0.215    0.392  102.288  231.547    5.582
  567.250    0.213    0.408  104.762  232.771    5.534
  567.500    0.199    0.429  102.817  235.129    5.353
  567.750    0.205    0.446   96.636  237.489    5.168
  568.000    0.266    0.467   92.509  240.057    5.114
  568.250    0.309    0.442   97.039  246.361    5.137
  568.500    0.246    0.391  102.565  238.551    5.220
  568.750    0.215    0.373  106.783  238.526    5.263
