~VERSION INFORMATION
 VERS.                 2.0:   CWLS LOG ASCII STANDARD -VERSION 2.0
 WRAP.                  NO:   ONE LINE PER DEPTH STEP
~WELL INFORMATION BLOCK
#MNEM.UNIT           DATA                    DESCRIPTION OF MNEMONIC
#---------    -------------------            -------------------------------
# Generated from Intellog Unique Number	CN_91_93/WELL/3138
WELL.         07-12-092-18W4                 : Well_name    - WELL
LOC .         00/07-12-092-18W4/0            : Location     - LOCATION
UWI .         00/07-12-092-18W400            : Uwi          - UNIQUE WELL ID
ENTR.         JOETTE                         : Entered      - ENTERED BY
SRVC.         SCHLUMBERGER                   : Scn          - SERVICE COMPANY
DATE.         04\12\92                       : Date         - LOG DATE
STRT.M        115                            : top_depth    - START DEPTH
STOP.M        265                            : bot_depth    - STOP DEPTH
STEP.M        0.25                           : increment    - STEP LENGTH
 NULL. -999.2500:NULL Value
~CURVE INFORMATION BLOCK
#MNEM UNIT       ERCB CURVE CODE    CURVE DESCRIPTION
#-----------   ------------------   ----------------------------------
DEPT.M        00 001 00 00         : DEPTH        - DEPTH
CALI.MM       00 280 01 00         : CAL          - CALIPER
GR  .API      00 310 00 00         : GR           - GAMMA RAY
NPHI.V/V      00 330 00 00         : PHIN         - NEUTRON POROSITY (SANDSTONE)
DPHI.V/V      00 890 00 00         : PHID         - DENSITY POROSITY (SANDSTONE)
ILD .OHMM     00 120 00 00         : RESD         - DEEP RESISTIVITY (DIL)
~PARAMETER INFORMATION
#MNEM.UNIT           DATA             DESCRIPTION OF MNEMONIC
#---------         -----------     ------------------------------
GL  .M        517.74               : gl           - GROUND LEVEL ELEVATION
EREF.M        520.74               : kb           - ELEVATION OF DEPTH REFERENCE
DATM.M        520.74               : datum        - DATUM ELEVATION
TDD .M        267.5                : tdd          - TOTAL DEPTH DRILLER
RUN .         ONE                  : Run          - RUN NUMBER
ENG .         JO                   : Engineer     - RECORDING ENGINEER
WIT .         TIM                  : Witness      - WITNESSED BY
MUD .         GEL                  : Mud_type     - MUD TYPE
MATR.         SANDSTONE            : Logunit      - NEUTRON MATRIX
TMAX.C        20                   : BHT          - MAXIMUM RECORDED TEMPERATURE
BHTD.M        267.5                : BHTDEP       - MAXIMUM RECORDED TEMPERATURE
RMT .C        16                   : MDTP         - TEMPERATURE OF MUD
MUDD.KG/M     1120                 : MWT          - MUD DENSITY
NEUT.         1                    : NEUTRON      - NEUTRON TYPE
RESI.         0                    : RESIST       - RESISTIVITY TYPE
RM  .OHMM     6.99                 : RM           - RESISTIVITY OF MUD
RMC .OHMM     6.99                 : RMC          - RESISTIVITY OF MUD CAKE
RMF .OHMM     6.55                 : RMF          - RESISTIVITY OF MUD FILTRATE
SUFT.C        4                    : SUFT         - SURFACE TEMPERATURE
~A  DEPTH      CAL       GR     PHIN     PHID     RESD
  115.000  180.160   70.482    0.423    0.322   10.868
  115.250  183.213   81.509    0.429    0.299    9.675
  115.500  180.140   91.922    0.558    0.286    9.127
  115.750  180.131   98.659    0.555    0.277    7.528
  116.000  181.144  105.395    0.549    0.270    6.453
  116.250  183.178  109.067    0.543    0.254    5.638
  116.500  185.210  112.739    0.539    0.239    4.831
  116.750  186.220  112.731    0.538    0.251    4.554
  117.000  186.214  113.951    0.552    0.259    4.465
  117.250  185.186  115.174    0.558    0.263    4.456
  117.500  184.151  117.006    0.562    0.268    4.537
  117.750  184.142  114.549    0.556    0.270    4.704
  118.000  184.138  112.092    0.548    0.260    5.067
  118.250  184.127  111.474    0.563    0.259    5.261
  118.500  184.118  113.920    0.573    0.262    5.459
  118.750  184.107  115.141    0.563    0.266    5.660
  119.000  184.100  113.910    0.548    0.264    5.762
  119.250  184.092  112.066    0.528    0.264    5.752
  119.500  183.061  108.997    0.537    0.264    5.741
  119.750  183.048  102.250    0.528    0.265    5.737
  120.000  184.063  105.921    0.528    0.266    5.513
  120.250  184.054  109.594    0.551    0.270    5.198
  120.500  186.088  115.104    0.552    0.271    5.291
  120.750  185.056  115.097    0.557    0.268    5.285
  121.000  183.006  108.964    0.551    0.268    5.176
  121.250  181.978  104.669    0.543    0.275    5.170
  121.500  181.967  104.051    0.526    0.275    5.161
  121.750  182.980  103.431    0.536    0.270    5.153
  122.000  183.995  102.813    0.539    0.269    5.144
  122.250  183.982  105.259    0.538    0.271    5.235
  122.500  183.975  103.415    0.539    0.266    5.230
  122.750  183.966   99.733    0.540    0.256    5.425
  123.000  182.934   96.664    0.528    0.240    5.958
  123.250  181.906   92.980    0.514    0.210    6.547
  123.500  179.852   89.299    0.486    0.146    7.058
  123.750  177.802   86.225    0.480    0.145    7.607
  124.000  174.727   88.060    0.469    0.163    7.591
  124.250  171.656   88.055    0.499    0.212    7.439
  124.500  176.754   89.888    0.517    0.249    7.291
  124.750  178.788   92.335    0.501    0.280    7.420
  125.000  178.777   92.331    0.476    0.285    8.151
  125.250  177.749   90.487    0.454    0.286    8.293
  125.500  176.717   94.159    0.437    0.275    7.823
  125.750  176.710  100.895    0.473    0.230    6.962
  126.000  176.701   98.438    0.559    0.202    6.565
  126.250  177.714   97.817    0.549    0.142    5.419
  126.500  177.703  100.878    0.522    0.213    4.917
  126.750  179.737  103.326    0.535    0.256    4.216
  127.000  183.812  106.998    0.549    0.251    3.755
  127.250  183.801  109.444    0.568    0.259    3.677
  127.500  183.794  109.439    0.573    0.275    3.602
  127.750  183.786  106.369    0.582    0.295    3.462
  128.000  183.779  104.524    0.583    0.295    3.391
  128.250  183.764  105.131    0.573    0.291    3.385
  128.500  183.761  105.737    0.551    0.293    3.382
  128.750  183.753  105.731    0.562    0.300    3.376
  129.000  183.744  105.115    0.588    0.303    3.309
  129.250  183.733  104.497    0.580    0.301    3.240
  129.500  183.726  103.265    0.567    0.300    3.174
  129.750  183.717  103.259    0.562    0.300    3.111
  130.000  183.709  103.866    0.604    0.298    3.288
  130.250  183.695  103.863    0.609    0.293    3.545
  130.500  183.691  103.857    0.598    0.295    3.970
  130.750  183.680  103.851    0.592    0.302    3.964
  131.000  183.671  102.007    0.583    0.307    3.810
  131.250  184.684  102.616    0.574    0.301    3.733
  131.500  183.654  107.514    0.555    0.282    3.872
  131.750  182.623  108.732    0.551    0.286    4.093
  132.000  182.612  105.663    0.545    0.280    4.329
  132.250  182.603  101.368    0.564    0.270    5.034
  132.500  178.509   94.008    0.536    0.265    5.747
  132.750  173.393   90.938    0.504    0.263    6.812
  133.000  170.319   89.707    0.479    0.261    7.485
  133.250  167.246   86.638    0.457    0.261    9.220
  133.500  166.216   83.568    0.452    0.181   11.576
  133.750  166.205   75.595    0.456    0.129   13.989
  134.000  166.200   74.363    0.444    0.161   11.991
  134.250  167.213   78.036    0.453    0.202    9.894
  134.500  170.264   82.320    0.448    0.264    8.811
  134.750  172.298   84.154    0.438    0.271    7.846
  135.000  174.330   90.278    0.423    0.234    7.259
  135.250  175.345   97.626    0.453    0.240    6.977
  135.500  175.334   98.846    0.470    0.245    7.514
  135.750  175.328  100.066    0.484    0.246    7.801
  136.000  175.317  100.060    0.480    0.245    8.569
  136.250  174.291   98.218    0.474    0.237    9.229
  136.500  171.215   92.696    0.478    0.225    9.578
  136.750  169.163   86.562    0.475    0.218    9.751
  137.000  167.110   82.878    0.464    0.265    9.737
  137.250  165.058   84.099    0.449    0.279    9.356
  137.500  166.075   85.931    0.446    0.282    9.706
  137.750  168.109   86.541    0.468    0.292   10.662
  138.000  168.098   85.310    0.496    0.256   10.851
  138.250  168.087   79.789    0.485    0.190    9.298
  138.500  168.080   81.622    0.447    0.176    8.127
  138.750  168.072   93.875    0.453    0.204    6.579
  139.000  173.168   99.385    0.509    0.232    4.658
  139.250  181.333   93.862    0.532    0.208    5.631
  139.500  181.324   92.630    0.495    0.198    6.676
  139.750  180.294   97.529    0.462    0.208    7.763
  140.000  179.264  103.652    0.458    0.226    8.209
  140.250  178.231  107.324    0.452    0.237    8.355
  140.500  178.223  105.481    0.451    0.230    8.504
  140.750  178.214  103.637    0.466    0.228    8.655
  141.000  177.183  104.856    0.475    0.235    8.158
  141.250  176.153  105.464    0.474    0.237    7.268
  141.500  175.123  106.072    0.534    0.224    6.470
  141.750  174.093  104.229    0.588    0.202    6.712
  142.000  171.017   98.095    0.593    0.155    7.231
  142.250  168.968   79.090    0.563    0.075    7.363
  142.500  164.873   66.826    0.488    0.120    7.210
  142.750  164.864   83.981    0.330    0.186    7.066
  143.000  173.027  106.040    0.409    0.255    6.792
  143.250  176.080  107.260    0.511    0.258    6.785
  143.500  174.024  101.739    0.524    0.254    6.642
  143.750  174.020   96.831    0.535    0.254    6.637
  144.000  171.968   90.697    0.536    0.202    6.500
  144.250  170.938   84.561    0.472    0.170    7.143
  144.500  173.996   87.009    0.424    0.200    8.469
  144.750  179.092   87.616    0.446    0.228   10.632
  145.000  177.040   82.708    0.457    0.252   11.455
  145.250  173.967   82.703    0.442    0.250   10.802
  145.500  174.980   86.373    0.424    0.248    9.997
  145.750  178.038   86.368    0.426    0.242    9.246
  146.000  177.003   85.750    0.437    0.237    8.716
  146.250  175.975   83.906    0.445    0.239    8.542
  146.500  172.902   81.449    0.457    0.250    8.529
  146.750  169.828   76.541    0.494    0.214    9.553
  147.000  166.755   65.504    0.388    0.143   15.365
  147.250  166.746   61.821    0.342    0.237   17.210
  147.500  168.780   67.943    0.335    0.248   20.398
  147.750  167.750   73.455    0.379    0.270   19.242
  148.000  165.696   78.352    0.403    0.273   15.576
  148.250  164.666   82.638    0.416    0.252   13.352
  148.500  166.700   88.149    0.427    0.239    8.112
  148.750  172.818   94.885    0.453    0.234    7.950
  149.000  174.856   98.557    0.478    0.237    7.356
  149.250  177.910   93.649    0.510    0.253    6.677
  149.500  172.794   82.612    0.513    0.274    6.417
  149.750  168.699   72.800    0.495    0.295    7.755
  150.000  167.669   69.730    0.464    0.302    9.552
  150.250  167.658   74.627    0.456    0.288   11.766
  150.500  167.647   69.106    0.451    0.233   13.687
  150.750  167.640   71.552    0.422    0.195   13.409
  151.000  167.629   79.514    0.400    0.171   11.277
  151.250  168.646   88.089    0.409    0.201    9.304
