~VERSION INFORMATION
 VERS.                 2.0:   CWLS LOG ASCII STANDARD -VERSION 2.0
 WRAP.                  NO:   ONE LINE PER DEPTH STEP
~WELL INFORMATION BLOCK
#MNEM.UNIT           DATA                    DESCRIPTION OF MNEMONIC
#---------    -------------------            -------------------------------
# Generated from Intellog Unique Number	CW_76_78/WELL/201
WELL.         AMOCO 5-3 MARTEN H 06-33       : Well_name    - WELL
LOC .         00/06-33-076-26W4/0            : Location     - LOCATION
UWI .         00/06-33-076-26W4/0            : Uwi          - UNIQUE WELL ID
ENTR.         JJ                             : Entered      - ENTERED BY
SRVC.         WESTERN ATLAS                  : Scn          - SERVICE COMPANY
DATE.         24 JAN 73                      : Date         - LOG DATE
STRT.M        670.56                         : top_depth    - START DEPTH
STOP.M        777.31                         : bot_depth    - STOP DEPTH
STEP.M        0.25                           : increment    - STEP LENGTH
 NULL. -999.2500:NULL Value
~CURVE INFORMATION BLOCK
#MNEM UNIT       ERCB CURVE CODE    CURVE DESCRIPTION
#-----------   ------------------   ----------------------------------
DEPT.M        00 001 00 00         : DEPTH        - DEPTH
DELT.US/F     00 520 00 00         : DELT         - SONIC TRAVEL TIME
GR  .API      00 310 00 00         : GR           - GAMMA RAY
NPHI.V/V      00 330 00 00         : PHIN         - NEUTRON POROSITY (SANDSTONE)
ILD .OHMM     00 120 00 00         : RESD         - DEEP RESISTIVITY (DIL)
~PARAMETER INFORMATION
#MNEM.UNIT           DATA             DESCRIPTION OF MNEMONIC
#---------         -----------     ------------------------------
GL  .M        879.5                : gl           - GROUND LEVEL ELEVATION
EREF.M        883.615              : kb           - ELEVATION OF DEPTH REFERENCE
DATM.M        883.615              : datum        - DATUM ELEVATION
TDD .M        775.716              : tdd          - TOTAL DEPTH DRILLER
RUN .         ONE                  : Run          - RUN NUMBER
ENG .         CLARK                : Engineer     - RECORDING ENGINEER
WIT .         MACALDER             : Witness      - WITNESSED BY
BASE.         V.V                  : Branch       - HOME BASE OF LOGGING UNIT
MUD .         GEL                  : Mud_type     - MUD TYPE
MATR.         SANDSTONE            : Logunit      - NEUTRON MATRIX
TMAX.C        28.8889              : BHT          - MAXIMUM RECORDED TEMPERATURE
BHTD.M        775.411              : BHTDEP       - MAXIMUM RECORDED TEMPERATURE
RMT .C        18.3333              : MDTP         - TEMPERATURE OF MUD
MUDD.KG/M     1104                 : MWT          - MUD DENSITY
NEUT.         1                    : NEUTRON      - NEUTRON TYPE
RESI.         0                    : RESIST       - RESISTIVITY TYPE
RM  .OHMM     10                   : RM           - RESISTIVITY OF MUD
RMC .OHMM     6                    : RMC          - RESISTIVITY OF MUD CAKE
RMF .OHMM     9.5                  : RMF          - RESISTIVITY OF MUD FILTRATE
SUFT.C        5                    : SUFT         - SURFACE TEMPERATURE
~A  DEPTH     DELT       GR     PHIN     RESD
  670.560  369.069   86.582    0.291    6.761
  670.810  369.968   90.787    0.294    6.852
  671.060  372.704   88.404    0.295    7.073
  671.310  375.574   93.598    0.292    7.621
  671.560  380.940   89.242    0.286    8.128
  671.810  364.287   81.989    0.279    8.599
  672.060  323.773   76.901    0.274    9.024
  672.310  334.006   80.736    0.274    9.940
  672.560  381.045   83.656    0.279   10.244
  672.810  370.176   82.928    0.272   10.770
  673.060  352.207   80.731    0.264   11.094
  673.310  360.731   76.804    0.256   11.385
  673.560  288.208   67.151    0.245   11.970
  673.810  259.591   69.392    0.249   12.358
  674.060  267.391   72.982    0.261   12.525
  674.310  303.122   74.176    0.277   12.516
  674.560  382.240   75.423    0.289   12.005
  674.810  389.313   77.967    0.293   11.170
  675.060  361.292   77.682    0.291   10.392
  675.310  372.705   76.160    0.287    9.648
  675.560  388.392   75.686    0.278    9.141
  675.810  382.845   73.977    0.281    8.823
  676.060  374.212   73.749    0.274    8.692
  676.310  376.490   76.849    0.266    8.666
  676.560  365.094   76.688    0.262    8.785
  676.810  326.226   75.718    0.255    9.181
  677.060  319.631   73.090    0.248   10.220
  677.310  339.984   75.265    0.242   11.149
  677.560  279.359   77.622    0.234   12.111
  677.810  250.151   77.088    0.227   12.812
  678.060  261.566   77.170    0.238   13.039
  678.310  387.215   80.700    0.288   12.057
  678.560  394.025   86.081    0.298    9.824
  678.810  388.477   84.065    0.288    8.721
  679.060  379.389   81.004    0.276    8.416
  679.310  354.391   79.611    0.265    8.324
  679.560  324.459   80.240    0.270    8.385
  679.810  322.203   84.389    0.286    8.517
  680.060  355.701   89.708    0.297    8.270
  680.310  366.257   83.504    0.294    7.885
  680.560  377.542   84.448    0.290    7.625
  680.810  350.702   87.978    0.285    8.067
  681.060  323.663   87.564    0.272    8.379
  681.310  300.960   82.961    0.271    8.253
  681.560  379.686   87.973    0.287    8.096
  681.810  374.795   90.704    0.291    8.041
  682.060  365.373   92.453    0.284    7.697
  682.310  348.263   93.513    0.281    7.383
  682.560  356.390   95.813    0.285    7.214
  682.810  364.052   99.776    0.282    7.135
  683.060  365.544   96.224    0.278    7.085
  683.310  361.775   94.330    0.272    6.993
  683.560  355.704   93.054    0.278    6.959
  683.810  358.181   97.699    0.285    6.897
  684.060  366.176  102.151    0.295    6.738
  684.310  357.870  106.671    0.291    6.652
  684.560  373.754  105.825    0.289    6.552
  684.810  373.992   97.589    0.293    6.547
  685.060  366.807   92.923    0.294    6.555
  685.310  352.587   96.456    0.294    6.563
  685.560  363.736  101.156    0.291    6.503
  685.810  363.845  103.829    0.286    6.393
  686.060  363.954  103.043    0.280    6.311
  686.310  375.890   99.427    0.278    6.228
  686.560  373.438   93.842    0.278    6.236
  686.810  335.621   89.976    0.274    6.283
  687.060  285.774   86.730    0.266    6.566
  687.310  356.278   86.935    0.260    6.792
  687.560  373.410   96.318    0.269    6.925
  687.810  350.053   93.689    0.277    6.935
  688.060  332.547   91.428    0.271    6.929
  688.310  335.745   91.880    0.264    6.867
  688.560  315.736   93.810    0.258    6.779
  688.810  295.274   95.674    0.263    6.704
  689.060  367.946   95.818    0.277    6.497
  689.310  345.248   90.967    0.287    6.283
  689.560  351.930   91.417    0.284    6.163
  689.810  367.091   95.506    0.280    6.158
  690.060  351.090   98.915    0.277    6.217
  690.310  368.160  100.478    0.273    6.483
  690.560  377.536  100.616    0.267    6.915
  690.810  362.787   99.091    0.262    7.543
  691.060  340.222   94.244    0.255    8.465
  691.310  293.464   86.191    0.248    9.085
  691.560  332.485   87.074    0.239    9.910
  691.810  363.487   85.737    0.238   10.986
  692.060  235.092   78.732    0.235   11.482
  692.310  240.461   71.231    0.225   11.756
  692.560  314.712   75.131    0.227   11.487
  692.810  330.594   79.469    0.266   10.176
  693.060  343.980   82.814    0.276    8.690
  693.310  348.360   88.014    0.279    7.714
  693.560  357.933   90.552    0.278    7.325
  693.810  359.555   91.556    0.274    7.112
  694.060  343.357   91.091    0.270    7.357
  694.310  328.810   90.547    0.264    7.672
  694.560  316.103   86.808    0.257    7.826
  694.810  277.235   84.609    0.248    7.803
  695.060  316.781   84.444    0.252    7.654
  695.310  358.102   88.223    0.281    7.418
  695.560  359.979   91.755    0.284    7.336
  695.810  354.177   95.223    0.275    7.331
  696.060  348.762   99.185    0.282    7.414
  696.310  343.479   94.706    0.280    7.561
  696.560  333.532   88.070    0.274    7.806
  696.810  337.191   92.715    0.272    8.125
  697.060  349.262   92.729    0.270    8.473
  697.310  348.318   89.916    0.269    8.502
  697.560  328.248   87.715    0.269    8.238
  697.810  315.079   81.943    0.271    7.648
  698.060  337.071   79.372    0.271    7.204
  698.310  339.617   81.118    0.271    6.486
  698.560  356.946   85.637    0.271    6.172
  698.810  353.108   89.846    0.269    6.030
  699.060  366.163   93.251    0.265    6.484
  699.310  363.842   96.541    0.257    7.426
  699.560  377.296   99.268    0.243    8.135
  699.810  338.162   97.809    0.233    9.509
  700.060  309.022   85.688    0.220   11.163
  700.310  261.148   74.985    0.212   13.053
  700.560  287.937   66.930    0.218   15.446
  700.810  295.807   72.497    0.221   16.510
  701.060  304.261   79.974    0.223   16.801
  701.310  374.504   83.811    0.221   15.727
  701.560  365.936   81.552    0.216   16.504
  701.810  312.212   76.887    0.206   17.928
  702.060  231.274   75.302    0.204   19.239
  702.310  256.493   78.650    0.209   20.106
  702.560  288.149   80.086    0.241   17.775
  702.810  310.871   82.508    0.258   15.117
  703.060  313.740   80.249    0.273   12.344
  703.310  335.933   82.423    0.275   10.649
  703.560  378.897   84.230    0.269   10.403
  703.810  401.877   86.096    0.262   10.894
  704.060  367.544   84.145    0.254   11.479
  704.310  333.014   78.497    0.244   12.094
  704.560  246.950   74.018    0.236   12.794
  704.810  274.270   79.210    0.235   13.425
  705.060  319.798   85.763    0.252   13.860
  705.310  363.813   91.017    0.245   13.820
  705.560  298.849   84.384    0.235   13.176
  705.810  291.991   78.487    0.231   12.537
  706.060  281.578   77.579    0.240   11.855
  706.310  277.944   83.207    0.239   11.510
  706.560  322.486   82.117    0.249   11.363
  706.810  303.989   79.612    0.241   11.262
  707.060  268.673   78.522    0.236   11.068
  707.310  309.271   79.955    0.251   10.748
  707.560  342.177   87.185    0.285   10.353
  707.810  359.244   90.716    0.276    9.852
  708.060  350.146   93.019    0.268    9.091
  708.310  333.692   92.855    0.267    8.355
  708.560  323.808   91.513    0.262    7.836
  708.810  322.605   89.135    0.259    7.655
  709.060  323.832   88.224    0.255    7.648
  709.310  320.588   86.956    0.253    7.801
  709.560  320.826   86.111    0.248    8.019
  709.810  320.079   85.507    0.249    8.178
  710.060  323.277   84.909    0.250    8.340
  710.310  322.662   84.440    0.248    8.557
  710.560  310.283   84.825    0.251    8.815
  710.810  298.889   88.052    0.252    8.955
  711.060  312.275   90.101    0.248    8.643
  711.310  320.600   91.356    0.244    7.861
  711.560  315.909   91.006    0.240    7.374
  711.810  331.464   90.407    0.233    7.176
  712.060  330.715   89.869    0.226    7.213
  712.310  335.821   87.918    0.218    7.477
  712.560  344.344   87.320    0.210    8.374
  712.810  311.653   84.690    0.197    9.458
  713.060  263.186   79.408    0.185   11.193
  713.310  217.875   70.370    0.191   13.139
  713.560  202.471   75.441    0.216   14.990
  713.810  211.518   78.298    0.245   16.384
