~VERSION INFORMATION
 VERS.                 2.0:   CWLS LOG ASCII STANDARD -VERSION 2.0
 WRAP.                  NO:   ONE LINE PER DEPTH STEP
~WELL INFORMATION BLOCK
#MNEM.UNIT           DATA                    DESCRIPTION OF MNEMONIC
#---------    -------------------            -------------------------------
# Generated from Intellog Unique Number	CW_73_75/WELL/829
WELL.         07-31-074-25W4                 : Well_name    - WELL
LOC .         00/07-31-074-25W4/0            : Location     - LOCATION
UWI .         00/07-31-074-25W4/0            : Uwi          - UNIQUE WELL ID
ENTR.         JAYE                           : Entered      - ENTERED BY
SRVC.         COMPUTALOG                     : Scn          - SERVICE COMPANY
DATE.         24 FEB 80                      : Date         - LOG DATE
STRT.M        430                            : top_depth    - START DEPTH
STOP.M        626                            : bot_depth    - STOP DEPTH
STEP.M        0.25                           : increment    - STEP LENGTH
 NULL. -999.2500:NULL Value
~CURVE INFORMATION BLOCK
#MNEM UNIT       ERCB CURVE CODE    CURVE DESCRIPTION
#-----------   ------------------   ----------------------------------
DEPT.M        00 001 00 00         : DEPTH        - DEPTH
ILD .OHMM     00 120 00 00         : RESD         - DEEP RESISTIVITY (DIL)
CALI.MM       00 280 01 00         : CAL          - CALIPER
GR  .API      00 310 00 00         : GR           - GAMMA RAY
NPHI.V/V      00 330 00 00         : PHIN         - NEUTRON POROSITY (SANDSTONE)
DPHI.V/V      00 890 00 00         : PHID         - DENSITY POROSITY (SANDSTONE)
~PARAMETER INFORMATION
#MNEM.UNIT           DATA             DESCRIPTION OF MNEMONIC
#---------         -----------     ------------------------------
GL  .M        703.95               : gl           - GROUND LEVEL ELEVATION
EREF.M        707.95               : kb           - ELEVATION OF DEPTH REFERENCE
DATM.M        703.95               : datum        - DATUM ELEVATION
TDD .M        626.4                : tdd          - TOTAL DEPTH DRILLER
RUN .         ONE                  : Run          - RUN NUMBER
ENG .         HOLDEN               : Engineer     - RECORDING ENGINEER
WIT .         LEGG/LEROUX          : Witness      - WITNESSED BY
BASE.         EDM                  : Branch       - HOME BASE OF LOGGING UNIT
MUD .         GEL CHEM             : Mud_type     - MUD TYPE
MATR.         SANDSTONE            : Logunit      - NEUTRON MATRIX
TMAX.C        18                   : BHT          - MAXIMUM RECORDED TEMPERATURE
BHTD.M        627                  : BHTDEP       - MAXIMUM RECORDED TEMPERATURE
RMT .C        5                    : MDTP         - TEMPERATURE OF MUD
MUDD.KG/M     1186                 : MWT          - MUD DENSITY
NEUT.         1                    : NEUTRON      - NEUTRON TYPE
RESI.         0                    : RESIST       - RESISTIVITY TYPE
RM  .OHMM     4.4                  : RM           - RESISTIVITY OF MUD
RMC .OHMM     5.5                  : RMC          - RESISTIVITY OF MUD CAKE
RMF .OHMM     4.7                  : RMF          - RESISTIVITY OF MUD FILTRATE
SUFT.C        0                    : SUFT         - SURFACE TEMPERATURE
~A  DEPTH     RESD      CAL       GR     PHIN     PHID
  430.000    2.687  205.399   97.237    0.438    0.276
  430.250    2.777  204.278  103.634    0.437    0.281
  430.500    2.876  207.291  102.032    0.451    0.272
  430.750    2.854  205.034   98.010    0.472    0.257
  431.000    2.800  203.498  100.314    0.494    0.258
  431.250    2.723  201.756  103.052    0.530    0.265
  431.500    2.662  198.467  104.301    0.542    0.272
  431.750    2.583  196.620  102.451    0.435    0.276
  432.000    2.616  194.468   95.018    0.432    0.283
  432.250    2.719  193.138   90.005    0.471    0.233
  432.500    2.780  193.773   85.611    0.519    0.153
  432.750    2.836  195.753   81.775    0.407    0.145
  433.000    2.899  197.527   86.746    0.403    0.191
  433.250    2.964  197.750   92.336    0.395    0.239
  433.500    3.081  197.351   92.969    0.402    0.250
  433.750    3.208  196.747   92.231    0.390    0.257
  434.000    3.366  196.246   96.023    0.370    0.259
  434.250    3.473  196.055   97.831    0.369    0.251
  434.500    3.401  197.104   94.121    0.384    0.236
  434.750    3.059  198.358   90.408    0.392    0.244
  435.000    2.782  200.959   87.379    0.391    0.260
  435.250    2.548  203.661   84.846    0.447    0.274
  435.500    2.396  208.019   86.407    0.489    0.289
  435.750    2.566  208.757   90.136    0.587    0.306
  436.000    3.060  207.326   92.440    0.628    0.308
  436.250    3.718  206.205   86.931    0.685    0.320
  436.500    5.318  205.083   80.118    0.711    0.339
  436.750    7.290  198.690   68.779    0.279    0.352
  437.000    8.629  191.471   62.401    0.313    0.360
  437.250    8.499  185.182   62.410    0.367    0.335
  437.500    8.007  182.510   62.049    0.384    0.271
  437.750    7.404  186.765   60.073    0.404    0.203
  438.000    7.388  191.637   58.160    0.447    0.227
  438.250    6.870  197.648   57.922    0.479    0.293
  438.500    6.568  197.044   59.419    0.476    0.301
  438.750    6.292  196.025   61.847    0.402    0.291
  439.000    5.993  196.250   69.111    0.366    0.285
  439.250    5.552  196.886   69.245    0.368    0.277
  439.500    5.087  197.210   65.472    0.387    0.267
  439.750    4.617  197.433   68.023    0.362    0.254
  440.000    4.152  197.551   73.800    0.362    0.252
  440.250    3.755  197.568   76.042    0.382    0.254
  440.500    3.377  197.173   73.633    0.376    0.258
  440.750    3.247  197.495   76.185    0.368    0.253
  441.000    3.394  197.202   84.442    0.396    0.237
  441.250    3.287  197.528   89.413    0.441    0.236
  441.500    3.226  197.231   91.965    0.377    0.249
  441.750    3.391  197.557  105.989    0.343    0.260
  442.000    3.712  196.539  108.417    0.418    0.262
  442.250    4.187  195.728   99.062    0.466    0.230
  442.500    4.662  195.330   92.188    0.423    0.226
  442.750    5.249  199.895   85.562    0.437    0.243
  443.000    5.998  202.183   78.503    0.464    0.257
  443.250    6.154  202.303   73.799    0.333    0.217
  443.500    6.028  202.115   72.382    0.301    0.135
  443.750    5.937  201.921   92.297    0.350    0.179
  444.000    5.946  201.832   86.725    0.410    0.265
  444.250    6.022  201.540   76.503    0.433    0.285
  444.500    6.076  201.141   68.326    0.393    0.290
  444.750    6.052  201.052   65.483    0.350    0.252
  445.000    6.006  200.449   72.190    0.327    0.243
  445.250    6.015  199.946   73.750    0.373    0.255
  445.500    6.126  199.242   62.658    0.392    0.276
  445.750    6.344  198.944   56.343    0.404    0.307
  446.000    6.643  198.134   50.461    0.361    0.331
  446.250    6.892  196.808   46.377    0.396    0.334
  446.500    7.085  195.478   46.014    0.421    0.332
  446.750    7.202  194.874   48.939    0.464    0.322
  447.000    7.281  194.992   53.103    0.440    0.317
  447.250    7.292  195.421   54.353    0.396    0.316
  447.500    7.303  196.471   51.881    0.410    0.316
  447.750    7.234  197.623   50.217    0.431    0.310
  448.000    7.178  198.983   51.901    0.408    0.302
  448.250    7.109  199.411   55.072    0.435    0.315
  448.500    7.068  199.221   55.641    0.461    0.320
  448.750    7.052  198.099   58.564    0.497    0.325
  449.000    7.037  197.701   61.551    0.477    0.322
  449.250    7.009  198.234   62.242    0.403    0.307
  449.500    6.930  199.490   60.824    0.404    0.300
  449.750    6.851  200.333   61.764    0.442    0.306
  450.000    6.747  200.348   64.378    0.411    0.314
  450.250    6.597  200.262   64.139    0.396    0.302
  450.500    6.390  200.173   65.451    0.379    0.283
  450.750    6.352  199.880   76.126    0.353    0.263
  451.000    6.615  199.688   95.608    0.340    0.244
  451.250    6.953  198.981   97.168    0.327    0.233
  451.500    7.241  198.377   86.760    0.314    0.233
  451.750    7.725  197.874   75.048    0.325    0.247
  452.000    8.165  196.960   61.167    0.358    0.263
  452.250    8.409  195.943   55.346    0.385    0.274
  452.500    8.838  195.339   51.821    0.385    0.283
  452.750    9.239  195.146   55.428    0.361    0.289
  453.000    9.747  195.369   60.895    0.382    0.271
  453.250   10.553  195.900   50.299    0.450    0.285
  453.500   11.072  197.054   40.511    0.366    0.294
  453.750   11.193  197.999   34.380    0.331    0.299
  454.000   10.882  198.944   30.421    0.355    0.301
  454.250   10.044  199.683   29.748    0.378    0.302
  454.500    9.134  200.216   29.200    0.418    0.302
  454.750    8.306  200.542   29.395    0.343    0.304
  455.000    7.652  200.559   30.087    0.300    0.311
  455.250    7.115  200.780   30.840    0.289    0.316
  455.500    6.629  201.107   32.338    0.278    0.317
  455.750    6.198  201.226   45.494    0.263    0.304
  456.000    5.882  201.241   61.007    0.307    0.269
  456.250    5.635  200.843   93.574    0.358    0.239
  456.500    5.448  200.238   96.065    0.390    0.243
  456.750    5.356  199.427   93.406    0.410    0.242
  457.000    5.354  199.134   89.447    0.434    0.231
  457.250    5.514  199.151   87.099    0.451    0.214
  457.500    5.763  199.165   91.822    0.357    0.211
  457.750    5.666  199.181  103.552    0.350    0.233
  458.000    4.993  199.403   98.166    0.350    0.251
  458.250    4.200  199.524   90.610    0.362    0.285
  458.500    3.791  199.848   82.185    0.328    0.296
  458.750    3.505  199.865   83.559    0.383    0.276
  459.000    3.094  200.190   97.707    0.432    0.247
  459.250    2.824  200.413  102.988    0.482    0.225
  459.500    2.680  200.736  106.842    0.495    0.212
  459.750    2.675  201.062  114.046    0.481    0.220
  460.000    2.664  201.495  119.576    0.487    0.233
  460.250    2.619  201.819  121.444    0.476    0.225
  460.500    2.618  201.939  127.158    0.483    0.236
  460.750    2.666  202.263  122.207    0.442    0.254
  461.000    2.797  202.900  112.418    0.454    0.272
  461.250    3.080  203.328  107.652    0.484    0.266
  461.500    3.539  204.172  101.833    0.460    0.284
  461.750    3.818  204.805   97.439    0.453    0.298
  462.000    3.903  205.648   95.650    0.434    0.300
  462.250    4.057  206.388  104.899    0.446    0.294
  462.500    4.280  206.712  112.846    0.398    0.273
  462.750    4.549  206.625  117.321    0.442    0.264
  463.000    5.000  205.709  107.532    0.475    0.269
  463.250    5.556  203.969   92.348    0.550    0.281
  463.500    6.106  202.023   81.443    0.507    0.288
  463.750    7.405  200.798   72.399    0.440    0.237
  464.000    7.654  199.985   67.509    0.482    0.259
  464.250    7.170  199.176   65.596    0.526    0.284
  464.500    6.932  198.673   69.016    0.537    0.311
  464.750    6.917  198.171   72.622    0.450    0.301
  465.000    7.124  197.774   81.375    0.457    0.299
  465.250    7.109  197.171   77.788    0.422    0.315
  465.500    6.950  196.978   74.263    0.398    0.330
  465.750    8.090  196.994   74.893    0.375    0.327
  466.000    8.858  197.321   75.398    0.420    0.292
  466.250    9.123  198.060   66.601    0.470    0.299
