~VERSION INFORMATION
 VERS.                 2.0:   CWLS LOG ASCII STANDARD -VERSION 2.0
 WRAP.                  NO:   ONE LINE PER DEPTH STEP
~WELL INFORMATION BLOCK
#MNEM.UNIT           DATA                    DESCRIPTION OF MNEMONIC
#---------    -------------------            -------------------------------
# Generated from Intellog Unique Number	CS_73_76/WELL/2014
WELL.         EAGLE RESOURCES LTD.           : Well_name    - WELL
LOC .         00/08-22-076-18W4/0            : Location     - LOCATION
UWI .         00/08-22-076-18W4/0            : Uwi          - UNIQUE WELL ID
ENTR.         JO                             : Entered      - ENTERED BY
SRVC.         SCHLUMBERGER                   : Scn          - SERVICE COMPANY
DATE.         05/22/92                       : Date         - LOG DATE
STRT.M        200                            : top_depth    - START DEPTH
STOP.M        450                            : bot_depth    - STOP DEPTH
STEP.M        0.25                           : increment    - STEP LENGTH
 NULL. -999.2500:NULL Value
~CURVE INFORMATION BLOCK
#MNEM UNIT       ERCB CURVE CODE    CURVE DESCRIPTION
#-----------   ------------------   ----------------------------------
DEPT.M        00 001 00 00         : DEPTH        - DEPTH
GR  .API      00 310 00 00         : GR           - GAMMA RAY
NPHI.V/V      00 330 00 00         : PHIN         - NEUTRON POROSITY (SANDSTONE)
DPHI.V/V      00 890 00 00         : PHID         - DENSITY POROSITY (SANDSTONE)
ILD .OHMM     00 120 00 00         : RESD         - DEEP RESISTIVITY (DIL)
~PARAMETER INFORMATION
#MNEM.UNIT           DATA             DESCRIPTION OF MNEMONIC
#---------         -----------     ------------------------------
GL  .M        606.6                : gl           - GROUND LEVEL ELEVATION
EREF.M        610.2                : kb           - ELEVATION OF DEPTH REFERENCE
DATM.M        610.2                : datum        - DATUM ELEVATION
TDD .M        446                  : tdd          - TOTAL DEPTH DRILLER
RUN .         ONE                  : Run          - RUN NUMBER
ENG .         BILL                 : Engineer     - RECORDING ENGINEER
WIT .         JIM                  : Witness      - WITNESSED BY
MUD .         GEL                  : Mud_type     - MUD TYPE
MATR.         SANDSTONE            : Logunit      - NEUTRON MATRIX
TMAX.C        29                   : BHT          - MAXIMUM RECORDED TEMPERATURE
BHTD.M        446                  : BHTDEP       - MAXIMUM RECORDED TEMPERATURE
RMT .C        16.7                 : MDTP         - TEMPERATURE OF MUD
MUDD.KG/M     1100                 : MWT          - MUD DENSITY
NEUT.         1                    : NEUTRON      - NEUTRON TYPE
RESI.         0                    : RESIST       - RESISTIVITY TYPE
RM  .OHMM     3.6                  : RM           - RESISTIVITY OF MUD
RMC .OHMM     3.2                  : RMC          - RESISTIVITY OF MUD CAKE
RMF .OHMM     3.6                  : RMF          - RESISTIVITY OF MUD FILTRATE
SUFT.C        15                   : SUFT         - SURFACE TEMPERATURE
~A  DEPTH       GR     PHIN     PHID     RESD
# ...
  374.000   96.774    0.467    0.203    5.665
  374.250   98.018    0.481    0.209    5.785
  374.500   99.844    0.471    0.206    6.255
  374.750  101.088    0.457    0.207    6.504
  375.000   95.345    0.443    0.206    6.895
  375.250   92.513    0.434    0.196    7.174
  375.500   95.504    0.440    0.205    6.800
  375.750   97.369    0.440    0.214    6.561
  376.000   98.011    0.434    0.210    6.333
  376.250   98.673    0.428    0.206    6.226
  376.500   97.568    0.432    0.207    6.123
  376.750   95.318    0.436    0.212    6.023
  377.000   96.020    0.441    0.212    5.927
  377.250   96.662    0.443    0.209    5.940
  377.500   97.343    0.445    0.208    5.849
  377.750   97.442    0.445    0.209    5.858
  378.000   97.502    0.444    0.212    6.214
  378.250   97.581    0.441    0.217    6.338
  378.500   96.476    0.446    0.222    6.846
  378.750   94.809    0.443    0.221    7.265
  379.000   95.510    0.439    0.212    6.759
  379.250   93.221    0.435    0.198    6.400
  379.500   94.465    0.429    0.179    6.175
  379.750   98.620    0.438    0.180    6.076
  380.000  103.960    0.445    0.195    6.086
  380.250  101.148    0.447    0.208    6.456
  380.500   98.878    0.452    0.224    6.977
  380.750   97.211    0.463    0.230    7.388
  381.000   93.797    0.453    0.238    8.455
  381.250   89.198    0.429    0.220    8.629
  381.500   82.291    0.397    0.205    8.806
  381.750   75.986    0.357    0.195    8.671
  382.000   73.736    0.357    0.216    8.366
  382.250   73.233    0.369    0.250    7.779
  382.500   74.457    0.417    0.318    7.233
  382.750   76.886    0.422    0.320    6.729
  383.000   76.363    0.417    0.315    6.488
  383.250   75.860    0.414    0.299    6.263
  383.500   76.522    0.413    0.298    6.164
  383.750   78.970    0.411    0.295    6.416
  384.000   80.776    0.410    0.291    6.672
  384.250   82.602    0.406    0.286    7.914
  384.500   82.682    0.424    0.282    8.549
  384.750   81.014    0.406    0.270    9.234
  385.000   77.600    0.347    0.210    8.923
  385.250   68.344    0.268    0.084    8.449
  385.500   59.108    0.235    0.042    8.001
  385.750   51.036    0.202   -0.024    6.906
  386.000   48.786    0.196    0.020    6.302
  386.250   54.106    0.217    0.063    6.083
  386.500   70.508    0.297    0.116    5.980
  386.750   83.416    0.343    0.234    5.888
  387.000   82.351    0.383    0.267    5.888
  387.250   80.101    0.435    0.270    5.920
  387.500   78.454    0.454    0.270    5.920
  387.750   77.369    0.447    0.270    5.615
  388.000   76.826    0.453    0.270    5.520
  388.250   72.830    0.452    0.277    5.432
  388.500   72.327    0.441    0.287    5.346
  388.750   73.571    0.441    0.283    5.354
  389.000   75.980    0.452    0.283    5.363
  389.250   77.223    0.458    0.289    5.380
  389.500   77.905    0.454    0.301    5.386
  389.750   78.586    0.447    0.306    5.398
  390.000   79.830    0.439    0.309    5.412
  390.250   79.910    0.433    0.310    5.421
  390.500   77.660    0.444    0.309    5.335
  390.750   75.411    0.452    0.306    5.349
  391.000   74.928    0.447    0.304    5.361
  391.250   74.385    0.445    0.304    5.370
  391.500   75.649    0.439    0.302    5.381
  391.750   78.057    0.437    0.303    5.393
  392.000   79.883    0.434    0.308    5.405
  392.250   78.216    0.434    0.309    5.422
  392.500   75.384    0.435    0.288    5.534
  392.750   73.697    0.436    0.279    5.648
  393.000   73.214    0.435    0.268    5.997
  393.250   73.293    0.428    0.249    6.232
  393.500   74.537    0.415    0.209    6.863
  393.750   70.521    0.396    0.151    7.271
  394.000   52.551    0.333    0.057    7.708
  394.250   47.953    0.253    0.033    7.880
  394.500   48.032    0.212    0.019    7.897
  394.750   49.898    0.229    0.076    7.619
  395.000   52.869    0.264    0.133    6.831
  395.250   58.188    0.293    0.168    6.587
  395.500   67.021    0.330    0.231    6.608
  395.750   72.923    0.362    0.266    6.741
  396.000   74.167    0.379    0.255    7.418
  396.250   74.266    0.398    0.214    8.476
  396.500   69.086    0.383    0.194    8.350
  396.750   68.001    0.350    0.139    7.907
  397.000   71.613    0.338    0.152    7.348
  397.250   74.604    0.377    0.183    6.706
  397.500   76.430    0.404    0.258    6.349
  397.750   77.092    0.433    0.300    6.132
  398.000   77.733    0.445    0.298    5.923
  398.250   79.599    0.446    0.295    5.939
  398.500   77.932    0.447    0.299    5.838
  398.750   75.682    0.444    0.297    5.848
  399.000   74.015    0.437    0.288    5.860
  399.250   74.697    0.438    0.284    5.873
  399.500   74.756    0.431    0.287    5.886
  399.750   76.582    0.420    0.287    6.010
  400.000   77.806    0.436    0.281    6.144
  400.250   81.399    0.443    0.273    6.154
  400.500   83.847    0.436    0.263    6.170
  400.750   84.469    0.428    0.261    6.297
  401.000   85.131    0.419    0.261    6.311
  401.250   85.812    0.414    0.256    6.324
  401.500   85.872    0.410    0.251    6.338
  401.750   85.951    0.409    0.242    6.352
  402.000   86.613    0.428    0.229    6.486
  402.250   87.274    0.423    0.219    6.500
  402.500   86.189    0.422    0.217    6.514
  402.750   84.542    0.424    0.221    6.532
  403.000   83.457    0.431    0.229    6.546
  403.250   85.885    0.435    0.231    6.438
  403.500   88.273    0.441    0.226    6.103
  403.750   91.846    0.450    0.217    5.888
  404.000   93.090    0.441    0.224    5.478
  404.250   92.025    0.433    0.232    5.288
  404.500   92.104    0.444    0.238    5.204
  404.750   98.026    0.441    0.239    5.113
  405.000  101.017    0.435    0.227    5.224
  405.250  102.843    0.423    0.216    5.337
  405.500  103.524    0.426    0.206    5.343
  405.750  103.584    0.426    0.200    5.458
  406.000  103.683    0.420    0.195    5.682
  406.250  103.763    0.414    0.186    5.915
  406.500  103.862    0.427    0.188    6.147
  406.750  103.901    0.419    0.197    6.396
  407.000  102.234    0.413    0.196    6.784
  407.250   98.238    0.409    0.191    7.328
  407.500   94.844    0.410    0.181    7.919
  407.750   93.177    0.410    0.172    8.558
  408.000   92.091    0.410    0.167    8.734
  408.250   91.006    0.408    0.174    9.434
  408.500   89.901    0.403    0.178   10.574
  408.750   84.741    0.389    0.169   11.215
  409.000   77.231    0.382    0.147   11.258
  409.250   81.406    0.368    0.102   10.856
  409.500   86.746    0.337    0.090   10.094
  409.750   89.134    0.365    0.154    9.738
  410.000   92.707    0.380    0.172    9.578
  410.250   93.368    0.404    0.169    9.604
  410.500   90.556    0.392    0.152    9.807
  410.750   92.422    0.374    0.152    9.651
  411.000   93.064    0.389    0.150    9.493
  411.250   93.124    0.392    0.139    9.508
  411.500   92.621    0.385    0.144    9.347
  411.750   94.467    0.381    0.162    9.032
  412.000   96.273    0.387    0.171    8.879
  412.250   98.099    0.397    0.174    8.571
  412.500  101.712    0.415    0.171    8.120
  412.750  103.518    0.417    0.165    7.839
  413.000   98.959    0.415    0.159    7.426
  413.250   98.457    0.443    0.150    7.169
  413.500   98.556    0.432    0.163    7.059
  413.750   98.596    0.411    0.176    7.066
  414.000  101.004    0.414    0.179    7.085
  414.250  102.830    0.419    0.178    7.097
  414.500  102.949    0.424    0.175    7.124
  414.750  100.098    0.420    0.172    7.128
  415.000   90.841    0.411    0.165    7.014
  415.250   85.700    0.401    0.154    7.029
  415.500   88.691    0.393    0.135    6.793
  415.750   91.662    0.387    0.121    6.678
  416.000   96.419    0.386    0.168    6.446
  416.250   99.992    0.389    0.184    5.883
  416.500  103.584    0.389    0.169    4.978
  416.750  101.897    0.399    0.144    4.212
  417.000  103.161    0.415    0.156    3.500
  417.250  103.843    0.426    0.181    2.412
