~VERSION INFORMATION
 VERS.                 2.0:   CWLS LOG ASCII STANDARD -VERSION 2.0
 WRAP.                  NO:   ONE LINE PER DEPTH STEP
~WELL INFORMATION BLOCK
#MNEM.UNIT           DATA                    DESCRIPTION OF MNEMONIC
#---------    -------------------            -------------------------------
# Generated from Intellog Unique Number	CW_76_78/WELL/199
WELL.         SULPETRO MARTEN HILLS 04-29    : Well_name    - WELL
LOC .         00/04-29-076-23W4/0            : Location     - LOCATION
UWI .         00/04-29-076-23W4/0            : Uwi          - UNIQUE WELL ID
ENTR.         JAYE                           : Entered      - ENTERED BY
SRVC.         SCHLUMBERGER                   : Scn          - SERVICE COMPANY
DATE.         4 MAR 84                       : Date         - LOG DATE
STRT.M        640                            : top_depth    - START DEPTH
STOP.M        891                            : bot_depth    - STOP DEPTH
STEP.M        0.25                           : increment    - STEP LENGTH
 NULL. -999.2500:NULL Value
~CURVE INFORMATION BLOCK
#MNEM UNIT       ERCB CURVE CODE    CURVE DESCRIPTION
#-----------   ------------------   ----------------------------------
DEPT.M        00 001 00 00         : DEPTH        - DEPTH
ILD .OHMM     00 120 00 00         : RESD         - DEEP RESISTIVITY (DIL)
NPHI.V/V      00 330 00 00         : PHIN         - NEUTRON POROSITY (SANDSTONE)
DPHI.V/V      00 890 00 00         : PHID         - DENSITY POROSITY (SANDSTONE)
GR  .API      00 310 00 00         : GR           - GAMMA RAY
CALI.MM       00 280 01 00         : CAL          - CALIPER
~PARAMETER INFORMATION
#MNEM.UNIT           DATA             DESCRIPTION OF MNEMONIC
#---------         -----------     ------------------------------
GL  .M        935.93               : gl           - GROUND LEVEL ELEVATION
EREF.M        939.4                : kb           - ELEVATION OF DEPTH REFERENCE
DATM.M        935.93               : datum        - DATUM ELEVATION
TDD .M        896                  : tdd          - TOTAL DEPTH DRILLER
RUN .         ONE                  : Run          - RUN NUMBER
MUD .         GEL CHEM             : Mud_type     - MUD TYPE
MATR.         SANDSTONE            : Logunit      - NEUTRON MATRIX
TMAX.C        24                   : BHT          - MAXIMUM RECORDED TEMPERATURE
BHTD.M        891                  : BHTDEP       - MAXIMUM RECORDED TEMPERATURE
RMT .C        14                   : MDTP         - TEMPERATURE OF MUD
MUDD.KG/M     1170                 : MWT          - MUD DENSITY
NEUT.         1                    : NEUTRON      - NEUTRON TYPE
RESI.         0                    : RESIST       - RESISTIVITY TYPE
RM  .OHMM     1.374                : RM           - RESISTIVITY OF MUD
RMC .OHMM     0                    : RMC          - RESISTIVITY OF MUD CAKE
RMF .OHMM     1.642                : RMF          - RESISTIVITY OF MUD FILTRATE
SUFT.C        0                    : SUFT         - SURFACE TEMPERATURE
~A  DEPTH     RESD     PHIN     PHID       GR      CAL
# ...
  786.000    6.791    0.450    0.193   95.921  160.022
  786.250    6.808    0.484    0.263   90.010  158.689
  786.500    7.004    0.501    0.255   85.408  153.925
  786.750    7.561    0.493    0.240   80.805  152.487
  787.000    8.517    0.472    0.242   77.013  153.126
  787.250    9.331    0.454    0.242   74.779  154.281
  787.500   10.018    0.446    0.241   72.482  155.233
  787.750   10.975    0.441    0.239   69.439  155.563
  788.000   11.758    0.428    0.199   66.766  155.264
  788.250   12.165    0.362    0.161   63.286  154.347
  788.500   12.100    0.343    0.201   65.788  153.839
  788.750   11.408    0.429    0.234   69.100  153.128
  789.000    9.950    0.429    0.243   72.911  152.728
  789.250    8.315    0.421    0.237   74.791  152.328
  789.500    7.429    0.417    0.224   77.167  151.825
  789.750    6.798    0.415    0.208   82.162  151.424
  790.000    6.603    0.414    0.227   77.622  151.336
  790.250    6.569    0.450    0.240   75.574  151.768
  790.500    6.645    0.441    0.221   76.955  152.507
  790.750    6.785    0.432    0.215   82.011  153.565
  791.000    7.190    0.443    0.197   78.094  153.993
  791.250    8.328    0.359    0.165   72.246  154.526
  791.500   10.161    0.267    0.115   66.147  154.855
  791.750   12.373    0.234    0.060   58.803  154.769
  792.000   13.507    0.256    0.055   60.682  154.575
  792.250   12.337    0.344    0.146   66.673  154.589
  792.500   10.464    0.379    0.193   78.087  154.605
  792.750    9.418    0.391    0.195   78.345  154.724
  793.000    8.717    0.388    0.178   74.678  154.738
  793.250    8.142    0.382    0.162   74.563  154.753
  793.500    7.952    0.374    0.173   77.937  154.353
  793.750    7.853    0.397    0.186   80.875  153.432
  794.000    7.740    0.415    0.195   82.255  152.203
  794.250    7.628    0.394    0.204   83.760  151.907
  794.500    7.518    0.405    0.213   84.954  152.650
  794.750    7.358    0.412    0.207   85.897  153.080
  795.000    7.105    0.408    0.190   87.215  153.615
  795.250    6.887    0.404    0.188   92.957  153.836
  795.500    6.688    0.407    0.191   93.964  154.162
  795.750    6.532    0.418    0.188   91.106  154.180
  796.000    6.403    0.426    0.194   91.988  154.505
  796.250    6.357    0.438    0.199   95.674  155.871
  796.500    6.337    0.458    0.190   97.490  157.132
  796.750    6.292    0.441    0.179   94.134  157.563
  797.000    6.273    0.405    0.174   91.340  157.891
  797.250    6.299    0.391    0.174   90.538  158.012
  797.500    6.337    0.398    0.173   91.669  158.336
  797.750    6.328    0.400    0.163   93.859  158.874
  798.000    6.331    0.418    0.137   99.228  159.197
  798.250    6.286    0.419    0.115  100.298  159.316
  798.500    6.243    0.415    0.173   99.620  159.124
  798.750    6.198    0.422    0.187   98.446  158.723
  799.000    6.177    0.437    0.191   96.709  157.181
  799.250    6.158    0.440    0.171   94.101  154.704
  799.500    6.101    0.430    0.181   92.428  152.953
  799.750    6.106    0.422    0.193   94.120  151.203
  800.000    6.133    0.421    0.183   97.618  151.634
  800.250    6.122    0.447    0.166   97.691  154.454
  800.500    6.080    0.453    0.166   98.323  157.585
  800.750    6.026    0.441    0.166  100.949  159.781
  801.000    5.985    0.427    0.206  104.635  160.109
  801.250    5.920    0.414    0.171  107.886  159.811
  801.500    5.891    0.418    0.167  111.259  159.309
  801.750    5.859    0.412    0.168  106.532  159.116
  802.000    5.809    0.415    0.169  100.371  158.407
  802.250    5.758    0.434    0.176   98.512  158.004
  802.500    5.750    0.452    0.179   97.773  157.708
  802.750    5.838    0.456    0.170   95.227  158.035
  803.000    5.951    0.446    0.140   91.186  158.468
  803.250    6.086    0.413    0.130   93.749  159.001
  803.500    6.145    0.389    0.165   96.376  159.434
  803.750    6.159    0.403    0.181   98.254  159.551
  804.000    6.151    0.421    0.190   98.638  159.461
  804.250    6.152    0.422    0.187   95.718  159.167
  804.500    6.133    0.411    0.178   94.792  158.765
  804.750    6.125    0.424    0.163   93.992  158.259
  805.000    6.127    0.432    0.141   92.754  157.655
  805.250    6.150    0.434    0.148   89.772  157.252
  805.500    6.131    0.439    0.171   88.223  157.059
  805.750    6.135    0.428    0.183   89.790  156.762
  806.000    6.148    0.407    0.193   90.298  156.780
  806.250    6.151    0.432    0.194   90.868  156.377
  806.500    6.109    0.448    0.192   91.188  155.458
  806.750    6.054    0.456    0.185   93.940  154.538
  807.000    6.024    0.462    0.180   96.006  153.931
  807.250    6.104    0.433    0.177   92.899  154.984
  807.500    6.211    0.410    0.182   90.852  155.311
  807.750    6.353    0.396    0.198   89.491  153.977
  808.000    6.511    0.404    0.208   88.564  152.539
  808.250    6.747    0.416    0.218   87.078  151.618
  808.500    6.954    0.411    0.218   85.280  150.595
  808.750    7.167    0.411    0.190   82.173  149.883
  809.000    7.650    0.392    0.157   78.941  150.833
  809.250    8.273    0.365    0.137   76.582  152.821
  809.500    8.702    0.367    0.111   75.221  155.329
  809.750    9.186    0.392    0.088   74.918  156.592
  810.000    9.556    0.415    0.070   75.364  156.296
  810.250    9.127    0.356    0.100   77.491  156.934
  810.500    8.494    0.358    0.145   82.112  157.676
  810.750    7.919    0.373    0.169   85.923  158.108
  811.000    7.302    0.384    0.175   91.042  158.538
  811.250    6.768    0.394    0.168   96.411  159.177
  811.500    6.370    0.405    0.161   98.727  159.918
  811.750    6.084    0.408    0.159   99.607  161.388
  812.000    5.876    0.401    0.173  100.863  164.103
  812.250    5.824    0.403    0.175   99.813  173.985
  812.500    6.183    0.433    0.182  103.187  184.491
  812.750    6.799    0.461    0.197   89.923  178.794
  813.000    8.143    0.438    0.152   82.142  163.438
  813.250   10.641    0.351    0.107   76.728  155.871
  813.500   14.404    0.305    0.054   73.061  153.497
  813.750   16.591    0.286    0.050   75.002  152.787
  814.000   17.131    0.297    0.086   76.195  153.528
  814.250   16.512    0.304    0.102   79.385  156.037
  814.500   15.225    0.317    0.120   82.196  157.401
  814.750   13.753    0.338    0.137   86.132  158.456
  815.000   12.424    0.341    0.149   93.245  159.409
  815.250   11.585    0.331    0.132  102.415  159.733
  815.500   11.106    0.339    0.138   95.943  159.125
  815.750   10.528    0.346    0.155   93.834  158.308
  816.000    9.652    0.348    0.150   99.327  158.428
  816.250    8.918    0.339    0.137  104.945  160.105
  816.500    8.268    0.366    0.206  109.254  163.652
  816.750    7.794    0.414    0.254  107.581  165.745
  817.000    7.842    0.411    0.227  101.545  163.787
  817.250    8.007    0.379    0.166  101.056  161.827
  817.500    8.251    0.355    0.142  101.127  159.870
  817.750    8.599    0.346    0.132  102.071  158.640
  818.000    8.993    0.346    0.134  100.771  158.654
  818.250    9.065    0.363    0.140   98.102  158.880
  818.500    9.102    0.372    0.150  100.042  158.996
  818.750    9.208    0.383    0.159   98.867  159.014
  819.000    9.419    0.403    0.162   92.021  158.507
  819.250    9.834    0.385    0.138   83.243  155.095
  819.500   10.477    0.367    0.123   83.688  151.994
  819.750   10.799    0.377    0.112   84.757  152.945
  820.000   10.744    0.346    0.109   86.075  155.349
  820.250   10.033    0.343    0.123   86.956  157.337
  820.500    9.443    0.363    0.137   89.085  159.120
  820.750    8.658    0.371    0.149   92.085  158.407
  821.000    7.982    0.392    0.161   94.151  156.448
  821.250    7.499    0.432    0.175   97.214  158.125
  821.500    7.149    0.419    0.149   96.600  160.426
  821.750    6.852    0.411    0.125   95.426  162.416
  822.000    6.730    0.419    0.129   94.998  162.535
  822.250    6.585    0.423    0.153   95.630  160.784
