~VERSION INFORMATION
 VERS.                 2.0:   CWLS LOG ASCII STANDARD -VERSION 2.0
 WRAP.                  NO:   ONE LINE PER DEPTH STEP
~WELL INFORMATION BLOCK
#MNEM.UNIT           DATA                    DESCRIPTION OF MNEMONIC
#---------    -------------------            -------------------------------
# Generated from Intellog Unique Number	CC_80_83/WELL/1170
NULL.         -999.25                        : NULL_VALUE
WELL.         CHEVRON CDN-SUP ALGAR          : Well_name    - WELL
LOC .         06-36-082-16W4                 : Location     - LOCATION          
UWI .         00/06-36-082-16W400            : Uwi          - UNIQUE WELL ID    
ENTR.         DW                             : Entered      - ENTERED BY        
SRVC.         SCHLUMBERGER                   : Scn          - SERVICE COMPANY   
DATE.         17 MAR 74                      : Date         - LOG DATE
STRT.M        97.536                         : top_depth    - START DEPTH       
STOP.M        289.559                        : bot_depth    - STOP DEPTH        
STEP.M        0.3048                         : increment    - STEP LENGTH       
~CURVE INFORMATION BLOCK
#MNEM UNIT       ERCB CURVE CODE    CURVE DESCRIPTION
#-----------   ------------------   ----------------------------------
DEPT.M        00 001 00 00         : DEPTH        - DEPTH                       
DPHI.V/V      00 890 00 00         : PHID         - DENSITY POROSITY (LIMESTONE)
NPHI.V/V      00 330 00 00         : PHIN         - NEUTRON POROSITY (LIMESTONE)
GR  .API      00 310 00 00         : GR           - GAMMA RAY                   
ILD .OHMM     00 120 00 00         : RESD         - DEEP RESISTIVITY (DIL)      
~PARAMETER INFORMATION       
#MNEM.UNIT           DATA             DESCRIPTION OF MNEMONIC
#---------         -----------     ------------------------------
GL  .M        545.592              : gl           - GROUND LEVEL ELEVATION      
EREF.M        549.25               : kb           - ELEVATION OF DEPTH REFERENCE
DATM.M        549.25               : datum        - DATUM ELEVATION             
TDD .M        289.56               : tdd          - TOTAL DEPTH DRILLER         
RUN .         ONE                  : Run          - RUN NUMBER                  
ENG .         BILL                 : Engineer     - RECORDING ENGINEER          
WIT .         JIM                  : Witness      - WITNESSED BY                
MUD .         GEL                  : Mud_type     - MUD TYPE                    
MATR.         LIMESTONE            : Logunit      - NEUTRON MATRIX              
TMAX.C        23.3333              : BHT          - MAXIMUM RECORDED TEMPERATURE
BHTD.M        289.56               : BHTDEP       - MAXIMUM RECORDED TEMPERATURE
MATR.         1                    : LOGUNIT      - NEUTRON MATRIX              
RMT .C        25                   : MDTP         - TEMPERATURE OF MUD          
NEUT.         1                    : NEUTRON      - NEUTRON TYPE                
RESI.         0                    : RESIST       - RESISTIVITY TYPE            
RMC .OHMM     0.25                 : RMC          - RESISTIVITY OF MUD CAKE     
RMF .OHMM     0.25                 : RMF          - RESISTIVITY OF MUD FILTRATE 
SUFT.C        15                   : SUFT         - SURFACE TEMPERATURE         
~A  DEPTH     PHID     PHIN       GR     RESD
   97.536    0.293    0.590   94.643    2.880
   97.841    0.294    0.566   98.214    2.936
   98.146    0.289    0.556   95.238    2.992
   98.450    0.277    0.567   90.476    3.050
   98.755    0.265    0.548   86.309    3.110
   99.060    0.254    0.541   87.500    3.112
   99.365    0.247    0.552   94.048    3.172
   99.670    0.238    0.579   97.024    3.174
   99.974    0.220    0.599  100.000    3.235
  100.279    0.231    0.601  101.190    3.237
  100.584    0.238    0.581  100.000    3.300
  100.889    0.240    0.572   99.405    3.303
  101.194    0.237    0.577  104.762    3.366
  101.498    0.231    0.589  106.548    3.368
  101.803    0.241    0.599  102.381    3.308
  102.108    0.281    0.608   97.619    3.250
  102.413    0.266    0.587   98.214    3.251
  102.718    0.266    0.549   98.809    3.254
  103.022    0.266    0.542   97.619    3.317
  103.327    0.252    0.550   94.048    3.445
  103.632    0.248    0.547   92.857    3.446
  103.937    0.247    0.543   93.452    3.513
  104.242    0.250    0.552   94.048    3.581
  104.546    0.270    0.529   95.238    3.518
  104.851    0.232    0.535   94.643    3.455
  105.156    0.235    0.552   93.452    3.394
  105.461    0.242    0.531   91.071    3.591
  105.766    0.266    0.531   89.286    3.942
  106.070    0.284    0.535   86.905    5.020
  106.375    0.248    0.471   77.381    7.146
  106.680    0.248    0.410   68.452   13.437
  106.985    0.266    0.376   60.119   23.901
  107.290    0.340    0.369   65.476   28.265
  107.594    0.381    0.376   71.429   25.774
  107.899    0.383    0.392   72.619   20.268
  108.204    0.369    0.400   73.809   16.845
  108.509    0.335    0.388   75.595   13.489
  108.814    0.329    0.406   79.167   11.006
  109.118    0.313    0.435   80.357   10.809
  109.423    0.273    0.420   79.762   11.438
  109.728    0.318    0.399   74.405   11.878
  110.033    0.335    0.412   67.857   11.884
  110.338    0.299    0.423   71.429   11.249
  110.642    0.266    0.432   75.000   11.046
  110.947    0.292    0.440   83.333   10.076
  111.252    0.296    0.440   92.262    9.714
  111.557    0.271    0.416   92.857   10.088
  111.862    0.273    0.409   91.071   10.874
  112.166    0.305    0.402   86.905   11.290
  112.471    0.322    0.420   81.548   11.942
  112.776    0.295    0.457   74.405   12.633
  113.081    0.273    0.481   72.024   13.122
  113.386    0.260    0.451   67.857   13.625
  113.691    0.223    0.445   67.262   13.387
  113.995    0.218    0.472   72.619   12.904
  114.300    0.259    0.498   86.905   10.529
  114.605    0.255    0.533   88.095    9.250
  114.910    0.253    0.506   86.309    6.506
  115.215    0.270    0.483   79.762    6.510
  115.519    0.289    0.491   72.619    9.098
  115.824    0.302    0.496   66.071   10.961
  116.129    0.312    0.489   67.262   12.034
  116.434    0.293    0.491   77.381   10.973
  116.739    0.241    0.517   92.262    6.778
  117.043    0.218    0.538   95.238    5.040
  117.348    0.194    0.548   97.024    4.267
  117.653    0.218    0.579   97.024    3.482
  117.958    0.249    0.598   97.619    3.060
  118.263    0.272    0.606  101.190    2.739
  118.567    0.259    0.599  101.190    2.845
  118.872    0.276    0.552   92.857    3.301
  119.177    0.290    0.502   72.024    5.554
  119.482    0.296    0.483   62.500    8.516
  119.787    0.305    0.472   59.524    9.703
  120.091    0.308    0.469   59.524   10.267
  120.396    0.306    0.487   61.905   10.084
  120.701    0.311    0.490   63.095    9.903
  121.006    0.305    0.509   65.476    8.544
  121.311    0.301    0.526   67.262    7.506
  121.615    0.294    0.515   74.405    5.793
  121.920    0.276    0.506   81.548    4.815
  122.225    0.246    0.530   85.714    4.642
  122.530    0.238    0.548   89.286    5.193
  122.835    0.227    0.531   89.286    6.028
  123.139    0.177    0.507   89.286    7.127
  123.444    0.212    0.495   91.071   10.727
  123.749    0.272    0.484   88.095   14.178
  124.054    0.313    0.454   64.286   16.765
  124.359    0.296    0.435   63.691   17.412
  124.663    0.289    0.432   68.452   15.584
  124.968    0.284    0.443   75.000    8.299
  125.273    0.267    0.496   94.048    8.002
  125.578    0.232    0.486   97.024    8.951
  125.883    0.263    0.474   93.452   10.390
  126.187    0.294    0.463   84.524   11.195
  126.492    0.285    0.456   89.286   11.844
  126.797    0.276    0.457   88.691   11.003
  127.102    0.269    0.463   86.309   11.216
  127.407    0.272    0.472   84.524   12.544
  127.711    0.305    0.472   82.738   14.293
  128.016    0.330    0.484   82.143   15.991
  128.321    0.308    0.463   83.333   16.603
  128.626    0.295    0.455   85.714   16.611
  128.931    0.300    0.454   86.905   16.319
  129.235    0.296    0.458   86.309   15.449
  129.540    0.301    0.471   83.929   14.620
  129.845    0.322    0.469   82.143   14.095
  130.150    0.310    0.466   83.929   13.845
  130.455    0.288    0.456   90.476   13.851
  130.759    0.272    0.448   92.857   13.862
  131.064    0.247    0.444   90.476   12.878
  131.369    0.224    0.446   89.881   11.744
  131.674    0.195    0.450   91.071   10.319
  131.979    0.195    0.454   95.833    8.900
  132.283    0.210    0.440   98.214    7.968
  132.588    0.214    0.425   98.214    7.973
  132.893    0.219    0.434   97.619    8.127
  133.198    0.218    0.444  100.595    7.837
  133.502    0.217    0.465  111.310    7.281
  133.807    0.181    0.506  110.714    6.517
  134.112    0.143    0.506  107.738    5.727
  134.417    0.194    0.497  107.738    5.320
  134.722    0.198    0.495  110.119    5.131
  135.026    0.196    0.526  113.095    5.134
  135.331    0.210    0.523  113.095    5.331
  135.636    0.202    0.515  107.143    5.140
  135.941    0.200    0.558  108.333    4.687
  136.246    0.189    0.598  111.905    3.969
  136.550    0.209    0.575  113.095    3.898
  136.855    0.238    0.570  112.500    4.525
  137.160    0.269    0.554  110.714    5.764
  137.465    0.276    0.504  107.143    7.477
  137.770    0.283    0.468   91.667    9.882
  138.074    0.270    0.440   89.286   11.261
  138.379    0.250    0.434   98.214   11.697
  138.684    0.237    0.435  105.357   11.276
  138.989    0.227    0.442  108.929   10.096
  139.294    0.225    0.443  110.714    9.377
  139.598    0.218    0.452  110.714    8.394
  139.903    0.206    0.473  108.333    8.556
  140.208    0.258    0.498  101.190   10.119
  140.513    0.285    0.506   93.452   11.531
  140.818    0.310    0.468   92.262   12.197
  141.122    0.304    0.448   92.857   13.146
  141.427    0.313    0.445   91.071   13.398
  141.732    0.315    0.445   88.095   13.407
  142.037    0.300    0.458   85.714   12.689
  142.342    0.293    0.491   79.762   12.697
  142.646    0.307    0.483   67.857   13.686
  142.951    0.322    0.477   61.309   15.310
  143.256    0.325    0.473   60.119   16.496
  143.561    0.322    0.462   60.119   16.813
  143.865    0.327    0.460   60.119   17.465
  144.170    0.315    0.475   58.333   17.799
  144.475    0.308    0.468   55.357   18.834
  144.780    0.310    0.445   53.571   18.842
  145.085    0.311    0.443   53.571   18.859
  145.389    0.323    0.450   53.571   18.866
  145.694    0.327    0.450   53.571   18.534
  145.999    0.327    0.449   54.167   18.203
  146.304    0.322    0.446   55.952   18.552
  146.609    0.302    0.465   57.143   18.223
  146.913    0.313    0.443   59.524   17.573
  147.218    0.310    0.423   60.714   17.259
  147.523    0.306    0.426   60.119   16.338
  147.828    0.307    0.444   60.119   16.044
  148.133    0.307    0.451   63.095   14.905
  148.437    0.282    0.438   64.286   13.596
  148.742    0.240    0.431   64.286   13.857
  149.047    0.192    0.356   60.714   15.788
  149.352    0.008    0.191   52.381   19.374
  149.657    0.015    0.185   47.024   22.914
  149.961    0.086    0.243   51.191   23.791
  150.266    0.183    0.346   60.119   16.124
