~VERSION INFORMATION
 VERS.                 2.0:   CWLS LOG ASCII STANDARD -VERSION 2.0
 WRAP.                  NO:   ONE LINE PER DEPTH STEP
~WELL INFORMATION BLOCK
#MNEM.UNIT           DATA                    DESCRIPTION OF MNEMONIC
#---------    -------------------            -------------------------------
# Generated from Intellog Unique Number	CW_70_72/WELL/693
NULL.         -999.25                        : NULL_VALUE
WELL.         AMOCO MIAMI B-1 SPURFIELD 06-2 : Well_name    - WELL              
LOC .         06-22-071-02W5                 : Location     - LOCATION          
UWI .         00/06-22-071-02W5/0            : Uwi          - UNIQUE WELL ID    
ENTR.         JAYE                           : Entered      - ENTERED BY        
SRVC.         SCHLUMBERGER                   : Scn          - SERVICE COMPANY   
DATE.         12 MAR 75                      : Date         - LOG DATE          
STRT.M        365.76                         : top_depth    - START DEPTH       
STOP.M        615.76                         : bot_depth    - STOP DEPTH        
STEP.M        0.25                           : increment    - STEP LENGTH       
~CURVE INFORMATION BLOCK
#MNEM UNIT       ERCB CURVE CODE    CURVE DESCRIPTION
#-----------   ------------------   ----------------------------------
DEPT.M        00 001 00 00         : DEPTH        - DEPTH                       
DPHI.V/V      00 890 00 00         : PHID         - DENSITY POROSITY (SANDSTONE)
NPHI.V/V      00 330 00 00         : PHIN         - NEUTRON POROSITY (SANDSTONE)
GR  .API      00 310 00 00         : GR           - GAMMA RAY                   
CALI.MM       00 280 01 00         : CAL          - CALIPER                     
ILD .OHMM     00 120 00 00         : RESD         - DEEP RESISTIVITY (DIL)      
~PARAMETER INFORMATION       
#MNEM.UNIT           DATA             DESCRIPTION OF MNEMONIC
#---------         -----------     ------------------------------
GL  .M        584.911              : gl           - GROUND LEVEL ELEVATION      
EREF.M        589.026              : kb           - ELEVATION OF DEPTH REFERENCE
DATM.M        584.911              : datum        - DATUM ELEVATION             
TDD .M        614.172              : tdd          - TOTAL DEPTH DRILLER         
RUN .         ONE                  : Run          - RUN NUMBER                  
ENG .         JENSEN               : Engineer     - RECORDING ENGINEER          
WIT .         GIBSON               : Witness      - WITNESSED BY                
BASE.         R.D.                 : Branch       - HOME BASE OF LOGGING UNIT   
MATR.         SANDSTONE            : Logunit      - NEUTRON MATRIX              
TMAX.C        32.2222              : BHT          - MAXIMUM RECORDED TEMPERATURE
BHTD.M        613.867              : BHTDEP       - MAXIMUM RECORDED TEMPERATURE
RMT .C        23.3333              : MDTP         - TEMPERATURE OF MUD          
MUDD.KG/M     0                    : MWT          - MUD DENSITY                 
NEUT.         1                    : NEUTRON      - NEUTRON TYPE                
RESI.         0                    : RESIST       - RESISTIVITY TYPE            
RM  .OHMM     2                    : RM           - RESISTIVITY OF MUD          
RMC .OHMM     0                    : RMC          - RESISTIVITY OF MUD CAKE     
RMF .OHMM     1.95                 : RMF          - RESISTIVITY OF MUD FILTRATE 
SUFT.C        -17.7778             : SUFT         - SURFACE TEMPERATURE         
~A  DEPTH     PHID     PHIN       GR      CAL     RESD
# ...
  402.260    0.234    0.484   77.090  237.224    2.496
  402.510    0.228    0.497   74.840  214.108    2.483
  402.760    0.206    0.525   72.890  226.154    2.502
  403.010    0.236    0.536   71.489  232.495    2.559
  403.260    0.274    0.497   69.292  215.497    2.690
  403.510    0.254    0.461   66.607  217.898    2.839
  403.760    0.234    0.439   64.714  228.074    3.002
  404.010    0.263    0.430   62.027  222.911    3.191
  404.260    0.243    0.415   59.459  210.894    3.374
  404.510    0.203    0.401   57.819  210.593    3.607
  404.760    0.186    0.370   56.354  211.123    4.137
  405.010    0.152    0.338   55.629  213.210    4.701
  405.260    0.097    0.317   54.540  218.415    5.215
  405.510    0.097    0.334   53.810  222.150    5.130
  405.760    0.121    0.373   54.679  216.775    4.652
  406.010    0.154    0.425   58.174  212.234    4.211
  406.260    0.197    0.446   60.570  212.149    3.812
  406.510    0.186    0.450   63.520  213.504    3.457
  406.760    0.147    0.483   68.982  214.978    3.135
  407.010    0.221    0.497   75.239  218.203    2.983
  407.260    0.201    0.485   82.109  222.375    2.859
  407.510    0.189    0.473   90.510  225.702    2.839
  407.760    0.197    0.481   90.212  226.963    2.979
  408.010    0.173    0.479   87.280  227.810    3.144
  408.260    0.208    0.451   88.882  226.334    3.336
  408.510    0.203    0.444   91.337  226.184    3.607
  408.760    0.204    0.438   92.638  226.716    3.842
  409.010    0.247    0.427   90.743  236.793    4.017
  409.260    0.218    0.408   88.671  225.913    4.216
  409.510    0.206    0.389   85.433  220.637    4.343
  409.760    0.243    0.383   83.970  206.759    4.320
  410.010    0.231    0.381   84.595  193.392    4.157
  410.260    0.238    0.387   86.625  198.477    3.897
  410.510    0.245    0.404   90.614  206.075    3.777
  410.760    0.221    0.444   88.234  209.402    3.856
  411.010    0.198    0.459   81.994  209.314    4.077
  411.260    0.189    0.456   77.533  207.469    4.278
  411.510    0.186    0.452   77.605  205.405    4.449
  411.760    0.194    0.452   82.019  212.786    4.533
  412.010    0.207    0.461   82.330  207.299    4.500
  412.260    0.213    0.468   82.278  202.339    4.452
  412.510    0.218    0.465   82.844  199.439    4.444
  412.760    0.215    0.456   83.706  199.362    4.512
  413.010    0.209    0.446   85.002  210.577    4.605
  413.260    0.196    0.437   82.380  216.609    4.572
  413.510    0.187    0.429   83.611  220.666    4.271
  413.760    0.191    0.417   82.766  226.181    3.916
  414.010    0.198    0.404   71.932  227.126    3.410
  414.260    0.212    0.420   61.038  225.583    2.814
  414.510    0.238    0.433   49.409  220.104    2.397
  414.760    0.275    0.406   40.349  210.887    2.137
  415.010    0.274    0.393   44.282  212.034    2.026
  415.260    0.250    0.387   60.278  215.584    1.982
  415.510    0.223    0.476   71.492  220.879    2.023
  415.760    0.277    0.449   70.032  229.403    2.291
  416.010    0.299    0.427   59.875  222.581    2.556
  416.260    0.283    0.419   61.043  210.767    2.904
  416.510    0.263    0.409   66.753  209.535    3.209
  416.760    0.236    0.399   71.600  210.279    3.640
  417.010    0.216    0.389   76.684  211.610    3.682
  417.260    0.202    0.382   76.394  212.074    3.194
  417.510    0.194    0.374   69.357  211.980    2.838
  417.760    0.213    0.370   59.506  211.561    2.560
  418.010    0.253    0.363   49.348  211.176    2.404
  418.260    0.275    0.382   47.946  210.872    2.213
  418.510    0.264    0.382   51.137  210.688    2.086
  418.760    0.259    0.374   55.926  210.185    1.974
  419.010    0.239    0.371   49.505  209.573    1.910
  419.260    0.256    0.368   41.121  208.941    1.917
  419.510    0.279    0.367   42.315  208.756    2.001
  419.760    0.262    0.365   44.693  208.571    2.151
  420.010    0.241    0.371   59.214  208.700    2.404
  420.260    0.233    0.379   66.572  209.239    2.647
  420.510    0.225    0.389   69.586  209.568    2.959
  420.760    0.219    0.397   72.957  209.779    3.140
  421.010    0.202    0.407   75.423  209.486    3.289
  421.260    0.180    0.409   77.943  209.083    3.445
  421.510    0.186    0.403   80.273  209.002    3.569
  421.760    0.183    0.404   82.981  209.228    3.657
  422.010    0.186    0.403   86.115  211.300    3.831
  422.260    0.193    0.401   85.328  214.130    4.013
  422.510    0.194    0.421   88.329  220.883    4.173
  422.760    0.192    0.429   92.451  224.325    4.189
  423.010    0.221    0.416   94.603  227.030    3.848
  423.260    0.206    0.436   96.323  228.711    3.277
  423.510    0.212    0.477   96.086  231.525    2.665
  423.760    0.240    0.520   95.297  247.820    2.278
  424.010    0.267    0.578   95.493  268.273    2.132
  424.260    0.309    0.563   96.908  237.063    2.124
  424.510    0.334    0.554   94.165  264.465    2.213
  424.760    0.392    0.554   88.529  278.479    2.370
  425.010    0.340    0.533   82.420  247.898    2.497
  425.260    0.274    0.499   75.688  228.102    2.563
  425.510    0.307    0.485   67.249  209.448    2.521
  425.760    0.295    0.465   60.398  198.986    2.471
  426.010    0.286    0.451   59.487  198.361    2.527
  426.260    0.280    0.444   59.857  200.247    2.652
  426.510    0.274    0.452   60.849  203.568    2.856
  426.760    0.267    0.439   62.819  206.599    3.003
  427.010    0.257    0.417   64.300  209.534    3.105
  427.260    0.248    0.408   61.605  212.761    3.175
  427.510    0.237    0.400   63.210  215.577    3.194
  427.760    0.221    0.429   67.691  218.388    3.171
  428.010    0.292    0.459   71.310  221.106    3.154
  428.260    0.306    0.496   74.326  238.753    3.143
  428.510    0.363    0.485   69.864  231.605    3.121
  428.760    0.274    0.453   66.565  217.722    3.081
  429.010    0.272    0.433   62.041  212.974    3.037
  429.260    0.284    0.430   58.557  209.044    3.038
  429.510    0.281    0.438   57.703  206.770    3.066
  429.760    0.274    0.443   58.017  206.475    3.118
  430.010    0.262    0.451   57.907  206.185    3.334
  430.260    0.245    0.445   56.691  204.637    3.624
  430.510    0.208    0.372   55.541  203.519    3.991
  430.760    0.142    0.325   54.077  206.326    4.501
  431.010    0.118    0.247   52.121  210.498    4.993
  431.260    0.102    0.215   48.397  216.840    5.622
  431.510    0.083    0.199   45.836  223.275    6.055
  431.760    0.072    0.192   45.411  225.989    6.012
  432.010    0.063    0.199   49.465  226.001    5.564
  432.260    0.053    0.236   56.824  225.197    4.971
  432.510    0.065    0.262   63.940  222.091    4.265
  432.760    0.149    0.391   70.135  219.414    3.572
  433.010    0.189    0.435   76.021  217.247    3.239
  433.260    0.199    0.446   73.459  215.587    3.020
  433.510    0.221    0.439   73.706  215.717    2.869
  433.760    0.237    0.427   72.740  215.936    2.740
  434.010    0.259    0.433   70.238  215.648    2.641
  434.260    0.276    0.455   68.467  215.131    2.583
  434.510    0.298    0.477   66.887  214.646    2.527
  434.760    0.278    0.469   63.897  212.886    2.523
  435.010    0.263    0.457   60.470  207.822    2.510
  435.260    0.258    0.450   58.766  190.935    2.515
  435.510    0.238    0.455   59.509  179.748    2.520
  435.760    0.232    0.472   60.863  175.611    2.516
  436.010    0.271    0.469   62.834  170.756    2.521
  436.260    0.287    0.454   64.742  163.295    2.494
  436.510    0.286    0.447   64.630  156.883    2.426
  436.760    0.296    0.442   62.432  157.830    2.374
  437.010    0.325    0.444   63.300  163.754    2.339
  437.260    0.298    0.446   64.225  172.280    2.331
  437.510    0.297    0.457   63.311  180.590    2.349
  437.760    0.274    0.452   61.609  194.088    2.394
  438.010    0.255    0.452   60.453  205.508    2.443
  438.260    0.242    0.478   61.813  213.298    2.480
  438.510    0.271    0.478   63.353  214.664    2.513
